     3.02           OBSERVATION DATA    M (MIXED)           RINEX VERSION / TYPE
SAVERINEX           SC600               20200511 175931 LCL PGM / RUN BY / DATE
       G = GPS       R = GLONASS       C = COMPASS          COMMENT
       S = SBAS      J = QZSS          E = GALILEO          COMMENT
BEAN                                                        MARKER NAME
1                                                           MARKER NUMBER
GEODETIC                                                    MARKER TYPE
Unige DICCA         GTER                                    OBSERVER / AGENCY
SC60291900056       SC600               2.12(191226)        REC # / TYPE / VERS
                    HEMA45          NONE                    ANT # / TYPE
  4509407.8091   693652.4678  4442337.6214                  APPROX POSITION XYZ
        0.0000        0.0000        0.0000                  ANTENNA: DELTA H/E/N
G    8 C1C L1C D1C S1C C2Y L2Y D2Y S2Y                      SYS / # / OBS TYPES
R    8 C1C L1C D1C S1C C2P L2P D2P S2P                      SYS / # / OBS TYPES
C    4 C1I L1I D1I S1I                                      SYS / # / OBS TYPES
E    8 C1C L1C D1C S1C C7Q L7Q D7Q S7Q                      SYS / # / OBS TYPES
DBHZ                                                        COMMENT
     30.000                                                 INTERVAL
  2020    05    11    15    00    0.0000000     GPS         TIME OF FIRST OBS
  2020    05    11    15    59   30.0000000     GPS         TIME OF LAST OBS
     0                                                      RCV CLOCK OFFS APPL
G L1C  0.00000                                              SYS / PHASE SHIFT
G L2Y  0.00000                                              SYS / PHASE SHIFT
R L1C  0.00000                                              SYS / PHASE SHIFT
R L2P  0.25000                                              SYS / PHASE SHIFT
C L1I  0.00000                                              SYS / PHASE SHIFT
E L1C  0.50000                                              SYS / PHASE SHIFT
E L7Q -0.25000                                              SYS / PHASE SHIFT
 13 R04  6 R05  1 R06 -4 R07  5 R09 -2 R10 -5 R11  0 R12 -1 GLONASS SLOT / FRQ #
    R19  3 R20  2 R21  4 R22 -3 R23  3                      GLONASS SLOT / FRQ #
 C1C   71.950 C2C   71.950 C2P   71.950                     GLONASS COD/PHS/BIS
    18                                                      LEAP SECONDS
*** Above antenna height is from mark to ANTENNA BOTTOM.    COMMENT
    17     4        0.0000        ANT MEASURE TYPE/HEIGT    COMMENT
    0.0000    0.0000    0.0458    0.0405    0.0000          COMMENT
                    BASE STATION                            COMMENT
                                                            END OF HEADER
> 2020 05 11 15 00  0.0000000  0 15        .000000000000
G10  22584777.383 8 118683813.928 8      2944.539          48.000    22584776.766 8  92480912.188 8      2294.449          48.000
G16  20461802.898 8 107527505.006 8        94.332          51.000    20461801.188 8  83787651.521 8        73.505          48.000
G18  21846646.195 6 114804922.582 6     -2595.465          39.000    21846644.625 4  89458394.933 4     -2022.434          27.000
G20  21121451.641 8 110994010.740 8      1021.480          48.000    21121452.078 7  86488836.565 7       795.959          45.000
G21  22090386.273 7 116085790.891 7     -2203.145          47.000    22090385.555 7  90456458.437 7     -1716.736          42.000
G26  21029394.977 8 110510197.556 8     -2110.621          50.000    21029397.688 8  86111825.482 8     -1644.640          50.000
R07  23206994.148 7 124228865.982 7      3920.160          42.000    23206996.109 6  96622474.281 6      3049.016          36.000
R11  22396328.508 5 119679180.318 5     -4343.059          35.000    22396345.367 5  93083849.558 5     -3377.934          32.000
R12  20137930.312 8 107573181.472 8     -1613.246          50.000    20137934.562 7  83668036.609 7     -1254.747          45.000
R21  21299468.000 5 113977715.457 5     -2562.047          32.000    21299465.070 4  88649326.179 4     -1992.706          29.000
C28  21794250.977 8 113488530.545 8      -797.129          51.000
E11  24674649.016 5 129666159.803 5      1968.836          33.000    24674649.945 6  99354608.396 6      1508.104          36.000
E12  21569358.742 8 113347790.436 8      -215.398          50.000    21569358.352 8  86850855.868 8      -165.093          51.000
E24  22261758.914 8 116986318.792 8     -1025.594          51.000    22261772.680 8  89638927.543 8      -785.809          51.000
E31  26322082.945 7 138323457.315 7     -3055.562          44.000    26322089.273 7 105988098.846 7     -2341.111          46.000
> 2020 05 11 15 00 30.0000000  0 16        .000000000000
G10  22567991.266 7 118595606.643 7      2935.457          47.000    22567991.875 7  92412179.326 7      2287.369          47.000
G16  20461314.305 8 107524937.552 8        76.426          51.000    20461312.484 8  83785650.903 8        59.553          49.000
G18  21861480.977 6 114882881.087 6     -2602.242          41.000    21861479.609 4  89519101.834 4     -2027.718          29.000
G20  21115669.125 8 110963621.081 8      1003.996          49.000    21115669.188 7  86465156.362 7       782.338          46.000
G21  22102974.992 7 116151944.261 7     -2207.656          47.000    22102973.984 6  90508006.508 6     -1720.252          41.000
G26  21041482.805 8 110573720.884 8     -2124.750          50.000    21041485.734 8  86161324.203 8     -1655.649          50.000
R07  23185033.906 7 124111314.019 7      3915.785          42.000    23185036.250 6  96531045.066 6      3045.617          39.000
R11  22420721.828 5 119809534.194 5     -4348.469          32.000    22420740.203 5  93185235.825 5     -3382.145          31.000
R12  20147057.570 8 107621939.625 8     -1637.629          50.000    20147061.812 7  83705959.615 7     -1273.711          44.000
R22  19704182.422 5 105182257.285 5       318.469          31.000
C05  39614948.516 5 206285431.168 5        -1.395          35.000
C28  21798859.320 8 113512527.947 8      -803.133          51.000
E11  24663424.750 5 129607164.284 5      1963.684          33.000    24663424.523 6  99309404.011 6      1504.922          36.000
E12  21570604.945 8 113354339.604 8      -221.602          50.000    21570604.422 8  86855874.058 8      -169.835          51.000
E24  22267649.172 8 117017270.899 8     -1038.363          51.000    22267662.859 8  89662644.077 8      -795.638          51.000
E31  26339535.289 7 138415169.474 7     -3059.219          43.000    26339540.867 7 106058371.781 7     -2344.020          44.000
> 2020 05 11 15 01  0.0000000  0 18        .000000000000
G10  22551263.648 7 118507706.507 7      2924.984          47.000    22551265.898 7  92343685.749 7      2279.209          47.000
G16  20460934.109 8 107522938.817 8        57.219          51.000    20460932.367 8  83784093.445 8        44.586          49.000
G18  21876361.992 6 114961081.470 6     -2610.504          41.000    21876361.211 4  89580037.135 4     -2034.153          24.000
G20  21109992.656 8 110933788.247 8       985.020          51.000    21109992.102 7  86441910.012 7       767.548          46.000
G21  22115595.469 7 116218264.577 7     -2213.574          47.000    22115594.273 6  90559684.658 6     -1724.863          39.000
G26  21053657.281 8 110637699.144 8     -2140.270          51.000    21053660.289 8  86211177.377 8     -1667.742          51.000
R07  23163105.492 7 123993929.993 7      3910.074          44.000    23163108.406 6  96439746.516 6      3041.172          39.000
R11  22445154.500 6 119940097.691 6     -4355.340          36.000
R12  20156328.406 8 107671463.646 8     -1663.484          50.000    20156332.047 7  83744478.242 7     -1293.824          43.000
R21  21328236.688 4 114131682.081 4     -2570.422          28.000    21328240.125 4  88769089.205 4     -1999.214          28.000
R22  19702422.188 5 105172866.641 5       306.801          30.000
C05  39614955.078 5 206285466.144 5        -1.262          35.000
C27  22750247.516 4 118466506.975 4      1709.609          29.000
C28  21803508.945 8 113536738.938 8      -810.562          51.000
E11  24652228.547 6 129548332.422 6      1958.562          36.000    24652229.383 6  99264321.277 6      1500.741          36.000
E12  21571891.719 8 113361102.190 8      -228.938          50.000    21571891.266 8  86861055.786 8      -175.381          51.000
E24  22273617.859 8 117048635.750 8     -1052.367          51.000    22273631.516 8  89686676.873 8      -806.359          51.000
E31  26357014.781 6 138507022.126 6     -3064.199          41.000    26357019.039 7 106128752.349 7     -2347.716          43.000
> 2020 05 11 15 01 30.0000000  0 16        .000000000000
G10  22534604.602 8 118420164.087 8      2913.828          49.000    22534607.625 8  92275470.898 8      2270.515          49.000
G16  20460671.234 8 107521557.415 8        37.426          51.000    20460669.641 8  83783017.024 8        29.163          50.000
G18  21891297.789 6 115039569.477 6     -2619.426          39.000    21891297.555 5  89641196.568 5     -2041.114          32.000
G20  21104431.305 8 110904560.894 8       965.836          51.000    21104430.414 8  86419135.456 8       752.599          48.000
G21  22128256.430 7 116284798.032 7     -2219.680          45.000    22128255.172 6  90611528.893 6     -1729.621          40.000
G26  21065927.242 8 110702178.640 8     -2155.887          51.000    21065930.086 8  86261421.094 8     -1679.912          51.000
R07  23141218.945 7 123876766.990 7      3903.238          46.000    23141221.992 6  96348619.846 6      3035.855          41.000
R11  22469633.945 5 120070915.125 5     -4363.000          34.000
R12  20165751.375 8 107721799.649 8     -1689.684          51.000    20165754.664 7  83783628.380 7     -1314.201          44.000
R22  19700742.156 4 105163898.051 4       294.301          29.000    19700749.258 4  81794147.518 4       228.904          27.000
C05  39614970.438 5 206285546.158 5        -1.629          35.000
C28  21808208.742 8 113561210.615 8      -818.383          51.000
E11  24641072.797 6 129489709.253 6      1952.402          38.000    24641073.297 5  99219396.891 5      1496.041          35.000
E12  21573228.141 8 113368125.417 8      -236.824          50.000    21573227.852 8  86866437.243 8      -181.496          51.000
E24  22279674.031 8 117080460.720 8     -1066.859          51.000    22279687.680 8  89711062.232 8      -817.503          51.000
E31  26374530.000 6 138599061.535 6     -3069.535          39.000    26374533.039 7 106199276.024 7     -2351.865          42.000
> 2020 05 11 15 02  0.0000000  0 16        .000000000000
G10  22517999.281 8 118332901.906 8      2903.617          49.000    22518002.086 8  92207474.439 8      2262.562          49.000
G16  20460510.609 8 107520714.053 8        18.727          51.000    20460509.156 8  83782359.851 8        14.592          50.000
G18  21906272.625 5 115118262.878 5     -2626.598          34.000    21906271.703 5  89702516.094 5     -2046.699          31.000
G20  21098969.828 8 110875859.448 8       947.473          51.000    21098969.016 8  86396770.723 8       738.290          49.000
G21  22140942.312 7 116351462.611 7     -2224.762          45.000    22140941.000 6  90663475.310 6     -1733.581          41.000
G26  21078276.969 8 110767077.561 8     -2170.648          51.000    21078279.805 8  86311991.620 8     -1691.414          51.000
R07  23119358.555 7 123759747.700 7      3897.762          45.000    23119362.688 6  96257604.938 6      3031.595          41.000
R11  22494145.961 6 120201901.071 6     -4369.266          36.000
R12  20175310.883 8 107772863.887 8     -1714.707          51.000    20175314.758 7  83823345.002 7     -1333.661          46.000
C05  39614979.680 5 206285593.801 5        -1.488          34.000
C28  21812943.195 8 113585863.219 8      -825.176          51.000
E11  24629941.727 6 129431205.654 6      1947.672          37.000    24629941.328 5  99174569.480 5      1492.531          33.000
E12  21574598.977 8 113375328.390 8      -243.520          50.000    21574598.516 8  86871956.404 8      -186.578          51.000
E24  22285802.344 8 117112665.078 8     -1080.234          51.000    22285815.766 8  89735738.299 8      -827.688          51.000
E31  26392065.516 6 138691205.900 6     -3073.609          37.000    26392067.086 6 106269880.048 6     -2354.984          39.000
E33  25830332.773 5 135739316.339 5     -2168.289          33.000
> 2020 05 11 15 02 30.0000000  0 18        .000000000000
G10  22501445.930 8 118245912.502 8      2891.316          50.000    22501448.461 8  92139690.532 8      2252.977          50.000
G16  20460450.594 8 107520399.128 8        -2.035          51.000    20460449.234 8  83782114.453 8        -1.586          51.000
G18  21921284.523 6 115197149.567 6     -2636.535          36.000    21921283.641 5  89763991.290 5     -2054.443          34.000
G20  21093606.602 8 110847675.079 8       927.199          51.000    21093605.867 8  86374808.899 8       722.493          49.000
G21  22153651.125 7 116418246.722 7     -2231.781          44.000    22153649.641 6  90715514.851 6     -1739.050          40.000
G26  21090704.273 8 110832384.042 8     -2187.355          50.000    21090707.430 8  86362879.727 8     -1704.436          50.000
R07  23097523.734 7 123642866.681 7      3889.723          46.000    23097529.055 7  96166697.533 7      3025.340          42.000
R11  22518688.617 6 120333040.781 6     -4377.941          38.000
R12  20185004.156 8 107824643.716 8     -1741.656          51.000    20185009.172 8  83863618.228 8     -1354.622          48.000
R22  19697553.984 5 105146882.081 5       270.316          30.000    19697550.312 4  81780892.495 4       210.237          27.000
C05  39614980.297 5 206285596.855 5        -3.230          34.000
C27  22720868.289 4 118313511.432 4      1689.250          29.000
C28  21817710.375 8 113610686.315 8      -833.938          51.000
E11  24618831.875 5 129372818.376 5      1940.617          33.000    24618831.398 5  99129831.172 5      1486.892          33.000
E12  21576001.898 8 113382700.245 8      -252.277          49.000    21576001.211 8  86877604.956 8      -193.247          51.000
E24  22292000.781 8 117145238.064 8     -1095.605          51.000    22292013.852 8  89760696.820 8      -839.469          51.000
E31  26409619.977 6 138783443.335 6     -3079.809          36.000    26409617.555 5 106340555.422 5     -2359.737          35.000
E33  25842705.055 5 135804330.807 5     -2172.410          33.000
> 2020 05 11 15 03  0.0000000  0 16        .000000000000
G10  22484974.336 8 118159353.677 8      2882.184          49.000    22484977.266 8  92072242.139 8      2245.860          48.000
G16  20460520.758 8 107520767.869 8       -19.730          51.000    20460519.383 8  83782401.785 8       -15.374          50.000
G18  21936362.219 6 115276382.508 6     -2643.070          37.000    21936361.141 3  89825731.300 3     -2059.526          23.000
G20  21088371.508 8 110820164.191 8       909.855          51.000    21088370.719 8  86353371.859 8       708.978          49.000
G21  22166411.727 6 116485303.584 6     -2235.492          41.000    22166410.305 6  90767766.945 6     -1741.942          41.000
G26  21103238.359 8 110898251.580 8     -2200.754          49.000    21103241.594 8  86414205.041 8     -1714.873          49.000
R05  23556275.305 4 125921790.089 4     -2343.605          28.000
R07  23075745.602 7 123526286.053 7      3885.004          47.000    23075751.523 7  96076023.773 7      3021.673          42.000
R11  22543289.383 6 120464487.876 6     -4382.562          38.000    22543298.336 4  93694637.645 4     -3408.663          25.000
R12  20194860.641 8 107877294.055 8     -1765.434          51.000    20194866.602 7  83904568.508 7     -1373.115          47.000
C28  21822539.734 8 113635833.345 8      -839.637          51.000
E11                                                                  24607773.617 5  99085300.942 5      1483.845          32.000
E12  21577466.141 8 113390395.436 8      -257.801          49.000    21577465.789 8  86883501.279 8      -197.521          51.000
E24  22298298.562 8 117178334.249 8     -1107.816          51.000    22298311.750 8  89786056.225 8      -848.873          51.000
E31  26427222.133 5 138875989.367 5     -3082.574          33.000    26427213.023 5 106411436.715 5     -2362.026          32.000
E33  25855114.336 5 135869548.258 5     -2172.812          35.000
> 2020 05 11 15 03 30.0000000  0 16        .000000000000
G10  22468549.961 8 118073043.468 8      2871.953          48.000    22468554.141 7  92004987.469 7      2237.889          47.000
G16  20460686.039 8 107521636.222 8       -38.184          51.000    20460684.672 8  83783078.434 8       -29.753          50.000
G18  21951469.891 6 115355775.148 6     -2649.984          38.000    21951469.570 5  89887594.583 5     -2064.932          31.000
G20  21083229.477 8 110793142.839 8       891.691          51.000    21083228.820 8  86332316.284 8       694.828          49.000
G21  22179188.617 6 116552447.188 6     -2240.324          39.000    22179187.484 6  90820086.648 6     -1745.707          39.000
G26  21115843.664 8 110964493.796 8     -2215.113          49.000    21115846.805 8  86465822.349 8     -1726.062          48.000
R07  23053989.664 8 123409822.168 8      3879.250          48.000    23053995.328 7  95985440.861 7      3017.201          42.000
R11  22567912.156 6 120596050.422 6     -4388.246          39.000
R12  20204844.547 8 107930624.900 8     -1789.906          51.000    20204850.578 7  83946048.046 7     -1392.149          46.000
R22  19694629.805 4 105131270.435 4       248.676          29.000    19694640.320 5  81768808.740 5       193.414          31.000
C05  39615010.172 5 206285752.755 5        -1.332          34.000
C28  21827396.055 8 113661120.927 8      -846.070          51.000
E11  24596725.031 5 129256650.798 5      1931.812          35.000    24596731.422 5  99040843.093 5      1480.391          32.000
E12  21578956.781 8 113398228.587 8      -264.277          49.000    21578956.805 8  86889503.320 8      -202.483          51.000
E24  22304660.352 8 117211768.358 8     -1120.930          51.000    22304673.906 8  89811674.550 8      -858.921          51.000
E33  25867521.719 5 135934743.508 5     -2173.809          34.000
> 2020 05 11 15 04  0.0000000  0 19        .000000000000
G10  22452195.148 8 117987095.570 8      2860.289          51.000    22452199.992 8  91938015.113 8      2228.800          51.000
G16  20460967.492 8 107523115.622 8       -58.098          51.000    20460966.250 8  83784231.212 8       -45.271          50.000
G18  21966628.414 5 115435436.410 5     -2658.570          35.000
G20  21078201.867 8 110766723.072 8       871.953          51.000    21078201.523 8  86311729.480 8       679.444          49.000
G21  22192002.672 6 116619787.170 6     -2246.742          39.000    22192002.070 6  90872559.374 6     -1750.708          39.000
G26  21128541.289 8 111031220.089 8     -2230.949          49.000    21128544.375 8  86517816.892 8     -1738.402          49.000
R07  23032277.500 8 123293592.763 8      3871.750          48.000    23032282.477 7  95895040.304 7      3011.364          42.000
R11  22592576.539 6 120727836.929 6     -4395.395          38.000
R12  20214976.305 8 107984746.707 8     -1815.797          51.000    20214982.258 7  83988142.753 7     -1412.286          46.000
R21  21415223.922 5 114597223.311 5     -2599.457          32.000    21415245.898 4  89131244.713 4     -2021.797          25.000
R22  19693277.633 5 105124013.066 5       236.641          35.000    19693281.023 4  81763164.576 4       184.054          25.000
C05  39615025.383 5 206285831.515 5        -1.805          34.000
C27  22691797.914 4 118162163.240 4      1673.512          27.000
C28  21832300.430 8 113686658.784 8      -854.098          51.000
E11  24585721.203 6 129198819.633 6      1925.434          38.000    24585727.781 5  98996532.870 5      1475.781          33.000
E12  21580494.703 8 113406309.978 8      -272.242          49.000    21580494.797 8  86895695.550 8      -208.553          51.000
E24  22311107.242 8 117245650.789 8     -1135.570          51.000    22311121.281 8  89837636.401 8      -870.112          51.000
E31  26462474.109 5 139061241.542 5     -3092.164          35.000
E33  25879947.984 5 136000035.971 5     -2176.688          34.000
> 2020 05 11 15 04 30.0000000  0 16        .000000000000
G10  22435892.734 8 117901421.123 8      2847.398          51.000    22435897.531 8  91871255.849 8      2218.755          51.000
G16  20461347.883 8 107525115.122 8       -79.129          51.000    20461346.727 8  83785789.266 8       -61.659          51.000
G18  21981820.547 5 115515272.710 5     -2667.977          35.000
G20  21073271.484 8 110740814.582 8       851.262          51.000    21073271.102 8  86291541.051 8       663.321          48.000
G21  22204836.641 6 116687230.593 6     -2253.914          40.000    22204836.359 6  90925112.686 6     -1756.294          37.000
G26  21141313.523 8 111098337.330 8     -2247.582          49.000    21141316.656 8  86570116.041 8     -1751.363          49.000
R07  23010592.211 8 123177509.219 8      3863.117          48.000    23010596.914 7  95804753.195 7      3004.650          44.000
R11  22617264.359 6 120859750.538 6     -4403.117          36.000
R12  20225238.094 8 108039563.791 8     -1842.754          51.000    20225244.641 7  84030778.230 7     -1433.256          47.000
C27  22682173.914 4 118112030.400 4      1665.836          29.000
C28  21837235.305 8 113712355.945 8      -863.070          51.000
E11  24574737.625 6 129141094.813 6      1918.762          36.000    24574744.312 5  98952306.155 5      1470.220          34.000
E12  21582062.039 8 113414547.502 8      -281.062          49.000    21582062.203 8  86902007.426 8      -215.381          51.000
E24  22317622.062 8 117279889.539 8     -1151.117          51.000    22317636.484 8  89863871.278 8      -881.971          51.000
E31  26480125.656 6 139154020.833 6     -3097.895          36.000
E33  25892374.281 5 136065324.519 5     -2179.918          34.000
> 2020 05 11 15 05  0.0000000  0 16        .000000000000
G10  22419667.219 8 117816151.896 8      2838.230          51.000    22419671.594 8  91804812.350 8      2211.611          51.000
G16  20461852.062 8 107527764.397 8       -96.312          51.000    20461850.797 8  83787853.635 8       -75.049          51.000
G18  21997070.867 6 115595411.288 6     -2673.938          36.000
G20  21068463.031 8 110715547.168 8       834.266          51.000    21068462.875 8  86271852.169 8       650.077          49.000
G21  22217714.773 7 116754905.017 7     -2256.859          42.000
G26  21154184.492 8 111165972.813 8     -2260.422          51.000    21154187.680 8  86622819.007 8     -1761.365          51.000
R07  22988959.164 7 123061707.449 7      3858.227          47.000    22988964.367 7  95714685.244 7      3000.846          44.000
R11  22641999.047 6 120991917.960 6     -4407.250          37.000    22642006.898 4  94104900.054 4     -3427.864          28.000
R12  20235653.797 8 108095204.807 8     -1865.590          50.000    20235660.609 7  84074054.559 7     -1451.014          46.000
R22  19690746.539 4 105110541.852 4       214.242          29.000    19690746.148 4  81752633.383 4       166.630          27.000
C05  39615049.328 5 206285956.606 5        -1.930          35.000
C28  21842225.273 8 113738340.050 8      -868.145          51.000
E11  24563798.570 5 129083605.439 5      1915.367          35.000    24563806.672 5  98908255.733 5      1467.541          34.000
E12  21583683.602 8 113423069.528 8      -286.031          49.000    21583683.867 8  86908537.297 8      -219.164          51.000
E24  22324229.227 8 117314612.987 8     -1162.742          51.000    22324244.156 8  89890477.542 8      -890.938          51.000
E31  26497819.312 6 139247014.872 6     -3100.449          40.000
> 2020 05 11 15 05 30.0000000  0 14        .000000000000
G10  22403492.641 8 117731151.723 8      2827.332          51.000    22403495.891 8  91738578.467 8      2203.116          51.000
G16  20462453.555 8 107530924.733 8      -115.309          51.000    20462452.219 8  83790316.233 8       -89.851          51.000
G18  22012352.164 5 115675711.280 5     -2681.078          33.000
G20  21063750.352 8 110690782.821 8       815.723          51.000    21063750.477 8  86252555.285 8       635.628          48.000
G21  22230610.016 6 116822669.528 6     -2261.754          41.000
G26  21167127.422 8 111233986.074 8     -2274.871          51.000    21167130.203 8  86675816.333 8     -1772.627          51.000
R07  22967353.070 8 122946050.467 8      3851.367          48.000    22967358.844 7  95624729.890 7      2995.511          45.000
R11  22666753.867 5 121124194.164 5     -4412.488          34.000    22666756.539 5  94207781.398 5     -3431.947          30.000
R12  20246196.828 8 108151525.991 8     -1890.047          51.000    20246202.234 7  84117859.911 7     -1470.036          44.000
C28  21847243.781 8 113764473.136 8      -875.008          51.000
E11  24552877.484 5 129026240.604 5      1910.066          34.000    24552889.820 5  98864279.345 5      1463.632          32.000
E12  21585333.000 8 113431736.569 8      -292.730          49.000    21585333.234 8  86915178.267 8      -224.258          51.000
E24  22330902.406 8 117349681.634 8     -1176.172          51.000    22330917.594 8  89917348.310 8      -901.187          51.000
E31  26515526.992 7 139340072.233 7     -3104.367          42.000    26515529.734 5 106767050.830 5     -2378.599          33.000
> 2020 05 11 15 06  0.0000000  0 17        .000000000000
G10  22387390.688 8 117646534.477 8      2815.312          51.000    22387392.633 8  91672642.961 8      2193.750          51.000
G16  20463173.398 8 107534707.592 8      -135.281          51.000    20463172.102 8  83793263.905 8      -105.414          51.000
G18  22027684.547 6 115756281.833 6     -2688.645          36.000    22027678.758 5  90199660.899 5     -2095.048          30.000
G20  21059154.812 8 110666633.718 8       795.973          51.000    21059154.828 7  86233737.811 7       620.238          47.000
G21  22243543.211 6 116890634.305 6     -2267.551          40.000    22243542.148 6  91083584.914 6     -1766.923          36.000
G26  21180162.891 8 111302486.511 8     -2290.227          51.000    21180165.312 8  86729193.277 8     -1784.595          51.000
R07  22945796.219 7 122830656.020 7      3843.211          47.000    22945802.305 7  95534978.750 7      2989.167          46.000
R11  22691548.711 6 121256687.971 6     -4418.867          36.000    22691550.047 5  94310831.958 5     -3436.903          31.000
R12  20256888.164 8 108208637.765 8     -1915.676          51.000    20256891.984 7  84162280.151 7     -1489.970          45.000
R21  21473734.078 5 114910249.522 5     -2618.246          35.000
R22  19688469.055 5 105098394.797 5       190.684          33.000
C27  22653511.898 5 117962774.510 5      1649.820          32.000
C28  21852311.961 8 113790865.083 8      -882.863          51.000
E11                                                                  24542012.609 4  98820513.045 4      1459.382          29.000
E12  21587030.820 8 113440659.073 8      -300.516          49.000    21587031.109 8  86922014.985 8      -230.214          51.000
E24  22337662.883 8 117385206.067 8     -1190.543          51.000    22337677.898 8  89944568.330 8      -912.204          51.000
E31  26533267.883 7 139433302.428 7     -3109.375          42.000    26533273.562 6 106838486.818 6     -2382.329          36.000
> 2020 05 11 15 06 30.0000000  0 16        .000000000000
G10  22371355.523 8 117562271.318 8      2800.844          50.000    22371356.844 8  91606983.326 8      2182.476          50.000
G16  20464005.836 8 107539082.137 8      -157.766          51.000    20464004.477 8  83796672.630 8      -122.934          51.000
G18  22043062.250 6 115837089.440 6     -2699.797          36.000
G20  21054670.719 8 110643069.187 8       773.664          51.000    21054670.234 8  86215375.842 8       602.855          48.000
G21  22256508.359 6 116958766.035 6     -2276.020          41.000    22256507.961 6  91136677.691 6     -1773.525          39.000
G26  21193284.461 8 111371440.843 8     -2308.105          51.000    21193286.797 8  86782923.892 8     -1798.524          51.000
R07  22924283.195 7 122715496.435 7      3832.469          47.000    22924289.539 7  95445410.305 7      2980.812          45.000
R11  22716376.828 6 121389363.207 6     -4427.172          37.000    22716377.891 4  94414023.662 4     -3443.359          29.000
R12  20267721.484 8 108266505.425 8     -1943.590          51.000    20267724.531 7  84207288.313 7     -1511.681          46.000
R21  21488394.820 4 114988739.848 4     -2626.320          28.000
C05  39615091.664 5 206286176.323 5        -6.016          35.000
C28  21857423.898 8 113817484.392 8      -893.105          51.000
E11  24531146.961 5 128912046.628 5      1895.121          30.000
E12  21588771.039 8 113449804.803 8      -310.594          49.000    21588771.312 8  86929022.752 8      -237.996          51.000
E24  22344504.031 8 117421154.022 8     -1207.363          51.000    22344518.852 8  89972112.875 8      -925.176          51.000
E31  26551035.781 7 139526672.290 7     -3116.805          43.000    26551042.812 6 106910029.854 6     -2388.129          37.000
> 2020 05 11 15 07  0.0000000  0 15        .000000000000
G10  22355379.969 8 117478322.514 8      2793.086          51.000    22355381.289 8  91541568.669 8      2176.431          51.000
G16  20464942.953 8 107544006.008 8      -173.293          51.000    20464941.328 8  83800509.402 8      -135.033          51.000
G18  22058476.531 6 115918089.869 6     -2703.129          37.000
G20  21050289.992 8 110620047.811 8       758.406          51.000    21050289.383 8  86197437.132 8       590.966          49.000
G21  22269496.828 6 117027020.953 6     -2277.062          41.000    22269497.094 6  91189863.341 6     -1774.334          37.000
G26  21206483.750 8 111440805.000 8     -2318.812          50.000    21206486.172 8  86836973.858 8     -1806.867          50.000
R07  22902806.844 7 122600533.454 7      3828.828          47.000    22902813.055 7  95355994.730 7      2977.980          44.000
R11  22741229.734 6 121522172.566 6     -4428.797          37.000    22741230.758 5  94517319.701 5     -3444.626          31.000
R12  20278687.469 8 108325083.213 8     -1964.363          51.000    20278690.875 7  84252848.802 7     -1527.838          47.000
R22  19686463.766 5 105087646.652 5       168.629          35.000
C05  39615105.766 5 206286250.547 5        -2.219          35.000
C28  21862571.453 8 113844288.788 8      -896.535          51.000
E12  21590545.734 8 113459130.810 8      -313.727          49.000    21590545.891 8  86936168.650 8      -240.367          51.000
E24  22351417.539 8 117457482.557 8     -1217.137          51.000    22351432.133 8  89999949.019 8      -932.638          51.000
E31  26568822.461 7 139620137.819 7     -3117.242          43.000    26568828.898 6 106981646.252 6     -2388.291          38.000
> 2020 05 11 15 07 30.0000000  0 17        .000000000000
G10  22339474.359 8 117394737.824 8      2783.836          51.000    22339475.578 8  91476437.816 8      2169.226          51.000
G16  20465993.648 8 107549526.820 8      -190.215          51.000    20465991.820 8  83804811.342 8      -148.219          51.000
G18  22073935.734 5 115999328.265 5     -2707.875          31.000
G20  21046021.766 8 110597617.757 8       741.590          51.000    21046021.086 8  86179959.195 8       577.862          49.000
G21  22282517.391 7 117095444.897 7     -2280.012          42.000    22282517.336 5  91243180.680 5     -1776.639          34.000
G26  21219769.555 8 111510624.466 8     -2331.141          50.000    21219772.141 8  86891378.617 8     -1816.473          50.000
R07  22881377.312 7 122485819.310 7      3823.438          46.000    22881382.727 7  95266772.715 7      2973.788          42.000
R11  22766116.078 5 121655159.959 5     -4432.051          34.000    22766118.750 5  94620754.208 5     -3447.154          31.000
R12  20289794.438 8 108384416.167 8     -1986.492          51.000    20289798.391 7  84298996.635 7     -1545.049          46.000
R21  21517869.523 5 115146453.611 5     -2628.820          33.000
C05  39615123.719 5 206286344.387 5         -.016          35.000
C27  22625174.016 5 117815168.491 5      1634.891          30.000
C28  21867763.531 8 113871324.747 8      -901.309          51.000
E11                                                                  24509533.078 5  98689730.364 5      1448.849          31.000
E12  21592363.633 8 113468683.595 8      -318.438          49.000    21592363.695 8  86943488.322 8      -244.048          51.000
E24  22358412.477 8 117494238.233 8     -1228.594          51.000    22358426.453 8  90028112.436 8      -941.393          51.000
E31  26586636.016 7 139713744.493 7     -3118.820          42.000    26586642.594 6 107053370.831 6     -2389.736          40.000
> 2020 05 11 15 08  0.0000000  0 15        .000000000000
G10  22323635.391 8 117311501.887 8      2764.836          51.000    22323636.656 8  91411578.727 8      2154.421          51.000
G16  20467154.250 8 107555626.697 8      -216.918          51.000    20467152.633 8  83809564.481 8      -169.030          51.000
G20  21041862.680 8 110575761.367 8       715.004          51.000    21041861.891 8  86162928.262 8       557.146          48.000
G21  22295566.516 7 117164018.250 7     -2292.387          42.000    22295565.891 5  91296614.508 5     -1786.266          32.000
G26  21233138.461 8 111580879.315 8     -2352.973          50.000    21233141.070 8  86946122.641 8     -1833.485          50.000
R07  22859991.578 7 122371340.513 7      3807.949          45.000    22859996.289 7  95177733.781 7      2961.744          42.000
R11  22791030.906 5 121788302.822 5     -4444.422          33.000    22791036.086 4  94724309.595 4     -3456.776          29.000
R12  20301038.758 8 108444483.332 8     -2018.344          51.000    20301042.492 7  84345715.490 7     -1569.823          46.000
R22  19684706.305 5 105078297.514 5       139.961          32.000    19684707.289 4  81727568.759 4       108.859          27.000
C05  39615142.164 5 206286439.951 5        -7.770          35.000
C28  21872996.523 8 113898574.072 8      -915.703          51.000
E11  24498779.766 5 128741945.223 5      1877.965          34.000
E12  21594221.023 8 113478444.359 8      -332.758          49.000    21594221.055 8  86950967.347 8      -254.964          51.000
E24  22365485.320 8 117531402.221 8     -1249.551          51.000    22365498.250 8  90056588.736 8      -957.451          51.000
E31  26604472.719 6 139807472.518 6     -3130.062          41.000    26604479.875 6 107125188.347 6     -2398.378          41.000
> 2020 05 11 15 08 30.0000000  0 15        .000000000000
G10  22307858.477 8 117228592.782 8      2758.176          51.000    22307860.359 8  91346974.297 8      2149.231          51.000
G16  20468420.477 8 107562281.761 8      -231.059          51.000    20468418.930 8  83814750.231 8      -180.046          51.000
G20  21037808.203 8 110554455.072 8       701.027          51.000    21037807.523 8  86146325.986 8       546.258          49.000
G21  22308639.352 6 117232715.376 6     -2292.059          41.000    22308638.078 5  91350144.662 5     -1786.020          33.000
G26  21246585.570 8 111651543.358 8     -2362.336          51.000    21246587.930 8  87001185.526 8     -1840.781          51.000
R07  22838645.383 7 122257076.399 7      3805.035          44.000    22838650.297 6  95088861.826 6      2959.478          41.000
R11  22815969.484 5 121921572.202 5     -4444.559          32.000    22815976.477 4  94827963.450 4     -3456.879          29.000
R12  20312415.180 8 108505256.872 8     -2037.488          51.000    20312419.688 8  84392983.795 8     -1584.713          48.000
R22  19683930.812 5 105074117.541 5       134.078          34.000    19683926.492 4  81724308.603 4       104.292          24.000
C05  39615156.781 5 206286515.929 5        -2.203          35.000
C28  21878265.648 8 113926012.216 8      -917.711          51.000
E11  24488049.664 5 128685568.856 5      1877.723          34.000
E12  21596113.391 8 113488388.030 8      -334.492          50.000    21596113.125 8  86958586.514 8      -256.260          51.000
E24  22372630.977 8 117568949.380 8     -1257.914          51.000    22372643.242 8  90085358.637 8      -963.919          51.000
E31  26622327.398 6 139901295.904 6     -3129.219          39.000    26622334.930 6 107197078.936 6     -2397.575          41.000
> 2020 05 11 15 09  0.0000000  0 14        .000000000000
G10  22292151.438 8 117146052.210 8      2744.934          51.000    22292154.039 8  91282657.038 8      2138.909          51.000
G16  20469799.859 8 107569531.260 8      -251.609          50.000    20469798.266 8  83820399.195 8      -196.059          51.000
G20  21033866.023 8 110533738.549 8       680.488          51.000    21033865.188 8  86130183.259 8       530.251          48.000
G21  22321742.750 7 117301573.075 7     -2298.156          42.000    22321741.297 4  91403799.940 4     -1790.777          26.000
G26  21260117.695 8 111722653.790 8     -2377.938          51.000    21260119.953 8  87056596.218 8     -1852.938          51.000
R07  22817347.727 7 122143071.284 7      3795.594          43.000    22817353.273 6  95000191.287 6      2952.132          40.000
R11  22840937.766 4 122055003.513 4     -4450.387          29.000    22840948.078 4  94931743.232 4     -3461.418          28.000
R12  20323931.328 8 108566773.851 8     -2063.152          51.000    20323936.938 8  84440830.320 8     -1604.674          49.000
C05  39615174.508 5 206286608.035 5        -3.699          35.000
C28  21883578.375 8 113953677.582 8      -926.137          51.000
E11  24477350.820 5 128629349.029 5      1870.590          34.000
E12  21598048.023 8 113498552.957 8      -342.645          50.000    21598047.312 8  86966375.224 8      -262.591          51.000
E24  22379856.250 8 117606917.999 8     -1272.855          51.000    22379868.805 8  90114451.460 8      -975.293          51.000
E31  26640207.094 6 139995251.830 6     -3134.012          36.000    26640214.883 6 107269071.145 6     -2401.742          41.000
> 2020 05 11 15 09 30.0000000  0 16        .000000000000
G10  22276515.172 8 117063884.257 8      2733.863          51.000    22276517.758 8  91218630.126 8      2130.283          51.000
G16  20471292.727 8 107577376.843 8      -270.176          50.000    20471291.250 8  83826512.648 8      -210.524          50.000
G20  21030036.328 8 110513614.311 8       662.180          51.000    21030035.477 8  86114502.061 8       515.984          48.000
G21  22334876.625 6 117370592.036 6     -2301.820          39.000    22334875.219 5  91457580.935 5     -1793.629          31.000
G26  21273734.664 8 111794210.323 8     -2391.426          51.000    21273736.695 8  87112354.515 8     -1863.449          51.000
R07  22796099.125 7 122029331.248 7      3788.133          43.000    22796105.750 6  94911726.896 6      2946.329          40.000
R11  22865937.078 4 122188618.484 4     -4454.102          29.000
R12  20335586.938 8 108629032.831 8     -2086.344          51.000    20335592.461 8  84489253.933 8     -1622.712          48.000
R22  19682564.711 6 105066806.869 6       111.047          37.000    19682566.633 4  81718703.962 4        86.370          29.000
C05  39615195.875 5 206286718.771 5        -2.891          35.000
C28  21888935.047 8 113981571.318 8      -932.391          51.000
E11  24466682.266 5 128573282.257 5      1866.090          31.000    24466684.234 5  98517197.963 5      1429.604          31.000
E12  21600024.812 8 113508939.884 8      -348.711          50.000    21600023.805 8  86974334.038 8      -267.194          51.000
E24  22387161.391 8 117645308.797 8     -1285.430          51.000    22387174.805 8  90143867.781 8      -984.996          51.000
E31  26658112.250 5 140089340.207 5     -3137.207          35.000    26658120.094 6 107341164.796 6     -2403.717          40.000
E33  26017240.773 5 136721526.746 5     -2195.109          32.000
> 2020 05 11 15 10  0.0000000  0 15        .000000000000
G10  22260936.953 8 116982021.153 8      2726.938          51.000    22260938.969 8  91154840.748 8      2124.889          51.000
G16  20472885.562 8 107585748.086 8      -284.652          50.000    20472884.594 8  83833035.677 8      -221.807          50.000
G20  21026306.133 8 110494012.495 8       647.867          51.000    21026305.453 8  86099227.949 8       504.832          48.000
G26  21287422.547 8 111866140.666 8     -2400.754          50.000    21287424.391 8  87168404.081 8     -1870.720          50.000
R07  22774887.656 7 121915789.292 7      3784.629          43.000    22774895.484 6  94823416.575 6      2943.600          41.000
R12  20347367.070 8 108691959.174 8     -2105.430          51.000    20347371.625 7  84538196.598 7     -1637.556          47.000
R21  21591975.766 5 115542981.452 5     -2648.773          32.000
R22  19681974.180 5 105063622.482 5       104.613          33.000    19681963.766 4  81716227.263 4        81.369          27.000
C05  39615207.484 5 206286780.249 5         1.926          35.000
C28  21894322.172 8 114009623.408 8      -934.547          51.000
E11  24456038.164 5 128517347.080 5      1865.359          31.000    24456045.234 5  98474346.646 5      1429.218          34.000
E12  21602030.172 8 113519477.782 8      -350.656          50.000    21602029.016 8  86982408.537 8      -268.658          51.000
E24  22394533.273 8 117684050.712 8     -1294.062          51.000    22394547.453 8  90173553.119 8      -991.542          51.000
E31  26676028.383 5 140183488.845 5     -3136.309          35.000    26676037.102 6 107413304.683 6     -2403.116          40.000
E33  26029783.336 5 136787382.758 5     -2191.863          34.000
> 2020 05 11 15 10 30.0000000  0 15        .000000000000
G10  22245430.422 8 116900533.873 8      2707.441          51.000    22245432.359 8  91091344.211 8      2109.698          51.000
G16  20474591.688 8 107594713.723 8      -311.430          51.000    20474591.062 8  83840021.874 8      -242.672          50.000
G20  21022688.609 8 110475002.022 8       621.234          51.000    21022687.875 8  86084414.623 8       484.079          48.000
G21  22361206.688 6 117508935.415 6     -2314.059          37.000
G26  21301193.945 8 111938511.410 8     -2422.203          48.000    21301196.000 8  87224796.817 8     -1887.434          48.000
R07  22753727.875 7 121802519.488 7      3768.383          43.000    22753735.891 6  94735317.882 6      2930.967          41.000
R12  20359283.750 8 108755619.632 8     -2136.773          51.000    20359288.414 7  84587710.244 7     -1661.935          47.000
R22  19681436.242 5 105060810.655 5        86.000          34.000    19681433.164 4  81713959.476 4        66.886          28.000
C05  39615222.109 5 206286856.349 5        -5.246          35.000
C28  21899752.602 8 114037901.390 8      -948.887          51.000
E11                                                                  24445437.930 6  98431628.970 6      1419.804          36.000
E12  21604077.117 8 113530234.350 8      -364.816          51.000    21604075.828 8  86990650.589 8      -279.514          51.000
E24  22401984.773 8 117723211.362 8     -1314.891          51.000    22401999.359 8  90203559.308 8     -1007.529          51.000
E31  26693968.039 5 140277764.638 5     -3147.242          34.000    26693977.914 6 107485541.965 6     -2411.634          38.000
E33                                                                  26042336.508 5 104861683.105 5     -1686.370          32.000
> 2020 05 11 15 11  0.0000000  0 15        .000000000000
G10  22230002.375 8 116819459.366 8      2696.086          51.000    22230005.125 8  91028169.324 8      2100.846          51.000
G16  20476417.625 8 107604308.435 8      -329.746          51.000    20476417.023 8  83847498.280 8      -256.945          50.000
G20  21019190.297 8 110456618.194 8       602.836          51.000    21019189.492 7  86070089.594 7       469.745          47.000
G21  22374422.758 6 117578385.166 6     -2317.230          38.000
G26  21315055.000 8 112011355.062 8     -2435.465          48.000    21315057.766 8  87281558.094 8     -1897.765          48.000
R07  22732626.812 7 121689561.306 7      3760.586          45.000    22732634.203 6  94647461.623 6      2924.903          41.000
R12  20371344.359 8 108820046.150 8     -2159.785          51.000    20371349.258 8  84637819.762 8     -1679.833          48.000
R21  21621780.930 5 115702448.549 5     -2663.578          31.000
C05  39615246.453 5 206286983.179 5        -4.867          35.000
C28  21905232.930 8 114066439.004 8      -955.066          51.000
E11                                                                  24434869.227 5  98389073.292 5      1416.192          35.000
E12  21606172.109 8 113541243.328 8      -370.625          51.000    21606170.797 8  86999086.036 8      -284.000          51.000
E24  22409522.469 8 117762824.345 8     -1327.340          51.000    22409536.844 8  90233912.084 8     -1017.056          51.000
E31  26711938.789 5 140372200.276 5     -3149.980          35.000    26711947.648 5 107557901.679 5     -2413.409          35.000
E33                                                                  26054908.578 5 104912307.631 5     -1686.732          31.000
> 2020 05 11 15 11 30.0000000  0 15        .000000000000
G10  22214617.484 8 116738613.114 8      2665.113          49.000    22214621.375 8  90965172.250 8      2076.712          49.000
G16  20478327.656 8 107614345.022 8      -368.023          50.000    20478327.094 8  83855318.997 8      -286.772          50.000
G20  21015775.828 8 110438674.673 8       564.727          51.000    21015775.094 8  86056107.651 8       440.047          48.000
G21  22387639.414 5 117647838.763 5     -2342.199          34.000    22387635.578 5  91673623.461 5     -1825.090          31.000
G26  21328970.156 8 112084482.591 8     -2468.262          48.000    21328973.523 8  87338540.624 8     -1923.318          48.000
R07  22711549.703 7 121576728.870 7      3732.461          46.000    22711555.562 6  94559703.186 6      2903.031          41.000
R12  20383512.633 8 108885045.437 8     -2202.590          51.000    20383517.516 7  84688374.774 7     -1713.125          47.000
R21  21636697.727 4 115782271.099 4     -2687.902          29.000    21636693.406 4  90052923.924 4     -2090.591          25.000
C05  39615244.891 5 206286974.267 5       -23.488          35.000
C28  21910727.641 8 114095050.574 8      -980.754          51.000
E11                                                                  24424303.969 5  98346536.108 5      1397.784          35.000
E12  21608279.242 8 113552316.950 8      -396.238          51.000    21608278.148 8  87007571.015 8      -303.617          51.000
E24  22417110.805 8 117802701.777 8     -1359.691          51.000    22417124.422 8  90264467.502 8     -1041.853          51.000
E31  26729904.633 5 140466606.775 5     -3172.664          35.000    26729910.750 5 107630239.122 5     -2430.775          34.000
E33                                                                  26067461.836 5 104962842.779 5     -1702.637          33.000
> 2020 05 11 15 12  0.0000000  0 17        .000000000000
G10  22199346.320 8 116658367.524 8      2674.844          48.000    22199351.914 8  90902643.211 8      2084.291          48.000
G16  20480391.977 8 107625193.591 8      -365.137          50.000    20480391.742 8  83863772.406 8      -284.522          49.000
G18  22214872.602 5 116739949.663 5     -2771.145          31.000
G20  21012515.414 8 110421541.528 8       567.594          51.000    21012514.742 8  86042757.189 8       442.284          48.000
G21  22400926.430 5 117717660.859 5     -2323.395          33.000    22400925.695 5  91728063.344 5     -1810.437          30.000
G26  21343010.086 8 112158262.065 8     -2460.129          50.000    21343013.617 8  87396031.151 8     -1916.984          50.000
R07  22690567.133 7 121464403.475 7      3745.840          47.000    22690571.719 6  94472339.116 6      2913.434          41.000
R11  22991299.578 5 122858497.234 5     -4473.648          32.000    22991292.703 4  95556598.982 4     -3479.507          29.000
R12  20395858.148 8 108950990.305 8     -2203.789          51.000    20395862.562 7  84739665.215 7     -1714.058          47.000
R22  19680240.906 5 105054478.875 5        56.938          31.000    19680241.930 4  81709020.650 4        44.285          26.000
C05  39615287.812 5 206287198.025 5        -1.273          35.000
C28  21916306.922 8 114124102.293 8      -965.824          51.000
E11                                                                  24413814.562 5  98304300.815 5      1410.328          34.000
E12  21610468.867 8 113563824.357 8      -380.809          51.000    21610467.984 8  87016388.376 8      -291.776          51.000
E24  22424819.883 8 117843212.709 8     -1350.812          51.000    22424832.867 8  90295508.325 8     -1035.065          51.000
E31                                                                  26747938.289 5 107702864.457 5     -2416.444          32.000
E33                                                                  26080062.617 5 105013571.323 5     -1686.792          33.000
> 2020 05 11 15 12 30.0000000  0 15        .000000000000
G10  22184096.242 8 116578232.284 8      2671.934          48.000    22184103.109 8  90840200.107 8      2082.023          48.000
G16  20482517.109 8 107636361.349 8      -375.008          49.000    20482517.141 8  83872474.555 8      -292.214          49.000
G18  22230731.977 5 116823275.125 5     -2767.852          32.000
G20  21009315.680 8 110404726.641 8       557.703          51.000    21009314.727 8  86029654.683 8       434.574          48.000
G21  22414189.609 5 117787357.540 5     -2318.375          35.000    22414190.961 5  91782362.377 5     -1806.520          30.000
G26  21357080.453 8 112232198.723 8     -2464.617          51.000    21357083.836 8  87453644.118 8     -1920.481          51.000
R07  22669585.766 7 121352087.588 7      3746.344          47.000    22669590.023 7  94384982.382 7      2913.823          42.000
R12  20408286.273 8 109017376.844 8     -2217.504          51.000    20408289.883 7  84791299.124 7     -1724.728          47.000
C05  39615281.562 5 206287166.214 5         7.961          35.000
C28  21921876.648 8 114153105.504 8      -963.398          51.000
E11  24403304.219 5 128240233.130 5      1844.469          34.000    24403306.500 5  98262001.725 5      1413.716          33.000
E12  21612647.125 8 113575271.967 8      -378.090          51.000    21612646.359 8  87025159.924 8      -289.681          51.000
E24  22432555.859 8 117883863.449 8     -1354.867          51.000    22432568.453 8  90326656.277 8     -1038.124          51.000
E31                                                                  26765935.102 4 107775328.688 4     -2411.811          29.000
E33  26092601.422 6 137117511.315 6     -2193.391          36.000    26092619.719 5 105064134.201 5     -1680.809          34.000
> 2020 05 11 15 13  0.0000000  0 15        .000000000000
G10  22168965.758 8 116498720.850 8      2642.973          50.000    22168972.578 8  90778243.149 8      2059.462          50.000
G16  20484800.328 8 107648359.150 8      -410.664          49.000    20484800.414 8  83881823.489 8      -319.995          49.000
G20  21006273.750 8 110388741.469 8       521.977          51.000    21006272.945 8  86017198.732 8       406.735          49.000
G21  22427525.914 6 117857438.529 6     -2339.285          36.000    22427527.305 5  91836970.988 5     -1822.823          32.000
G26  21371277.742 8 112306801.601 8     -2494.723          51.000    21371280.328 8  87511776.204 8     -1943.940          51.000
R07  22648704.633 8 121240306.269 8      3720.188          48.000    22648708.539 7  94298041.442 7      2893.482          42.000
R11  23041589.125 5 123127288.182 5     -4488.965          31.000    23041592.930 5  95765653.422 5     -3491.420          30.000
R12  20420892.836 8 109084721.183 8     -2257.711          50.000    20420896.609 8  84843678.008 8     -1755.997          48.000
R22  19679754.641 5 105051862.408 5        26.680          30.000    19679752.953 4  81706999.185 4        20.751          28.000
C05  39615323.086 5 206287382.043 5        -7.941          34.000
C28  21927534.141 8 114182566.311 8      -986.645          51.000
E11  24392874.781 5 128185421.607 5      1823.309          35.000    24392878.742 5  98220007.308 5      1397.093          33.000
E12  21614911.156 8 113587170.162 8      -401.035          51.000    21614910.445 8  87034276.719 8      -307.332          51.000
E24  22440415.680 8 117925164.135 8     -1384.449          51.000    22440428.125 8  90358302.257 8     -1060.809          51.000
E33  26105219.055 6 137183794.329 6     -2211.379          37.000    26105233.594 5 105114922.425 5     -1694.607          32.000
> 2020 05 11 15 13 30.0000000  0 16        .000000000000
G10  22153838.320 8 116419223.271 8      2642.879          50.000    22153844.219 8  90716297.040 8      2059.386          50.000
G16  20487124.977 8 107660574.762 8      -417.648          48.000    20487125.023 8  83891342.145 8      -325.440          48.000
G18  22262521.898 5 116990276.323 5     -2786.176          35.000
G20  21003273.289 8 110372974.290 8       515.160          51.000    21003272.445 8  86004912.644 8       401.423          49.000
G21  22440818.688 5 117927289.492 5     -2331.645          35.000    22440820.359 5  91891400.335 5     -1816.887          30.000
G26  21385484.664 8 112381456.356 8     -2496.109          51.000    21385486.461 8  87569948.695 8     -1945.023          51.000
R07  22627807.445 7 121128440.276 7      3723.379          47.000    22627811.055 7  94211034.666 7      2895.964          43.000
R11  23066722.977 5 123261596.929 5     -4479.438          30.000    23066727.297 5  95870115.702 5     -3484.016          31.000
R12  20433560.195 8 109152397.719 8     -2268.297          48.000    20433566.164 8  84896315.305 8     -1764.231          48.000
R22  19679553.227 5 105050813.986 5        29.289          31.000
C05  39615296.109 5 206287241.704 5         4.004          35.000
C28  21933162.953 8 114211877.470 8      -981.234          51.000
E11  24382406.406 5 128130411.641 5      1829.988          34.000    24382412.945 4  98177872.396 4      1402.232          29.000
E12  21617144.219 8 113598905.752 8      -395.242          51.000    21617143.609 8  87043268.922 8      -302.875          51.000
E24  22448282.367 8 117966501.540 8     -1385.285          51.000    22448294.914 8  90389976.363 8     -1061.485          51.000
E33  26117773.492 5 137249758.400 5     -2200.203          32.000
> 2020 05 11 15 14  0.0000000  0 15        .000000000000
G10  22138889.625 8 116340664.381 8      2622.840          51.000    22138894.102 8  90655082.388 8      2043.774          51.000
G16  20489666.305 8 107673930.499 8      -444.453          48.000    20489666.602 8  83901749.197 8      -346.327          48.000
G20  21000489.844 8 110358347.563 8       488.426          51.000    21000489.086 8  85993515.196 8       380.592          49.000
G21  22454243.062 5 117997831.394 5     -2342.699          32.000
G26  21399876.055 8 112457083.309 8     -2517.230          51.000    21399877.438 8  87628878.718 8     -1961.481          51.000
R07  22607070.125 7 121017433.536 7      3706.230          46.000    22607073.883 7  94124696.217 7      2882.627          43.000
R12  20446465.578 8 109221340.866 8     -2298.949          50.000    20446472.508 8  84949937.735 8     -1788.075          48.000
R21  21711761.812 6 116183985.496 6     -2686.949          37.000
R22  19679545.891 5 105050734.408 5        10.141          30.000
C05  39615376.133 5 206287658.094 5        -3.621          35.000
C28  21938938.586 8 114241952.665 8      -995.488          51.000
E11  24372075.039 5 128076125.421 5      1817.430          34.000
E12  21619521.688 8 113611400.430 8      -409.262          51.000    21619521.297 8  87052842.761 8      -313.605          51.000
E24  22456331.055 8 118008797.101 8     -1405.965          51.000    22456343.867 8  90422384.658 8     -1077.301          51.000
E31  26820166.234 5 140940917.278 5     -3169.547          35.000
> 2020 05 11 15 14 30.0000000  0 13        .000000000000
G10  22123943.484 8 116262119.164 8      2610.406          51.000    22123946.922 8  90593878.380 8      2034.083          51.000
G16  20492248.180 8 107687498.790 8      -463.371          49.000    20492248.336 8  83912321.886 8      -361.068          48.000
G20  20997746.867 8 110343934.430 8       469.484          51.000    20997746.547 8  85982284.212 8       365.835          49.000
G21  22467621.938 5 118068135.373 5     -2346.891          34.000
G26  21414274.984 8 112532752.889 8     -2530.594          49.000    21414276.797 8  87687841.955 8     -1971.894          49.000
R07  22586317.164 7 120906345.606 7      3696.617          44.000    22586321.680 7  94038294.570 7      2875.150          43.000
R12  20459432.695 8 109290604.351 8     -2321.656          51.000    20459438.523 8  85003809.287 8     -1805.736          48.000
R21  21726838.961 4 116264700.971 4     -2690.164          29.000
C05  39615386.438 5 206287711.860 5        -2.957          35.000
C28  21944684.359 8 114271872.410 8     -1002.113          51.000
E12  21621867.062 8 113623725.816 8      -415.391          51.000    21621866.844 8  87062286.885 8      -318.262          51.000
E24  22464385.219 8 118051122.245 8     -1418.691          51.000    22464398.188 8  90454815.608 8     -1087.040          51.000
E31  26838257.953 6 141035992.293 6     -3171.945          39.000
> 2020 05 11 15 15  0.0000000  0 11        .000000000000
G10  22109082.461 8 116184023.158 8      2604.223          51.000    22109085.750 8  90533024.375 8      2029.264          51.000
G16  20494953.062 8 107701712.752 8      -475.910          49.000    20494952.844 8  83923397.709 8      -370.839          49.000
G20  20995127.086 8 110330168.546 8       456.680          50.000    20995126.930 8  85971557.553 8       355.854          49.000
G26  21428763.836 8 112608896.121 8     -2537.289          48.000    21428766.531 7  87747174.310 7     -1977.108          47.000
R07  22565632.648 7 120795622.375 7      3693.543          45.000    22565637.789 7  93952176.602 7      2872.762          44.000
R12  20472542.094 8 109360625.323 8     -2337.918          51.000    20472546.227 8  85058270.021 8     -1818.384          49.000
C05  39615409.531 5 206287832.311 5         3.578          35.000
C28  21950482.617 8 114302065.620 8     -1002.371          51.000
E12  21624262.656 8 113636314.379 8      -415.246          51.000    21624262.555 8  87071932.665 8      -318.209          51.000
E24  22472527.188 8 118093909.298 8     -1425.227          51.000    22472540.203 8  90487600.479 8     -1092.033          51.000
E31  26856380.773 6 141131229.737 6     -3168.574          40.000
> 2020 05 11 15 15 30.0000000  0 12        .000000000000
G10  22094280.070 8 116106235.922 8      2585.883          51.000    22094283.633 8  90472410.956 8      2014.974          51.000
G16  20497753.633 8 107716429.361 8      -500.797          50.000    20497753.312 8  83934865.180 8      -390.231          50.000
