     3.02           OBSERVATION DATA    M (MIXED)           RINEX VERSION / TYPE
SAVERINEX           SC600               20200519 105931 LCL PGM / RUN BY / DATE
       G = GPS       R = GLONASS       C = COMPASS          COMMENT
       S = SBAS      J = QZSS          E = GALILEO          COMMENT
BEAN                                                        MARKER NAME
1                                                           MARKER NUMBER
GEODETIC                                                    MARKER TYPE
Unige DICCA         GTER                                    OBSERVER / AGENCY
SC60291900056       SC600               2.12(191202)        REC # / TYPE / VERS
                    HEMA45          NONE                    ANT # / TYPE
  4509407.8091   693652.4678  4442337.6214                  APPROX POSITION XYZ
        0.0000        0.0000        0.0000                  ANTENNA: DELTA H/E/N
G    8 C1C L1C D1C S1C C2Y L2Y D2Y S2Y                      SYS / # / OBS TYPES
R    8 C1C L1C D1C S1C C2P L2P D2P S2P                      SYS / # / OBS TYPES
C    8 C1I L1I D1I S1I C7I L7I D7I S7I                      SYS / # / OBS TYPES
E    8 C1C L1C D1C S1C C7Q L7Q D7Q S7Q                      SYS / # / OBS TYPES
DBHZ                                                        COMMENT
     30.000                                                 INTERVAL
  2020    05    19    08    00    0.0000000     GPS         TIME OF FIRST OBS
  2020    05    19    08    59   30.0000000     GPS         TIME OF LAST OBS
     0                                                      RCV CLOCK OFFS APPL
G L1C  0.00000                                              SYS / PHASE SHIFT
G L2Y  0.00000                                              SYS / PHASE SHIFT
R L1C  0.00000                                              SYS / PHASE SHIFT
R L2P  0.25000                                              SYS / PHASE SHIFT
C L1I  0.00000                                              SYS / PHASE SHIFT
C L7I  0.00000                                              SYS / PHASE SHIFT
E L1C  0.50000                                              SYS / PHASE SHIFT
E L7Q -0.25000                                              SYS / PHASE SHIFT
 12 R04  6 R05  1 R06 -4 R07  5 R09 -2 R10 -5 R14 -7 R15  0 GLONASS SLOT / FRQ #
    R16 -1 R17  4 R18 -3 R19  3                             GLONASS SLOT / FRQ #
 C1C   71.950 C2C   71.950 C2P   71.950                     GLONASS COD/PHS/BIS
    18                                                      LEAP SECONDS
*** Above antenna height is from mark to ANTENNA BOTTOM.    COMMENT
    17     4        0.0000        ANT MEASURE TYPE/HEIGT    COMMENT
    0.0000    0.0000    0.0458    0.0405    0.0000          COMMENT
                    BASE STATION                            COMMENT
                                                            END OF HEADER
> 2020 05 19 08 00  0.0000000  0 12        .000000000000
G12  20093600.344 8 105592583.306 8       414.445          48.000    20093599.414 8  82279934.442 8       322.944          49.000
G24  20494453.820 8 107699102.932 8     -1305.598          51.000    20494454.867 8  83921365.404 8     -1017.349          51.000
G25  21371662.102 5 112308842.063 5      2169.961          30.000    21371677.242 4  87513362.720 4      1690.873          29.000
R16  20234463.164 6 108088859.251 6     -1526.965          39.000    20234467.359 5  84069116.301 5     -1187.639          32.000
R18  20529335.648 5 109586965.140 5        26.668          34.000
R19  21384617.008 5 114393275.040 5      3617.996          35.000    21384620.406 6  88972550.341 6      2814.003          37.000
C14  25311270.984 7 131802415.070 7     -2570.332          43.000    25311270.516 7 101918044.179 7     -1987.662          44.000
C26  21792139.273 8 113477398.277 8      -978.496          51.000
E02  23828352.977 8 125218831.148 8     -1027.387          51.000    23828355.008 8  95946927.674 8      -787.245          51.000
E07                                                                  25309618.477 5 101911340.250 5      -378.490          33.000
E08  24051023.305 7 126388953.489 7     -2730.246          45.000    24051022.219 7  96843479.187 7     -2091.986          43.000
E30  22913037.328 5 120408823.588 5      1142.355          33.000    22913039.258 5  92261304.272 5       875.242          34.000
> 2020 05 19 08 00 30.0000000  0 11        .000000000000
G12  20091240.914 8 105580183.901 8       416.727          49.000    20091239.953 8  82270272.582 8       324.722          50.000
G24  20501914.727 8 107738310.241 8     -1303.699          51.000    20501915.906 8  83951916.530 8     -1015.870          51.000
G25  21359277.570 4 112243760.735 4      2174.543          29.000    21359291.000 4  87462649.843 4      1694.440          28.000
R16  20243032.531 6 108134633.305 6     -1520.363          37.000    20243037.148 4  84104718.339 4     -1182.505          29.000
R19  21364337.867 5 114284803.592 5      3618.516          31.000    21364341.641 6  88888183.728 6      2814.401          40.000
C14  25326063.727 7 131879446.449 7     -2560.652          42.000    25326062.242 7 101977609.668 7     -1980.128          43.000
C26  21797768.375 8 113506709.062 8      -971.207          51.000
E02  23834198.680 8 125249550.756 8     -1016.051          51.000    23834200.719 8  95970466.060 8      -778.523          51.000
E07                                                                  25312445.789 6 101922718.144 6      -376.897          37.000
E08  24066594.930 6 126470782.569 6     -2720.742          41.000    24066596.844 7  96906179.344 7     -2084.581          43.000
E30                                                                  22906498.883 5  92234966.259 5       884.096          35.000
> 2020 05 19 08 01  0.0000000  0 14        .000000000000
G12  20088971.320 8 105568256.105 8       387.211          49.000    20088970.258 8  82260978.191 8       301.720          49.000
G24  20509467.055 8 107777997.816 8     -1333.441          51.000    20509468.406 8  83982841.891 8     -1039.045          51.000
R07  21494492.039 4 115061698.214 4     -2026.508          28.000
R16  20251668.016 5 108180767.255 5     -1545.859          32.000    20251671.875 4  84140621.250 4     -1202.344          27.000
R18  20529230.289 5 109586530.239 5       -30.121          34.000    20529236.281 6  85233948.401 6       -23.421          38.000
R19  21344159.586 5 114176874.515 5      3585.707          34.000    21344166.219 7  88804238.836 7      2788.880          44.000
C14  25340902.281 7 131956716.261 7     -2582.227          42.000    25340900.109 7 102037359.478 7     -1996.717          43.000
C24  22580731.352 5 117583834.632 5      1499.316          33.000
C26  21803458.773 8 113536339.199 8      -995.520          51.000
C29  25450231.117 5 132526024.806 5     -2530.141          32.000
E02  23840082.648 8 125280471.490 8     -1036.617          51.000    23840084.695 8  95994158.564 8      -794.315          51.000
E07                                                                  25315365.023 5 101934472.296 5      -400.450          35.000
E08  24082211.453 6 126552855.251 6     -2742.016          37.000    24082218.047 7  96969066.186 7     -2101.309          43.000
E30                                                                  22899997.367 5  92208788.748 5       867.508          34.000
> 2020 05 19 08 01 30.0000000  0 14        .000000000000
G02  24171395.922 5 127021533.234 5      2306.195          32.000
G12  20086808.219 8 105556889.388 8       378.586          49.000    20086806.945 8  82252121.010 8       294.999          49.000
G24  20517127.844 8 107818255.419 8     -1342.312          51.000    20517129.258 8  84014211.432 8     -1045.958          51.000
R07  21505922.469 4 115122913.597 4     -2042.922          27.000
R16  20260388.078 5 108227352.364 5     -1551.582          35.000    20260392.031 4  84176849.086 4     -1206.783          26.000
R18  20529489.391 5 109587903.496 5       -53.477          35.000    20529495.148 6  85235016.467 6       -41.593          38.000
R19  21324103.836 6 114069583.536 6      3574.762          39.000    21324109.625 7  88720790.277 7      2780.370          45.000
C14  25355803.602 7 132034311.236 7     -2582.988          44.000    25355801.211 7 102097360.761 7     -1997.421          44.000
C24  22572118.883 5 117539006.770 5      1497.414          32.000
C26  21809227.414 8 113566378.091 8      -999.277          51.000
C29  25464845.859 5 132602123.104 5     -2535.293          31.000
E02  23846022.031 8 125311683.194 8     -1036.277          51.000    23846024.062 8  96018074.009 8      -794.034          51.000
E07                                                                  25318394.727 5 101946671.338 5      -407.241          32.000
E08  24097889.164 5 126635259.824 5     -2743.195          35.000    24097901.555 7  97032207.347 7     -2102.091          43.000
> 2020 05 19 08 02  0.0000000  0 13        .000000000000
G02  24158272.773 5 126952573.766 5      2302.668          35.000
G12  20084709.703 8 105545861.827 8       368.355          50.000    20084708.438 8  82243528.109 8       287.030          50.000
G24  20524854.898 8 107858861.678 8     -1353.055          51.000    20524856.516 8  84045852.661 8     -1054.328          51.000
R07  21517477.641 4 115184749.592 4     -2062.965          28.000
R16  20269151.609 6 108274163.342 6     -1557.742          36.000    20269155.883 4  84213256.582 4     -1211.580          28.000
R18  20529893.000 6 109590064.170 6       -78.375          36.000    20529898.484 5  85236696.992 5       -60.967          33.000
R19  21304126.445 6 113962709.760 6      3561.805          41.000    21304130.352 7  88637666.259 7      2770.293          44.000
C14  25370724.805 7 132112009.333 7     -2585.227          45.000    25370722.578 7 102157441.808 7     -1999.128          45.000
C26  21815032.406 8 113596606.333 8     -1004.516          51.000
C29  25479507.570 5 132678466.178 5     -2542.027          31.000
E02  23851974.562 8 125342964.121 8     -1037.520          51.000    23851976.656 8  96042042.500 8      -794.977          51.000
E07                                                                  25321491.961 5 101959154.397 5      -415.481          33.000
E08  24113588.867 6 126717772.926 6     -2746.078          37.000    24113604.648 7  97095431.626 7     -2104.213          43.000
> 2020 05 19 08 02 30.0000000  0 15        .000000000000
G02  24145181.461 5 126883785.308 5      2284.363          34.000
G12  20082677.875 8 105535183.613 8       344.293          49.000    20082676.641 8  82235207.431 8       268.280          49.000
G15  25055097.766 5 131665428.276 5     -3707.367          30.000
G24  20532650.078 8 107899826.227 8     -1377.387          51.000    20532652.055 8  84077773.074 8     -1073.288          51.000
G25  21310431.352 4 111987074.137 4      2114.500          29.000    21310429.336 4  87262636.547 4      1647.650          27.000
R09  20590468.977 5 109951959.011 5      2087.426          30.000
R16  20277960.055 5 108321210.777 5     -1578.098          34.000    20277964.164 4  84249849.073 4     -1227.409          27.000
R18  20530447.148 5 109592923.834 5      -117.723          34.000    20530453.523 5  85238962.784 5       -91.562          30.000
R19  21284229.562 7 113856268.925 7      3534.871          42.000    21284232.039 7  88554878.967 7      2749.344          44.000
C14  25385667.320 7 132189818.656 7     -2601.160          45.000    25385665.422 7 102217608.883 7     -2011.406          46.000
C26  21820875.875 8 113627034.691 8     -1023.469          51.000
C29  25494217.648 5 132755062.529 5     -2563.188          31.000
E02  23857942.336 8 125374324.779 8     -1052.473          51.000    23857944.469 8  96066072.076 8      -806.464          51.000
E07  25324647.227 5 133081922.340 5      -567.125          34.000    25324661.344 5 101971911.139 5      -434.326          34.000
E08  24129312.898 6 126800403.276 6     -2762.000          36.000    24129329.070 7  97158745.759 7     -2116.386          45.000
> 2020 05 19 08 03  0.0000000  0 13        .000000000000
G02  24132164.219 6 126815388.510 6      2290.988          38.000
G12  20080753.742 8 105525072.440 8       344.785          48.000    20080752.227 8  82227328.606 8       268.664          48.000
G15  25076260.758 5 131776650.201 5     -3691.359          32.000
G24  20540554.852 8 107941367.175 8     -1377.152          51.000    20540557.375 8  84110142.654 8     -1073.106          51.000
R16  20286852.727 5 108368716.630 5     -1573.527          31.000    20286856.062 4  84286798.015 4     -1223.861          28.000
R19  21264455.273 6 113750487.284 6      3532.496          40.000    21264457.312 7  88472604.388 7      2747.500          44.000
C14  25400672.188 7 132267952.899 7     -2592.902          45.000    25400670.742 7 102278027.197 7     -2004.861          46.000
C26  21826799.492 8 113657879.498 8     -1018.121          51.000
C29  25509017.297 5 132832126.278 5     -2559.152          31.000
E02  23863966.703 8 125405983.068 8     -1043.047          50.000    23863968.867 8  96090329.714 8      -799.224          51.000
E07  25327926.234 5 133099149.424 5      -566.910          33.000    25327941.656 5 101985117.367 5      -434.634          35.000
E08  24145101.734 5 126883367.171 5     -2753.824          35.000    24145116.266 7  97222315.473 7     -2109.989          46.000
E30  22874355.945 5 120205598.865 5      1125.367          32.000    22874354.297 5  92105551.707 5       861.791          34.000
> 2020 05 19 08 03 30.0000000  0 13        .000000000000
G02  24119172.375 6 126747123.646 6      2280.484          39.000
G12  20078887.523 8 105515265.730 8       328.770          49.000    20078885.734 8  82219686.996 8       256.181          49.000
G24  20548519.461 8 107983222.465 8     -1393.406          51.000    20548522.172 8  84142757.184 8     -1085.771          51.000
G25  21286392.180 6 111860741.609 6      2105.555          36.000    21286397.492 6  87164216.530 6      1640.689          36.000
R18  20532101.266 5 109601755.522 5      -163.035          31.000
R19  21244754.742 6 113645102.579 6      3513.293          39.000    21244757.391 7  88390638.563 7      2732.561          44.000
C14  25415689.109 7 132346149.741 7     -2600.703          43.000    25415688.258 7 102338493.938 7     -2011.020          47.000
C26  21832753.203 8 113688881.037 8     -1029.059          51.000
C29  25523856.367 5 132909395.497 5     -2572.617          32.000
E02  23869997.734 8 125437676.569 8     -1050.043          50.000    23870000.102 8  96114614.347 8      -804.587          51.000
E07                                                                  25331280.617 5 101998571.784 5      -447.253          34.000
E08  24160903.969 6 126966400.509 6     -2762.082          37.000    24160916.234 7  97285938.436 7     -2116.335          47.000
E30                                                                  22868006.859 5  92079987.635 5       856.057          33.000
> 2020 05 19 08 04  0.0000000  0 14        .000000000000
G02  24106184.836 6 126678881.915 6      2266.285          40.000
G12  20077058.008 8 105505650.961 8       309.305          48.000    20077056.336 8  82212194.978 8       241.020          48.000
G19  22745649.484 5 119529212.180 5     -2748.984          31.000
G24  20556522.695 8 108025279.702 8     -1413.301          51.000    20556525.414 8  84175529.059 8     -1101.276          51.000
G25  21274414.898 5 111797773.419 5      2089.855          32.000
R07  21564850.742 4 115438341.830 4     -2155.625          28.000
R19  21225107.859 6 113540005.615 6      3490.254          38.000    21225111.102 7  88308896.562 7      2714.648          43.000
C14  25430696.234 7 132424296.046 7     -2612.004          42.000    25430696.086 7 102398921.557 7     -2019.667          47.000
C26  21838715.688 8 113719928.871 8     -1043.664          51.000
C29  25538713.391 4 132986781.336 4     -2587.578          29.000
E02  23876014.156 8 125469293.449 8     -1060.500          49.000    23876016.820 8  96138840.262 8      -812.612          51.000
E07                                                                  25334659.375 5 102012188.497 5      -462.724          33.000
E08  24176697.977 6 127049389.789 6     -2773.250          37.000    24176707.336 7  97349527.603 7     -2125.012          47.000
E30                                                                  22861646.852 5  92054378.159 5       847.904          33.000
> 2020 05 19 08 04 30.0000000  0 13        .000000000000
G02  24093305.469 6 126611206.780 6      2251.066          39.000
G12  20075367.656 8 105496768.429 8       288.891          48.000    20075366.008 8  82205273.541 8       225.113          48.000
G19  22761417.133 5 119612052.346 5     -2770.270          32.000
G24  20564667.320 8 108068079.025 8     -1434.027          51.000    20564669.914 8  84208879.177 8     -1117.424          51.000
R18  20534319.148 5 109613643.000 5      -233.902          30.000    20534321.602 5  85255025.797 5      -181.924          34.000
R19  21205617.922 6 113435750.554 6      3466.102          37.000    21205621.258 6  88227809.348 6      2695.860          41.000
C14  25445795.625 6 132502924.729 6     -2624.098          40.000    25445796.141 7 102459722.144 7     -2029.073          46.000
C24  22521191.906 4 117273743.780 4      1448.492          28.000
C26  21844789.633 8 113751558.477 8     -1059.129          51.000
C29  25553691.055 4 133064773.315 4     -2605.258          28.000
E02  23882118.930 8 125501373.770 8     -1072.156          49.000    23882121.578 8  96163421.289 8      -821.531          51.000
E08  24192586.320 6 127132873.433 6     -2786.230          38.000    24192592.289 7  97413495.523 7     -2134.883          47.000
E30                                                                  22855379.875 5  92029138.327 5       838.754          35.000
> 2020 05 19 08 05  0.0000000  0 12        .000000000000
G02  24080477.180 5 126543800.692 5      2245.539          35.000
G12  20073759.375 8 105488317.521 8       277.684          48.000    20073757.609 8  82198688.404 8       216.377          48.000
G19  22777271.664 5 119695367.064 5     -2781.785          34.000
G24  20572896.125 8 108111320.254 8     -1445.629          51.000    20572898.430 8  84242573.621 8     -1126.464          51.000
R07  21589323.016 5 115569325.254 5     -2204.633          35.000    21589321.320 4  89887250.184 4     -1714.717          26.000
R18  20535708.500 5 109621085.523 5      -259.734          30.000    20535710.688 5  85260814.475 5      -202.016          33.000
R19  21186228.914 5 113332036.367 5      3450.969          35.000    21186231.570 6  88147142.795 6      2684.087          38.000
C14  25460929.898 6 132581736.008 6     -2626.961          39.000    25460931.016 7 102520663.942 7     -2031.206          47.000
C26  21850918.422 8 113783472.858 8     -1065.422          51.000
E02  23888254.656 8 125533617.457 8     -1074.312          49.000    23888257.203 8  96188127.494 8      -823.180          51.000
E08  24208511.578 6 127216549.483 6     -2789.324          37.000    24208514.219 7  97477610.913 7     -2137.203          47.000
E30                                                                  22849146.141 6  92004031.293 6       837.215          37.000
> 2020 05 19 08 05 30.0000000  0 12        .000000000000
G02  24067663.734 5 126476468.307 5      2239.891          35.000
G12  20072195.586 8 105480099.762 8       266.984          49.000    20072193.969 8  82192284.943 8       208.040          49.000
G19  22793175.156 5 119778937.501 5     -2792.555          31.000
G24  20581171.203 8 108154804.887 8     -1456.660          51.000    20581173.328 8  84276457.720 8     -1135.060          51.000
R07  21601716.594 5 115635684.120 5     -2223.125          31.000    21601723.898 5  89938862.066 5     -1729.097          30.000
R18  20537230.500 5 109629209.953 5      -285.023          34.000    20537233.000 6  85267133.460 6      -221.679          36.000
R19  21166904.812 6 113228666.326 6      3436.633          38.000    21166906.422 6  88066743.871 6      2672.937          41.000
C14  25476061.383 6 132660531.250 6     -2629.273          40.000    25476062.891 7 102581593.364 7     -2033.200          47.000
C26  21857064.250 8 113815475.932 8     -1071.320          51.000
E02  23894383.898 8 125565826.329 8     -1076.098          49.000    23894386.094 8  96212807.025 8      -824.578          51.000
E08  24224435.836 5 127300269.152 5     -2791.949          32.000    24224434.969 7  97541720.591 7     -2139.202          46.000
E30                                                                  22842907.430 6  91978905.434 6       835.683          37.000
> 2020 05 19 08 06  0.0000000  0 11        .000000000000
G02  24054882.148 5 126409300.366 5      2228.309          33.000
G12  20070692.984 8 105472202.714 8       249.359          49.000    20070691.398 8  82186131.419 8       194.309          49.000
G24  20589509.156 8 108198620.195 8     -1474.648          51.000    20589510.828 8  84310599.487 8     -1149.077          51.000
R17  23205589.164 5 124177690.976 5     -3489.738          33.000
R18  20538896.211 5 109638105.192 5      -317.719          35.000    20538902.367 5  85274051.982 5      -247.115          35.000
R19  21147663.281 6 113125734.371 6      3414.934          39.000    21147664.281 7  87986685.728 7      2656.062          42.000
C14  25491206.422 7 132739395.013 7     -2638.508          42.000    25491208.047 7 102642575.769 7     -2040.180          47.000
C26  21863243.938 8 113847654.971 8     -1084.043          51.000
E02  23900523.141 8 125598088.107 8     -1084.863          49.000    23900525.023 8  96237527.094 8      -831.295          51.000
E08                                                                  24240370.602 7  97605890.514 7     -2146.586          44.000
E30                                                                  22836679.766 6  91953828.073 6       828.577          36.000
> 2020 05 19 08 06 30.0000000  0 12        .000000000000
G02  24042171.258 6 126342501.680 6      2221.414          38.000
G12  20069289.594 8 105464827.582 8       238.016          49.000    20069287.570 8  82180384.583 8       185.467          49.000
G24  20597948.438 8 108242968.373 8     -1486.172          51.000    20597949.812 8  84345156.471 8     -1158.056          51.000
R07  21626856.367 5 115770254.156 5     -2267.801          35.000
R17  23225179.180 4 124282624.601 4     -3502.566          27.000
R18  20540745.391 5 109647975.631 5      -344.324          35.000    20540750.227 5  85281729.060 5      -267.808          35.000
R19  21128542.547 6 113023450.165 6      3399.660          40.000    21128544.406 7  87907131.429 7      2644.183          45.000
C14  25506402.891 7 132818524.903 7     -2641.133          43.000    25506404.344 8 102703763.989 8     -2042.195          48.000
C26  21869495.867 8 113880210.178 8     -1090.445          51.000
E02  23906710.875 8 125630604.502 8     -1087.027          49.000    23906712.578 8  96262442.245 8      -832.905          51.000
E08  24256364.062 5 127468054.547 5     -2804.969          34.000    24256359.055 7  97670273.878 7     -2148.837          43.000
E30                                                                  22830501.086 5  91928953.994 5       826.608          35.000
> 2020 05 19 08 07  0.0000000  0 14        .000000000000
G02  24029514.281 5 126275988.771 5      2216.465          35.000
G12  20067969.000 8 105457887.941 8       228.344          50.000    20067966.758 8  82174977.056 8       177.927          50.000
G24  20606472.484 8 108287763.065 8     -1496.195          51.000    20606473.664 8  84380061.384 8     -1165.866          51.000
R07  21639626.516 4 115838612.922 4     -2284.910          29.000    21639644.508 4  90096783.205 4     -1777.152          27.000
R09  20486403.359 4 109396249.973 4      2028.273          28.000
R16  20359821.516 5 108758494.694 5     -1660.812          32.000    20359825.586 4  84589973.337 4     -1291.734          24.000
R18  20542761.086 6 109658734.212 6      -369.074          36.000    20542765.758 6  85290096.795 6      -287.064          36.000
R19  21109527.609 6 112921730.985 6      3385.148          41.000    21109530.125 7  87828016.545 7      2632.896          45.000
C14  25521633.695 7 132897833.384 7     -2642.285          43.000    25521635.125 8 102765090.313 8     -2043.189          49.000
C26  21875803.711 8 113913056.692 8     -1095.430          51.000
E02  23912930.719 8 125663289.547 8     -1088.059          49.000    23912932.492 8  96287486.621 8      -833.629          51.000
E07  25356908.516 6 133251455.224 6      -688.520          37.000    25356911.461 5 102101775.812 5      -527.902          35.000
E08  24272386.336 5 127552259.354 5     -2806.336          35.000    24272383.680 6  97734803.529 6     -2150.046          41.000
E30                                                                  22824355.836 5  91904217.357 5       825.770          34.000
> 2020 05 19 08 07 30.0000000  0 12        .000000000000
G02  24016887.266 5 126209599.647 5      2204.496          33.000
G12  20066705.859 8 105451249.584 8       211.250          50.000    20066703.688 8  82169804.309 8       164.610          50.000
G24  20615055.617 8 108332870.011 8     -1513.812          49.000    20615057.125 8  84415209.617 8     -1179.597          49.000
R16  20369176.016 4 108808483.795 4     -1674.031          29.000
R18  20544925.508 5 109670183.641 5      -401.215          34.000    20544920.523 5  85299031.688 5      -312.056          35.000
R19  21090593.969 6 112820444.872 6      3363.730          39.000    21090596.602 7  87749238.488 7      2616.235          45.000
C14  25536872.852 7 132977185.335 7     -2650.707          44.000    25536874.070 8 102826450.240 8     -2049.713          49.000
C26  21882141.852 8 113946061.923 8     -1107.738          51.000
E02  23919157.062 8 125696009.104 8     -1096.230          50.000    23919159.078 8  96312557.444 8      -839.948          50.000
E07  25360883.820 5 133272337.773 5      -706.547          35.000
E08  24288421.414 6 127636531.097 6     -2814.949          37.000    24288418.273 6  97799375.320 6     -2156.712          39.000
E30  22818222.305 5 119910568.821 5      1068.816          34.000    22818220.859 5  91879515.716 5       818.796          35.000
> 2020 05 19 08 08  0.0000000  0 13        .000000000000
G02  24004310.906 5 126143504.949 5      2208.500          34.000
G12  20065509.203 8 105444961.074 8       210.773          49.000    20065507.141 8  82164904.189 8       164.239          50.000
G24  20623706.812 7 108378337.351 7     -1514.598          47.000    20623709.289 7  84450638.703 7     -1180.206          47.000
R07  21665474.789 5 115976973.105 5     -2318.516          30.000
R16  20378584.656 5 108858722.521 5     -1671.363          33.000
R17  23284432.156 5 124599644.635 5     -3534.445          34.000
R18  20547225.375 5 109682493.932 5      -416.238          32.000    20547230.586 6  85308606.235 6      -323.744          36.000
R19  21071750.953 6 112719646.384 6      3358.906          38.000    21071753.711 7  87670839.676 7      2612.483          44.000
C14  25552129.156 7 133056626.756 7     -2642.609          44.000    25552129.969 8 102887879.355 8     -2043.364          49.000
C26  21888520.000 8 113979274.567 8     -1103.629          51.000
E02  23925399.180 8 125728812.044 8     -1087.797          49.000    23925401.367 8  96337692.160 8      -833.573          49.000
E08  24304476.164 6 127720905.130 6     -2807.348          39.000    24304472.891 6  97864025.481 6     -2150.561          38.000
E30  22812106.766 6 119878425.542 6      1076.898          37.000    22812105.844 6  91854886.464 6       825.171          36.000
> 2020 05 19 08 08 30.0000000  0 12        .000000000000
G12  20064403.977 8 105439153.685 8       183.551          50.000    20064402.078 8  82160378.953 8       143.027          49.000
G24  20632451.727 7 108424296.862 7     -1542.262          47.000    20632455.195 7  84486451.323 7     -1201.762          47.000
R16  20388056.641 5 108909328.469 5     -1695.395          32.000
R17  23304348.312 5 124706243.179 5     -3563.805          32.000
R18  20549706.500 5 109695746.811 5      -459.273          35.000    20549706.977 5  85318912.086 5      -357.219          35.000
R19  21053024.305 6 112619473.646 6      3326.418          37.000    21053026.930 7  87592927.549 7      2587.214          42.000
C14  25567427.297 7 133136285.957 7     -2661.035          45.000    25567427.484 8 102949476.868 8     -2057.681          48.000
C24  22455439.320 4 116931365.239 4      1396.031          29.000
C26  21894963.320 8 114012825.572 8     -1126.039          51.000
E02  23931682.172 8 125761830.212 8     -1106.230          49.000    23931684.484 8  96362991.784 8      -847.622          48.000
E08  24320576.047 6 127805511.371 6     -2826.223          40.000    24320572.484 5  97928853.645 5     -2165.667          35.000
E30  22806033.570 6 119846508.846 6      1057.637          36.000    22806034.445 5  91830430.831 5       810.804          35.000
> 2020 05 19 08 09  0.0000000  0  9        .000000000000
G12  20063422.844 8 105433997.944 8       171.035          49.000    20063421.180 8  82156361.480 8       133.274          49.000
G24  20641323.625 8 108470919.326 8     -1555.090          50.000    20641327.094 8  84522780.528 8     -1211.755          50.000
R19  21034447.914 6 112520105.319 6      3309.129          38.000    21034450.203 6  87515641.150 6      2573.767          41.000
C14  25582799.391 7 133216329.866 7     -2664.719          45.000    25582798.641 7 103011371.853 7     -2060.433          47.000
C24  22447448.422 4 116889741.063 4      1389.527          29.000
C26  21901504.148 8 114046884.516 8     -1133.777          51.000
E02  23938038.766 8 125795234.427 8     -1109.875          48.000    23938040.984 7  96388587.202 7      -850.418          47.000
E08  24336752.625 6 127890518.972 6     -2830.320          40.000    24336750.938 5  97993989.356 5     -2168.684          34.000
E30  22800035.023 5 119814989.785 5      1054.160          34.000    22800037.648 5  91806279.875 5       807.694          35.000
> 2020 05 19 08 09 30.0000000  0 14        .000000000000
G12  20062378.297 8 105428509.393 8       170.195          48.000    20062376.883 8  82152084.691 8       132.620          48.000
G24  20650134.859 8 108517220.320 8     -1556.312          50.000    20650138.258 8  84558859.214 8     -1212.714          50.000
R07  21705106.336 6 116189138.584 6     -2380.848          37.000    21705123.797 5  90369372.015 5     -1851.767          30.000
R16  20407123.258 5 109011204.321 5     -1701.500          32.000
R17  23344397.070 5 124920503.263 5     -3580.223          30.000
R18  20555114.406 5 109724685.929 5      -502.555          35.000    20555103.219 5  85341382.310 5      -390.885          33.000
R19  21015835.570 6 112420544.492 6      3303.316          41.000    21015837.031 6  87438205.010 6      2569.249          40.000
C14  25598057.711 7 133295781.358 7     -2656.711          45.000    25598055.852 7 103072808.740 7     -2054.283          45.000
C24  22439356.203 5 116847612.962 5      1395.281          30.000
C26  21907955.297 8 114080476.858 8     -1130.086          51.000
E02  23944281.648 8 125828040.898 8     -1101.945          49.000    23944283.672 7  96413724.614 7      -844.279          46.000
E07  25377550.039 5 133359924.078 5      -749.820          33.000
E08  24352818.578 6 127974942.372 6     -2822.758          39.000    24352822.367 5  98058677.462 5     -2162.764          35.000
E30                                                                  22793928.242 5  91781679.954 5       813.627          34.000
> 2020 05 19 08 10  0.0000000  0 13        .000000000000
G02  23954504.141 5 125881798.050 5      2157.281          34.000
G12  20061536.773 8 105424087.568 8       142.023          49.000    20061535.414 8  82148639.117 8       110.668          49.000
G24  20659151.328 8 108564599.768 8     -1584.848          51.000    20659154.422 8  84595778.255 8     -1234.946          51.000
R07  21718605.930 6 116261374.593 6     -2416.664          36.000    21718618.391 4  90425555.596 4     -1879.625          29.000
R16  20416797.477 5 109062880.271 5     -1726.016          33.000
R18  20558110.805 5 109740607.295 5      -545.547          34.000    20558104.000 5  85353776.271 5      -424.314          35.000
R19  20997455.047 7 112322220.441 7      3269.562          42.000    20997455.711 6  87361730.808 6      2542.993          39.000
C14  25613467.930 7 133376024.924 7     -2675.762          44.000    25613465.078 7 103134858.092 7     -2069.087          44.000
C26  21914583.125 8 114114989.790 8     -1153.434          51.000
C29  25721850.266 5 133940422.233 5     -2710.605          31.000
E02  23950677.219 8 125861649.264 8     -1121.199          49.000    23950678.836 7  96439476.461 7      -859.161          46.000
E08  24369039.180 6 128060179.491 6     -2842.316          39.000    24369048.008 6  98123989.047 6     -2177.969          36.000
E30                                                                  22787971.703 5  91757703.748 5       797.946          32.000
> 2020 05 19 08 10 30.0000000  0 13        .000000000000
G02  23942200.922 5 125817127.185 5      2153.996          34.000    23942215.188 5  98039368.428 5      1678.439          31.000
G12  20060748.969 8 105419947.978 8       134.785          49.000    20060747.594 8  82145413.449 8       105.027          49.000
G24  20668223.664 8 108612273.050 8     -1592.512          51.000    20668226.438 8  84632926.257 8     -1240.918          51.000
R07  21732195.352 5 116334105.742 5     -2431.590          33.000    21732209.875 3  90482170.409 3     -1891.240          23.000
R16  20426504.844 5 109114730.996 5     -1730.168          33.000    20426516.625 4  84867028.498 4     -1345.683          26.000
R19  20979157.383 6 112224339.226 6      3256.574          41.000    20979158.008 6  87285601.101 6      2532.894          40.000
C14  25628880.234 7 133456281.233 7     -2674.176          43.000    25628876.641 7 103196917.267 7     -2067.483          43.000
C24  22423517.750 5 116765143.183 5      1372.715          30.000
C26  21921238.625 8 114149646.544 8     -1156.164          51.000
C29  25737474.602 5 134021783.512 5     -2713.156          30.000
E02  23957076.273 8 125895275.341 8     -1119.727          50.000    23957077.477 7  96465241.869 7      -857.835          45.000
E08  24385264.734 6 128145444.432 6     -2841.426          38.000    24385275.852 5  98189321.887 5     -2176.834          34.000
E30  22782020.297 5 119720331.729 5      1043.004          35.000    22782019.812 5  91733753.377 5       799.197          31.000
> 2020 05 19 08 11  0.0000000  0 13        .000000000000
G02  23929931.352 5 125752634.318 5      2145.703          33.000
G12  20060018.492 8 105416110.270 8       121.176          48.000    20060017.266 8  82142423.011 8        94.426          48.000
G24  20677355.703 8 108660259.922 8     -1606.316          51.000    20677358.164 8  84670318.625 8     -1251.675          51.000
R07  21745878.977 6 116407348.922 6     -2451.727          39.000
R18  20564512.297 5 109774807.770 5      -596.785          31.000    20564502.344 5  85380383.798 5      -464.175          30.000
R19  20960946.758 6 112126926.067 6      3237.566          39.000    20960947.367 6  87209835.398 6      2518.107          41.000
C14  25644298.211 7 133536567.990 7     -2678.215          42.000    25644294.508 7 103259000.042 7     -2071.032          42.000
C24  22415634.359 5 116724089.047 5      1364.410          31.000
C26  21927925.477 8 114184467.422 8     -1165.055          51.000
C29  25753134.352 5 134103334.197 5     -2723.293          30.000
E02  23963482.570 8 125928939.377 8     -1124.457          51.000    23963483.797 7  96491036.383 7      -861.666          45.000
E08  24401498.781 6 128230755.517 6     -2845.934          38.000    24401508.148 5  98254690.148 5     -2180.707          33.000
E30  22776081.141 6 119689120.816 6      1037.816          36.000    22776078.977 5  91709831.560 5       795.219          30.000
> 2020 05 19 08 11 30.0000000  0 15        .000000000000
G02  23917714.680 5 125688425.277 5      2134.375          32.000
G12  20059365.070 8 105412676.723 8       107.613          49.000    20059364.008 8  82139747.520 8        83.855          49.000
G24  20686566.883 8 108708662.796 8     -1620.543          51.000    20686568.969 8  84708035.154 8     -1262.761          51.000
G25  21102430.070 5 110894036.729 5      1930.027          34.000    21102434.594 5  86410941.094 5      1503.917          31.000
R07  21759678.836 6 116481205.471 6     -2472.328          41.000
R16  20446046.016 5 109219098.199 5     -1750.070          35.000
R18  20567942.125 6 109793077.928 6      -624.773          36.000    20567944.375 5  85394616.229 5      -485.938          35.000
R19  20942843.961 6 112030089.721 6      3217.977          38.000    20942845.359 7  87134518.278 7      2502.871          43.000
C14  25659741.195 7 133616984.692 7     -2683.039          42.000    25659737.852 6 103321183.249 6     -2074.454          41.000
C24  22407791.602 5 116683255.376 5      1357.301          30.000
C26  21934663.523 8 114219554.515 8     -1174.133          51.000
C29  25768848.219 4 134185155.006 4     -2732.551          27.000
E02  23969915.484 8 125962744.066 8     -1129.227          50.000    23969916.805 7  96516938.665 7      -865.281          45.000
E08  24417760.672 6 128316213.812 6     -2851.035          38.000    24417765.922 5  98320238.204 5     -2184.886          34.000
E30  22770171.125 6 119658063.133 6      1032.840          36.000    22770169.234 5  91686035.152 5       791.157          30.000
> 2020 05 19 08 12  0.0000000  0 14        .000000000000
G12  20058823.414 8 105409829.905 8        85.809          49.000    20058822.273 8  82137529.208 8        66.861          49.000
G24  20695891.828 8 108757664.124 8     -1642.594          51.000    20695893.547 8  84746217.995 8     -1279.943          51.000
G25  21091471.961 5 110836437.370 5      1910.676          30.000
R07  21773626.688 6 116555857.873 6     -2500.949          39.000    21773631.852 4  90654631.963 4     -1945.183          25.000
R09  20374721.000 5 108799871.943 5      1941.426          31.000
R16  20455934.148 5 109271929.920 5     -1767.883          30.000    20455940.664 4  84989302.767 4     -1375.026          27.000
R18  20571563.523 4 109812440.607 4      -662.840          29.000    20571569.102 5  85409676.173 5      -515.536          33.000
R19  20924884.750 6 111934020.734 6      3190.176          38.000    20924886.992 7  87059797.971 7      2481.248          45.000
C14  25675243.594 6 133697710.005 6     -2695.164          41.000    25675240.664 7 103383605.133 7     -2084.250          42.000
C24  22400025.961 4 116642824.357 4      1341.047          28.000
C26  21941487.445 8 114255089.240 8     -1191.246          51.000
E02  23976409.844 8 125996872.260 8     -1142.168          50.000    23976411.227 7  96543088.837 7      -875.216          45.000
E08  24434085.477 6 128402000.378 6     -2864.422          39.000    24434087.031 5  98385955.730 5     -2194.589          35.000
E30  22764324.875 6 119627334.813 6      1018.996          36.000
> 2020 05 19 08 12 30.0000000  0 13        .000000000000
G12  20058304.234 8 105407101.433 8       107.391          49.000    20058302.883 8  82135403.134 8        83.684          48.000
G24  20705241.477 8 108806796.196 8     -1621.480          51.000    20705243.016 8  84784502.718 8     -1263.491          51.000
R07  21787630.445 5 116630825.756 5     -2484.785          30.000    21787639.539 5  90712939.828 5     -1932.608          30.000
R16  20465824.164 5 109324772.145 5     -1742.840          35.000    20465827.570 4  85030385.168 4     -1355.545          27.000
R18  20575294.641 5 109832367.174 5      -655.438          32.000    20575302.773 5  85425174.675 5      -509.782          34.000
R19  20906980.891 6 111838247.310 6      3206.480          38.000    20906983.742 7  86985307.537 7      2493.929          46.000
C14  25690715.664 6 133778278.165 6     -2664.660          38.000    25690713.625 7 103445905.494 7     -2060.463          42.000
C26  21948308.383 8 114290608.338 8     -1165.438          51.000
C29  25800456.078 4 134349742.330 4     -2724.453          27.000
E02  23982876.672 8 126030856.146 8     -1111.898          50.000    23982878.008 7  96569128.440 7      -851.974          45.000
E07  25405053.109 5 133504454.832 5      -816.094          33.000    25405051.125 5 102295615.315 5      -625.600          32.000
E08  24450383.664 6 128487645.676 6     -2834.082          40.000    24450382.172 6  98451580.053 6     -2171.504          36.000
E30  22758453.680 6 119596481.179 6      1048.773          36.000    22758459.078 5  91638882.012 5       803.779          30.000
> 2020 05 19 08 13  0.0000000  0 11        .000000000000
G12  20057900.828 8 105404981.365 8        57.965          50.000    20057899.680 8  82133751.141 8        45.167          50.000
G24  20714708.930 8 108856548.131 8     -1671.289          51.000    20714710.508 8  84823270.446 8     -1302.303          51.000
R16  20475811.797 6 109378123.189 6     -1789.152          37.000    20475815.180 4  85071880.521 4     -1391.557          27.000
R18  20579224.383 5 109853354.330 5      -719.789          34.000    20579229.664 5  85441497.990 5      -559.833          32.000
R19  20889226.938 6 111743272.848 6      3149.688          39.000    20889229.781 7  86911438.515 7      2449.757          47.000
C14  25706249.500 5 133859172.618 5     -2704.777          35.000    25706249.227 7 103508458.181 7     -2091.270          42.000
C26  21955219.883 8 114326597.915 8     -1210.070          51.000
E02  23989409.406 8 126065186.084 8     -1152.613          50.000    23989410.562 7  96595433.212 7      -883.225          45.000
E07                                                                  25409918.734 5 102315210.507 5      -663.924          31.000
E08  24466748.500 6 128573638.245 6     -2874.848          40.000    24466743.992 6  98517470.420 6     -2202.566          36.000
E30  22752650.773 5 119565986.593 5      1007.637          35.000    22752657.938 5  91615521.795 5       772.403          33.000
> 2020 05 19 08 13 30.0000000  0 12        .000000000000
G12  20057557.812 8 105403178.500 8        42.531          50.000    20057556.742 8  82132346.313 8        33.144          50.000
G24  20724238.844 8 108906629.738 8     -1687.113          51.000    20724240.516 8  84862295.063 8     -1314.634          51.000
R07  21816026.258 5 116782852.196 5     -2564.141          34.000    21816042.359 6  90831146.142 6     -1994.335          36.000
R16  20485839.000 6 109431687.517 6     -1801.406          36.000    20485843.023 5  85113541.576 5     -1401.097          30.000
R18  20583298.711 6 109875106.383 6      -750.297          37.000    20583306.508 5  85458416.242 5      -583.567          33.000
R19  20871567.539 6 111648806.021 6      3128.035          38.000    20871570.219 7  86837964.336 7      2432.919          46.000
C14  25721789.773 5 133940103.049 5     -2710.020          33.000    25721791.570 6 103571038.679 6     -2095.671          41.000
C24  22376904.406 5 116522385.783 5      1316.145          34.000
C26  21962166.406 8 114362770.283 8     -1220.918          51.000
E02  23995952.672 8 126099571.454 8     -1159.367          49.000    23995953.656 7  96621780.443 7      -888.388          44.000
E08  24483124.227 6 128659685.671 6     -2881.613          40.000    24483116.617 6  98583402.840 6     -2207.705          36.000
E30  22746861.547 5 119535561.777 5      1000.762          35.000    22746868.672 5  91592209.361 5       766.644          33.000
> 2020 05 19 08 14  0.0000000  0 13        .000000000000
G12  20057299.695 8 105401822.054 8        44.973          50.000    20057298.312 8  82131289.345 8        35.044          50.000
G24  20733855.961 8 108957169.931 8     -1685.016          51.000    20733857.891 8  84901676.994 8     -1313.002          51.000
R07  21830401.922 5 116859783.276 5     -2567.598          35.000    21830413.516 6  90890981.384 6     -1997.023          36.000
R16  20495930.805 5 109485596.890 5     -1795.148          35.000    20495934.359 5  85155471.068 5     -1396.227          31.000
R18  20587541.047 5 109897753.704 5      -762.465          35.000    20587549.617 5  85476030.898 5      -593.022          34.000
R19  20854027.523 5 111554983.038 5      3124.199          35.000    20854031.195 7  86764990.925 7      2429.936          45.000
C14  25737362.242 5 134021195.518 5     -2698.676          34.000    25737364.930 6 103633744.522 6     -2086.917          41.000
C24  22369294.594 5 116482732.017 5      1324.273          32.000
C26  21969172.711 8 114399254.055 8     -1214.199          51.000
E02  24002531.211 8 126134141.823 8     -1148.352          50.000    24002531.938 7  96648269.441 7      -879.930          44.000
E07  25419872.180 5 133582337.270 5      -880.840          34.000
E08  24499534.867 6 128745915.723 6     -2870.469          39.000    24499525.102 6  98649475.190 6     -2199.330          36.000
E30  22741109.602 5 119505337.546 5      1010.695          32.000    22741114.797 4  91569045.971 4       774.644          29.000
> 2020 05 19 08 14 30.0000000  0 11        .000000000000
G12  20057073.219 8 105400631.673 8        27.855          51.000    20057071.727 8  82130361.765 8        21.706          51.000
G24  20743507.281 8 109007888.626 8     -1702.668          51.000    20743509.141 8  84941197.999 8     -1326.757          51.000
R07  21844841.305 6 116937065.320 6     -2591.242          36.000    21844848.320 5  90951089.559 5     -2015.414          34.000
R16  20506034.602 5 109539566.774 5     -1809.207          32.000    20506039.250 5  85197447.626 5     -1407.164          32.000
R18  20591898.258 6 109921011.171 6      -794.574          39.000    20591907.492 5  85494120.045 5      -618.005          30.000
R19  20836554.719 5 111461523.347 5      3100.316          33.000    20836559.758 7  86692300.070 7      2411.357          43.000
C14  25752913.094 5 134102170.384 5     -2706.777          35.000    25752915.719 6 103696359.312 6     -2092.641          40.000
C26  21976185.648 8 114435772.194 8     -1226.898          51.000
E02  24009091.734 8 126168617.337 8     -1156.668          49.000    24009092.297 7  96674685.738 7      -886.248          43.000
E07  25424932.055 5 133608924.285 5      -898.527          34.000
E08  24515927.047 6 128832046.827 6     -2878.293          36.000    24515915.844 6  98715471.651 6     -2205.290          36.000
> 2020 05 19 08 15  0.0000000  0 11        .000000000000
G12  20056955.516 8 105400012.960 8        13.777          51.000    20056954.312 8  82129879.667 8        10.736          51.000
G24  20753270.078 8 109059191.731 8     -1717.098          51.000    20753271.648 8  84981174.386 8     -1337.998          51.000
R07  21859423.859 5 117015108.337 5     -2611.129          30.000    21859423.766 5  91011789.608 5     -2030.881          32.000
R16  20516226.148 5 109594010.517 5     -1820.125          33.000    20516230.961 5  85239792.671 5     -1415.650          32.000
R18  20596446.586 5 109945289.997 5      -823.520          34.000    20596453.602 5  85513003.544 5      -640.509          31.000
R19  20819227.703 5 111368844.291 5      3079.348          34.000    20819233.836 7  86620216.444 7      2395.051          42.000
C14  25768519.031 5 134183427.652 5     -2710.562          35.000    25768520.938 6 103759192.543 6     -2095.997          39.000
C24  22354122.562 4 116403777.765 4      1303.723          27.000
C26  21983282.484 8 114472727.264 8     -1236.488          51.000
E02  24015711.461 8 126203404.066 8     -1162.059          50.000    24015712.016 7  96701340.510 7      -890.504          43.000
E08                                                                  24532365.141 6  98781702.052 6     -2209.423          36.000
> 2020 05 19 08 15 30.0000000  0 12        .000000000000
G12  20056887.648 8 105399656.012 8         2.977          51.000    20056886.391 8  82129601.526 8         2.319          50.000
G24  20763085.086 8 109110768.722 8     -1728.387          51.000    20763086.422 8  85021364.209 8     -1346.795          51.000
R16  20526448.211 5 109648613.080 5     -1827.031          32.000    20526452.672 5  85282261.311 5     -1421.021          34.000
R18  20601127.383 5 109970274.972 5      -849.109          35.000    20601134.438 4  85532436.343 4      -660.421          26.000
R19  20801990.109 6 111276635.261 6      3061.078          37.000    20801996.234 7  86548498.333 7      2380.839          44.000
C14  25784120.102 5 134264658.332 5     -2711.871          35.000    25784121.414 6 103822005.206 6     -2096.810          39.000
C24  22346596.289 4 116364609.851 4      1299.719          29.000
C26  21990404.430 8 114509812.891 8     -1242.887          51.000
E02  24022331.602 8 126238192.583 8     -1164.180          49.000    24022332.484 7  96727996.629 7      -892.079          42.000
E07  25435331.133 5 133663564.897 5      -924.629          33.000
E08                                                                  24548813.453 5  98847927.908 5     -2210.620          33.000
E30  22723935.734 5 119415081.472 5       993.828          35.000
> 2020 05 19 08 16  0.0000000  0 11        .000000000000
G12  20056917.172 8 105399811.010 8        -9.895          50.000    20056915.578 8  82129722.297 8        -7.710          50.000
G24  20772999.734 8 109162869.909 8     -1741.680          51.000    20773001.422 8  85061962.509 8     -1357.153          51.000
R16  20536747.742 5 109703629.348 5     -1836.730          32.000    20536752.648 5  85325051.668 5     -1428.571          35.000
R18  20605988.453 6 109996219.288 6      -876.777          38.000    20605994.172 4  85552595.242 4      -681.941          28.000
R19  20784889.969 6 111185155.682 6      3041.082          39.000    20784894.984 7  86477347.568 7      2365.286          43.000
C14  25799763.094 5 134346108.167 5     -2714.383          34.000    25799764.219 6 103884987.384 6     -2099.416          38.000
C26  21997598.938 8 114547277.552 8     -1251.363          51.000
E02  24028999.820 8 126273233.408 8     -1168.500          49.000    24029001.023 6  96754846.088 6      -895.431          41.000
E07  25440657.820 5 133691559.061 5      -938.270          32.000
E08  24565323.688 5 129091647.075 5     -2889.453          34.000    24565307.531 5  98914310.784 5     -2214.245          32.000
E30  22718288.891 5 119385381.616 5       988.973          35.000
> 2020 05 19 08 16 30.0000000  0 10        .000000000000
G12  20057007.422 8 105400285.257 8       -24.941          51.000    20057005.820 8  82130091.834 8       -19.435          51.000
G24  20782977.406 8 109215303.185 8     -1757.160          51.000    20782979.656 8  85102819.587 8     -1369.219          50.000
R07  21903759.016 5 117252514.283 5     -2667.422          34.000
R18  20610991.328 5 110022926.872 5      -906.668          33.000
R19  20767890.484 6 111094214.144 6      3018.516          40.000    20767893.977 7  86406615.283 7      2347.734          44.000
C14  25815411.039 5 134427584.763 5     -2719.984          33.000    25815412.227 6 103947990.179 6     -2103.385          37.000
C26  22004829.797 8 114584931.229 8     -1262.023          51.000
E02  24035679.477 8 126308334.561 8     -1174.777          50.000    24035680.531 6  96781741.738 6      -900.043          39.000
E08  24581822.570 6 129178362.203 6     -2895.477          37.000
E30  22712649.117 5 119355781.397 5       982.453          32.000
> 2020 05 19 08 17  0.0000000  0 11        .000000000000
G02  23786941.031 5 125001201.696 5      2030.586          32.000
G12  20057151.992 8 105401045.015 8       -33.309          51.000    20057150.680 8  82130683.845 8       -25.955          51.000
G24  20793011.523 8 109268034.161 8     -1765.844          49.000    20793014.398 8  85143908.653 8     -1375.982          49.000
R07  21918728.211 5 117332642.384 5     -2681.570          30.000    21918723.422 5  91258686.040 5     -2085.672          30.000
R18  20616131.656 6 110050362.651 6      -929.594          36.000
R19  20750986.125 7 111003780.771 7      3002.715          43.000    20750987.789 7  86336278.238 7      2335.445          43.000
C14  25831056.828 5 134509052.650 5     -2718.332          31.000    25831058.234 5 104010986.284 5     -2102.126          34.000
C26  22012090.680 8 114622741.164 8     -1266.043          51.000
E02  24042364.188 8 126343462.782 8     -1174.660          48.000    24042364.492 6  96808658.157 6      -900.088          38.000
E08  24598325.211 5 129265098.242 5     -2894.539          35.000
E30  22707018.117 5 119326182.879 5       982.172          33.000
> 2020 05 19 08 17 30.0000000  0  9        .000000000000
G12  20057433.719 8 105402526.096 8       -53.195          50.000    20057432.609 8  82131837.932 8       -41.451          50.000
G24  20803185.148 8 109321499.572 8     -1786.203          48.000    20803188.742 8  85185570.046 8     -1391.844          48.000
G25  20974677.359 5 110222708.141 5      1796.551          33.000    20974675.984 5  85887758.403 5      1399.910          32.000
R07  21933862.266 5 117413667.307 5     -2706.980          34.000    21933862.219 5  91321705.373 5     -2105.432          31.000
R18  20621489.953 5 110078968.503 5      -965.203          33.000
R19  20734260.594 7 110914304.493 7      2974.848          43.000    20734260.898 7  86266685.604 7      2313.770          44.000
C14                                                                  25846784.625 5 104074308.275 5     -2109.725          32.000
C26  22019464.875 8 114661140.119 8     -1281.688          51.000
E02  24049136.852 8 126379054.583 8     -1185.988          48.000    24049136.625 6  96835929.752 6      -908.643          38.000
> 2020 05 19 08 18  0.0000000  0 10        .000000000000
G12  20057744.773 8 105404160.792 8       -60.891          51.000    20057743.508 8  82133111.711 8       -47.447          51.000
G24  20813390.703 8 109375131.192 8     -1794.266          50.000    20813394.555 8  85227360.936 8     -1398.126          50.000
G25  20964413.617 5 110168800.084 5      1791.797          34.000    20964420.711 5  85845752.240 5      1396.214          32.000
R07  21949056.953 5 117495007.203 5     -2720.512          35.000    21949056.477 4  91384969.709 4     -2115.957          26.000
R18  20626959.961 5 110108167.364 5      -986.875          33.000    20626991.820 4  85639706.122 4      -767.563          29.000
R19  20717606.328 6 110825211.699 6      2959.391          41.000    20717606.344 7  86197391.236 7      2301.748          44.000
C14                                                                  25862482.992 5 104137519.708 5     -2108.366          32.000
C24  22309704.383 5 116172472.124 5      1263.191          30.000
C26  22026844.336 8 114699566.047 8     -1285.086          51.000
E02  24055889.719 8 126414542.541 8     -1184.984          48.000    24055889.086 6  96863121.807 6      -908.086          38.000
> 2020 05 19 08 18 30.0000000  0  9        .000000000000
G12  20058144.578 8 105406261.294 8       -77.977          50.000    20058143.227 8  82134748.465 8       -60.761          50.000
G24  20823687.781 8 109429240.834 8     -1811.832          51.000    20823690.969 8  85269524.272 8     -1411.820          51.000
G25  20954229.844 5 110115294.621 5      1776.410          35.000    20954239.500 5  85804059.632 5      1384.216          31.000
R07  21964370.195 5 117576976.651 5     -2742.938          35.000    21964366.086 4  91448754.143 4     -2133.402          25.000
R19  20701082.781 6 110736824.547 6      2934.281          38.000    20701083.781 7  86128645.690 7      2282.219          44.000
C14                                                                  25878213.711 5 104200858.156 5     -2113.374          32.000
C24  22302465.219 5 116134757.613 5      1251.961          32.000
C26  22034288.602 8 114738328.896 8     -1297.918          51.000
E02  24062682.281 7 126450239.278 7     -1193.508          46.000    24062681.898 6  96890473.816 6      -914.733          39.000
> 2020 05 19 08 19  0.0000000  0 10        .000000000000
G12  20058607.523 8 105408693.860 8       -85.855          51.000    20058606.242 8  82136643.976 8       -66.900          51.000
G24  20834050.633 8 109483695.459 8     -1820.219          51.000    20834053.023 8  85311956.402 8     -1418.355          51.000
G32  22457207.945 6 118013429.032 6      1459.348          37.000
R16  20599654.523 5 110039640.416 5     -1892.984          31.000    20599646.820 5  85586373.214 5     -1472.321          34.000
R18  20638382.672 5 110169093.016 5     -1041.039          32.000
R19  20684665.906 6 110649011.806 6      2917.961          36.000    20684668.070 7  86060346.859 7      2269.522          43.000
C14                                                                  25893951.211 5 104264219.897 5     -2111.855          33.000
C26  22041772.219 8 114777297.042 8     -1301.621          51.000
E02  24069489.383 7 126486011.778 7     -1192.828          45.000    24069489.492 6  96917883.871 6      -913.994          40.000
E08  24664701.891 5 129613885.176 5     -2910.633          34.000    24664706.477 5  99314546.670 5     -2229.995          34.000
> 2020 05 19 08 19 30.0000000  0 10        .000000000000
G12  20059101.984 8 105411291.677 8       -94.125          51.000    20059100.398 8  82138668.241 8       -73.347          51.000
G24  20844447.305 8 109538328.024 8     -1828.840          51.000    20844449.172 8  85354527.178 8     -1425.070          51.000
G32  22448896.203 6 117969744.297 6      1446.145          39.000    22448916.359 4  91924576.681 4      1126.851          28.000
R18  20644282.922 5 110200573.925 5     -1064.445          32.000
R19  20668325.539 5 110561608.335 5      2901.359          35.000    20668328.602 7  85992366.379 7      2256.616          43.000
C14                                                                  25909662.531 6 104327475.473 6     -2110.435          36.000
C26  22049263.672 8 114816305.665 8     -1305.695          51.000
E02  24076279.305 7 126521693.491 7     -1192.598          46.000    24076279.867 6  96945224.409 6      -913.827          40.000
E08  24681294.758 5 129701080.717 5     -2909.492          34.000    24681299.086 6  99381359.546 6     -2229.426          36.000
E30  22679407.406 5 119181084.578 5       961.676          35.000
> 2020 05 19 08 20  0.0000000  0 13        .000000000000
G12  20059711.320 8 105414493.572 8      -114.902          51.000    20059709.281 8  82141163.204 8       -89.534          51.000
G24  20854961.180 8 109593577.376 8     -1850.062          51.000    20854962.719 8  85397578.563 8     -1441.607          51.000
G29  23931633.844 5 125761580.839 5      3807.074          35.000    23931633.180 5  97996037.781 5      2966.551          33.000
G32  22440727.547 6 117926824.934 6      1420.031          36.000
R07  22010859.594 5 117825808.523 5     -2795.793          34.000
R16  20621002.859 5 110153666.523 5     -1916.285          33.000    20620996.148 5  85675060.204 5     -1490.438          32.000
R18  20650376.188 6 110233101.575 6     -1099.832          37.000    20650384.234 4  85736917.160 4      -855.428          28.000
