     3.02           OBSERVATION DATA    M (MIXED)           RINEX VERSION / TYPE
SAVERINEX           SC600               20200518 135933 LCL PGM / RUN BY / DATE
       G = GPS       R = GLONASS       C = COMPASS          COMMENT
       S = SBAS      J = QZSS          E = GALILEO          COMMENT
BEAN                                                        MARKER NAME
1                                                           MARKER NUMBER
GEODETIC                                                    MARKER TYPE
Unige DICCA         GTER                                    OBSERVER / AGENCY
SC60291900056       SC600               2.12(191202)        REC # / TYPE / VERS
                    HEMA45          NONE                    ANT # / TYPE
  4509407.8091   693652.4678  4442337.6214                  APPROX POSITION XYZ
        0.0000        0.0000        0.0000                  ANTENNA: DELTA H/E/N
G    8 C1C L1C D1C S1C C2Y L2Y D2Y S2Y                      SYS / # / OBS TYPES
R    8 C1C L1C D1C S1C C2P L2P D2P S2P                      SYS / # / OBS TYPES
C    8 C1I L1I D1I S1I C7I L7I D7I S7I                      SYS / # / OBS TYPES
E    8 C1C L1C D1C S1C C7Q L7Q D7Q S7Q                      SYS / # / OBS TYPES
DBHZ                                                        COMMENT
     30.000                                                 INTERVAL
  2020    05    18    11    00    0.0000000     GPS         TIME OF FIRST OBS
  2020    05    18    11    59   30.0000000     GPS         TIME OF LAST OBS
     0                                                      RCV CLOCK OFFS APPL
G L1C  0.00000                                              SYS / PHASE SHIFT
G L2Y  0.00000                                              SYS / PHASE SHIFT
R L1C  0.00000                                              SYS / PHASE SHIFT
R L2P  0.25000                                              SYS / PHASE SHIFT
C L1I  0.00000                                              SYS / PHASE SHIFT
C L7I  0.00000                                              SYS / PHASE SHIFT
E L1C  0.50000                                              SYS / PHASE SHIFT
E L7Q -0.25000                                              SYS / PHASE SHIFT
 13 R03  5 R04  6 R05  1 R06 -4 R09 -2 R10 -5 R14 -7 R15  0 GLONASS SLOT / FRQ #
    R16 -1 R17  4 R18 -3 R19  3 R20  2                      GLONASS SLOT / FRQ #
 C1C   71.950 C2C   71.950 C2P   71.950                     GLONASS COD/PHS/BIS
    18                                                      LEAP SECONDS
*** Above antenna height is from mark to ANTENNA BOTTOM.    COMMENT
    17     4        0.0000        ANT MEASURE TYPE/HEIGT    COMMENT
    0.0000    0.0000    0.0458    0.0405    0.0000          COMMENT
                    BASE STATION                            COMMENT
                                                            END OF HEADER
> 2020 05 18 11 00  0.0000000  0 21        .000000000000
G12  23069988.594 5 121233606.783 5     -2878.246          33.000    23069992.961 5  94467755.460 5     -2242.795          31.000
G14  23791370.602 7 125024486.201 7     -2231.164          44.000    23791367.391 6  97421677.461 6     -1738.569          37.000
G18  23190924.164 6 121869178.885 6      3591.445          41.000    23190927.172 6  94962970.873 6      2798.532          36.000
G21  23284076.781 6 122358653.564 6      3359.074          37.000    23284078.562 5  95344398.937 5      2617.460          35.000
G25  20947095.125 8 110077766.791 8     -1759.707          50.000    20947098.242 8  85774859.817 8     -1371.200          50.000
G29  20216668.359 8 106239303.052 8      -209.090          51.000    20216667.234 8  82783881.178 8      -162.927          51.000
R09  19257969.336 7 102836472.790 7      1110.180          47.000    19257970.711 7  79983915.626 7       863.473          45.000
R16  21407430.875 7 114354688.406 7     -3229.789          45.000    21407433.539 6  88942496.462 6     -2512.061          39.000
R18  22030827.180 5 117601959.723 5     -3837.953          35.000    22030836.203 4  91468309.622 4     -2985.078          28.000
R19  19286055.430 6 103167379.270 6      -809.012          40.000    19286055.992 7  80241320.634 7      -629.231          44.000
R20  21183897.625 6 113279828.622 6      3502.957          37.000    21183899.781 7  88106540.426 7      2724.525          45.000
C11  21982110.680 8 114466646.244 8      -936.957          51.000    21982109.836 8  88512882.661 8      -724.536          51.000
C12                                                                  25236481.883 6 101616823.403 6     -2355.983          37.000
C23  21972770.820 8 114418003.060 8       440.352          51.000
C25  23228620.000 8 120957506.334 8     -2456.508          51.000
C28  24568788.070 7 127936120.284 7      2972.371          43.000
E01  23586783.977 8 123949393.201 8       534.480          51.000    23586785.680 8  94974218.061 8       409.483          51.000
E13  24974843.617 6 131243696.092 6     -1794.270          37.000    24974846.469 5 100563358.810 5     -1374.390          32.000
E21  24987058.812 8 131307873.885 8     -1813.051          51.000    24987060.789 8 100612524.979 8     -1389.212          51.000
E26  22740082.281 8 119499937.242 8      1133.355          51.000    22740086.805 8  91564947.296 8       868.424          51.000
E33  26558908.336 6 139568004.714 6      3055.105          40.000
> 2020 05 18 11 00 30.0000000  0 20        .000000000000
G14  23804129.266 7 125091531.842 7     -2239.664          45.000    23804126.406 5  97473920.812 5     -1745.196          35.000
G18  23170430.055 6 121761485.105 6      3587.148          40.000    23170432.758 6  94879053.658 6      2795.184          36.000
G21  23264910.203 6 122257932.704 6      3354.379          37.000    23264911.344 4  95265915.213 4      2613.808          29.000
G25  20957163.156 8 110130674.309 8     -1768.543          50.000    20957166.242 8  85816086.424 8     -1378.088          50.000
G29  20217896.555 8 106245757.573 8      -222.184          51.000    20217895.453 8  82788910.666 8      -173.133          51.000
R09  19251778.234 7 102803412.700 7      1092.762          47.000    19251779.633 7  79958202.202 7       849.926          46.000
R16  21425599.258 7 114451734.495 7     -3240.996          47.000    21425601.391 6  89017976.699 6     -2520.775          40.000
R18  22052411.648 5 117717174.277 5     -3844.707          30.000    22052415.961 4  91557920.843 4     -2990.331          28.000
R19  19290652.531 6 103191970.755 6      -831.293          40.000    19290653.242 7  80260447.352 7      -646.561          45.000
R20  21164281.227 6 113174931.410 6      3488.988          37.000    21164283.250 7  88024953.725 7      2713.658          45.000
C11  21987538.148 8 114494907.740 8      -948.164          51.000    21987537.312 8  88534736.262 8      -733.286          51.000
C12  25254026.570 4 131504347.619 4     -3047.996          29.000    25254033.617 6 101687496.262 6     -2356.421          37.000
C23  21970267.609 8 114404966.897 8       427.742          51.000
C25  23242795.148 8 121031315.481 8     -2465.117          51.000
C28  24551674.781 7 127847005.768 7      2967.586          42.000
E01  23583747.984 8 123933439.011 8       528.066          51.000    23583749.672 8  94961993.427 8       404.646          51.000
E13  24985107.250 6 131297630.674 6     -1802.781          39.000    24985109.281 5 100604681.336 5     -1381.346          31.000
E21  24997421.031 8 131362328.964 8     -1818.340          51.000    24997423.562 8 100654250.282 8     -1393.270          51.000
E26  22733641.797 8 119466093.339 8      1121.742          51.000    22733646.383 8  91539014.976 8       859.544          51.000
E33  26541472.750 6 139476380.207 6      3052.129          39.000
> 2020 05 18 11 01  0.0000000  0 20        .000000000000
G12  23102921.961 6 121406664.107 6     -2877.484          36.000
G14  23816953.148 7 125158921.178 7     -2238.832          46.000    23816950.820 6  97526431.945 6     -1744.544          37.000
G18  23149978.125 6 121654013.636 6      3591.711          41.000    23149980.805 5  94795309.642 5      2798.733          33.000
G21  23245789.812 6 122157455.892 6      3358.035          39.000    23245792.297 5  95187621.688 5      2616.651          32.000
G25  20967300.258 8 110183943.497 8     -1768.562          50.000    20967302.805 8  85857594.866 8     -1378.101          50.000
G29  20219217.719 8 106252700.162 8      -226.504          51.000    20219216.680 8  82794320.480 8      -176.497          51.000
R09  19245703.719 8 102770975.655 8      1084.012          48.000    19245704.875 7  79932973.407 7       843.123          46.000
R16  21443848.219 7 114549212.448 7     -3243.191          47.000    21443850.430 7  89093792.838 7     -2522.482          43.000
R19  19295393.523 6 103217331.070 6      -844.758          40.000    19295394.383 7  80280172.042 7      -657.034          45.000
R20  21144758.852 6 113070546.688 6      3484.383          36.000    21144763.086 7  87943765.596 7      2710.076          46.000
C11  21993048.336 8 114523601.386 8      -950.758          51.000    21993047.555 8  88556923.997 8      -735.162          51.000
C12  25271603.414 4 131595869.954 4     -3040.012          28.000    25271609.180 6 101758267.128 6     -2350.669          36.000
C23  21967855.547 8 114392405.063 8       423.672          51.000
C25  23257037.258 8 121105475.481 8     -2464.926          50.000
C28  24534608.289 6 127758134.961 6      2970.965          41.000
E01  23580767.086 8 123917773.976 8       530.355          51.000    23580768.820 8  94949990.355 8       406.385          51.000
E13  24995439.141 6 131351925.623 6     -1802.738          39.000    24995441.805 5 100646285.916 5     -1381.337          31.000
E21  25007832.148 8 131417041.917 8     -1815.047          50.000    25007835.570 8 100696173.175 8     -1390.726          51.000
E26  22727285.883 8 119432695.340 8      1118.961          51.000    22727290.617 8  91513424.329 8       857.290          51.000
E33  26524073.391 6 139384945.630 6      3057.582          38.000
> 2020 05 18 11 01 30.0000000  0 21        .000000000000
G02  24426787.898 5 128363614.168 5     -2636.055          31.000
G12  23119414.094 5 121493360.263 5     -2876.375          33.000
G14  23829824.219 7 125226559.763 7     -2242.668          44.000    23829822.945 6  97579137.318 6     -1747.533          36.000
G18  23129551.414 6 121546675.595 6      3591.676          40.000    23129554.422 5  94711669.608 5      2798.702          31.000
G21  23226698.898 6 122057133.503 6      3357.605          40.000    23226700.773 5  95109448.502 5      2616.328          33.000
G25  20977488.641 8 110237482.263 8     -1773.109          49.000    20977490.734 8  85899313.371 8     -1381.644          49.000
G29  20220614.125 8 106260037.826 8      -234.984          51.000    20220612.914 8  82800038.144 8      -183.105          51.000
R09  19239728.922 8 102739071.360 8      1070.980          48.000    19239730.266 7  79908158.956 7       832.982          47.000
R16  21462159.969 7 114647027.249 7     -3249.711          47.000    21462162.320 7  89169870.975 7     -2527.553          42.000
R19  19300260.305 6 103243364.454 6      -862.492          40.000    19300260.953 7  80300420.219 7      -670.827          45.000
R20  21125315.617 6 112966583.809 6      3474.957          38.000    21125321.961 7  87862905.555 7      2702.744          47.000
C11  21998623.812 8 114552634.844 8      -957.473          50.000    21998623.289 8  88579374.507 8      -740.385          51.000
C12  25289185.766 4 131687426.483 4     -3035.941          29.000    25289191.516 6 101829064.418 6     -2348.023          36.000
C23  21965517.367 8 114380227.531 8       415.465          51.000
C25  23271329.109 8 121179894.325 8     -2468.934          49.000
C28  24517569.672 6 127669418.112 6      2970.633          38.000
E01  23577823.914 8 123902307.219 8       528.281          51.000    23577825.727 8  94938139.205 8       404.820          51.000
E13  25005821.766 6 131406487.491 6     -1807.070          36.000    25005826.000 5 100688096.084 5     -1385.111          32.000
E21  25018274.719 8 131471920.953 8     -1815.965          49.000    25018278.930 8 100738223.365 8     -1391.463          51.000
E26  22720997.438 8 119399651.972 8      1111.613          51.000    22721002.469 8  91488105.401 8       851.771          51.000
E33  26506692.812 5 139293610.697 5      3058.895          34.000
> 2020 05 18 11 02  0.0000000  0 20        .000000000000
G02  24441943.328 5 128443257.543 5     -2663.152          30.000
G14  23842734.852 7 125294406.171 7     -2270.977          44.000    23842734.727 6  97632004.605 6     -1769.592          38.000
G18  23109143.625 6 121439434.944 6      3567.125          41.000    23109146.656 5  94628105.479 5      2779.578          30.000
G21  23207630.727 6 121956929.633 6      3332.188          40.000    23207630.664 5  95031367.647 5      2596.513          30.000
G25  20987720.695 8 110291251.445 8     -1802.156          49.000    20987722.828 8  85941211.405 8     -1404.278          49.000
G29  20222078.055 8 106267731.026 8      -268.320          51.000    20222076.648 8  82806032.850 8      -209.081          51.000
R09  19233847.117 8 102707662.450 8      1032.609          48.000    19233848.422 7  79883729.818 7       803.141          47.000
R16  21480526.805 7 114745137.659 7     -3281.395          46.000    21480529.125 7  89246179.056 7     -2552.196          42.000
R19  19305245.125 6 103270029.461 6      -905.262          40.000    19305245.586 7  80321159.681 7      -704.092          45.000
R20  21105945.812 6 112863006.051 6      3439.941          40.000    21105953.000 8  87782345.089 8      2675.513          48.000
C11  22004256.898 8 114581968.380 8      -988.820          49.000    22004256.641 8  88602057.064 8      -764.489          51.000
C12  25306767.289 5 131778977.118 5     -3057.680          30.000    25306772.844 5 101899857.159 5     -2364.434          35.000
C23  21963245.727 8 114368396.873 8       382.602          51.000
C25  23285662.109 8 121254532.552 8     -2497.559          48.000
C28  24500549.438 5 127580817.927 5      2946.172          32.000
E01  23574911.273 8 123887000.889 8       501.605          51.000    23574913.023 8  94926410.986 8       384.287          51.000
E13  25016247.773 5 131461275.970 5     -1835.949          33.000    25016251.461 5 100730076.892 5     -1407.072          33.000
E21  25028741.344 8 131526927.239 8     -1841.703          48.000    25028746.320 8 100780371.030 8     -1411.121          50.000
E26  22714769.523 8 119366924.859 8      1079.551          51.000    22714774.742 8  91463028.795 8       827.179          51.000
E33                                                                  26489321.852 5 106661528.887 5      2326.034          35.000
> 2020 05 18 11 02 30.0000000  0 20        .000000000000
G02  24457169.148 5 128523272.268 5     -2670.461          31.000
G14  23855718.000 7 125362633.890 7     -2277.461          43.000    23855719.070 6  97685169.017 6     -1774.648          41.000
G18  23088789.094 7 121332471.397 7      3564.035          44.000    23088790.578 3  94544757.356 3      2777.167          20.000
G21  23188618.844 6 121857023.472 6      3328.473          37.000    23188618.602 6  94953518.755 6      2593.627          36.000
G25  20998030.250 8 110345427.448 8     -1809.410          48.000    20998032.328 8  85983426.462 8     -1409.930          48.000
G29  20223643.117 8 106275955.529 8      -279.648          51.000    20223641.891 8  82812441.565 8      -217.908          51.000
R09  19228091.875 8 102676931.037 8      1016.387          49.000    19228093.312 7  79859827.593 7       790.523          47.000
R16  21498981.836 7 114843721.896 7     -3290.496          45.000    21498984.344 6  89322855.683 6     -2559.275          40.000
R19  19310380.992 6 103297503.974 6      -925.840          41.000    19310381.594 7  80342528.759 7      -720.098          44.000
R20  21086683.359 7 112759995.911 7      3427.617          42.000    21086690.102 8  87702226.116 8      2665.924          49.000
C11  22009980.898 8 114611775.747 8      -998.172          49.000    22009980.867 8  88625106.014 8      -771.877          51.000
C12  25324381.500 5 131870697.559 5     -3055.672          31.000    25324385.898 5 101970779.600 5     -2363.688          33.000
C23  21961074.320 8 114357089.267 8       371.383          51.000
C25  23300069.039 8 121329564.202 8     -2504.281          48.000
C28  24483582.602 5 127492444.978 5      2941.578          32.000
E01  23572062.898 8 123872032.665 8       496.625          51.000    23572064.578 8  94914941.829 8       380.501          51.000
E13  25026749.961 5 131516459.380 5     -1843.008          35.000    25026751.805 5 100772362.637 5     -1412.336          33.000
E21  25039266.242 8 131582237.478 8     -1845.520          49.000    25039271.461 8 100822751.597 8     -1414.078          50.000
E26  22708635.727 8 119334691.179 8      1069.484          51.000    22708640.844 8  91438330.269 8       819.472          51.000
E33                                                                  26471999.766 6 106591777.149 6      2324.394          37.000
> 2020 05 18 11 03  0.0000000  0 19        .000000000000
G14  23868792.961 7 125431344.085 7     -2288.195          44.000    23868794.875 6  97738709.394 6     -1783.012          39.000
G18  23068507.844 7 121225891.521 7      3556.371          46.000    23068509.047 4  94461708.514 4      2771.204          28.000
G21  23169683.703 6 121757521.372 6      3320.414          37.000    23169684.539 5  94875984.683 5      2587.339          33.000
G25  21008436.562 7 110400113.641 7     -1821.195          47.000    21008438.805 7  86026039.086 7     -1419.113          47.000
G29  20225328.805 8 106284814.202 8      -295.684          51.000    20225327.766 8  82819344.445 8      -230.403          51.000
R09  19222483.914 8 102646985.019 8       995.383          49.000    19222485.258 7  79836536.254 7       774.187          47.000
R16  21517544.844 7 114942883.586 7     -3304.742          46.000    21517547.109 6  89399981.401 6     -2570.358          38.000
R19  19315687.703 6 103325891.348 6      -951.141          41.000    19315688.352 7  80364607.828 7      -739.776          44.000
R20  21067547.688 7 112657661.678 7      3410.070          43.000    21067553.523 8  87622632.864 8      2652.280          49.000
C11  22015815.367 8 114642158.460 8     -1012.180          49.000    22015815.727 8  88648599.867 8      -782.796          51.000
C12  25342047.312 5 131962688.042 5     -3061.406          32.000    25342051.211 5 102041910.117 5     -2367.014          33.000
C23  21959023.094 8 114346408.513 8       355.586          51.000
C25  23314571.688 8 121405090.959 8     -2515.816          50.000
C28  24466697.492 6 127404534.919 6      2933.980          36.000
E01  23569298.727 8 123857507.251 8       486.906          51.000    23569300.391 8  94903811.972 8       373.063          51.000
E13  25037347.625 6 131572153.963 6     -1854.520          37.000    25037350.031 5 100815037.652 5     -1420.825          34.000
E21  25049869.250 8 131637955.402 8     -1853.949          50.000    25049873.805 8 100865444.536 8     -1420.588          50.000
E26  22702615.703 8 119303055.099 8      1054.723          51.000    22702620.500 8  91414089.666 8       808.140          51.000
E33  26454749.633 5 139020634.202 5      3027.070          35.000    26454743.547 6 106522290.384 6      2319.611          39.000
> 2020 05 18 11 03 30.0000000  0 19        .000000000000
G14  23881873.344 7 125500082.530 7     -2297.102          44.000    23881875.766 6  97792271.757 6     -1789.952          40.000
G18  23048214.352 7 121119246.821 7      3550.422          47.000    23048215.852 5  94378608.790 5      2766.562          32.000
G21  23150740.109 5 121657974.752 5      3313.219          33.000    23150743.219 4  94798416.019 4      2581.738          28.000
G25  21018853.656 7 110454858.335 7     -1831.051          47.000    21018856.273 7  86068697.277 7     -1426.793          46.000
G29  20227049.086 8 106293854.313 8      -309.688          51.000    20227047.789 8  82826388.678 8      -241.315          51.000
R09  19216937.469 8 102617368.032 8       976.266          49.000    19216938.734 8  79813500.826 8       759.315          48.000
R16  21536130.008 7 115042162.437 7     -3316.863          45.000    21536132.039 6  89477198.143 6     -2579.786          38.000
R19  19321078.812 6 103354729.955 6      -974.148          41.000    19321079.617 7  80387037.878 7      -757.671          45.000
R20  21048452.562 7 112555546.758 7      3394.707          42.000    21048457.344 8  87543210.211 8      2640.331          48.000
C11  22021674.289 8 114672667.905 8     -1024.363          49.000    22021674.914 8  88672191.693 8      -792.100          51.000
C12  25359678.289 5 132054495.544 5     -3063.121          32.000    25359681.500 5 102112901.480 5     -2368.219          33.000
C23  21957006.602 8 114335908.231 8       341.605          51.000
C25  23329084.516 8 121480664.434 8     -2525.215          50.000
C28  24449805.812 6 127316575.887 6      2927.484          39.000
E01  23566533.086 8 123842974.192 8       479.195          51.000    23566534.695 8  94892676.251 8       367.209          51.000
E13  25047955.172 5 131627892.792 5     -1864.020          33.000    25047959.961 5 100857747.944 5     -1428.490          34.000
E21  25060464.023 8 131693629.591 8     -1860.391          50.000    25060467.250 8 100908103.954 8     -1425.422          48.000
E26  22696623.805 8 119271565.676 8      1041.852          51.000    22696627.836 8  91389961.431 8       798.317          51.000
E33  26437472.070 6 138929844.009 6      3022.875          36.000    26437467.828 6 106452723.947 6      2315.933          40.000
> 2020 05 18 11 04  0.0000000  0 19        .000000000000
G14  23895015.422 7 125569144.306 7     -2306.441          44.000    23895018.031 6  97846086.100 6     -1797.230          39.000
G18  23027965.680 7 121012837.752 7      3543.973          47.000    23027967.227 5  94295692.654 5      2761.540          33.000
G21  23131843.633 5 121558651.957 5      3306.488          32.000
G25  21029338.766 8 110509958.687 8     -1841.707          48.000    21029341.141 8  86111632.621 8     -1435.093          48.000
G29  20228860.383 8 106303372.581 8      -324.324          51.000    20228859.133 8  82833805.504 8      -252.720          51.000
R09  19211509.602 8 102588384.919 8       956.445          49.000    19211511.141 8  79790958.399 8       743.902          48.000
R16  21554793.367 7 115141858.794 7     -3329.316          44.000    21554796.445 6  89554739.653 6     -2589.471          41.000
R19  19326610.453 6 103384320.017 6      -997.938          40.000    19326611.156 7  80410052.372 7      -776.171          44.000
R20  21029454.500 6 112453956.411 6      3378.383          39.000    21029458.531 7  87464195.545 7      2627.634          46.000
C11  22027613.773 8 114703597.589 8     -1037.094          48.000    22027614.609 8  88696108.482 8      -801.886          51.000
C12  25377330.781 5 132146416.401 5     -3064.441          31.000    25377333.266 5 102183980.543 5     -2369.778          33.000
C23  21955081.758 8 114325884.281 8       327.039          51.000
C25  23343663.328 8 121556578.385 8     -2535.242          50.000
C28  24432962.539 6 127228863.980 6      2920.438          41.000
E01  23563822.922 8 123828732.006 8       470.770          51.000    23563824.328 8  94881763.410 8       360.776          51.000
E13                                                                  25058635.516 5 100900728.360 5     -1436.512          33.000
E21  25071107.266 8 131749557.596 8     -1867.527          51.000    25071109.227 8 100950957.855 8     -1430.983          49.000
E26  22690716.516 8 119240520.910 8      1028.383          51.000    22690719.766 8  91366173.888 8       787.949          51.000
E33  26420232.023 6 138839255.960 6      3017.352          36.000    26420229.016 6 106383306.983 6      2312.077          41.000
> 2020 05 18 11 04 30.0000000  0 19        .000000000000
G14  23908210.961 7 125638487.201 7     -2316.227          43.000    23908213.641 6  97900119.483 6     -1804.852          40.000
G18  23007754.844 7 120906627.968 7      3536.703          46.000    23007755.766 5  94212931.804 5      2755.873          35.000
G21  23112987.312 4 121459571.111 4      3298.938          29.000
G25  21039884.297 8 110565375.189 8     -1852.684          49.000    21039886.281 8  86154814.293 8     -1443.650          49.000
G29  20230754.719 8 106313328.640 8      -339.367          51.000    20230753.758 8  82841563.476 8      -264.442          51.000
R09  19206193.547 8 102559998.078 8       936.105          49.000    19206195.414 8  79768879.743 8       728.082          49.000
R16  21573526.570 7 115241931.181 7     -3342.250          43.000    21573531.008 7  89632573.732 7     -2599.525          42.000
R19  19332274.500 6 103414619.804 6     -1021.871          40.000    19332275.469 7  80433618.882 7      -794.789          45.000
R20  21010546.844 6 112352853.613 6      3361.691          38.000    21010551.195 7  87385560.089 7      2614.652          46.000
C11  22033626.359 8 114734907.211 8     -1050.070          49.000    22033627.273 8  88720319.087 8      -812.102          51.000
C12  25394997.438 5 132238414.359 5     -3068.000          30.000    25394998.922 5 102255116.084 5     -2372.393          33.000
C23  21953240.906 8 114316298.741 8       311.996          51.000
C25  23358300.141 8 121632792.869 8     -2545.594          50.000
C28  24416159.961 6 127141361.476 6      2912.926          39.000
E01  23561160.961 8 123814742.383 8       461.957          51.000    23561162.023 8  94871044.102 8       353.916          51.000
E13  25069361.164 5 131740401.413 5     -1885.145          33.000    25069367.016 5 100943943.639 5     -1444.530          33.000
E21  25081791.516 8 131805700.132 8     -1875.180          51.000    25081792.641 8 100993976.114 8     -1436.820          49.000
E26  22684886.172 8 119209881.947 8      1014.352          51.000    22684889.211 8  91342697.294 8       777.218          51.000
E33  26403021.742 5 138748816.233 5      3011.309          35.000    26403019.656 6 106314010.540 6      2307.627          41.000
> 2020 05 18 11 05  0.0000000  0 18        .000000000000
G14  23921460.203 7 125708112.685 7     -2324.922          44.000    23921463.352 6  97954373.055 6     -1811.630          38.000
G18  22987583.062 7 120800624.653 7      3530.484          46.000    22987583.883 6  94130331.835 6      2751.027          38.000
G25  21050490.719 8 110621111.768 8     -1862.418          49.000    21050492.711 8  86198245.341 8     -1451.238          49.000
G29  20232733.188 8 106323725.969 8      -353.223          51.000    20232732.141 8  82849665.267 8      -275.238          51.000
R09  19200990.523 8 102532214.106 8       916.707          50.000    19200992.367 8  79747269.974 8       712.994          49.000
R16  21592329.227 6 115342382.371 6     -3353.801          39.000    21592335.734 7  89710702.437 7     -2608.515          44.000
R19  19338071.500 6 103445631.339 6     -1044.996          40.000    19338072.578 7  80457738.963 7      -812.775          44.000
R20  20991732.164 6 112252245.141 6      3345.840          38.000    20991736.578 7  87307309.104 7      2602.323          45.000
C11  22039712.766 8 114766599.756 8     -1062.137          49.000    22039713.625 8  88744825.756 8      -821.224          51.000
C12  25412678.250 4 132330484.988 4     -3069.711          29.000    25412678.844 5 102326310.119 5     -2373.263          33.000
C23  21951485.000 8 114307156.840 8       298.078          51.000
C25  23372995.188 8 121709311.030 8     -2554.895          50.000
C28  24399398.141 6 127054073.844 6      2906.633          37.000
E01  23558548.094 8 123801010.598 8       454.125          51.000    23558548.875 8  94860522.347 8       347.936          51.000
E13  25080152.234 5 131797088.315 5     -1894.352          33.000    25080156.570 5 100987397.892 5     -1451.708          34.000
E21  25092517.391 8 131862061.458 8     -1881.727          51.000    25092517.898 8 101037162.026 8     -1441.795          50.000
E26  22679133.945 8 119179653.479 8      1001.488          51.000    22679137.031 8  91319535.243 8       767.344          51.000
E33                                                                  26385840.930 6 106244839.114 6      2304.056          41.000
> 2020 05 18 11 05 30.0000000  0 18        .000000000000
G14  23934759.617 7 125778000.092 7     -2333.938          44.000    23934762.844 6  98008830.737 6     -1818.656          39.000
G18  22967447.492 7 120694813.064 7      3523.648          44.000    22967448.438 6  94047881.281 6      2745.703          39.000
G25  21061154.688 8 110677150.381 8     -1873.227          50.000    21061156.180 8  86241911.751 8     -1459.657          50.000
G29  20234792.094 8 106334546.041 8      -367.938          51.000    20234791.234 8  82858096.510 8      -286.705          51.000
R09  19195897.523 8 102505017.661 8       896.395          50.000    19195899.445 8  79726117.196 8       697.196          50.000
R16  21611199.312 6 115443192.730 6     -3366.629          39.000    21611207.477 7  89789110.527 7     -2618.486          43.000
R19  19343997.828 6 103477334.128 6     -1068.465          40.000    19343999.148 7  80482396.688 7      -831.028          45.000
R20  20973007.430 6 112152115.841 6      3329.453          40.000    20973011.781 7  87229430.806 7      2589.575          45.000
C11  22045868.906 8 114798656.427 8     -1074.863          49.000    22045869.805 8  88769614.003 8      -831.080          51.000
C12  25430370.047 5 132422609.317 5     -3071.742          30.000    25430370.289 5 102397548.043 5     -2375.486          33.000
C23  21949811.109 8 114298442.034 8       283.148          51.000
C25  23387744.977 8 121786114.311 8     -2565.055          50.000
C28  24382673.789 6 126966984.954 6      2899.266          37.000
E01  23555981.102 8 123787519.937 8       445.535          51.000    23555981.836 8  94850185.351 8       341.387          51.000
E13                                                                  25091002.844 5 101031072.479 5     -1460.008          35.000
E21  25103281.352 8 131918623.901 8     -1888.934          51.000    25103281.609 8 101080502.058 8     -1447.383          50.000
E26  22673456.625 8 119149818.282 8       987.750          51.000    22673459.641 8  91296674.502 8       756.901          51.000
E33  26368679.625 5 138568383.022 5      3001.828          32.000    26368689.844 6 106175780.329 6      2299.967          41.000
> 2020 05 18 11 06  0.0000000  0 18        .000000000000
G14  23948109.477 7 125848153.964 7     -2339.789          42.000    23948112.492 6  98063496.059 6     -1823.212          38.000
G18  22947349.586 7 120589203.134 7      3519.918          42.000    22947351.547 6  93965587.823 6      2742.796          40.000
G25  21071877.391 8 110733497.756 8     -1880.496          49.000    21071878.547 8  86285818.778 8     -1465.322          48.000
G29  20236932.633 8 106345794.552 8      -379.047          51.000    20236931.836 8  82866861.599 8      -295.361          51.000
R09  19190916.172 8 102478417.897 8       879.746          51.000    19190918.227 8  79705428.482 8       684.247          50.000
R16  21630139.367 6 115544367.630 6     -3375.770          40.000    21630147.117 6  89867802.083 6     -2625.605          41.000
R19  19350054.461 6 103509733.234 6     -1088.359          41.000    19350055.977 7  80507595.996 7      -846.502          45.000
R20  20954374.656 7 112052475.495 7      3316.152          42.000    20954378.688 7  87151932.818 7      2579.230          45.000
C11  22052095.914 8 114831082.777 8     -1084.172          49.000    22052096.820 8  88794688.114 8      -838.353          51.000
C12  25448073.906 5 132514798.912 5     -3071.082          31.000    25448074.047 5 102468834.074 5     -2374.997          33.000
C23  21948220.922 8 114290162.268 8       271.707          51.000
C25  23402550.016 8 121863208.650 8     -2571.590          49.000
C28  24365990.102 6 126880102.856 6      2895.699          40.000
E01  23553461.453 8 123774278.420 8       440.180          51.000    23553462.297 8  94840039.261 8       337.230          51.000
E13  25101905.336 5 131911401.971 5     -1911.773          32.000    25101906.719 5 101074973.641 5     -1465.009          35.000
E21  25114084.719 8 131975394.493 8     -1892.938          51.000    25114085.414 8 101124001.579 8     -1450.475          51.000
E26  22667855.305 8 119120383.810 8       977.402          51.000    22667858.461 8  91274120.803 8       748.877          51.000
E33                                                                  26351567.906 6 106106840.758 6      2298.234          40.000
> 2020 05 18 11 06 30.0000000  0 19        .000000000000
G14  23961508.812 7 125918569.384 7     -2351.922          42.000    23961511.547 6  98118365.144 6     -1832.666          36.000
G18  22927289.961 7 120483795.883 7      3509.859          42.000    22927293.367 6  93883452.291 6      2734.955          40.000
G21  23037998.781 5 121065457.448 5      3269.766          35.000
G25  21082658.172 7 110790151.675 7     -1893.980          47.000    21082659.680 7  86329964.633 7     -1475.832          47.000
G29  20239154.234 8 106357468.609 8      -396.465          51.000    20239153.367 8  82875958.263 8      -308.934          51.000
R09  19186047.008 8 102452415.330 8       856.461          51.000    19186049.047 8  79685204.266 8       666.133          51.000
R16  21649148.594 7 115645903.439 7     -3390.816          45.000    21649154.477 6  89946774.319 6     -2637.302          39.000
R19  19356240.719 6 103542824.160 6     -1114.801          41.000    19356241.797 7  80533333.393 7      -867.067          45.000
R20  20935833.820 7 111953324.759 7      3296.469          42.000    20935837.195 7  87074815.658 7      2563.923          45.000
C11  22058393.430 8 114863875.657 8     -1099.508          48.000    22058394.328 8  88820045.627 8      -850.224          51.000
C12  25465789.375 5 132607047.320 5     -3076.391          30.000    25465789.180 5 102540165.539 5     -2378.241          32.000
C23  21946714.227 8 114282316.530 8       253.945          51.000
C25  23417410.297 8 121940590.942 8     -2584.582          50.000
C28  24349347.352 7 126793426.925 7      2885.426          43.000
E01  23550988.867 8 123761285.086 8       428.617          51.000    23550989.930 8  94830083.328 8       328.403          51.000
E13  25112862.164 5 131968985.066 5     -1925.309          33.000    25112866.078 5 101119098.773 5     -1475.135          35.000
E21  25124927.000 8 132032371.261 8     -1903.055          51.000    25124928.438 8 101167659.083 8     -1458.158          51.000
E26  22662329.852 8 119091348.487 8       960.766          51.000    22662333.570 8  91251872.942 8       736.204          51.000
E33                                                                  26334475.016 6 106038020.065 6      2291.712          39.000
> 2020 05 18 11 07  0.0000000  0 19        .000000000000
G14  23974960.758 6 125989260.652 6     -2360.555          41.000    23974962.570 6  98173449.181 6     -1839.396          37.000
G18  22907273.086 7 120378610.934 7      3502.750          42.000    22907277.070 6  93801490.013 6      2729.416          39.000
G21  23019361.969 5 120967503.818 5      3260.953          35.000
G25  21093500.148 7 110847128.627 7     -1904.367          46.000    21093502.297 7  86374362.242 7     -1483.922          46.000
G29  20241459.648 8 106369584.260 8      -410.930          51.000    20241458.914 8  82885399.038 8      -320.205          51.000
R09  19181292.992 8 102427029.449 8       836.203          51.000    19181295.062 8  79665459.690 8       650.380          51.000
R16  21668228.812 7 115747815.734 7     -3402.988          46.000    21668231.977 6  90026039.344 6     -2646.772          36.000
R19  19362559.086 6 103576621.970 6     -1138.043          41.000    19362559.898 7  80559620.567 7      -885.145          45.000
R20  20917387.922 6 111854683.506 6      3279.871          41.000    20917390.570 7  86998094.732 7      2551.011          45.000
C11  22064764.203 8 114897050.457 8     -1111.816          49.000    22064765.258 8  88845698.481 8      -859.896          51.000
C12  25483519.000 5 132699369.795 5     -3078.320          30.000    25483519.039 5 102611554.366 5     -2380.510          30.000
C23  21945294.070 8 114274922.553 8       239.207          51.000
C25  23432329.195 8 122018276.867 8     -2594.277          50.000
C28  24332747.703 7 126706975.092 7      2878.223          45.000
E01  23548566.805 8 123748557.829 8       420.109          51.000    23548568.102 8  94820331.274 8       321.875          51.000
E13                                                                  25123882.539 5 101163459.609 5     -1482.270          33.000
E21  25135811.531 8 132089571.129 8     -1910.129          51.000    25135813.578 8 101211487.527 8     -1463.587          51.000
E26  22656883.820 8 119062729.610 8       947.246          51.000    22656888.180 8  91229944.204 8       725.800          51.000
E33                                                                  26317415.000 6 105969332.420 6      2287.384          38.000
> 2020 05 18 11 07 30.0000000  0 21        .000000000000
G02  24612260.562 5 129338273.933 5     -2743.434          32.000
G14  23988457.766 6 126060189.456 6     -2352.695          39.000    23988458.852 6  98228718.307 6     -1833.269          37.000
G18  22887292.914 7 120273615.944 7      3512.230          43.000    22887295.852 6  93719675.774 6      2736.806          37.000
G21  23000763.695 6 120869757.587 6      3270.102          36.000
G25  21104396.883 7 110904392.710 7     -1898.223          46.000    21104399.430 7  86418983.633 7     -1479.131          45.000
G29  20243842.211 8 106382104.913 8      -408.625          51.000    20243841.625 8  82895155.381 8      -318.409          51.000
R09  19176648.164 8 102402226.415 8       832.711          51.000    19176649.977 8  79646168.443 8       647.664          51.000
R16  21687371.961 7 115850066.337 7     -3398.168          46.000    21687373.250 6  90105567.498 6     -2643.023          37.000
R18  22359092.906 5 119354195.755 5     -3930.598          33.000
R19  19369002.023 6 103611088.161 6     -1143.766          39.000    19369003.227 7  80586427.629 7      -889.595          45.000
R20  20899030.234 6 111756518.085 6      3279.891          40.000    20899032.625 7  86921743.878 7      2551.026          44.000
C11  22071201.344 8 114930570.510 8     -1107.727          49.000    22071202.406 8  88871618.295 8      -856.456          51.000
C12  25501255.312 5 132791727.578 5     -3063.094          30.000    25501256.086 4 102682988.974 4     -2368.832          29.000
C23  21943954.055 8 114267945.981 8       240.824          51.000
C25  23447299.516 8 122096230.073 8     -2587.531          50.000
C28  24316183.797 7 126620713.325 7      2887.543          45.000
E01  23546188.844 8 123736062.063 8       428.270          51.000    23546190.219 8  94810756.592 8       328.140          51.000
E13                                                                  25134949.547 5 101208027.847 5     -1477.035          33.000
E21  25146731.852 8 132146958.456 8     -1900.508          51.000    25146734.289 8 101255459.623 8     -1456.224          51.000
E26  22651510.531 8 119034491.928 8       950.543          51.000    22651515.016 8  91208307.561 8       728.305          51.000
E33  26300379.023 5 138209424.277 5      2995.398          31.000    26300381.906 6 105900751.659 6      2296.289          38.000
> 2020 05 18 11 08  0.0000000  0 21        .000000000000
G02  24628000.391 5 129421008.858 5     -2770.809          31.000    24627993.070 4 100847527.669 4     -2159.072          27.000
G14  24001969.422 6 126131194.328 6     -2380.359          40.000    24001970.156 6  98284046.741 6     -1854.829          36.000
G18  22867319.320 7 120168655.062 7      3485.789          43.000    22867320.406 5  93637888.137 5      2716.202          34.000
G21  22982174.500 5 120772063.227 5      3243.098          34.000
G25  21115318.242 7 110961785.008 7     -1927.434          46.000    21115321.016 7  86463704.922 7     -1501.896          46.000
G29  20246271.445 8 106394870.864 8      -441.879          51.000    20246270.828 8  82905102.883 8      -344.321          51.000
R09  19172082.812 8 102377847.038 8       793.078          51.000    19172084.445 8  79627206.719 8       616.839          51.000
R16  21706546.578 7 115952492.284 7     -3429.613          42.000    21706548.352 6  90185232.004 6     -2667.483          40.000
R18  22381250.836 5 119472487.869 5     -3955.953          33.000
R19  19375539.211 6 103646058.783 6     -1186.703          40.000    19375540.344 7  80613626.976 7      -922.991          45.000
R20  20880731.172 6 111658669.720 6      3244.066          39.000    20880733.805 7  86845639.583 7      2523.160          42.000
C11  22077674.500 8 114964277.257 8     -1138.762          50.000    22077675.375 8  88897682.492 8      -880.602          51.000
C12  25518968.516 4 132883965.231 4     -3084.777          28.000
C23  21942664.195 8 114261230.583 8       207.316          51.000
C25  23462290.930 8 122174292.269 8     -2616.047          50.000
C28  24299625.359 7 126534485.702 7      2861.559          45.000
E01  23543825.047 8 123723640.147 8       400.562          51.000    23543826.367 8  94801238.504 8       306.939          51.000
E13                                                                  25146038.234 5 101252680.752 5     -1499.358          33.000
E21  25157657.523 8 132204374.635 8     -1926.652          50.000    25157660.516 8 101299453.821 8     -1476.215          51.000
E26  22646179.711 8 119006477.296 8       917.805          51.000    22646184.000 8  91186841.809 8       703.289          51.000
E33  26283358.719 5 138119983.062 5      2972.293          35.000    26283346.602 6 105832157.523 6      2277.363          38.000
> 2020 05 18 11 08 30.0000000  0 20        .000000000000
G02  24643877.789 5 129504445.252 5     -2778.535          31.000    24643875.031 5 100912542.755 5     -2165.092          31.000
G14  24015616.180 6 126202908.101 6     -2388.645          41.000    24015616.688 6  98339927.569 6     -1861.281          39.000
G18  22847473.742 7 120064367.113 7      3478.695          42.000    22847474.500 5  93556624.863 5      2710.672          34.000
G21  22963714.086 5 120675059.016 5      3235.871          35.000    22963703.266 5  94032524.948 5      2521.458          32.000
G25  21126385.148 7 111019941.159 7     -1937.777          47.000    21126387.883 8  86509021.417 8     -1509.956          48.000
G29  20248868.227 8 106408517.073 8      -455.895          51.000    20248867.375 8  82915736.301 8      -355.242          51.000
R09  19167717.953 8 102354540.114 8       772.855          51.000    19167719.789 8  79609079.095 8       601.110          51.000
R16  21725872.422 6 116055738.286 6     -3441.203          38.000    21725876.883 6  90265534.367 6     -2676.494          41.000
R18  22403532.508 5 119591432.247 5     -3961.777          34.000
R19  19382291.234 6 103682178.780 6     -1209.371          39.000    19382292.883 7  80641720.318 7      -940.622          45.000
R20  20862613.086 6 111561788.036 6      3227.004          40.000    20862615.273 6  86770287.167 6      2509.895          41.000
C11  22084304.289 8 114998799.737 8     -1150.926          50.000    22084305.039 8  88924377.445 8      -889.809          51.000
C23  21941545.656 8 114255407.412 8       192.711          51.000
C25  23477424.016 8 122253092.444 8     -2625.461          51.000
C28  24283193.922 7 126448923.551 7      2854.496          44.000
E01  23541596.555 8 123711928.944 8       392.176          51.000    23541597.766 8  94792264.991 8       300.510          51.000
E13                                                                  25157269.742 5 101297899.415 5     -1506.604          33.000
E21  25168709.383 8 132262455.535 8     -1933.434          48.000    25168712.789 8 101343957.348 8     -1481.471          51.000
E26  22641012.195 8 118979321.892 8       904.484          51.000    22641016.664 8  91166034.456 8       693.040          51.000
E33  26266437.109 6 138031075.665 6      2966.766          36.000    26266430.172 6 105764038.370 6      2272.970          38.000
> 2020 05 18 11 09  0.0000000  0 20        .000000000000
G02  24659751.414 5 129587856.413 5     -2784.148          31.000
G14  24029260.109 7 126274606.181 7     -2393.918          42.000    24029260.672 6  98395796.184 6     -1865.391          39.000
G18  22827618.992 7 119960033.054 7      3474.270          42.000    22827621.195 5  93475325.643 5      2707.223          34.000
G21  22945248.023 6 120578025.487 6      3230.789          38.000    22945240.141 4  93956927.456 4      2517.498          24.000
G25  21137460.008 8 111078138.757 8     -1944.719          48.000    21137462.688 8  86554370.167 8     -1515.365          49.000
G29  20251494.875 8 106422320.231 8      -466.863          51.000    20251494.102 8  82926492.009 8      -363.787          51.000
R09  19163417.219 8 102331574.020 8       755.680          51.000    19163418.961 8  79591216.572 8       587.751          51.000
R16  21745213.289 6 116159068.597 6     -3449.918          38.000    21745220.672 6  90345902.389 6     -2683.270          41.000
R18  22425797.086 5 119710291.992 5     -3965.090          33.000
R19  19389120.500 6 103718710.289 6     -1228.723          40.000    19389121.898 7  80670133.702 7      -955.673          45.000
R20  20844539.953 6 111465140.526 6      3213.445          40.000    20844540.672 6  86695116.942 6      2499.349          41.000
C11  22090952.867 8 115033420.882 8     -1159.785          50.000    22090953.688 8  88951148.718 8      -896.847          51.000
C23  21940461.445 8 114249761.860 8       181.172          51.000
C25  23492561.094 8 122331914.076 8     -2631.824          50.000
C28  24266752.289 7 126363312.653 7      2850.168          44.000
E01  23539366.109 8 123700207.446 8       386.680          51.000    23539367.281 8  94783283.578 8       296.326          51.000
E13  25168505.016 6 132261397.579 6     -1972.840          36.000    25168505.656 5 101343139.481 5     -1512.064          34.000
E21  25179750.359 8 132320479.114 8     -1937.336          49.000    25179754.070 8 101388416.973 8     -1484.452          51.000
E26  22635870.812 8 118952304.056 8       894.086          51.000    22635875.578 8  91145332.517 8       685.106          51.000
E33  26249494.031 6 137942053.645 6      2964.324          37.000    26249494.898 6 105695842.069 6      2271.249          39.000
> 2020 05 18 11 09 30.0000000  0 20        .000000000000
G02  24675674.047 5 129671528.548 5     -2792.945          33.000
G14  24042954.008 7 126346566.058 7     -2402.938          42.000    24042954.547 6  98451868.806 6     -1872.416          37.000
G18  22807809.602 7 119855935.989 7      3466.039          43.000    22807812.539 6  93394211.079 6      2700.810          36.000
G21  22926830.133 6 120481245.831 6      3221.848          37.000    22926833.617 4  93881524.552 4      2510.531          26.000
G25  21148596.195 8 111136657.693 8     -1955.785          50.000    21148598.422 8  86599969.340 8     -1523.988          50.000
G29  20254204.539 8 106436559.830 8      -481.703          51.000    20254203.891 8  82937587.806 8      -375.353          51.000
R09  19159234.148 8 102309235.920 8       734.301          51.000    19159235.406 8  79573842.504 8       571.123          51.000
R16  21764625.797 7 116262766.370 7     -3462.578          43.000    21764633.047 6  90426556.210 6     -2693.119          40.000
R18  22448100.188 6 119829348.469 6     -3971.703          36.000
R19  19396079.750 6 103755936.688 6     -1252.129          41.000    19396081.102 7  80699087.578 7      -973.878          45.000
R20  20826563.922 6 111369015.454 6      3195.648          38.000    20826565.078 7  86620353.082 7      2485.504          44.000
C11  22097673.773 8 115068417.166 8     -1172.504          51.000    22097674.281 8  88978210.046 8      -906.724          51.000
C23  21939464.883 8 114244572.586 8       165.621          51.000
C25  23507754.984 8 122411033.696 8     -2642.156          49.000
C28  24250353.234 7 126277931.907 7      2842.293          42.000
E01  23537187.195 8 123688756.883 8       377.363          51.000    23537188.289 8  94774509.775 8       289.110          51.000
E13  25179794.938 5 132320726.904 5     -1982.555          35.000    25179798.258 5 101388609.463 5     -1519.352          33.000
E21  25190834.086 8 132378725.614 8     -1945.059          49.000    25190837.461 8 101433047.414 8     -1490.364          49.000
E26  22630808.969 8 118925704.429 8       879.770          51.000    22630813.883 8  91124951.010 8       674.169          51.000
E33  26232588.086 6 137853232.838 6      2957.512          39.000    26232594.805 6 105627784.650 6      2266.394          41.000
> 2020 05 18 11 10  0.0000000  0 20        .000000000000
G02  24691634.773 5 129755400.459 5     -2800.141          34.000
G14  24056686.117 7 126418726.191 7     -2409.812          42.000    24056686.211 5  98508097.443 5     -1877.776          35.000
G18  22788035.062 7 119752020.093 7      3459.484          43.000    22788037.188 6  93313237.715 6      2695.705          38.000
G21  22908449.836 6 120384663.454 6      3214.633          40.000
G25  21159782.117 8 111195438.911 8     -1964.871          49.000    21159784.031 8  86645772.869 8     -1531.068          49.000
G29  20256985.852 8 106451176.111 8      -494.652          51.000    20256985.266 8  82948977.116 8      -385.443          51.000
R09  19155157.781 8 102287468.214 8       714.836          51.000    19155159.055 8  79556912.066 8       555.984          51.000
R16  21784096.820 7 116366770.120 7     -3473.285          45.000    21784101.977 6  90507448.046 6     -2701.444          39.000
R18  22470429.141 5 119948538.488 5     -3976.387          35.000    22470440.273 4  93293460.719 4     -3092.745          29.000
R19  19403157.188 6 103793795.499 6     -1273.789          40.000    19403158.492 7  80728533.317 7      -990.725          45.000
R20  20808674.172 6 111273355.237 6      3179.434          38.000    20808676.977 7  86545950.720 7      2472.893          46.000
C11  22104455.211 8 115103728.978 8     -1183.492          50.000    22104455.352 8  89005515.363 8      -915.169          51.000
C23  21938544.867 8 114239782.238 8       151.891          51.000
C25  23522993.539 7 122490392.012 7     -2650.297          44.000
C28  24233986.492 6 126192724.300 6      2836.152          41.000
E01  23535048.711 8 123677519.500 8       369.820          51.000    23535049.789 8  94765899.319 8       283.375          51.000
E13  25191132.289 5 132380293.175 5     -1991.359          33.000    25191136.367 5 101434263.317 5     -1525.844          32.000
E21  25201949.047 8 132437136.244 8     -1950.953          48.000    25201951.781 8 101477803.600 8     -1494.877          48.000
E26  22625815.344 8 118899464.559 8       867.438          50.000    22625820.570 8  91104845.157 8       664.651          51.000
E33  26215707.516 6 137764535.979 6      2953.246          40.000    26215718.266 6 105559822.179 6      2262.877          40.000
> 2020 05 18 11 10 30.0000000  0 20        .000000000000
G02  24707652.203 5 129839573.233 5     -2809.602          32.000
G14  24070475.398 7 126491187.174 7     -2419.008          42.000    24070474.414 5  98564560.509 5     -1884.947          31.000
G18  22768315.219 7 119648391.535 7      3450.699          42.000    22768316.242 6  93232488.232 6      2688.857          40.000
G21  22890127.109 6 120288384.325 6      3205.496          38.000
G25  21171037.383 8 111254585.282 8     -1976.410          49.000    21171039.312 8  86691860.908 8     -1540.060          49.000
G29  20259858.320 8 106466271.159 8      -509.879          51.000    20259857.875 8  82960739.481 8      -397.308          51.000
R09  19151208.188 8 102266377.869 8       692.855          51.000    19151209.812 8  79540508.451 8       538.888          51.000
R16  21803644.750 7 116471182.841 7     -3485.930          45.000    21803648.492 6  90588657.914 6     -2711.282          39.000
R18  22492802.289 5 120067963.808 5     -3983.277          34.000    22492813.859 5  93386349.548 5     -3098.105          30.000
R19  19410371.766 6 103832389.089 6     -1297.336          39.000    19410373.453 7  80758550.568 7     -1009.039          45.000
R20  20790892.258 6 111178267.579 6      3161.301          40.000    20790896.195 8  86471993.697 8      2458.793          48.000
C11  22111316.453 8 115139457.249 8     -1196.680          51.000    22111316.492 8  89033142.722 8      -925.267          51.000
C23  21937721.320 8 114235493.984 8       135.762          51.000
C25  23538296.500 7 122570090.117 7     -2661.012          43.000
C28  24217674.930 7 126107793.349 7      2827.570          43.000
E01  23532970.547 8 123666599.477 8       359.980          51.000    23532971.805 8  94757532.023 8       275.829          51.000
E13                                                                  25202539.945 5 101480178.973 5     -1534.341          32.000
E21  25213114.898 8 132495814.229 8     -1959.066          50.000    25213117.523 8 101522764.608 8     -1501.106          49.000
E26  22620909.953 8 118873687.989 8       852.809          50.000    22620915.523 8  91085094.285 8       653.403          51.000
E33  26198871.859 6 137676067.821 6      2946.148          40.000    26198885.156 6 105492034.911 6      2257.624          39.000
> 2020 05 18 11 11  0.0000000  0 20        .000000000000
G02  24723713.094 5 129923975.651 5     -2816.234          33.000
G14  24084308.008 7 126563876.159 7     -2426.477          42.000    24084305.031 5  98621201.276 5     -1890.761          31.000
G18  22748637.406 7 119544983.504 7      3443.348          43.000    22748637.961 7  93151910.567 7      2683.131          42.000
G21  22871848.219 6 120192341.160 6      3197.746          36.000
G25  21182348.852 8 111314026.628 8     -1986.164          50.000    21182350.977 8  86738178.820 8     -1547.660          50.000
G29  20262808.484 8 106481774.035 8      -523.469          51.000    20262808.102 8  82972819.630 8      -407.898          51.000
R09  19147372.898 8 102245896.245 8       672.672          51.000    19147374.273 8  79524578.304 8       523.189          51.000
R16  21823255.281 7 116575932.391 7     -3497.340          44.000    21823257.492 6  90670129.719 6     -2720.156          38.000
R18  22515205.562 6 120187550.388 6     -3988.875          37.000    22515217.062 5  93479361.281 5     -3102.461          32.000
R19  19417709.883 6 103871644.259 6     -1319.281          39.000    19417711.430 7  80789082.359 7     -1026.111          45.000
R20  20773205.031 6 111083683.745 6      3144.496          40.000    20773209.469 8  86398428.521 8      2445.719          49.000
C11  22118244.484 8 115175531.490 8     -1208.141          51.000    22118244.203 8  89061037.626 8      -934.199          51.000
C23  21936981.531 8 114231639.541 8       121.359          51.000
C25  23553652.117 7 122650057.850 7     -2669.914          44.000
C28  24201405.188 7 126023071.037 7      2820.746          45.000
E01  23530939.727 8 123655928.058 8       351.648          51.000    23530941.273 8  94749355.219 8       269.451          51.000
E13                                                                  25213995.438 5 101526307.793 5     -1541.070          31.000
E21  25224318.977 8 132554689.745 8     -1965.688          51.000    25224321.781 8 101567876.983 8     -1506.146          49.000
E26  22616079.828 8 118848305.300 8       839.652          51.000    22616085.125 8  91065645.188 8       643.382          51.000
E33  26182067.984 6 137587760.139 6      2940.891          38.000    26182082.562 6 105424370.632 6      2253.299          38.000
> 2020 05 18 11 11 30.0000000  0 21        .000000000000
G02  24739819.562 5 130008620.257 5     -2825.949          34.000
G12  23455676.453 5 123260440.475 5     -2996.477          31.000
G14  24098186.094 7 126636805.110 7     -2435.605          42.000    24098181.953 5  98678029.028 5     -1897.874          34.000
G18  22729004.969 7 119441813.661 7      3434.453          45.000    22729006.039 7  93071518.487 7      2676.197          43.000
G21  22853617.680 6 120096551.529 6      3188.188          36.000    22853624.039 5  93581777.702 5      2484.314          31.000
G25  21193718.852 7 111373777.461 7     -1997.297          47.000    21193721.438 7  86784737.849 7     -1556.338          47.000
G29  20265838.805 8 106497698.550 8      -538.305          51.000    20265838.383 8  82985228.343 8      -419.458          51.000
R09  19143654.523 8 102226040.611 8       650.910          51.000    19143655.688 8  79509135.034 8       506.263          51.000
R16  21842929.430 7 116681031.257 7     -3509.434          42.000    21842931.766 6  90751873.180 6     -2729.562          39.000
R18  22537641.133 6 120307309.407 6     -3995.316          36.000    22537651.656 5  93572507.132 5     -3107.468          32.000
R19  19425174.062 6 103911573.026 6     -1342.684          39.000    19425175.711 7  80820138.055 7     -1044.309          46.000
R20  20755615.008 6 110989621.371 6      3126.277          41.000    20755619.992 8  86325268.905 8      2431.549          49.000
C11  22125241.453 8 115211964.974 8     -1220.891          51.000    22125240.727 8  89089210.294 8      -944.088          51.000
C23  21936328.094 8 114228234.355 8       105.590          51.000
C25  23569064.086 7 122730308.568 7     -2680.238          47.000
C28  24185179.195 7 125938573.194 7      2812.301          47.000
E01  23528959.398 8 123645520.935 8       342.008          51.000    23528960.984 8  94741380.928 8       262.076          51.000
E13                                                                  25225504.352 5 101572652.895 5     -1548.214          31.000
E21  25235563.469 8 132613777.480 8     -1973.602          51.000    25235566.344 8 101613151.967 8     -1512.165          50.000
E26  22611327.461 8 118823331.468 8       825.172          51.000    22611332.328 8  91046509.402 8       632.278          51.000
E33  26165298.641 5 137499629.171 5      2934.039          35.000    26165312.602 6 105356841.722 6      2248.256          37.000
> 2020 05 18 11 12  0.0000000  0 20        .000000000000
G02  24755940.242 5 130093341.465 5     -2828.379          32.000
G14  24112078.086 6 126709807.824 6     -2438.004          40.000    24112073.750 5  98734914.180 5     -1899.743          32.000
G18  22709387.344 7 119338721.468 7      3431.844          45.000    22709388.898 7  92991186.923 7      2674.164          44.000
G21  22835406.078 5 120000854.739 5      3185.129          35.000    22835413.352 5  93507208.709 5      2481.922          34.000
G25  21205116.453 7 111433673.999 7     -2002.277          46.000    21205119.227 7  86831410.436 7     -1560.216          46.000
G29  20268918.008 8 106513880.216 8      -546.918          51.000    20268917.516 8  82997837.443 8      -426.170          51.000
R09  19140022.836 8 102206647.045 8       635.484          51.000    19140023.703 8  79494051.153 8       494.269          51.000
