     3.02           OBSERVATION DATA    M (MIXED)           RINEX VERSION / TYPE
SAVERINEX           SC600               20200514 045930 LCL PGM / RUN BY / DATE
       G = GPS       R = GLONASS       C = COMPASS          COMMENT
       S = SBAS      J = QZSS          E = GALILEO          COMMENT
BEAN                                                        MARKER NAME
1                                                           MARKER NUMBER
GEODETIC                                                    MARKER TYPE
Unige DICCA         GTER                                    OBSERVER / AGENCY
SC60291900056       SC600               2.12(191226)        REC # / TYPE / VERS
                    HEMA45          NONE                    ANT # / TYPE
  4509407.8091   693652.4678  4442337.6214                  APPROX POSITION XYZ
        0.0000        0.0000        0.0000                  ANTENNA: DELTA H/E/N
G    8 C1C L1C D1C S1C C2Y L2Y D2Y S2Y                      SYS / # / OBS TYPES
R    8 C1C L1C D1C S1C C2P L2P D2P S2P                      SYS / # / OBS TYPES
C    8 C1I L1I D1I S1I C7I L7I D7I S7I                      SYS / # / OBS TYPES
E    8 C1C L1C D1C S1C C7Q L7Q D7Q S7Q                      SYS / # / OBS TYPES
DBHZ                                                        COMMENT
     30.000                                                 INTERVAL
  2020    05    14    02    00    0.0000000     GPS         TIME OF FIRST OBS
  2020    05    14    02    59   30.0000000     GPS         TIME OF LAST OBS
     0                                                      RCV CLOCK OFFS APPL
G L1C  0.00000                                              SYS / PHASE SHIFT
G L2Y  0.00000                                              SYS / PHASE SHIFT
R L1C  0.00000                                              SYS / PHASE SHIFT
R L2P  0.25000                                              SYS / PHASE SHIFT
C L1I  0.00000                                              SYS / PHASE SHIFT
C L7I  0.00000                                              SYS / PHASE SHIFT
E L1C  0.50000                                              SYS / PHASE SHIFT
E L7Q -0.25000                                              SYS / PHASE SHIFT
 14 R03  5 R04  6 R05  1 R06 -4 R07  5 R09 -2 R10 -7 R14 -7 GLONASS SLOT / FRQ #
    R15  0 R16 -1 R19  3 R20  2 R21  4 R22 -3               GLONASS SLOT / FRQ #
 C1C   71.950 C2C   71.950 C2P   71.950                     GLONASS COD/PHS/BIS
    18                                                      LEAP SECONDS
*** Above antenna height is from mark to ANTENNA BOTTOM.    COMMENT
    17     4        0.0000        ANT MEASURE TYPE/HEIGT    COMMENT
    0.0000    0.0000    0.0458    0.0405    0.0000          COMMENT
                    BASE STATION                            COMMENT
                                                            END OF HEADER
> 2020 05 14 02 00  0.0000000  0 12        .000000000000
G02  23328096.727 8 122589955.703 8     -2156.367          49.000    23328091.625 7  95524648.000 7     -1680.286          46.000
G07  20994794.828 8 110328380.608 8     -1035.258          51.000    20994793.352 8  85970127.787 8      -806.694          51.000
G09  22554556.281 6 118524998.003 6     -2523.742          38.000    22554557.883 6  92357151.234 6     -1966.549          37.000
G30  20577609.438 8 108136071.848 8      1114.484          51.000    20577610.906 8  84261890.035 8       868.429          51.000
R06  19448625.445 8 103781587.315 8      -601.594          48.000
R09  21558379.734 7 115120517.917 7      3981.629          47.000    21558381.328 8  89538157.424 8      3096.819          48.000
R15  22736756.852 5 121498215.276 5     -3868.176          34.000
R16  19490984.266 7 104117339.677 7      -479.672          47.000    19490986.148 7  80980157.979 7      -373.078          44.000
C05  39801565.297 6 207257194.501 6        -2.910          36.000    39801563.250 6 160264395.896 6        -2.063          41.000
C23  22790323.469 7 118675169.695 7     -1237.020          42.000
E27  24268105.445 8 127529804.631 8      1185.258          51.000    24268106.805 8  97717636.739 8       908.155          50.000
E33  27518710.266 8 144611777.896 8     -2816.570          48.000    27518712.992 7 110806446.854 7     -2158.151          47.000
> 2020 05 14 02 00 30.0000000  0 13        .000000000000
G02  23340456.789 7 122654909.384 7     -2172.949          47.000    23340452.219 7  95575261.247 7     -1693.207          47.000
G07  21000763.492 8 110359746.147 8     -1054.820          51.000    21000761.953 8  85994568.470 8      -821.938          51.000
G09  22568999.852 5 118600889.299 5     -2534.375          35.000    22569004.500 5  92416287.229 5     -1974.841          35.000
G30  20571312.453 8 108102981.051 8      1092.473          51.000    20571313.828 8  84236104.992 8       851.277          51.000
R06  19452071.992 8 103799978.010 8      -623.484          48.000
R09  21536062.484 7 115001352.853 7      3963.523          46.000    21536065.219 7  89445473.448 7      3082.737          47.000
R15  22758516.648 5 121614514.830 5     -3884.453          35.000
R16  19493774.258 7 104132242.965 7      -512.848          47.000    19493776.023 7  80991749.438 7      -398.882          44.000
C05  39801600.352 6 207257377.213 6        -8.270          36.000    39801598.359 6 160264537.196 6        -6.543          40.000
C23  22797511.852 7 118712597.321 7     -1257.246          44.000
E07  26158291.562 5 137462747.626 5     -2053.496          35.000
E27  24261397.523 8 127494556.671 8      1165.523          50.000    24261398.547 8  97690628.573 8       893.042          50.000
E33  27534816.289 7 144696415.885 7     -2825.078          47.000    27534818.953 7 110871299.318 7     -2164.604          46.000
> 2020 05 14 02 01  0.0000000  0 12        .000000000000
G02  23352888.773 7 122720242.468 7     -2181.332          44.000    23352885.195 7  95626170.178 7     -1699.739          44.000
G07  21006820.680 8 110391576.741 8     -1065.719          51.000    21006818.766 8  86019371.528 8      -830.433          51.000
G30  20565117.625 8 108070427.821 8      1079.039          51.000    20565119.117 8  84210738.841 8       840.813          51.000
R06  19455619.734 8 103818910.440 8      -637.172          48.000
R09  21513823.953 7 114882607.461 7      3954.184          47.000    21513827.453 7  89353115.916 7      3075.476          46.000
R15  22780348.602 6 121731188.697 6     -3891.953          37.000
R16  19496727.445 7 104148018.175 7      -537.234          47.000    19496729.461 7  81004019.049 7      -417.849          45.000
C05  39801646.250 6 207257616.294 6        -5.629          36.000    39801644.141 6 160264721.678 6        -4.561          41.000
C23  22804792.906 7 118750513.954 7     -1269.133          42.000
E07  26170022.406 5 137524389.199 5     -2054.422          33.000
E27  24254779.961 8 127459785.258 8      1154.102          48.000    24254781.461 8  97663985.557 8       884.318          50.000
E33  27550948.727 7 144781191.710 7     -2825.223          46.000    27550950.453 7 110936257.404 7     -2164.685          45.000
> 2020 05 14 02 01 30.0000000  0 15        .000000000000
G02  23365381.891 7 122785895.623 7     -2194.297          46.000    23365379.117 7  95677328.496 7     -1709.842          46.000
G07  21012955.297 8 110423814.169 8     -1081.992          51.000    21012953.508 8  86044491.624 8      -843.108          51.000
G09  22597998.516 5 118753276.411 5     -2546.418          32.000    22597989.305 5  92534970.272 5     -1984.225          32.000
G13  23305825.969 5 122472911.579 5      2831.848          30.000
G30  20559014.320 8 108038355.526 8      1060.395          51.000    20559016.094 8  84185747.442 8       826.281          51.000
R05  23236921.898 5 124214666.889 5     -3331.340          34.000
R06  19459258.414 8 103838327.528 8      -655.926          48.000
R09  21491654.688 8 114764227.541 8      3939.250          48.000    21491658.188 7  89261042.680 7      3063.864          46.000
R15  22802240.102 6 121848175.167 6     -3905.438          37.000
R16  19499832.734 7 104164606.387 7      -567.176          47.000    19499835.102 7  81016920.992 7      -441.137          45.000
C05  39801692.000 6 207257853.924 6        -8.641          36.000    39801689.852 6 160264905.813 6        -6.672          41.000
C23  22812156.516 7 118788861.716 7     -1286.109          43.000
E07  26181775.844 5 137586145.188 5     -2060.891          33.000
E27  24248242.461 7 127425434.267 7      1137.543          47.000    24248244.555 8  97637664.681 8       871.585          51.000
E33  27567096.328 7 144866046.292 7     -2830.496          44.000    27567096.586 7 111001275.818 7     -2168.666          45.000
> 2020 05 14 02 02  0.0000000  0 12        .000000000000
G02  23377933.148 8 122851852.279 8     -2203.816          48.000    23377930.781 7  95728723.291 7     -1717.260          46.000
G07  21019164.453 8 110456443.131 8     -1094.324          51.000    21019162.734 8  86069916.785 8      -852.720          51.000
G30  20552999.922 8 108006750.434 8      1045.508          51.000    20553001.938 8  84161120.116 8       814.681          51.000
R05  23255629.531 5 124314674.384 5     -3336.832          31.000
R06  19462985.281 7 103858215.170 7      -670.949          47.000
R09  21469552.312 8 114646202.345 8      3928.113          49.000    21469556.250 7  89169245.331 7      3055.199          47.000
R15  22824187.258 5 121965455.981 5     -3914.551          35.000    22824183.531 4  94862066.554 4     -3044.651          25.000
R16  19503087.305 7 104181991.887 7      -593.156          47.000    19503089.492 7  81030443.054 7      -461.344          45.000
C05  39801734.914 6 207258077.607 6        -7.402          36.000    39801732.797 6 160265078.775 6        -5.757          41.000
C23  22819600.594 7 118827625.412 7     -1299.359          43.000
E27  24241782.836 8 127391490.579 8      1124.559          48.000    24241785.414 8  97611655.875 8       861.648          51.000
E33  27583255.727 7 144950963.478 7     -2831.750          42.000    27583254.734 7 111066342.239 7     -2169.759          45.000
> 2020 05 14 02 02 30.0000000  0 13        .000000000000
G02  23390544.219 7 122918123.444 7     -2214.625          47.000    23390542.555 7  95780363.146 7     -1725.685          44.000
G07  21025450.398 8 110489475.686 8     -1108.184          51.000    21025448.547 8  86095656.437 8      -863.520          51.000
G30  20547077.055 8 107975626.478 8      1029.094          51.000    20547079.070 8  84136867.680 8       801.891          51.000
R05  23274374.289 5 124414886.679 5     -3344.102          31.000
R06  19466802.977 7 103878588.893 7      -687.594          47.000
R09  21447519.727 8 114528549.377 8      3915.176          49.000    21447523.672 7  89077737.475 7      3045.140          47.000
R15  22846192.820 5 122083040.977 5     -3924.734          31.000    22846189.391 4  94953526.535 4     -3052.574          27.000
R16  19506493.367 8 104200187.051 8      -620.387          48.000    19506495.828 7  81044594.850 7      -482.523          45.000
R22  23417278.000 4 125003019.790 4     -3021.816          29.000
C05  39801777.695 6 207258300.495 6        -7.504          36.000    39801775.617 6 160265251.132 6        -5.984          41.000
C23  22827126.539 7 118866817.092 7     -1313.930          43.000
E27  24235403.828 8 127357968.605 8      1109.973          49.000    24235406.883 8  97585970.205 8       850.508          51.000
E33  27599428.773 6 145035954.816 6     -2834.652          40.000    27599427.523 7 111131465.486 7     -2171.917          45.000
> 2020 05 14 02 03  0.0000000  0 12        .000000000000
G02  23403208.828 7 122984676.631 7     -2228.668          45.000    23403207.812 7  95832222.796 7     -1736.624          44.000
G07  21031807.133 8 110522880.391 8     -1125.113          51.000    21031805.477 8  86121686.085 8      -876.712          51.000
G13  23257395.008 5 122218459.059 5      2815.957          31.000
G30  20541240.031 8 107944953.880 8      1009.316          51.000    20541242.172 8  84112966.965 8       786.480          51.000
R05  23293158.797 4 124515323.073 4     -3355.340          29.000
R06  19470706.469 7 103899418.264 7      -707.582          47.000
R09  21425551.945 8 114411241.720 8      3899.000          50.000    21425555.531 8  88986498.201 8      3032.556          49.000
R16  19510045.281 8 104219160.357 8      -650.938          48.000    19510047.734 7  81059351.874 7      -506.285          45.000
C05  39801814.695 6 207258492.968 6       -11.426          36.000    39801812.570 6 160265399.949 6        -8.720          40.000
C23  22834729.172 7 118906405.660 7     -1331.680          43.000
E27  24229099.898 8 127324839.109 8      1092.297          50.000    24229102.883 8  97560585.270 8       836.988          51.000
E33  27615609.180 6 145120988.239 6     -2840.820          40.000    27615608.984 7 111196621.003 7     -2176.463          45.000
> 2020 05 14 02 03 30.0000000  0 12        .000000000000
G02  23415953.477 7 123051650.775 7     -2230.742          43.000    23415952.570 7  95884410.507 7     -1738.238          42.000
G06  24532098.352 5 128917015.708 5     -3506.211          30.000
G07  21038261.422 8 110556797.691 8     -1130.562          51.000    21038259.898 8  86148115.148 8      -880.958          51.000
G30  20535516.297 8 107914874.545 8      1001.270          51.000    20535518.281 8  84089528.532 8       780.210          51.000
R06  19474722.500 7 103920848.677 7      -715.805          47.000
R09  21403676.719 8 114294427.015 8      3894.285          51.000    21403679.805 8  88895642.335 8      3028.888          49.000
R16  19513769.375 8 104239053.774 8      -669.840          48.000    19513771.867 7  81074824.542 7      -520.984          45.000
C05  39801872.664 6 207258795.266 6        -3.574          36.000    39801870.609 6 160265633.701 6        -2.574          41.000
C23  22842433.711 6 118946529.911 6     -1337.742          41.000
E07  26229004.711 6 137834368.849 6     -2071.105          36.000    26228996.805 5 105613325.649 5     -1587.128          35.000
E27  24222897.906 8 127292244.564 8      1086.133          51.000    24222900.672 8  97535610.222 8       832.229          51.000
E33  27631824.281 6 145206203.260 6     -2834.938          41.000    27631825.359 7 111261915.691 7     -2172.177          45.000
> 2020 05 14 02 04  0.0000000  0 12        .000000000000
G02  23428725.773 7 123118770.533 7     -2245.965          43.000    23428724.172 7  95936711.663 7     -1750.099          43.000
G07  21044760.938 8 110590952.935 8     -1148.809          51.000    21044759.383 8  86174729.632 8      -895.176          51.000
G30  20529853.602 8 107885115.574 8       980.438          51.000    20529854.953 8  84066339.725 8       763.977          51.000
R06  19478799.375 7 103942602.705 7      -736.969          47.000
R09  21381842.625 8 114177831.067 8      3876.480          51.000    21381845.336 8  88804956.608 8      3015.040          51.000
R16  19517613.516 8 104259588.358 8      -701.672          48.000    19517615.891 7  81090795.887 7      -545.745          46.000
C05  39801899.852 6 207258936.877 6        -8.320          36.000    39801897.797 6 160265743.221 6        -6.455          40.000
C23  22850189.977 7 118986917.908 7     -1356.750          43.000
E07  26240843.789 6 137896602.884 6     -2079.875          37.000    26240840.227 6 105661011.473 6     -1593.736          37.000
E27  24216745.883 8 127259912.689 8      1067.016          51.000    24216748.445 8  97510836.437 8       817.512          51.000
E30  24991882.523 5 131333231.804 5     -1736.922          33.000
E33  27648022.367 7 145291324.807 7     -2842.113          43.000    27648024.180 7 111327138.714 7     -2177.828          45.000
> 2020 05 14 02 04 30.0000000  0 13        .000000000000
G02  23441576.750 7 123186303.612 7     -2255.812          45.000    23441574.078 7  95989334.818 7     -1757.776          43.000
G06  24572172.773 5 129127668.598 5     -3511.371          34.000
G07  21051356.938 8 110625615.301 8     -1161.688          51.000    21051355.492 8  86201739.253 8      -905.211          51.000
G30  20524303.391 8 107855947.879 8       964.652          51.000    20524304.109 8  84043611.649 8       751.677          51.000
R06  19482988.484 7 103964956.874 7      -752.742          47.000
R09  21360101.867 8 114061732.604 8      3863.934          51.000    21360104.047 8  88714657.806 8      3005.282          50.000
R16  19521628.977 8 104281037.860 8      -727.910          48.000    19521631.227 7  81107478.851 7      -566.152          45.000
C05  39801947.773 6 207259186.609 6        -7.938          36.000    39801945.727 6 160265935.935 6        -6.102          40.000
C23  22858048.023 6 119027836.332 6     -1370.477          40.000
E07  26252724.930 5 137959003.493 5     -2083.301          30.000    26252726.414 6 105708868.556 6     -1596.541          37.000
E27  24210695.242 8 127228114.877 8      1053.113          51.000    24210697.867 8  97486471.884 8       806.943          51.000
E30  25001829.273 4 131385498.764 4     -1747.660          28.000
E33  27664254.391 7 145376621.389 7     -2843.918          44.000    27664256.484 7 111392495.820 7     -2179.124          45.000
> 2020 05 14 02 05  0.0000000  0 12        .000000000000
G02  23454489.922 7 123254163.479 7     -2264.734          45.000    23454487.031 7  96042212.608 7     -1764.728          42.000
G07  21058033.141 8 110660699.382 8     -1173.906          51.000    21058031.992 8  86229077.499 8      -914.732          51.000
G30  20518849.672 8 107827287.239 8       949.543          51.000    20518850.125 8  84021278.683 8       739.904          51.000
R06  19487274.164 8 103987825.743 8      -768.340          48.000
R09  21338438.914 8 113946049.571 8      3851.668          51.000    21338440.195 8  88624682.115 8      2995.742          49.000
R16  19525799.391 8 104303314.693 8      -753.637          49.000    19525801.258 7  81124805.281 7      -586.162          46.000
R22  23503141.000 4 125461331.254 4     -3088.461          28.000
C05  39802000.359 6 207259459.342 6        -6.875          36.000    39801998.188 6 160266147.232 6        -5.537          41.000
C23  22865990.922 6 119069200.097 6     -1383.730          40.000
E07  26264638.250 5 138021605.388 5     -2086.562          32.000
E27  24204730.250 8 127196767.515 8      1039.965          51.000    24204732.852 8  97462452.483 8       796.826          51.000
E33  27680503.508 7 145462006.504 7     -2845.031          45.000    27680505.617 7 111457920.760 7     -2179.962          45.000
> 2020 05 14 02 05 30.0000000  0 11        .000000000000
G02  23467448.703 7 123322263.260 7     -2275.156          45.000    23467447.000 7  96095277.363 7     -1772.849          43.000
G07  21064773.352 8 110696119.856 8     -1187.441          51.000    21064772.367 8  86256677.876 8      -925.279          51.000
G09  22715236.852 5 119369376.723 5     -2588.609          34.000    22715242.578 5  93015095.236 5     -2017.101          34.000
G30  20513476.375 8 107799049.935 8       932.988          51.000    20513476.750 8  83999275.589 8       727.004          51.000
R06  19491640.211 7 104011124.780 7      -785.047          47.000
R09  21316838.141 8 113830700.135 8      3838.227          50.000    21316838.531 8  88534965.901 8      2985.290          48.000
R16  19530108.375 8 104326331.894 8      -780.727          49.000    19530110.242 7  81142707.567 7      -607.232          46.000
C05  39802041.484 6 207259673.414 6        -6.973          36.000    39802039.242 6 160266312.773 6        -5.540          41.000
C23  22874004.141 6 119110924.609 6     -1397.898          38.000
E27  24198835.148 8 127165787.411 8      1025.371          51.000    24198837.438 8  97438714.485 8       785.695          51.000
E33  27696753.195 7 145547394.107 7     -2847.285          44.000    27696755.289 7 111523347.637 7     -2181.809          44.000
> 2020 05 14 02 06  0.0000000  0 11        .000000000000
G02  23480461.359 7 123390643.814 7     -2284.434          47.000    23480460.852 7  96148560.909 7     -1780.078          43.000
G07  21071585.609 8 110731918.092 8     -1199.867          51.000    21071584.531 8  86284572.601 8      -934.961          51.000
G09  22730027.773 5 119447095.133 5     -2593.164          33.000    22730027.656 5  93075655.132 5     -2020.638          30.000
G30  20508191.859 8 107771279.476 8       917.574          51.000    20508191.781 8  83977636.253 8       714.993          51.000
R06  19496095.531 8 104034898.640 8      -800.801          48.000
R09  21295308.219 8 113715732.043 8      3825.539          49.000    21295308.375 7  88445546.283 7      2975.419          47.000
R16  19534564.055 8 104350132.229 8      -806.699          49.000    19534565.680 7  81161218.936 7      -627.433          47.000
C05  39802079.383 6 207259871.458 6        -6.586          36.000    39802077.328 6 160266465.893 6        -5.069          41.000
C23  22882094.242 5 119153051.179 5     -1411.797          32.000
E27  24193018.328 8 127135218.669 8      1011.762          51.000    24193020.273 8  97415291.697 8       775.285          51.000
E33  27713011.062 7 145632825.560 7     -2848.723          44.000    27713013.164 7 111588808.079 7     -2182.850          43.000
> 2020 05 14 02 06 30.0000000  0 10        .000000000000
G02  23493536.828 8 123459353.218 8     -2293.680          49.000    23493536.789 7  96202100.698 7     -1787.283          42.000
G07  21078479.242 8 110768144.235 8     -1212.602          51.000    21078478.117 8  86312800.773 8      -944.884          51.000
G30  20503005.758 8 107744026.896 8       901.852          51.000    20503005.422 8  83956400.492 8       702.741          51.000
R06  19500649.648 8 104059200.370 8      -816.828          48.000
R09  21273859.078 7 113601200.198 7      3812.551          47.000    21273859.938 7  88356465.952 7      2965.317          47.000
R16  19539175.477 8 104374765.254 8      -832.828          49.000    19539177.078 7  81180377.972 7      -647.755          46.000
C05  39802124.039 6 207260103.896 6        -6.215          36.000    39802121.984 6 160266645.634 6        -4.827          41.000
C23  22890273.539 6 119195629.090 6     -1424.672          37.000
E27  24187289.516 8 127105112.907 8       997.773          51.000    24187290.922 8  97392223.661 8       764.525          51.000
E33  27729286.242 7 145718349.574 7     -2850.074          43.000    27729289.086 7 111654339.461 7     -2183.994          42.000
> 2020 05 14 02 07  0.0000000  0 10        .000000000000
G02  23506660.453 8 123528316.770 8     -2300.938          49.000    23506659.906 6  96255838.491 6     -1792.941          41.000
G07  21085440.172 8 110804723.924 8     -1223.215          51.000    21085438.867 8  86341304.424 8      -953.154          51.000
G30  20497904.453 8 107717220.067 8       888.191          51.000    20497904.422 8  83935512.090 8       692.097          51.000
R06  19505288.938 8 104083956.782 8      -830.785          48.000
R09  21252478.562 8 113487034.610 8      3801.520          48.000    21252480.094 7  88267670.513 7      2956.737          47.000
R16  19543928.695 8 104400156.010 8      -856.941          49.000    19543930.312 7  81200126.331 7      -666.510          47.000
C05  39802161.539 6 207260299.130 6        -3.715          36.000    39802159.516 6 160266796.606 6        -3.093          41.000
C23  22898522.188 5 119238584.901 5     -1435.852          34.000
E27  24181635.031 8 127075398.515 8       985.988          51.000    24181635.719 8  97369455.500 8       755.468          51.000
E33  27745564.531 6 145803891.793 6     -2849.508          41.000    27745569.195 6 111719884.831 6     -2183.676          38.000
> 2020 05 14 02 07 30.0000000  0 10        .000000000000
G02  23519837.625 8 123597563.809 8     -2313.441          48.000    23519835.531 6  96309797.165 6     -1802.685          40.000
G07  21092474.250 8 110841688.059 8     -1239.016          51.000    21092472.875 8  86370107.653 8      -965.467          51.000
G30  20492894.078 8 107690891.090 8       869.246          51.000    20492894.289 8  83914996.029 8       677.338          51.000
R06  19510019.852 8 104109201.153 8      -850.180          48.000
R09  21231174.297 8 113373271.630 8      3784.852          49.000    21231175.352 7  88179188.218 7      2943.773          46.000
R16  19548829.383 7 104426335.020 7      -886.199          47.000    19548831.188 7  81220487.786 7      -689.266          46.000
C05  39802198.094 6 207260488.887 6        -6.719          36.000    39802195.938 6 160266943.328 6        -5.114          40.000
C23  22906849.758 6 119281949.093 6     -1452.691          39.000
E27  24176061.125 8 127046108.191 8       968.832          51.000    24176061.938 8  97347012.283 8       742.361          51.000
E33  27761851.719 6 145889482.190 6     -2854.215          36.000    27761858.703 5 111785467.068 5     -2187.098          35.000
> 2020 05 14 02 08  0.0000000  0 12        .000000000000
G02  23533067.766 7 123667090.843 7     -2316.609          46.000    23533064.078 6  96363974.027 6     -1805.150          40.000
G07  21099580.875 8 110879034.098 8     -1245.613          51.000    21099579.703 8  86399208.478 8      -970.608          51.000
G30  20487974.602 8 107665038.909 8       859.340          51.000    20487974.859 8  83894851.495 8       669.615          51.000
R06  19514842.094 7 104134933.024 7      -860.109          47.000
R09  21209946.312 8 113259913.754 8      3777.453          49.000    21209946.406 7  88091021.003 7      2938.022          45.000
R15  23091782.422 4 123395366.212 4     -4020.094          29.000    23091783.773 4  95974197.290 4     -3126.743          27.000
R16  19553876.883 7 104453299.531 7      -906.125          47.000    19553878.844 7  81241460.189 7      -704.764          46.000
C05  39802233.312 6 207260672.121 6         -.008          36.000    39802231.125 6 160267085.038 6         -.453          40.000
C23  22915254.039 5 119325718.717 5     -1460.430          35.000
E07  26336489.867 5 138399188.321 5     -2102.605          33.000
E27  24170567.758 8 127017241.481 8       960.742          51.000    24170569.227 8  97324893.664 8       736.090          51.000
E33  27778146.969 5 145975147.521 5     -2849.863          33.000    27778156.836 5 111851083.727 5     -2183.302          31.000
> 2020 05 14 02 08 30.0000000  0 12        .000000000000
G02  23546337.898 7 123736828.056 7     -2333.211          45.000    23546333.906 7  96418314.704 7     -1818.086          42.000
G07  21106747.227 8 110916693.439 8     -1265.562          51.000    21106746.141 8  86428553.426 8      -986.153          51.000
G30  20483133.234 8 107639596.717 8       836.176          51.000    20483133.625 8  83875026.418 8       651.566          51.000
R06  19519743.008 7 104161085.504 7      -883.844          46.000
R09  21188781.938 8 113146896.139 8      3756.379          48.000    21188781.430 7  88003118.451 7      2921.628          45.000
R15  23114395.023 5 123516189.817 5     -4035.609          30.000    23114394.602 4  96068171.158 4     -3138.807          28.000
R16  19559058.625 7 104480979.546 7      -939.730          47.000    19559060.664 7  81262989.076 7      -730.901          46.000
C05  39802254.570 6 207260783.545 6        -7.160          36.000    39802252.359 6 160267170.441 6        -5.944          41.000
C20  22338401.414 5 116321915.183 5      1365.184          35.000
C23  22923724.547 7 119369826.099 7     -1480.723          42.000
E07  26348524.680 5 138462431.857 5     -2114.113          33.000
E27  24165142.516 8 126988732.134 8       939.293          51.000    24165144.062 8  97303048.839 8       719.760          51.000
> 2020 05 14 02 09  0.0000000  0 13        .000000000000
G02  23559671.500 7 123806897.147 7     -2358.641          47.000    23559668.039 7  96472914.011 7     -1837.902          43.000
G07  21113996.562 8 110954789.034 8     -1294.547          50.000    21113995.438 8  86458238.302 8     -1008.738          51.000
G30  20478393.430 8 107614689.047 8       803.949          51.000    20478394.062 8  83855617.848 8       626.454          51.000
R06  19524746.219 7 104187784.656 7      -916.824          46.000
R09  21167704.812 7 113034348.782 7      3726.078          46.000    21167704.547 7  87915581.617 7      2898.061          45.000
R15  23137063.820 5 123637447.312 5     -4060.410          32.000    23137062.125 4  96162457.488 4     -3158.094          26.000
R16  19564397.523 7 104509499.687 7      -982.316          47.000    19564399.641 7  81285171.402 7      -764.024          45.000
C05  39802285.359 6 207260944.564 6       -23.641          36.000    39802283.258 6 160267294.935 6       -18.205          41.000
C20  22330546.188 5 116281036.126 5      1339.012          32.000
C23  22932283.234 6 119414393.087 6     -1510.312          41.000
E07  26360580.289 5 138525789.918 5     -2133.625          34.000
E21  26294528.156 7 138178676.107 7      3033.863          42.000    26294524.469 6 105877164.367 6      2324.741          38.000
E27  24159808.914 8 126960705.249 8       908.793          51.000    24159810.664 8  97281573.700 8       696.348          51.000
> 2020 05 14 02 09 30.0000000  0 11        .000000000000
G02  23573079.484 7 123877355.710 7     -2347.770          47.000    23573076.656 7  96527816.790 7     -1829.431          44.000
G07  21121340.094 8 110993379.944 8     -1287.305          50.000    21121338.883 8  86488309.149 8     -1003.092          50.000
G30  20473766.875 8 107590376.230 8       807.777          51.000    20473767.547 8  83836672.802 8       629.437          51.000
R06  19529863.781 7 104215093.354 7      -913.062          47.000
R09  21146727.297 7 112922336.743 7      3732.156          46.000    21146728.148 7  87828461.124 7      2902.785          45.000
R15  23159800.133 5 123758940.293 5     -4048.363          33.000    23159797.594 4  96256949.032 4     -3148.727          25.000
R16  19569904.836 7 104538919.234 7      -988.293          46.000    19569907.367 7  81308053.280 7      -768.669          45.000
C05  39802337.438 6 207261214.850 6        -4.113          36.000    39802335.352 6 160267504.687 6        -2.845          41.000
C23  22940940.555 7 119459477.682 7     -1504.262          42.000
E21  26277141.305 7 138087303.700 7      3048.727          44.000    26277133.984 6 105807151.793 6      2336.037          37.000
E27  24154578.758 8 126933221.698 8       914.367          51.000    24154581.008 8  97260514.881 8       700.613          51.000
> 2020 05 14 02 10  0.0000000  0 13        .000000000000
G02  23586518.492 7 123947977.157 7     -2355.754          47.000    23586516.164 7  96582846.463 7     -1835.655          45.000
G07  21128734.969 8 111032240.407 8     -1298.988          50.000    21128733.750 8  86518590.008 8     -1012.199          50.000
G13  23034397.195 5 121046574.561 5      2763.883          30.000
G30  20469210.906 8 107566433.968 8       792.793          51.000    20469211.547 8  83818016.498 8       617.761          51.000
R06  19535052.891 7 104242783.556 7      -928.426          47.000
R09  21125809.227 8 112810634.914 8      3719.215          48.000    21125810.125 7  87741581.932 7      2892.723          45.000
R15  23182560.172 5 123880564.943 5     -4055.379          33.000
R16  19575537.430 7 104569008.121 7     -1013.184          47.000    19575539.969 7  81331455.745 7      -788.032          44.000
C05  39802368.031 6 207261374.242 6        -2.641          36.000    39802365.977 6 160267627.946 6        -1.873          41.000
C20  22315037.180 4 116200253.622 4      1340.152          29.000
C23  22949654.695 7 119504856.238 7     -1516.582          43.000
E21  26259760.641 7 137995966.896 7      3044.840          45.000    26259752.523 6 105737166.505 6      2333.164          36.000
E27  24149409.500 8 126906057.814 8       901.094          51.000    24149411.977 8  97239701.004 8       690.502          51.000
> 2020 05 14 02 10 30.0000000  0 14        .000000000000
G02  23600001.297 7 124018829.566 7     -2368.324          46.000    23599999.375 7  96638056.108 7     -1845.447          46.000
G07  21136194.258 8 111071439.665 8     -1314.965          48.000    21136193.125 8  86549134.888 8     -1024.645          48.000
G13  23018640.477 5 120963768.709 5      2755.820          34.000    23018657.320 4  94257551.561 4      2147.392          28.000
G28  23774850.211 6 124937683.274 6      3316.469          36.000    23774866.461 5  97354093.933 5      2584.261          32.000
G30  20464738.883 8 107542933.272 8       773.336          51.000    20464739.555 8  83799704.275 8       602.599          51.000
R06  19540327.273 8 104270928.382 8      -948.402          48.000
R09  21104963.859 8 112699319.165 8      3701.383          49.000    21104964.594 7  87655003.036 7      2878.856          45.000
R15  23205357.242 5 124002389.332 5     -4066.926          31.000
R16  19581308.422 7 104599836.875 7     -1042.539          47.000    19581310.961 7  81355433.669 7      -810.864          44.000
C05  39802390.719 6 207261492.023 6        -5.879          36.000    39802388.617 6 160267719.032 6        -4.543          41.000
C20  22307358.000 5 116160258.203 5      1325.660          30.000
C23  22958438.516 7 119550597.350 7     -1533.434          43.000
E21  26242400.211 7 137904738.400 7      3036.473          46.000    26242393.750 6 105667264.192 6      2326.624          37.000
E27  24144314.797 8 126879285.122 8       883.211          51.000    24144317.156 8  97219186.873 8       676.746          51.000
> 2020 05 14 02 11  0.0000000  0 13        .000000000000
G02  23613564.875 7 124090106.706 7     -2379.129          47.000    23613563.258 7  96693596.741 7     -1853.864          45.000
G07  21143755.094 8 111111172.872 8     -1329.492          49.000    21143754.008 8  86580095.837 8     -1035.968          49.000
G28  23755943.305 6 124838325.513 6      3311.621          38.000    23755939.320 4  97276612.232 4      2580.484          27.000
G30  20460388.219 8 107520070.768 8       755.188          51.000    20460388.789 8  83781889.329 8       588.455          51.000
R06  19545724.359 8 104299727.850 8      -967.121          49.000
R09  21084228.727 8 112588592.890 8      3684.887          49.000    21084229.570 7  87568882.580 7      2866.020          46.000
R15  23228228.078 5 124124609.943 5     -4076.949          31.000
R16  19587255.039 7 104631602.660 7     -1070.699          47.000    19587257.586 7  81380140.407 7      -832.763          43.000
C05  39802442.758 6 207261763.258 6        -8.098          36.000    39802440.688 6 160267928.751 6        -5.996          41.000
C20  22299764.930 5 116120725.106 5      1313.973          33.000
C23  22967329.289 7 119596894.322 7     -1548.613          43.000
E21  26225098.078 7 137813816.726 7      3029.418          47.000    26225094.734 6 105597596.988 6      2321.188          39.000
E27  24139332.219 8 126853100.889 8       866.707          51.000    24139334.453 8  97199123.634 8       664.112          51.000
> 2020 05 14 02 11 30.0000000  0 15        .000000000000
G02  23627161.008 7 124161554.908 7     -2382.102          47.000    23627159.773 7  96749270.684 7     -1856.183          46.000
G07  21151369.617 8 111151187.401 8     -1336.371          49.000    21151368.289 8  86611275.967 8     -1041.328          49.000
G09  22894697.961 5 120312438.755 5     -2647.125          31.000
G28  23737035.406 6 124738961.521 6      3314.527          41.000    23737027.797 5  97199185.743 5      2582.749          31.000
G30  20456111.188 8 107497595.105 8       744.914          51.000    20456111.914 8  83764375.827 8       580.453          51.000
R06  19551196.656 8 104328927.936 8      -977.879          49.000
R09  21063556.984 8 112478204.077 8      3676.160          51.000    21063557.812 7  87483024.594 7      2859.233          47.000
R15  23251124.609 5 124246967.178 5     -4078.984          30.000
R16  19593328.820 7 104664048.526 7     -1090.672          47.000    19593331.320 7  81405376.085 7      -848.300          43.000
C05  39802476.398 6 207261938.787 6        -2.262          36.000    39802474.438 6 160268064.481 6        -1.628          41.000
C20  22292215.289 5 116081406.121 5      1309.082          34.000
C23  22976279.312 7 119643496.547 7     -1556.281          44.000
E21  26207806.789 7 137722952.359 7      3029.996          47.000    26207806.398 6 105527973.676 6      2321.703          41.000
E27  24134413.906 8 126827254.329 8       857.996          51.000    24134416.062 8  97179319.134 8       657.387          51.000
E30  25147932.438 5 132153231.352 5     -1902.605          33.000
> 2020 05 14 02 12  0.0000000  0 15        .000000000000
G02  23640800.938 8 124233232.493 8     -2390.711          48.000    23640800.023 7  96805123.366 7     -1862.892          47.000
G07  21159048.914 7 111191542.607 7     -1348.492          47.000    21159047.602 7  86642721.604 7     -1050.773          47.000
G09  22909830.805 5 120392010.063 5     -2651.645          32.000
G13  22971567.438 5 120716386.642 5      2746.438          35.000
G28  23718138.273 6 124639655.356 6      3311.531          41.000    23718131.094 4  97121804.315 4      2580.411          29.000
G30  20451919.398 8 107475567.441 8       729.113          51.000    20451920.484 8  83747211.426 8       568.140          51.000
R06  19556755.336 8 104358590.657 8      -994.074          48.000
R09  21042961.039 8 112368218.187 8      3661.832          51.000    21042961.664 8  87397480.009 8      2848.089          48.000
R16  19599541.266 7 104697234.213 7     -1116.168          46.000    19599544.352 7  81431187.201 7      -868.128          43.000
C05  39802503.367 6 207262079.289 6        -1.586          36.000    39802501.391 6 160268173.144 6        -1.383          41.000
C20  22284719.812 5 116042363.567 5      1299.320          35.000
C23  22985299.086 7 119690463.056 7     -1569.188          44.000
E21  26190538.320 7 137632208.274 7      3025.180          47.000    26190540.508 7 105458442.501 7      2317.944          43.000
E27  24129571.578 8 126801807.161 8       843.957          51.000    24129573.758 8  97159820.662 8       646.683          51.000
E30  25158843.352 5 132210613.309 5     -1913.281          32.000
> 2020 05 14 02 12 30.0000000  0 14        .000000000000
G02  23654503.477 8 124305238.454 8     -2402.648          48.000    23654502.703 7  96861231.910 7     -1872.194          47.000
G07  21166812.203 8 111232339.115 8     -1364.051          50.000    21166811.164 8  86674511.099 8     -1062.897          50.000
G09  22925015.883 5 120471777.098 5     -2660.047          31.000    22925019.617 5  93874114.648 5     -2072.764          32.000
G13  22955930.766 6 120634222.097 6      2739.207          36.000    22955927.938 4  94000693.477 4      2134.447          26.000
G28  23699272.039 6 124540511.858 6      3304.980          41.000    23699263.953 5  97044549.682 5      2575.306          31.000
G30  20447832.281 8 107454089.559 8       709.898          51.000    20447833.359 8  83730475.392 8       553.168          51.000
R06  19562420.422 7 104388820.219 7     -1013.961          47.000
R09  21022460.023 8 112258742.114 8      3643.824          51.000    21022460.930 8  87312331.958 8      2834.086          48.000
R16  19605911.125 7 104731261.012 7     -1145.070          46.000    19605913.977 7  81457652.514 7      -890.607          42.000
C05  39802543.039 6 207262285.744 6        -4.684          36.000    39802541.086 6 160268332.780 6        -3.694          41.000
C20  22277295.039 5 116003699.829 5      1285.410          34.000
C23  22994407.500 7 119737893.139 7     -1585.652          44.000
E21  26173312.555 7 137541688.117 7      3016.805          47.000    26173316.406 7 105389082.918 7      2311.443          43.000
E27  24124824.695 8 126776861.761 8       826.320          51.000    24124826.781 8  97140706.673 8       633.149          51.000
> 2020 05 14 02 13  0.0000000  0 14        .000000000000
G02  23668247.414 8 124377461.730 8     -2415.656          49.000    23668246.266 7  96917509.788 7     -1882.330          47.000
G07  21174638.797 8 111273466.942 8     -1380.930          50.000    21174637.375 8  86706558.741 8     -1076.049          50.000
G13  22940314.117 5 120552162.314 5      2729.375          32.000    22940314.219 4  93936750.305 4      2126.786          27.000
G28  23680416.117 6 124441425.198 6      3297.371          41.000    23680408.117 5  96967339.311 5      2569.374          33.000
G30  20443829.250 8 107433052.862 8       689.262          51.000    20443830.438 8  83714083.162 8       537.087          51.000
R06  19568171.219 7 104419507.232 7     -1035.125          47.000
R09  21002033.664 8 112149669.112 8      3624.309          49.000    21002035.211 7  87227497.389 7      2818.904          46.000
R16  19612417.734 7 104766016.793 7     -1175.277          47.000    19612420.297 7  81484684.801 7      -914.105          43.000
C05  39802574.750 6 207262450.665 6        -9.414          36.000    39802572.719 6 160268460.307 6        -7.322          41.000
C20  22269922.117 5 115965308.705 5      1270.086          34.000
C23  23003584.195 7 119785677.653 7     -1603.324          44.000
E07  26457927.383 5 139037349.926 5     -2149.863          31.000
E21  26156109.477 8 137451285.190 8      3006.828          48.000    26156113.141 7 105319813.137 7      2304.035          43.000
E27  24120152.750 8 126752310.176 8       807.145          51.000    24120154.609 8  97121894.428 8       618.485          51.000
> 2020 05 14 02 13 30.0000000  0 13        .000000000000
G02  23682062.734 8 124450061.076 8     -2422.102          49.000    23682060.852 7  96974080.704 7     -1887.352          46.000
G07  21182558.781 8 111315085.805 8     -1391.156          49.000    21182556.703 8  86738989.019 8     -1084.018          49.000
G28  23661602.141 6 124342560.134 6      3296.191          40.000    23661595.391 5  96890301.682 5      2568.464          32.000
G30  20439940.867 8 107412618.828 8       675.332          51.000    20439942.172 8  83698160.561 8       526.233          51.000
R06  19574038.438 7 104450815.726 7     -1049.680          47.000
R09  20981714.125 8 112041166.504 8      3611.477          50.000    20981715.547 7  87143106.520 7      2808.929          45.000
R15  23343141.875 4 124738648.293 4     -4113.855          29.000
R16  19619090.992 7 104801663.366 7     -1198.711          46.000    19619093.430 7  81512409.932 7      -932.328          42.000
C05  39802629.219 6 207262734.057 6        -7.344          36.000    39802627.094 6 160268679.444 6        -5.506          40.000
C20  22262632.688 5 115927351.728 5      1262.707          30.000
C23  23012859.141 7 119833975.053 7     -1614.332          44.000
E21  26138960.312 8 137361162.822 8      3003.648          50.000    26138962.602 7 105250758.371 7      2301.497          43.000
E27  24115586.383 8 126728314.412 8       794.879          51.000    24115588.328 8  97103508.098 8       609.087          51.000
> 2020 05 14 02 14  0.0000000  0 12        .000000000000
G02  23695900.977 8 124522782.035 8     -2426.941          49.000    23695898.250 7  97030746.382 7     -1891.123          45.000
G07  21190523.969 8 111356942.591 8     -1400.227          50.000    21190521.914 8  86771604.714 8     -1091.086          50.000
G09  22970732.062 5 120712015.079 5     -2674.348          32.000    22970741.391 5  94061336.030 5     -2083.907          30.000
G28  23642783.211 6 124243667.975 6      3296.078          38.000    23642777.859 5  96813242.870 5      2568.373          34.000
G30  20436119.227 8 107392535.543 8       662.605          51.000    20436120.164 8  83682511.235 8       516.316          51.000
R06  19579974.227 7 104482490.654 7     -1063.055          47.000
R09  20961454.516 8 111932981.826 8      3600.004          50.000    20961454.891 7  87058962.945 7      2800.003          45.000
R16  19625882.625 7 104837942.335 7     -1220.758          46.000    19625884.914 7  81540626.916 7      -949.478          42.000
C05  39802658.492 6 207262886.527 6        -4.051          36.000    39802656.414 6 160268797.341 6        -2.897          41.000
C23  23022184.109 7 119882534.105 7     -1624.035          44.000
E21  26121817.117 8 137271070.979 8      3001.629          51.000    26121817.758 7 105181726.990 7      2300.132          43.000
E27  24111077.969 8 126704623.142 8       783.797          51.000    24111079.984 8  97085355.062 8       600.572          51.000
> 2020 05 14 02 14 30.0000000  0 15        .000000000000
G02  23709789.227 8 124595766.785 8     -2437.180          48.000    23709785.930 7  97087617.632 7     -1899.101          46.000
G05  20802349.414 6 109317064.777 6      1248.293          37.000    20802348.828 5  85182124.308 5       972.696          35.000
G07  21198561.641 8 111399180.670 8     -1414.133          49.000    21198560.062 8  86804517.507 8     -1101.922          49.000
G09  22986023.703 5 120792368.012 5     -2681.617          33.000    22986049.367 5  94124033.587 5     -2089.572          31.000
G28  23623987.336 6 124144896.332 6      3290.793          36.000    23623982.359 4  96736277.968 4      2564.248          25.000
G30  20432391.711 8 107372948.014 8       644.711          51.000    20432392.586 8  83667248.228 8       502.372          51.000
R06  19586006.508 8 104514679.981 8     -1081.441          48.000
R09  20941282.906 8 111825265.882 8      3582.816          50.000    20941283.039 7  86975183.910 7      2786.635          46.000
R15  23389365.141 4 124985674.480 4     -4125.359          29.000
R16  19632819.727 7 104874998.779 7     -1248.047          46.000    19632822.094 7  81569448.605 7      -970.703          43.000
C05  39802690.188 6 207263051.773 6        -5.746          36.000    39802688.180 6 160268925.116 6        -4.171          41.000
C20  22248182.406 4 115852119.957 4      1241.582          29.000
C23  23031587.242 7 119931497.009 7     -1638.613          44.000
E21  26104707.500 8 137181156.571 8      2994.289          51.000    26104706.898 7 105112831.609 7      2294.337          44.000
E27  24106655.305 8 126681381.970 8       767.293          51.000    24106657.172 8  97067546.894 8       587.989          51.000
> 2020 05 14 02 15  0.0000000  0 16        .000000000000
G02  23723724.398 7 124668998.340 7     -2443.953          47.000    23723721.141 7  97144681.169 7     -1904.382          46.000
G05  20795270.055 5 109279867.082 5      1232.141          35.000    20795272.094 5  85153139.074 5       960.113          34.000
G07  21206668.672 8 111441783.760 8     -1425.086          48.000    21206667.039 8  86837714.725 8     -1110.457          48.000
G09  23001350.828 5 120872907.158 5     -2684.172          31.000
G28  23605212.203 5 124046233.606 5      3288.770          32.000    23605208.008 4  96659397.883 4      2562.678          28.000
G30  20428755.742 8 107353841.418 8       630.082          51.000    20428756.617 8  83652359.984 8       490.973          51.000
R06  19592132.531 7 104547369.046 7     -1096.758          47.000
R09  20921196.977 8 111718007.171 8      3568.777          50.000    20921197.133 8  86891760.478 8      2775.716          48.000
R15  23412556.695 4 125109583.368 4     -4131.754          29.000
R16  19639899.258 7 104912815.657 7     -1272.055          45.000    19639901.539 7  81598861.736 7      -989.376          42.000
C05  39802721.602 6 207263215.299 6        -4.434          36.000    39802719.602 6 160269051.586 6        -3.347          41.000
C20  22241055.977 5 115814998.098 5      1233.383          30.000
C23  23041064.766 7 119980847.596 7     -1650.477          43.000
E07  26507121.875 5 139295868.245 5     -2159.988          32.000
E21  26087629.008 8 137091406.710 8      2990.039          50.000    26087628.055 7 105044062.275 7      2291.036          46.000
E27  24102315.516 8 126658576.650 8       753.973          51.000    24102317.195 8  97050072.703 8       577.674          51.000
> 2020 05 14 02 15 30.0000000  0 15        .000000000000
G02  23737692.266 7 124742401.355 7     -2449.949          46.000    23737689.680 7  97201878.310 7     -1909.051          46.000
G05  20788274.367 5 109243111.766 5      1217.750          31.000    20788277.672 5  85124498.540 5       948.899          30.000
G07  21214831.188 8 111484678.511 8     -1435.199          48.000    21214829.344 8  86871139.207 8     -1118.337          48.000
G13  22862628.062 5 120143943.420 5      2713.340          34.000
G28  23586445.109 5 123947604.278 5      3286.254          30.000    23586444.906 4  96582547.360 4      2560.717          29.000
G30  20425197.531 8 107335143.478 8       615.930          51.000    20425198.430 8  83637790.154 8       479.945          51.000
R06  19598338.172 7 104580484.781 7     -1111.559          47.000
R09  20901183.656 8 111611135.697 8      3555.379          50.000    20901184.109 8  86808638.228 8      2765.295          48.000
R16  19647106.750 7 104951317.308 7     -1295.297          45.000    19647108.820 7  81628807.465 7     -1007.453          42.000
C05  39802738.867 6 207263305.653 6        -2.207          37.000    39802736.922 6 160269121.452 6        -1.710          40.000
C20  22233974.047 5 115778140.337 5      1224.684          30.000
C23  23050601.914 6 120030512.649 6     -1661.148          40.000
E07  26519452.094 5 139360661.450 5     -2161.180          32.000
E21  26070568.070 8 137001751.079 8      2986.391          50.000    26070567.750 8 104975365.112 8      2288.381          48.000
E27  24098045.047 8 126636135.491 8       741.488          51.000    24098046.773 8  97032877.543 8       568.141          51.000
> 2020 05 14 02 16  0.0000000  0 12        .000000000000
G02  23751744.734 7 124816247.838 7     -2461.750          47.000    23751743.000 7  97259421.034 7     -1918.244          46.000
G05  20781415.758 5 109207074.595 5      1196.266          35.000    20781418.719 5  85096417.562 5       932.152          34.000
G07  21223101.094 8 111528137.446 8     -1451.094          49.000    21223099.648 8  86905003.301 8     -1130.719          49.000
G30  20421769.102 8 107317128.293 8       596.086          51.000    20421770.281 8  83623752.346 8       464.483          51.000
R06  19604676.312 8 104614306.830 8     -1131.941          48.000
R09  20881295.719 8 111504933.317 8      3535.895          49.000    20881296.094 8  86726036.377 8      2750.140          48.000
R16  19654494.203 7 104990780.135 7     -1324.340          44.000    19654496.352 7  81659500.783 7     -1030.039          42.000
C05  39802794.453 6 207263594.699 6        -6.027          36.000    39802792.391 6 160269344.976 6        -4.878          41.000
C20  22226993.867 5 115741787.848 5      1210.152          33.000
C23  23060251.859 6 120080762.330 6     -1677.680          40.000
E21  26053577.031 8 136912465.696 8      2976.852          49.000    26053577.953 8 104906951.634 8      2280.964          49.000
E27  24093896.078 8 126614333.203 8       722.984          51.000    24093898.172 8  97016171.906 8       553.945          51.000
> 2020 05 14 02 16 30.0000000  0 13        .000000000000
G02  23765814.047 8 124890182.182 8     -2469.285          48.000    23765813.062 7  97317032.227 7     -1924.118          47.000
G05  20774627.891 5 109171404.862 5      1178.793          31.000    20774630.719 5  85068622.966 5       918.531          32.000
G07  21231411.000 8 111571806.596 8     -1462.449          48.000    21231409.914 8  86939031.204 8     -1139.571          48.000
G28  23549028.039 5 123750973.898 5      3274.711          31.000
G30  20418403.758 8 107299443.349 8       580.711          51.000    20418404.875 8  83609971.864 8       452.502          51.000
R06  19611079.648 7 104648477.305 7     -1148.262          46.000
R09  20861466.398 8 111399045.553 8      3521.016          48.000    20861466.992 8  86643679.219 8      2738.568          48.000
R16  19661994.000 7 105030843.317 7     -1348.914          45.000    19661996.312 7  81690661.031 7     -1049.155          43.000
C05  39802821.016 6 207263733.241 6        -5.297          36.000    39802818.992 6 160269452.096 6        -4.199          41.000
C20  22220048.234 6 115705608.711 6      1199.859          36.000
C23  23069946.969 6 120131245.796 6     -1689.949          38.000
E21  26036589.305 7 136823200.007 7      2971.844          47.000    26036591.914 8 104838553.233 8      2277.136          50.000
E27  24089801.609 8 126592817.851 8       709.094          51.000    24089804.125 8  96999686.129 8       543.350          51.000
> 2020 05 14 02 17  0.0000000  0 13        .000000000000
G02  23779932.438 8 124964374.364 8     -2475.988          49.000    23779931.797 7  97374844.324 7     -1929.342          45.000
G05  20767943.266 5 109136276.520 5      1163.223          33.000    20767943.289 5  85041250.278 5       906.407          34.000
G07  21239793.555 8 111615857.211 8     -1473.191          48.000    21239792.422 8  86973356.346 8     -1147.941          48.000
G28  23530338.648 5 123652747.973 5      3271.621          34.000
G30  20415134.109 8 107282261.020 8       565.797          51.000    20415135.008 8  83596583.052 8       440.884          51.000
R06  19617581.281 7 104683172.029 7     -1163.742          46.000
R09  20841728.844 8 111293650.769 8      3506.316          49.000    20841729.828 7  86561705.504 7      2727.138          47.000
R16  19669638.648 7 105071680.191 7     -1372.570          44.000    19669640.906 7  81722423.045 7     -1067.555          42.000
C05  39802851.625 6 207263892.372 6        -4.176          36.000    39802849.562 6 160269575.148 6        -3.175          41.000
C20  22213168.125 5 115669775.538 5      1190.301          35.000
C23  23079719.391 5 120182132.331 5     -1701.539          34.000
E21  26019638.188 7 136734128.416 7      2967.309          46.000    26019642.664 8 104770303.544 8      2273.655          51.000
E27  24085794.828 8 126571762.505 8       695.590          51.000    24085797.641 8  96983552.819 8       533.005          51.000
> 2020 05 14 02 17 30.0000000  0 13        .000000000000
G02  23794093.281 8 125038789.374 8     -2484.203          48.000    23794092.414 7  97432830.029 7     -1935.743          44.000
G05  20761356.109 6 109101659.472 6      1145.305          37.000    20761353.281 5  85014276.003 5       892.445          35.000
G07  21248242.156 7 111660255.004 7     -1485.566          47.000    21248241.125 7  87007952.041 7     -1157.581          46.000
G28  23511675.906 6 123554667.232 6      3267.492          36.000    23511675.844 4  96276367.908 4      2546.098          28.000
G30  20411953.992 8 107265548.734 8       549.348          51.000    20411954.656 8  83583560.502 8       428.066          51.000
R06  19624174.961 7 104718358.551 7     -1180.949          47.000
R09  20822078.055 8 111188719.361 8      3490.074          50.000    20822079.133 7  86480092.185 7      2714.502          47.000
R16  19677421.445 7 105113255.100 7     -1398.008          44.000    19677423.523 7  81754759.061 7     -1087.339          43.000
C05  39802880.031 6 207264040.060 6        -4.711          36.000    39802877.938 6 160269689.342 6        -3.646          41.000
C20  22206346.914 4 115634257.459 4      1178.629          29.000
C23  23089562.562 5 120233388.269 5     -1714.566          34.000
E21  26002717.750 7 136645220.264 7      2960.965          45.000    26002724.086 8 104702179.083 8      2268.779          51.000
E27  24081869.680 8 126551135.071 8       680.523          51.000    24081872.484 8  96967747.379 8       521.443          51.000
> 2020 05 14 02 18  0.0000000  0 13        .000000000000
G02  23808298.000 7 125113434.489 7     -2492.266          47.000    23808296.031 6  97490995.021 6     -1942.025          41.000
G05  20754868.242 5 109067565.289 5      1127.121          34.000    20754865.164 5  84987709.083 5       878.273          35.000
G07  21256758.398 8 111705008.764 8     -1498.086          48.000    21256757.672 8  87042825.131 8     -1167.340          48.000
G28  23493035.844 6 123456713.720 6      3262.691          36.000    23493036.070 5  96200053.706 5      2542.357          30.000
G30  20408865.148 8 107249316.407 8       532.738          51.000    20408865.719 8  83570911.937 8       415.121          51.000
R06  19630863.273 8 104754047.610 8     -1198.363          49.000
R09  20802517.016 8 111084265.090 8      3473.461          51.000    20802518.102 7  86398849.986 7      2701.581          47.000
R16  19685343.828 7 105155575.952 7     -1423.492          45.000    19685346.688 7  81787675.312 7     -1107.161          43.000
C05  39802908.102 6 207264186.260 6        -5.355          36.000    39802906.008 6 160269802.397 6        -3.996          41.000
C20  22199585.547 5 115599066.210 5      1167.160          33.000
C23  23099477.359 5 120285021.971 5     -1727.656          31.000
E21  25985830.938 7 136556487.482 7      2954.422          44.000    25985838.258 8 104634188.974 8      2263.808          50.000
E27  24078027.805 8 126530946.067 8       665.336          51.000    24078030.852 8  96952277.902 8       509.767          51.000
> 2020 05 14 02 18 30.0000000  0 14        .000000000000
G02  23822544.609 7 125188300.070 7     -2497.555          46.000    23822540.812 6  97549331.804 6     -1946.147          40.000
G05  20748478.914 6 109033988.450 6      1112.324          37.000    20748475.984 6  84961545.363 6       866.752          37.000
G07  21265340.922 8 111750110.309 8     -1507.223          49.000    21265340.188 8  87077969.194 8     -1174.459          48.000
G28  23474419.289 6 123358882.970 6      3260.984          38.000    23474417.078 5  96123814.955 5      2541.042          34.000
G30  20405866.297 8 107233557.005 8       519.230          51.000    20405866.773 8  83558631.865 8       404.595          51.000
R06  19637644.664 8 104790232.662 8     -1212.582          49.000
R09  20783044.578 8 110980284.153 8      3460.062          49.000    20783045.688 7  86317975.922 7      2691.160          47.000
R16  19693404.383 7 105198633.112 7     -1445.629          46.000    19693406.805 7  81821164.198 7     -1124.378          43.000
C05  39802934.695 6 207264324.357 6        -2.691          37.000    39802932.477 6 160269909.164 6        -1.991          41.000
C20  22192887.773 5 115564196.121 5      1158.793          34.000
C23  23109462.914 4 120337037.928 4     -1737.781          29.000
E07  26594002.031 5 139752440.902 5     -2185.020          32.000
E21  25968977.438 7 136467925.003 7      2951.020          46.000    25968984.344 8 104566329.369 8      2261.180          49.000
E27  24074268.180 8 126511189.107 8       653.105          51.000    24074271.203 8  96937139.460 8       500.431          51.000
> 2020 05 14 02 19  0.0000000  0 13        .000000000000
G02  23836832.086 7 125263380.691 7     -2506.496          46.000    23836826.570 6  97607836.158 6     -1953.114          39.000
G05  20742187.938 5 109000927.750 5      1093.473          35.000    20742185.188 5  84935783.756 5       852.054          35.000
G07  21273988.742 8 111795554.616 8     -1520.754          48.000    21273987.750 8  87113380.344 8     -1185.000          48.000
G28  23455826.156 6 123261175.885 6      3254.395          40.000    23455823.906 5  96047679.500 5      2535.901          30.000
G30  20402956.766 8 107218267.484 8       501.602          51.000    20402957.195 8  83546717.951 8       390.861          51.000
R06  19644518.367 8 104826910.634 8     -1231.086          49.000
