     3.02           OBSERVATION DATA    M (MIXED)           RINEX VERSION / TYPE
SAVERINEX           SC600               20200517 155931 LCL PGM / RUN BY / DATE
       G = GPS       R = GLONASS       C = COMPASS          COMMENT
       S = SBAS      J = QZSS          E = GALILEO          COMMENT
BEAN                                                        MARKER NAME
1                                                           MARKER NUMBER
GEODETIC                                                    MARKER TYPE
Unige DICCA         GTER                                    OBSERVER / AGENCY
SC60291900056       SC600               2.12(191202)        REC # / TYPE / VERS
                    HEMA45          NONE                    ANT # / TYPE
  4509407.8091   693652.4678  4442337.6214                  APPROX POSITION XYZ
        0.0000        0.0000        0.0000                  ANTENNA: DELTA H/E/N
G    8 C1C L1C D1C S1C C2Y L2Y D2Y S2Y                      SYS / # / OBS TYPES
R    8 C1C L1C D1C S1C C2P L2P D2P S2P                      SYS / # / OBS TYPES
C    4 C1I L1I D1I S1I                                      SYS / # / OBS TYPES
E    8 C1C L1C D1C S1C C7Q L7Q D7Q S7Q                      SYS / # / OBS TYPES
DBHZ                                                        COMMENT
     30.000                                                 INTERVAL
  2020    05    17    13    00    0.0000000     GPS         TIME OF FIRST OBS
  2020    05    17    13    59   30.0000000     GPS         TIME OF LAST OBS
     0                                                      RCV CLOCK OFFS APPL
G L1C  0.00000                                              SYS / PHASE SHIFT
G L2Y  0.00000                                              SYS / PHASE SHIFT
R L1C  0.00000                                              SYS / PHASE SHIFT
R L2P  0.25000                                              SYS / PHASE SHIFT
C L1I  0.00000                                              SYS / PHASE SHIFT
E L1C  0.50000                                              SYS / PHASE SHIFT
E L7Q -0.25000                                              SYS / PHASE SHIFT
 13 R02 -4 R03  5 R04  6 R05  1 R09 -2 R10 -5 R14 -7 R15  0 GLONASS SLOT / FRQ #
    R16 -1 R17  4 R18 -3 R19  3 R20  2                      GLONASS SLOT / FRQ #
 C1C   71.950 C2C   71.950 C2P   71.950                     GLONASS COD/PHS/BIS
    18                                                      LEAP SECONDS
*** Above antenna height is from mark to ANTENNA BOTTOM.    COMMENT
    17     4        0.0000        ANT MEASURE TYPE/HEIGT    COMMENT
    0.0000    0.0000    0.0458    0.0405    0.0000          COMMENT
                    BASE STATION                            COMMENT
                                                            END OF HEADER
> 2020 05 17 13 00  0.0000000  0 18        .000000000000
G18  20304050.641 8 106698551.045 8       229.918          50.000    20304051.602 8  83141689.664 8       179.157          50.000
G20  23738480.836 6 124746529.167 6      3277.578          41.000    23738484.961 4  97205108.495 4      2553.951          29.000
G21  20647302.227 8 108502349.006 8       189.617          50.000    20647301.398 8  84547287.127 8       147.754          50.000
G25  24629719.938 6 129430041.437 6     -3544.691          39.000    24629719.789 6 100854556.104 6     -2762.097          40.000
G26  20482961.742 6 107638689.541 6      1087.414          39.000    20482962.430 6  83874293.815 6       847.336          40.000
G29  22247530.023 6 116911591.651 6     -2474.344          36.000
G31  22597047.422 8 118748268.736 8     -2779.434          50.000    22597046.688 8  92531103.664 8     -2165.792          50.000
R09  19311526.109 8 103122477.245 8        94.473          51.000    19311527.172 8  80206371.229 8        73.479          49.000
R16  22014829.227 6 117599303.732 6     -4124.664          36.000    22014831.242 5  91466118.716 5     -3208.072          34.000
R18  22405269.453 5 119600837.159 5     -3552.172          32.000    22405281.742 4  93022937.592 4     -2762.800          27.000
R20  21061264.500 6 112624072.965 6      2547.242          38.000    21061271.523 7  87596495.856 7      1981.188          43.000
C05  39630999.398 5 206369013.110 5        12.523          34.000
C27  21566585.336 8 112302974.625 8       443.000          51.000
C30  24645945.836 6 128337924.498 6      2553.742          39.000
E11  22358078.656 8 117492519.197 8       -35.039          50.000    22358077.461 8  90026725.265 8       -26.833          49.000
E24  23880335.852 8 125491978.149 8     -2604.766          51.000    23880346.758 7  96156218.976 7     -1995.859          47.000
E25  23484372.516 8 123411205.277 8      -182.656          51.000    23484375.148 8  94561819.660 8      -139.945          51.000
E36  25204574.156 8 132450926.332 8      2301.551          49.000    25204578.414 8 101488392.405 8      1763.544          49.000
> 2020 05 17 13 00 30.0000000  0 18        .000000000000
G18  20302788.305 8 106691918.151 8       212.832          50.000    20302789.125 8  83136521.175 8       165.843          50.000
G20  23719776.430 6 124648236.988 6      3276.297          39.000    23719780.594 6  97128517.256 6      2552.962          37.000
G21  20646261.992 8 108496881.857 8       175.324          50.000    20646260.906 8  84543027.029 8       136.616          50.000
G25  24649961.500 6 129536416.113 6     -3546.492          37.000    24649963.742 6 100937445.419 6     -2763.503          37.000
G26  20476794.469 6 107606278.127 6      1074.160          39.000    20476794.766 6  83849038.186 6       837.008          39.000
G29  22261663.719 6 116985873.651 6     -2477.484          36.000    22261671.539 5  91157864.038 5     -1930.516          32.000
G31  22612942.023 8 118831796.814 8     -2788.473          49.000    22612941.336 8  92596190.458 8     -2172.839          50.000
R09  19311066.086 8 103120021.580 8        69.766          51.000    19311067.234 8  80204461.247 8        54.262          49.000
R16  22038019.555 6 117723178.762 6     -4132.625          36.000    22038021.953 5  91562465.816 5     -3214.270          33.000
R18  22425235.055 5 119707420.841 5     -3552.801          32.000    22425245.617 4  93105835.985 4     -2763.296          28.000
R20  21047010.750 6 112547852.262 6      2534.961          36.000    21047017.391 7  87537213.060 7      1971.636          42.000
C05  39630922.109 5 206368611.312 5        14.629          35.000
C27  21564059.344 8 112289819.572 8       434.641          51.000
C30  24631243.188 6 128261362.251 6      2550.980          36.000
E11  22358306.461 8 117493716.642 8       -43.883          50.000    22358304.969 8  90027642.792 8       -33.708          49.000
E24  23895223.094 8 125570210.940 8     -2610.051          51.000    23895234.906 8  96216163.552 8     -1999.858          48.000
E25  23485448.078 8 123416857.819 8      -193.598          51.000    23485450.875 8  94566150.815 8      -148.287          51.000
E36  25191452.859 8 132381971.083 8      2296.051          51.000    25191457.117 8 101435556.616 8      1759.357          48.000
> 2020 05 17 13 01  0.0000000  0 18        .000000000000
G18  20301623.305 8 106685795.853 8       189.410          50.000    20301623.961 8  83131750.553 8       147.592          50.000
G20  23701079.555 6 124549987.970 6      3268.328          39.000    23701083.914 5  97051959.678 5      2546.752          35.000
G21  20645302.188 8 108491838.316 8       154.984          50.000    20645300.977 8  84539096.999 8       120.767          49.000
G25  24670212.531 6 129642839.303 6     -3554.121          38.000    24670217.000 6 101020372.516 6     -2769.448          38.000
G26  20470701.094 6 107574257.556 6      1054.410          38.000    20470701.570 6  83824087.123 6       821.618          38.000
G31  22628885.703 8 118915582.179 8     -2803.191          50.000    22628885.359 8  92661477.721 8     -2184.308          50.000
R09  19310744.406 8 103118304.157 8        38.750          51.000    19310745.594 8  80203125.462 8        30.139          50.000
R16  22061253.547 5 117847294.233 5     -4147.188          32.000    22061255.703 5  91658999.925 5     -3225.596          31.000
R18  22445201.102 5 119814005.980 5     -3559.379          31.000    22445212.023 5  93188735.440 5     -2768.412          30.000
R20  21032824.477 5 112471991.034 5      2516.418          35.000    21032829.258 6  87478209.905 6      1957.214          40.000
C05  39630834.586 5 206368155.661 5         9.859          35.000
C27  21561580.867 8 112276911.921 8       420.117          51.000
C28  23241284.391 5 121023447.828 5     -2157.641          33.000
C30  24616559.070 5 128184893.592 5      2541.461          32.000
E11  22358585.258 8 117495181.727 8       -59.598          49.000    22358583.695 8  90028765.382 8       -45.639          50.000
E24  23910139.727 8 125648599.855 8     -2621.773          50.000    23910152.969 8  96276227.762 8     -2008.799          48.000
E25  23486585.156 8 123422833.605 8      -210.641          51.000    23486587.859 8  94570729.670 8      -161.403          51.000
E36  25178362.680 8 132313178.276 8      2284.289          51.000    25178365.758 7 101382845.284 7      1750.335          47.000
> 2020 05 17 13 01 30.0000000  0 14        .000000000000
G18  20300586.281 8 106680346.088 8       178.246          50.000    20300586.727 8  83127503.993 8       138.896          50.000
G20  23682422.711 6 124451947.164 6      3272.242          40.000    23682426.844 5  96975564.309 5      2549.802          34.000
G21  20644453.672 8 108487380.178 8       146.648          49.000    20644452.508 8  84535623.137 8       114.272          49.000
G25  24690504.242 6 129749472.199 6     -3550.188          40.000    24690509.039 6 101103462.993 6     -2766.383          39.000
G26  20464712.844 6 107542791.715 6      1047.617          38.000    20464714.102 6  83799568.268 6       816.325          38.000
G31  22644909.039 8 118999784.705 8     -2805.914          50.000    22644908.828 8  92727090.043 8     -2186.427          51.000
R09  19310592.172 8 103117490.840 8        19.934          51.000    19310593.500 8  80202492.870 8        15.504          51.000
R20  21018736.812 5 112396655.417 5      2510.457          34.000    21018740.414 6  87419615.610 6      1952.578          41.000
C27  21559180.602 8 112264412.126 8       417.594          51.000
C28  23253700.633 5 121088104.700 5     -2156.234          32.000
E11  22358945.703 8 117497075.937 8       -62.527          49.000    22358944.281 8  90030216.804 8       -47.845          50.000
E24  23925116.641 8 125727306.307 8     -2621.164          49.000    23925130.695 8  96336535.296 8     -2008.424          48.000
E25  23487814.719 8 123429295.552 8      -215.883          51.000    23487817.328 8  94575681.034 8      -165.414          51.000
E36  25165334.430 8 132244710.832 8      2284.512          51.000    25165336.141 7 101330383.254 7      1750.464          47.000
> 2020 05 17 13 02  0.0000000  0 18        .000000000000
G18  20299650.430 8 106675428.327 8       152.848          51.000    20299650.492 8  83123671.976 8       119.102          50.000
G20  23663779.766 6 124353977.387 6      3262.012          40.000    23663782.734 6  96899224.280 6      2541.830          36.000
G21  20643689.984 8 108483366.683 8       124.145          49.000    20643688.617 8  84532495.747 8        96.736          49.000
G25  24710809.383 7 129856173.126 7     -3560.188          42.000    24710813.383 7 101186606.442 7     -2774.178          42.000
G26  20458803.000 6 107511741.991 6      1025.395          37.000    20458805.359 6  83775373.634 6       799.006          38.000
G29  22304263.656 5 117209649.991 5     -2496.160          31.000
G31  22660984.742 8 119084261.761 8     -2822.672          50.000    22660983.977 8  92792916.309 8     -2199.485          50.000
R09  19310582.547 8 103117439.879 8       -13.348          51.000    19310584.117 8  80202453.227 8       -10.382          51.000
R16  22107919.453 5 118096542.297 5     -4165.488          32.000    22107925.172 5  91852869.258 5     -3239.827          33.000
R20  21004719.961 5 112321703.310 5      2489.473          32.000    21004725.156 7  87361319.600 7      1936.260          42.000
C05  39630694.734 5 206367426.380 5        11.008          35.000
C27  21556831.930 8 112252180.864 8       400.980          51.000
C28  23266190.445 6 121152992.203 6     -2167.281          36.000
C30  24587298.133 5 128032518.516 5      2532.746          33.000
E11  22359360.922 8 117499258.501 8       -79.852          49.000    22359359.633 8  90031889.165 8       -61.218          50.000
E24  23940127.219 8 125806189.195 8     -2634.555          48.000    23940141.469 8  96396978.013 8     -2018.703          48.000
E25  23489110.117 8 123436103.938 8      -234.930          51.000    23489112.852 8  94580897.853 8      -180.017          51.000
E36  25152340.891 8 132176429.129 8      2270.703          51.000    25152342.516 8 101278063.556 8      1739.919          48.000
> 2020 05 17 13 02 30.0000000  0 19        .000000000000
G18  20298805.648 8 106670988.566 8       142.305          51.000    20298805.383 8  83120212.416 8       110.887          50.000
G20  23645140.961 6 124256028.090 6      3266.621          40.000    23645142.445 6  96822900.211 6      2545.422          38.000
G21  20643000.500 8 108479743.421 8       116.559          49.000    20642998.984 8  84529672.436 8        90.825          49.000
G25  24731117.375 7 129962887.098 7     -3555.188          44.000    24731120.750 7 101269760.062 7     -2770.279          44.000
G26  20452962.883 6 107481056.146 6      1019.203          39.000    20452965.406 6  83751462.592 6       794.187          39.000
G29  22318485.891 5 117284421.099 5     -2492.891          30.000
G31  22677101.602 8 119168956.590 8     -2824.473          49.000    22677100.117 8  92858912.229 8     -2200.888          49.000
R09  19310705.750 8 103118097.771 8       -31.383          51.000    19310707.492 8  80202964.907 8       -24.409          51.000
R16  22131318.609 4 118221513.637 4     -4165.988          29.000    22131318.961 5  91950069.142 5     -3240.213          33.000
R18  22505205.125 5 120134303.940 5     -3554.594          32.000    22505203.984 4  93437781.531 4     -2764.678          29.000
R20  20990764.508 5 112247081.046 5      2484.410          33.000    20990771.117 6  87303280.049 6      1932.316          40.000
C05  39630605.438 5 206366961.917 5        18.551          35.000
C27  21554524.422 8 112240164.537 8       399.215          51.000
C28  23278668.844 6 121217939.413 6     -2163.527          37.000
C30  24572698.500 6 127956484.585 6      2535.766          36.000
E11  22359820.609 8 117501675.039 8       -82.098          48.000    22359819.312 8  90033740.796 8       -62.927          50.000
E24  23955160.570 7 125885193.984 7     -2633.176          47.000    23955175.867 7  96457514.090 7     -2017.622          47.000
E25  23490461.336 8 123443205.679 8      -239.285          51.000    23490464.148 8  94586339.439 8      -183.348          51.000
E36  25139371.984 8 132108280.117 8      2271.703          49.000    25139373.688 7 101225845.510 7      1740.713          47.000
> 2020 05 17 13 03  0.0000000  0 18        .000000000000
G18  20298068.945 8 106667116.827 8       122.855          51.000    20298068.516 8  83117195.498 8        95.732          50.000
G20  23626523.859 6 124158192.331 6      3262.758          39.000    23626524.445 6  96746664.613 6      2542.412          39.000
G21  20642402.180 8 108476599.930 8       100.145          49.000    20642400.758 8  84527222.982 8        78.035          49.000
G25  24751444.727 7 130069703.304 7     -3558.922          44.000    24751447.922 7 101352993.382 7     -2773.189          44.000
G26  20447209.836 6 107450826.303 6      1003.688          38.000    20447211.828 6  83727906.908 6       782.094          38.000
G29  22332766.484 5 117359425.073 5     -2497.922          33.000
G31  22693276.359 8 119253956.617 8     -2835.023          49.000    22693274.328 8  92925145.949 8     -2209.112          49.000
R09  19310979.211 8 103119557.060 8       -58.602          51.000    19310980.914 8  80204099.911 8       -45.579          51.000
R16  22154763.914 5 118346747.655 5     -4176.066          32.000    22154767.289 5  92047476.053 5     -3248.052          32.000
R18  22525204.312 5 120241090.219 5     -3556.453          32.000    22525205.562 4  93520837.580 4     -2766.130          28.000
R20  20976888.242 5 112172881.303 5      2469.602          30.000    20976893.484 6  87245569.105 6      1920.801          38.000
C27  21552275.227 8 112228452.387 8       388.641          51.000
C28  23291172.633 5 121283034.798 5     -2168.883          32.000
C30  24558130.500 6 127880604.268 6      2529.953          38.000
E11  22360342.086 8 117504415.289 8       -93.152          48.000    22360340.695 8  90035840.456 8       -71.469          51.000
E24  23970234.312 8 125964410.138 8     -2640.535          49.000    23970250.469 7  96518212.112 7     -2023.369          47.000
E25  23491885.773 8 123450691.780 8      -252.609          51.000    23491888.383 8  94592075.538 8      -193.549          51.000
E36  25126445.469 8 132040354.814 8      2263.785          50.000    25126446.883 7 101173798.875 7      1734.654          47.000
> 2020 05 17 13 03 30.0000000  0 18        .000000000000
G18  20297446.203 8 106663843.368 8        94.004          51.000    20297445.273 8  83114644.767 8        73.250          49.000
G20  23607934.758 5 124060504.060 5      3249.027          35.000    23607934.875 6  96670543.950 6      2531.713          36.000
G21  20641901.023 8 108473966.387 8        74.352          49.000    20641899.516 8  84525170.881 8        57.936          49.000
G25  24771797.039 7 130176651.017 7     -3572.262          44.000    24771800.570 7 101436329.172 7     -2783.581          44.000
G26  20441549.977 6 107421084.690 6       978.195          37.000    20441552.328 6  83704731.606 6       762.230          37.000
G31  22709514.672 8 119339290.323 8     -2854.945          50.000    22709512.750 8  92991639.692 8     -2224.636          50.000
R09  19311408.656 8 103121849.525 8       -95.441          51.000    19311410.180 8  80205882.944 8       -74.232          51.000
R16  22178272.148 5 118472320.472 5     -4195.902          35.000    22178276.609 5  92145143.811 5     -3263.480          31.000
R18  22545219.141 4 120347909.167 4     -3568.266          29.000    22545223.273 5  93603935.890 5     -2775.318          30.000
R20  20963096.406 4 112099136.090 4      2445.520          29.000    20963100.844 6  87188211.691 6      1902.071          38.000
C05  39630435.320 5 206366075.619 5         8.367          35.000
C27  21550090.141 8 112217074.348 8       368.750          51.000
C28  23303665.422 5 121348331.954 5     -2182.980          30.000
C30  24543597.922 6 127804908.372 6      2514.914          41.000
E11  22360930.852 8 117507509.266 8      -114.164          48.000    22360929.742 8  90038211.165 8       -87.437          51.000
E24  23985355.055 8 126043867.337 8     -2657.625          50.000    23985370.656 7  96579094.847 7     -2036.272          46.000
E25  23493389.555 8 123458593.321 8      -275.246          51.000    23493391.453 8  94598129.964 8      -210.897          51.000
E36  25113567.656 8 131972684.437 8      2246.449          49.000    25113569.523 8 101121947.572 8      1721.305          48.000
> 2020 05 17 13 04  0.0000000  0 17        .000000000000
G18  20296948.367 8 106661226.360 8        78.117          51.000    20296947.148 8  83112605.556 8        60.871          49.000
G20  23589384.742 5 123963025.010 5      3247.008          31.000    23589384.930 5  96594586.269 5      2530.139          32.000
G21  20641507.883 8 108471900.958 8        61.238          49.000    20641506.539 8  84523561.471 8        47.718          49.000
G25  24792184.828 7 130283787.563 7     -3572.492          43.000    24792188.680 7 101519812.117 7     -2783.763          42.000
G26  20435994.414 6 107391891.311 6       966.145          38.000    20435997.445 6  83681983.494 6       752.840          38.000
G31  22725827.188 8 119425013.543 8     -2861.996          50.000    22725826.250 8  93058436.932 8     -2230.130          50.000
R09  19312005.320 8 103125035.509 8      -119.176          51.000    19312006.781 8  80208360.925 8       -92.692          51.000
R16  22201849.688 6 118598264.089 6     -4202.434          36.000    22201856.086 4  92243099.933 4     -3268.562          26.000
R20  20949401.781 5 112025905.429 5      2433.754          31.000    20949406.969 6  87131254.544 6      1892.920          39.000
C05  39630371.695 5 206365744.473 5        11.262          35.000
C27  21547980.242 8 112206088.153 8       361.508          51.000
C28  23316240.570 5 121413839.760 5     -2185.492          32.000
C30  24529110.867 6 127729455.335 6      2512.836          41.000
E11  22361597.852 8 117511014.787 8      -121.758          48.000    22361597.062 8  90040897.230 8       -93.238          51.000
E24  24000532.938 8 126123623.267 8     -2661.625          51.000    24000547.617 7  96640206.481 7     -2039.406          45.000
E25  23494983.906 8 123466969.491 8      -285.301          51.000    23494985.164 8  94604548.074 8      -218.628          51.000
E36  25100749.766 8 131905328.156 8      2241.934          49.000    25100752.266 8 101070336.956 8      1717.809          48.000
> 2020 05 17 13 04 30.0000000  0 18        .000000000000
G18  20296533.453 8 106659045.264 8        62.047          51.000    20296532.352 8  83110906.018 8        48.348          50.000
G20  23570831.719 5 123865561.850 5      3245.754          34.000    23570833.500 5  96518622.207 5      2529.159          34.000
G21  20641180.812 8 108470182.472 8        47.969          50.000    20641179.484 8  84522222.415 8        37.378          49.000
G25  24812566.047 7 130390891.500 7     -3573.004          43.000    24812570.172 7 101603269.629 7     -2784.162          43.000
G26  20430502.008 6 107363027.618 6       953.203          40.000    20430505.258 6  83659492.287 6       742.753          41.000
G31  22742171.461 8 119510903.403 8     -2869.035          50.000    22742171.875 8  93125364.044 8     -2235.612          50.000
R09  19312727.438 8 103128891.965 8      -143.188          51.000    19312728.656 8  80211360.403 8      -111.368          51.000
R16  22225453.070 6 118724351.505 6     -4208.734          37.000
R18  22585297.008 5 120561851.996 5     -3566.188          33.000    22585305.688 5  93770358.054 5     -2773.698          34.000
R20  20935761.984 5 111952966.096 5      2423.023          31.000    20935767.992 6  87074524.021 6      1884.574          38.000
C05  39630283.805 5 206365286.625 5        14.004          34.000
C27  21545903.680 8 112195275.234 8       354.207          51.000
C28  23328823.609 4 121479362.979 4     -2188.871          29.000
C30  24514627.320 6 127654027.534 6      2510.383          40.000
E11  22362301.461 8 117514711.084 8      -129.609          49.000    22362300.422 8  90043729.448 8       -99.362          50.000
E24  24015725.570 8 126203456.878 8     -2665.762          51.000    24015738.375 7  96701377.587 7     -2042.537          45.000
E25  23496626.781 8 123475600.617 8      -295.289          51.000    23496627.789 8  94611161.525 8      -226.234          51.000
E36  25087950.125 8 131838066.476 8      2237.074          49.000    25087953.297 8 101018798.766 8      1714.152          49.000
> 2020 05 17 13 05  0.0000000  0 18        .000000000000
G18  20296237.180 8 106657487.131 8        42.293          51.000    20296236.055 8  83109691.895 8        32.956          50.000
G20  23552313.562 6 123768256.671 6      3241.145          37.000    23552316.336 6  96442800.007 6      2525.570          37.000
G21  20640955.422 8 108468997.733 8        31.375          49.000    20640953.953 8  84521299.232 8        24.451          49.000
G25  24832976.062 6 130498148.963 6     -3576.883          41.000    24832980.391 6 101686846.772 6     -2787.184          41.000
G26  20425108.461 6 107334682.642 6       936.875          40.000    20425111.930 6  83637405.290 6       730.032          40.000
G31  22758582.750 8 119597144.801 8     -2879.816          49.000    22758584.258 8  93192565.089 8     -2244.013          49.000
R09  19313610.781 8 103133610.137 8      -171.008          51.000    19313611.891 8  80215030.070 8      -133.006          51.000
R16  22249118.977 6 118850769.688 6     -4218.754          38.000
R18  22605345.094 5 120668878.772 5     -3568.488          35.000    22605354.742 5  93853601.114 5     -2775.491          31.000
R20  20922213.000 5 111880510.005 5      2407.309          31.000    20922218.156 5  87018169.357 5      1872.354          35.000
C05  39630207.516 5 206364890.047 5        12.660          34.000
C27  21543895.969 8 112184820.979 8       343.250          51.000
C28  23341443.406 4 121545022.638 4     -2193.141          28.000
C30  24500182.461 6 127578811.148 6      2504.188          38.000
E11  22363076.766 8 117518785.006 8      -141.492          48.000    22363075.680 8  90046851.025 8      -108.350          51.000
E24  24030968.367 8 126283554.752 8     -2673.602          51.000    24030979.820 7  96762751.192 7     -2048.550          46.000
E25  23498353.664 8 123484674.724 8      -309.172          51.000    23498354.664 8  94618114.398 8      -236.859          51.000
E36  25075204.625 8 131771087.405 8      2228.598          50.000    25075208.500 8 100967477.172 8      1707.612          50.000
> 2020 05 17 13 05 30.0000000  0 17        .000000000000
G18  20296044.031 8 106656471.305 8        23.883          51.000    20296042.922 8  83108900.348 8        18.610          50.000
G20  23533815.820 6 123671056.766 6      3236.969          38.000    23533819.758 6  96367059.825 6      2522.313          38.000
G21  20640816.062 8 108468265.438 8        16.031          49.000    20640814.766 8  84520728.615 8        12.492          49.000
G25  24853399.461 6 130605478.590 6     -3579.875          40.000    24853404.227 6 101770480.162 6     -2789.516          39.000
G26  20419798.508 6 107306777.721 6       921.977          41.000    20419801.836 6  83615661.188 6       718.423          41.000
G31  22775045.250 8 119683654.668 8     -2889.074          49.000    22775047.430 8  93259975.347 8     -2251.230          49.000
R09  19314640.625 8 103139108.926 8      -197.344          51.000    19314641.094 8  80219306.902 8      -153.490          50.000
R16  22272831.203 6 118977434.222 6     -4227.234          39.000    22272832.219 4  92538024.458 4     -3287.846          25.000
R18  22625399.055 6 120775925.484 6     -3569.852          36.000    22625406.953 5  93936859.634 5     -2776.554          31.000
R20  20908740.664 4 111808425.915 4      2393.555          28.000    20908747.227 6  86962121.315 6      1861.657          37.000
C05  39630127.773 5 206364474.249 5        13.664          34.000
C27  21541941.703 8 112174645.566 8       333.652          51.000
C30  24485761.875 6 127503727.161 6      2499.934          37.000
E11  22363908.375 8 117523155.538 8      -151.340          48.000    22363907.539 8  90050199.894 8      -115.953          51.000
E24  24046245.734 8 126363835.767 8     -2679.953          50.000    24046256.992 8  96824265.132 8     -2053.390          48.000
E25  23500149.516 8 123494112.152 8      -321.566          51.000    23500150.562 8  94625345.662 8      -246.437          51.000
E36  25062498.109 8 131704311.351 8      2221.594          50.000    25062501.562 8 100916311.126 8      1702.233          49.000
> 2020 05 17 13 06  0.0000000  0 18        .000000000000
G18  20295952.562 8 106655989.941 8         -.570          51.000    20295951.688 8  83108525.279 8         -.444          51.000
G20  23515337.930 6 123573957.518 6      3227.039          40.000    23515342.414 6  96291398.096 6      2514.573          38.000
G21  20640761.289 8 108467977.907 8        -5.531          49.000    20640760.125 8  84520504.575 8        -4.307          49.000
G25  24873834.695 6 130712871.521 6     -3588.555          40.000    24873839.836 6 101854162.889 6     -2796.279          39.000
G26  20414571.062 6 107279306.977 6       900.648          41.000    20414574.422 6  83594255.437 6       701.804          41.000
G29  22418994.570 6 117812577.551 6     -2537.562          38.000    22418992.922 6  91802031.898 6     -1977.331          36.000
G31  22791557.125 8 119770422.883 8     -2904.273          50.000    22791559.258 8  93327586.939 8     -2263.070          49.000
R09  19315815.430 8 103145381.645 8      -229.820          51.000    19315815.805 8  80224185.653 8      -178.749          51.000
R16  22296588.086 6 119104334.322 6     -4241.945          38.000    22296586.398 4  92636725.417 4     -3299.300          24.000
R18  22645456.344 5 120882982.701 5     -3576.328          35.000    22645462.172 5  94020126.328 5     -2781.589          33.000
C05  39630043.375 5 206364035.196 5         7.438          34.000
C27  21540039.688 8 112164741.274 8       317.938          51.000
C28  23366754.211 4 121676865.307 4     -2208.137          29.000
C30  24471363.703 5 127428768.873 5      2488.680          33.000
E11  22364795.164 8 117527814.717 8      -167.840          48.000    22364794.250 8  90053769.912 8      -128.733          51.000
E24  24061555.781 8 126444291.684 8     -2692.402          48.000    24061568.008 8  96885913.100 8     -2063.037          50.000
E25  23502013.242 8 123503905.973 8      -340.016          51.000    23502014.500 8  94632850.007 8      -260.531          51.000
E36  25049828.719 8 131637731.507 8      2208.324          51.000    25049831.555 8 100865295.456 8      1692.084          49.000
> 2020 05 17 13 06 30.0000000  0 16        .000000000000
G18  20295971.102 8 106656087.123 8        -5.656          51.000    20295970.492 8  83108601.011 8        -4.407          51.000
G20  23496888.898 7 123477006.622 7      3236.391          42.000    23496893.000 6  96215851.989 6      2521.866          37.000
G21  20640799.664 8 108468179.023 8        -7.582          49.000    20640798.227 8  84520661.280 8        -5.908          49.000
G26  20409434.695 6 107252316.537 6       898.984          41.000    20409438.336 6  83573223.900 6       700.504          41.000
G29  22433460.812 5 117888583.987 5     -2528.434          35.000    22433441.805 5  91861257.561 5     -1970.217          34.000
G31  22808126.344 8 119857491.593 8     -2900.152          50.000    22808127.906 8  93395432.665 8     -2259.859          49.000
R09  19317143.508 8 103152474.053 8      -242.773          51.000    19317144.109 8  80229701.954 8      -188.821          51.000
R16  22320396.516 6 119231511.615 6     -4236.707          36.000    22320393.383 4  92735637.492 4     -3295.217          25.000
R18  22665523.492 5 120990093.781 5     -3564.246          32.000    22665527.664 5  94103435.001 5     -2772.188          35.000
C05  39629962.664 5 206363614.995 5        20.793          34.000
C27  21538198.234 8 112155151.889 8       321.520          51.000
C30  24456996.633 5 127353980.692 5      2496.984          33.000
E11  22365745.133 8 117532806.439 8      -164.680          48.000    22365744.055 8  90057594.722 8      -126.099          51.000
E24  24076906.758 7 126524966.108 7     -2685.637          45.000    24076920.797 8  96947728.550 8     -2057.796          51.000
E25  23503953.367 8 123514101.260 8      -339.383          51.000    23503954.891 8  94640661.982 8      -260.059          51.000
E36  25037205.344 8 131571393.068 8      2214.539          50.000    25037207.492 8 100814464.746 8      1696.834          49.000
> 2020 05 17 13 07  0.0000000  0 18        .000000000000
G18  20296117.742 8 106656858.589 8       -33.449          51.000    20296117.281 8  83109202.160 8       -26.064          51.000
G20  23478487.328 7 123380303.261 7      3222.602          44.000    23478490.406 6  96140498.781 6      2511.118          36.000
G21  20640949.039 8 108468964.343 8       -32.504          49.000    20640947.438 8  84521273.212 8       -25.328          49.000
G26  20404408.539 7 107225904.187 7       874.387          42.000    20404412.273 7  83552642.828 7       681.340          43.000
G29  22447952.664 4 117964748.180 4     -2542.820          29.000
G31  22824770.469 8 119944954.181 8     -2918.637          49.000    22824771.281 8  93463585.295 8     -2274.262          49.000
R09  19318643.438 8 103160484.345 8      -278.910          51.000    19318644.594 8  80235932.177 8      -216.930          51.000
R16  22344275.336 5 119359060.916 5     -4254.473          31.000    22344269.961 4  92834838.355 4     -3309.034          24.000
R18  22685618.609 5 121097354.765 5     -3574.484          33.000    22685620.906 6  94186860.311 6     -2780.151          36.000
R20  20868802.070 5 111594841.336 5      2350.184          31.000    20868811.641 6  86795994.536 6      1827.921          40.000
C05  39629903.984 5 206363309.325 5        11.309          34.000
C27  21536435.430 8 112145972.401 8       302.562          51.000
C28  23392193.531 5 121809279.886 5     -2212.785          32.000
C30  24442683.531 5 127279458.477 5      2482.953          35.000
E11  22366776.430 8 117538226.218 8      -184.441          48.000    22366775.344 8  90061747.538 8      -141.310          51.000
E24  24092315.859 6 126605954.362 6     -2701.684          40.000    24092333.562 8  97009784.524 8     -2069.995          51.000
E25  23505988.289 8 123524794.790 8      -361.324          51.000    23505989.945 8  94648855.722 8      -276.931          51.000
E36  25024645.602 8 131505392.881 8      2197.695          50.000    25024647.523 8 100763893.216 8      1683.921          49.000
> 2020 05 17 13 07 30.0000000  0 17        .000000000000
G18  20296338.352 8 106658018.654 8       -47.938          51.000    20296338.195 8  83110106.108 8       -37.354          51.000
G20  23460079.562 7 123283565.479 7      3222.398          46.000    23460081.711 6  96065118.759 6      2510.960          38.000
G21  20641155.156 8 108470047.478 8       -43.918          50.000    20641153.359 8  84522117.223 8       -34.222          50.000
G26  20399438.430 7 107199786.197 7       862.879          43.000    20399441.930 7  83532291.133 7       672.376          43.000
G29  22462473.070 6 118041025.094 6     -2543.406          37.000    22462442.992 5  91979954.195 5     -1981.866          30.000
G31  22841434.539 8 120032522.881 8     -2923.570          49.000    22841434.578 8  93531820.618 8     -2278.107          49.000
R09  19320261.039 8 103169123.141 8      -301.387          51.000    19320262.617 8  80242651.235 8      -234.412          51.000
R18  22705687.102 5 121204474.084 5     -3570.980          35.000    22705687.859 6  94270175.281 6     -2777.432          37.000
R20  20855631.117 5 111524449.319 5      2340.957          32.000    20855641.664 6  86741246.168 6      1820.744          40.000
C05  39629813.117 5 206362835.586 5        15.691          35.000
C27  21534696.836 8 112136919.822 8       296.906          51.000
C28  23404930.992 5 121875605.143 5     -2213.129          31.000
C30  24428370.148 6 127204919.996 6      2482.473          37.000
E11  22367834.836 8 117543788.165 8      -190.641          48.000    22367833.836 8  90066009.291 8      -146.135          51.000
E24  24107730.477 7 126686970.197 7     -2703.809          44.000    24107751.234 8  97071861.644 8     -2071.728          51.000
E25  23508063.805 8 123535701.824 8      -369.949          51.000    23508065.727 8  94657213.036 8      -283.453          51.000
E36  25012095.875 8 131439446.278 8      2194.438          49.000    25012098.555 8 100713362.733 8      1681.524          49.000
> 2020 05 17 13 08  0.0000000  0 18        .000000000000
G18  20296693.555 8 106659886.940 8       -71.000          51.000    20296694.031 8  83111561.942 8       -55.325          50.000
G20  23441726.820 7 123187116.431 7      3213.195          46.000    23441727.672 6  95989963.751 6      2503.792          36.000
G21  20641478.984 8 108471748.182 8       -63.875          50.000    20641476.930 8  84523442.441 8       -49.776          50.000
G26  20394585.656 7 107174284.249 7       842.875          43.000    20394588.617 7  83512419.489 7       656.786          43.000
G29  22477043.430 5 118117544.656 5     -2552.531          32.000    22477012.172 5  92039579.963 5     -1988.985          30.000
G31  22858178.844 8 120120514.927 8     -2937.012          48.000    22858177.977 8  93600385.810 8     -2288.584          48.000
R09  19322057.375 8 103178716.328 8      -332.562          51.000    19322059.383 8  80250112.582 8      -258.663          51.000
R16  22392139.438 5 119614799.973 5     -4271.160          30.000
R18  22725788.508 6 121311775.351 6     -3576.969          36.000    22725789.508 5  94353631.805 5     -2782.087          34.000
R20  20842572.297 5 111454598.115 5      2322.199          34.000    20842579.445 6  86686917.452 6      1806.155          37.000
C05  39629750.812 5 206362511.164 5        11.988          35.000
C27  21533043.578 8 112128311.078 8       282.613          51.000
C28  23417724.000 5 121942212.541 5     -2221.918          33.000
C30  24414116.141 6 127130683.135 6      2472.426          39.000
E11  22368981.125 8 117549811.778 8      -205.270          48.000    22368980.102 8  90070624.790 8      -157.261          51.000
E24  24123213.766 7 126768333.090 7     -2714.793          47.000    24123234.641 8  97134204.642 8     -2080.238          51.000
E25  23510241.102 8 123547143.042 8      -387.262          51.000    23510243.172 8  94665979.674 8      -296.760          51.000
E36  24999617.656 8 131373874.033 8      2182.484          50.000    24999621.172 8 100663119.118 8      1672.239          49.000
> 2020 05 17 13 08 30.0000000  0 17        .000000000000
G18  20297137.391 8 106662221.107 8       -87.586          51.000    20297138.016 8  83113380.771 8       -68.249          51.000
G20  23423383.352 7 123090717.214 7      3210.406          45.000    23423382.539 6  95914847.529 6      2501.618          38.000
G21  20641873.977 8 108473823.577 8       -77.422          50.000    20641871.812 8  84525059.666 8       -60.326          50.000
G26  20389804.438 7 107149158.018 7       829.215          44.000    20389806.992 7  83492840.608 7       646.141          44.000
G31  22874956.875 8 120208686.134 8     -2944.078          48.000    22874954.914 8  93669090.605 8     -2294.087          48.000
R09  19323986.773 8 103189018.559 8      -357.148          51.000    19323988.734 8  80258125.420 8      -277.785          51.000
R16  22416135.750 5 119742969.718 5     -4277.730          30.000
R18  22745877.883 5 121419011.111 5     -3574.953          35.000    22745878.711 5  94437037.330 5     -2780.522          31.000
R20  20829573.609 5 111385078.135 5      2310.164          32.000    20829575.758 5  86632846.451 5      1796.797          32.000
C05  39629671.094 5 206362096.760 5        13.492          34.000
C27  21531429.586 8 112119906.139 8       274.805          51.000
C28  23430524.023 5 122008861.791 5     -2224.203          33.000
C30  24399875.438 6 127056508.611 6      2469.586          39.000
E11  22370169.148 8 117556054.565 8      -213.660          49.000    22370167.930 8  90075408.219 8      -163.863          51.000
E24  24138718.102 8 126849800.260 8     -2719.293          51.000    24138737.422 8  97196627.497 8     -2083.524          51.000
E25  23512474.188 8 123558877.070 8      -397.914          51.000    23512476.234 8  94674970.670 8      -304.880          51.000
E36  24987164.992 8 131308434.911 8      2177.074          50.000    24987168.383 8 100612977.475 8      1668.208          49.000
> 2020 05 17 13 09  0.0000000  0 17        .000000000000
G18  20297690.586 8 106665130.854 8      -105.570          50.000    20297691.797 8  83115648.107 8       -82.263          50.000
G20  23405070.531 7 122994481.444 7      3206.277          44.000    23405067.641 5  95839858.658 5      2498.398          35.000
G21  20642361.055 8 108476383.357 8       -92.410          50.000    20642358.906 8  84527054.306 8       -72.008          50.000
G26  20385116.023 7 107124519.273 7       814.262          45.000    20385118.312 7  83473641.580 7       634.493          45.000
G31  22891789.195 7 120297143.879 7     -2952.254          46.000    22891786.164 7  93738018.638 7     -2300.461          45.000
R09  19326069.891 8 103200142.093 8      -383.504          51.000    19326071.766 8  80266777.041 8      -298.281          51.000
R16  22440179.539 5 119871411.212 5     -4284.391          31.000    22440191.359 4  93233385.182 4     -3332.304          28.000
R18  22765975.023 6 121526291.779 6     -3575.941          36.000    22765976.391 4  94520475.694 4     -2781.294          28.000
R20  20816655.594 4 111316002.151 4      2296.613          29.000    20816652.180 5  86579120.833 5      1786.258          32.000
C05  39629594.953 5 206361699.625 5        13.949          34.000
C27  21529875.531 8 112111813.916 8       265.520          51.000
C28  23443352.109 4 122075685.516 4     -2228.617          28.000
C30  24385668.125 6 126982506.229 6      2464.551          37.000
E11  22371419.680 8 117562626.082 8      -223.629          49.000    22371418.250 8  90080443.531 8      -171.319          51.000
E24  24154263.164 8 126931481.014 8     -2725.344          51.000    24154280.484 8  97259214.013 8     -2088.283          50.000
E25  23514783.914 8 123571014.693 8      -410.449          51.000    23514786.148 8  94684270.915 8      -314.467          51.000
E36  24974758.383 8 131243239.756 8      2170.176          48.000    24974761.898 8 100563022.775 8      1662.814          49.000
> 2020 05 17 13 09 30.0000000  0 17        .000000000000
G18  20298353.039 8 106668614.363 8      -128.805          49.000    20298354.945 8  83118362.533 8      -100.367          49.000
G20  23386788.430 7 122898410.648 7      3196.387          42.000    23386783.938 6  95764998.358 6      2490.691          36.000
G21  20642939.953 8 108479425.530 8      -112.652          49.000    20642937.930 8  84529424.838 8       -87.781          49.000
G26  20380520.516 7 107100368.264 7       793.719          46.000    20380522.555 7  83454822.614 7       618.482          46.000
G31  22908675.148 7 120385884.578 7     -2965.684          44.000    22908672.047 7  93807167.162 7     -2310.922          44.000
R09  19328306.742 8 103212086.072 8      -415.059          51.000    19328308.266 8  80276066.799 8      -322.823          51.000
R16  22464271.023 5 120000104.390 5     -4297.742          35.000    22464279.047 4  93333483.035 4     -3342.688          28.000
R18  22786080.102 5 121633613.848 5     -3581.480          35.000    22786082.562 4  94603952.372 4     -2785.596          25.000
R20  20803820.359 4 111247369.675 4      2276.719          29.000    20803817.703 5  86525739.991 5      1770.775          34.000
C05  39629522.516 5 206361322.683 5         9.426          34.000
C27  21528381.250 8 112104032.784 8       251.094          51.000
C28  23456200.719 5 122142666.347 5     -2237.336          35.000
C30  24371494.281 5 126908675.089 5      2454.793          31.000
E11  22372732.500 8 117569524.416 8      -238.336          49.000    22372730.797 8  90085729.260 8      -182.678          51.000
E24  24169848.047 8 127013373.157 8     -2736.383          51.000    24169863.719 8  97321962.481 8     -2096.724          49.000
E25  23517170.086 8 123583555.075 8      -427.816          51.000    23517172.648 8  94693879.758 8      -327.774          51.000
E36  24962397.727 7 131178287.930 7      2157.910          47.000    24962401.734 8 100513254.513 8      1653.446          49.000
> 2020 05 17 13 10  0.0000000  0 16        .000000000000
G18  20299115.672 8 106672623.573 8      -142.484          49.000    20299117.719 8  83121486.581 8      -111.027          49.000
G20  23368528.805 7 122802460.482 7      3196.105          44.000    23368524.359 6  95690232.021 6      2490.475          37.000
G21  20643601.312 8 108482901.559 8      -123.254          48.000    20643599.453 8  84532133.442 8       -96.042          48.000
G26  20376008.922 7 107076658.973 7       782.906          46.000    20376010.727 7  83436347.844 7       610.054          46.000
G31  22925605.766 7 120474857.696 7     -2969.668          44.000    22925603.977 7  93876496.825 7     -2314.030          44.000
R09  19330688.305 8 103224802.450 8      -436.883          50.000    19330689.711 8  80285957.309 8      -339.798          51.000
R16  22488400.930 5 120129005.884 5     -4299.672          34.000    22488406.531 5  93433739.711 5     -3344.189          32.000
R18  22806183.672 6 121740927.895 6     -3576.742          36.000
C05  39629444.586 5 206360917.155 5        13.738          34.000
C27  21526937.750 8 112096515.381 8       245.996          51.000
C28  23469082.586 4 122209713.314 4     -2236.867          28.000
C30  24357347.047 5 126834968.609 5      2454.777          32.000
E11  22374098.234 8 117576701.419 8      -244.238          48.000    22374096.391 8  90091228.530 8      -187.096          51.000
E24  24185463.398 8 127095428.311 8     -2737.969          51.000    24185477.266 7  97384835.871 7     -2097.915          47.000
E25  23519623.977 8 123596451.230 8      -435.949          51.000    23519626.875 8  94703761.219 8      -333.982          51.000
E36  24950075.211 8 131113532.553 8      2155.020          48.000    24950079.281 8 100463636.774 8      1651.362          49.000
> 2020 05 17 13 10 30.0000000  0 15        .000000000000
G18  20299978.297 8 106677156.775 8      -164.539          49.000    20299980.375 8  83125018.940 8      -128.212          49.000
G20  23350292.906 7 122706632.958 7      3187.355          45.000    23350289.594 6  95615561.252 6      2483.657          39.000
G21  20644344.836 8 108486809.635 8      -142.164          48.000    20644343.031 8  84535178.704 8      -110.777          48.000
G26  20371581.305 7 107053391.819 7       763.465          46.000    20371582.953 7  83418217.590 7       594.905          47.000
G31  22942580.625 7 120564059.722 7     -2981.949          47.000    22942580.328 7  93946004.821 7     -2323.600          47.000
R09  19333214.445 8 103238290.591 8      -467.145          51.000    19333216.031 8  80296448.080 8      -363.335          51.000
R16  22512568.742 5 120258107.803 5     -4310.848          34.000    22512573.562 5  93534152.199 5     -3352.888          31.000
R18  22826284.922 6 121848231.069 6     -3581.402          36.000    22826287.531 4  94770878.827 4     -2785.535          25.000
C05  39629360.898 5 206360481.059 5        10.246          34.000
C27  21525544.461 8 112089260.231 8       232.812          50.000
C30  24343218.375 5 126761386.375 5      2446.262          34.000
E11  22375516.531 8 117584155.215 8      -257.504          49.000    22375514.523 8  90096939.898 8      -197.362          50.000
E24  24201108.758 8 127177644.475 8     -2747.734          51.000    24201120.844 7  97447832.611 7     -2105.437          46.000
E25  23522145.320 8 123609702.520 8      -452.281          51.000    23522148.656 8  94713914.795 8      -346.517          51.000
E36  24937790.711 8 131048972.975 8      2144.082          49.000    24937794.922 8 100414169.070 8      1642.943          51.000
> 2020 05 17 13 11  0.0000000  0 14        .000000000000
G18  20300961.258 8 106682321.725 8      -180.305          50.000    20300963.375 8  83129043.585 8      -140.497          50.000
G20  23332101.844 7 122611039.791 7      3184.656          46.000    23332099.883 7  95541073.118 7      2481.553          42.000
G21  20645191.094 8 108491257.437 8      -154.879          48.000    20645189.516 8  84538644.512 8      -120.685          48.000
G26  20367258.539 7 107030676.618 7       750.383          46.000    20367260.188 7  83400517.423 7       584.714          46.000
G31  22959619.422 7 120653596.386 7     -2987.750          47.000    22959620.258 7  94015773.580 7     -2328.120          47.000
R09  19335906.133 8 103252660.595 8      -491.352          51.000    19335907.352 8  80307624.763 8      -382.162          51.000
R16  22536793.602 5 120387516.404 5     -4316.453          32.000    22536797.469 5  93634803.244 5     -3357.244          31.000
R18  22846404.195 5 121955631.518 5     -3579.875          35.000    22846412.039 4  94854431.657 4     -2784.344          25.000
C27  21524221.906 8 112082374.376 8       225.699          50.000
C30  24329131.789 6 126688036.160 6      2443.625          36.000
E11  22377008.117 8 117591993.652 8      -265.340          49.000    22377005.828 8  90102945.961 8      -203.345          50.000
E24  24216804.836 8 127260129.077 8     -2751.684          51.000    24216815.695 7  97511035.036 7     -2108.430          44.000
E25  23524754.758 8 123623417.768 8      -462.551          51.000    23524758.617 8  94724423.881 8      -354.380          51.000
E36  24925564.289 8 130984718.232 8      2139.105          50.000    24925568.969 8 100364934.944 8      1639.067          51.000
> 2020 05 17 13 11 30.0000000  0 18        .000000000000
G18  20302028.406 8 106687928.212 8      -197.121          50.000    20302030.117 8  83133412.269 8      -153.601          50.000
G20  23313919.930 7 122515494.188 7      3181.043          47.000    23313919.664 6  95466622.035 6      2478.735          41.000
G21  20646103.773 8 108496054.420 8      -168.699          48.000    20646102.602 8  84542382.433 8      -131.454          48.000
G26  20363005.023 7 107008325.215 7       736.094          47.000    20363006.789 7  83383100.742 7       573.580          47.000
G29  22579582.039 5 118656482.221 5     -2580.797          30.000    22579560.977 4  92459569.566 4     -2011.001          29.000
G31  22976685.383 7 120743275.196 7     -2994.613          46.000    22976686.828 7  94085653.106 7     -2333.465          46.000
R09  19338726.844 8 103267719.973 8      -516.500          51.000    19338727.445 8  80319337.623 8      -401.722          50.000
R16  22561038.992 4 120517035.785 4     -4322.219          29.000    22561042.758 5  93735540.484 5     -3361.729          31.000
R18  22866505.750 4 122062959.858 4     -3578.867          28.000    22866508.406 4  94937888.313 4     -2783.554          25.000
R20  20753253.453 4 110976957.838 4      2226.512          29.000    20753252.719 5  86315419.810 5      1731.731          35.000
C05  39629202.820 5 206359658.035 5        14.660          34.000
C27  21522934.391 8 112075669.573 8       217.523          51.000
C28  23507860.953 5 122411590.408 5     -2248.398          31.000
C30  24315052.766 6 126614730.633 6      2440.090          38.000
E11  22378536.500 8 117600026.343 8      -274.031          49.000    22378534.344 8  90109100.884 8      -209.933          51.000
E24  24232515.555 8 127342691.609 8     -2756.305          50.000    24232525.875 7  97574297.157 7     -2112.043          44.000
E25  23527416.250 8 123637407.827 8      -473.984          51.000    23527420.914 8  94735143.523 8      -363.135          51.000
E36  24913359.578 8 130920579.290 8      2133.145          49.000    24913364.789 8 100315789.529 8      1634.430          51.000
> 2020 05 17 13 12  0.0000000  0 15        .000000000000
G18  20303234.320 8 106694264.655 8      -218.074          50.000    20303235.742 8  83138349.772 8      -169.928          50.000
G20  23295802.688 7 122420288.315 7      3173.086          45.000    23295803.969 7  95392435.689 7      2472.538          43.000
G21  20647137.828 8 108501488.604 8      -186.336          48.000    20647136.711 8  84546616.866 8      -145.194          48.000
G26  20358876.125 8 106986628.200 8       717.586          48.000    20358877.930 8  83366193.959 8       559.161          48.000
G31  22993832.688 7 120833382.640 7     -3005.281          44.000    22993834.500 7  94155866.677 7     -2341.778          44.000
R09  19341731.266 8 103283763.035 8      -545.691          51.000    19341731.781 8  80331815.540 8      -424.427          50.000
R20  20740830.406 4 110910543.939 4      2210.102          29.000    20740834.047 6  86263764.515 6      1718.974          38.000
C05  39629147.250 5 206359368.093 5        12.219          34.000
C27  21521736.477 8 112069431.908 8       205.539          50.000
C28  23520858.211 6 122479257.662 6     -2255.141          36.000
C30  24301036.320 6 126541756.708 6      2432.195          40.000
E11  22380156.609 8 117608541.659 8      -286.383          48.000    22380155.031 8  90115625.603 8      -219.418          51.000
E24  24248296.125 8 127425620.264 8     -2764.984          49.000    24248306.898 7  97637839.808 7     -2118.678          46.000
E25  23530185.383 8 123651962.202 8      -489.160          51.000    23530190.688 8  94746295.563 8      -374.799          51.000
E36  24901231.430 8 130856845.878 8      2123.062          48.000    24901237.148 8 100266954.827 8      1626.747          51.000
> 2020 05 17 13 12 30.0000000  0 16        .000000000000
G18  20304517.344 8 106701006.065 8      -234.871          50.000    20304518.641 8  83143602.815 8      -183.016          50.000
G20  23277688.938 7 122325100.933 7      3169.137          45.000    23277691.484 7  95318263.750 7      2469.457          45.000
G21  20648231.367 8 108507234.957 8      -200.102          48.000    20648230.219 8  84551094.559 8      -155.923          48.000
G26  20354810.375 8 106965262.575 8       703.195          48.000    20354812.062 8  83349545.426 8       547.944          48.000
G29  22609120.328 6 118811684.200 6     -2590.645          36.000    22609098.680 5  92580551.156 5     -2018.684          33.000
G31  23010998.578 7 120923591.644 7     -3012.242          44.000    23011001.195 7  94226159.425 7     -2347.202          44.000
R09  19344857.969 8 103300459.700 8      -571.082          51.000    19344858.359 8  80344801.831 8      -444.175          50.000
R20  20728460.141 5 110844409.594 5      2196.176          31.000    20728468.086 6  86212326.776 6      1708.137          38.000
C05  39629064.195 5 206358935.827 5        13.844          34.000
C27  21520566.195 8 112063339.650 8       197.223          50.000
C28  23533851.141 6 122546904.311 6     -2257.996          36.000
C30  24287021.039 6 126468793.290 6      2428.605          40.000
E11  22381806.953 8 117617214.654 8      -295.371          48.000    22381805.641 8  90122271.148 8      -226.302          51.000
E24  24264084.320 8 127508589.745 8     -2769.711          49.000    24264096.359 7  97701413.746 7     -2122.390          46.000
E25  23533000.703 8 123666756.977 8      -500.707          51.000    23533006.070 8  94757631.809 8      -383.623          51.000
E36  24889118.406 7 130793194.128 7      2116.852          47.000    24889124.156 8 100218182.722 8      1622.006          51.000
> 2020 05 17 13 13  0.0000000  0 15        .000000000000
G18  20305932.438 8 106708441.214 8      -255.945          50.000    20305933.430 8  83149396.453 8      -199.438          50.000
G20  23259634.164 7 122230224.534 7      3160.590          45.000    23259637.734 7  95244334.145 7      2462.800          44.000
G21  20649439.156 8 108513582.221 8      -218.309          48.000    20649438.148 8  84556040.500 8      -170.111          48.000
G26  20350863.102 8 106944519.305 8       684.414          48.000    20350864.453 8  83333381.835 8       533.310          48.000
G31  23028238.477 7 121014189.145 7     -3023.047          45.000    23028241.406 7  94296754.879 7     -2355.621          44.000
R09  19348162.250 8 103318104.414 8      -600.621          51.000    19348162.875 8  80358525.499 8      -467.150          51.000
R18  22926896.117 5 122385356.392 5     -3583.699          30.000    22926901.141 4  95188591.167 4     -2787.322          29.000
C05  39629008.367 5 206358645.250 5        10.887          34.000
C27  21519479.039 8 112057679.244 8       184.805          50.000
C28  23546890.914 5 122614816.270 5     -2264.680          32.000
C30  24273063.547 6 126396127.789 6      2420.602          36.000
E11  22383542.414 8 117626333.982 8      -308.086          49.000    22383540.898 8  90129258.672 8      -235.967          51.000
E24  24279935.336 8 127591888.567 8     -2778.871          49.000    24279948.344 7  97765240.057 7     -2129.307          46.000
E25  23535916.977 8 123682082.038 8      -516.359          51.000    23535922.172 8  94769374.390 8      -395.697          51.000
E36  24877076.664 8 130729914.117 8      2106.395          50.000    24877081.539 8 100169695.475 8      1614.006          51.000
> 2020 05 17 13 13 30.0000000  0 15        .000000000000
G18  20307444.047 8 106716383.649 8      -273.285          50.000    20307444.547 8  83155585.375 8      -212.949          50.000
G20  23241604.117 7 122135476.737 7      3155.773          44.000    23241607.977 7  95170504.685 7      2459.044          44.000
G21  20650725.961 8 108520343.530 8      -232.391          49.000    20650724.656 8  84561309.066 8      -181.084          49.000
G26  20346999.133 8 106924214.059 8       669.484          49.000    20347000.266 8  83317559.575 8       521.676          49.000
G31  23045516.602 7 121104986.752 7     -3030.117          45.000    23045519.070 7  94367506.221 7     -2361.133          45.000
R09  19351608.547 8 103336508.269 8      -626.238          51.000    19351609.766 8  80372839.578 8      -487.074          51.000
R16  22658532.789 5 121037848.065 5     -4353.797          34.000    22658528.336 4  94140497.573 4     -3386.293          27.000
C05  39628944.453 5 206358312.494 5        11.664          34.000
C27  21518439.641 8 112052266.275 8       176.273          50.000
C28  23559942.086 5 122682808.874 5     -2267.672          32.000
C30  24259131.867 5 126323576.532 5      2416.453          34.000
E11  22385327.172 8 117635713.243 8      -317.043          49.000    22385325.719 8  90136445.370 8      -243.004          51.000
E24  24295813.852 8 127675330.047 8     -2783.844          50.000    24295827.000 7  97829175.697 7     -2132.976          46.000
E25  23538899.008 8 123697752.041 8      -528.160          51.000    23538903.789 8  94781381.266 8      -404.685          51.000
E36  24865070.555 8 130666820.604 8      2099.891          51.000    24865074.828 8 100121351.126 8      1609.040          51.000
> 2020 05 17 13 14  0.0000000  0 15        .000000000000
G18  20309053.703 8 106724841.546 8      -290.336          51.000    20309054.016 8  83162175.959 8      -226.236          51.000
G20  23223601.172 7 122040869.181 7      3151.270          46.000    23223604.742 7  95096784.497 7      2455.535          44.000
G21  20652093.125 8 108527527.076 8      -246.316          49.000    20652091.539 8  84566906.651 8      -191.935          48.000
G26  20343220.508 8 106904357.109 8       654.508          49.000    20343221.688 8  83302086.631 8       510.009          50.000
G31  23062834.328 7 121195990.626 7     -3036.891          45.000    23062835.570 7  94438418.276 7     -2366.411          45.000
R09  19355198.562 8 103355680.337 8      -651.855          51.000    19355200.008 8  80387751.177 8      -506.999          50.000
R16  22682999.398 5 121168537.684 5     -4359.168          32.000    22682997.820 4  94242144.947 4     -3390.467          28.000
C05  39628874.414 5 206357947.576 5        12.922          34.000
C27  21517449.336 8 112047109.216 8       167.723          50.000
C28  23573014.375 5 122750889.866 5     -2271.223          33.000
C30  24245227.102 4 126251253.879 4      2411.418          29.000
