     3.02           OBSERVATION DATA    M (MIXED)           RINEX VERSION / TYPE
SAVERINEX           SC600               20200514 135931 LCL PGM / RUN BY / DATE
       G = GPS       R = GLONASS       C = COMPASS          COMMENT
       S = SBAS      J = QZSS          E = GALILEO          COMMENT
BEAN                                                        MARKER NAME
1                                                           MARKER NUMBER
GEODETIC                                                    MARKER TYPE
Unige DICCA         GTER                                    OBSERVER / AGENCY
SC60291900056       SC600               2.12(191226)        REC # / TYPE / VERS
                    HEMA45          NONE                    ANT # / TYPE
  4509407.8091   693652.4678  4442337.6214                  APPROX POSITION XYZ
        0.0000        0.0000        0.0000                  ANTENNA: DELTA H/E/N
G    8 C1C L1C D1C S1C C2Y L2Y D2Y S2Y                      SYS / # / OBS TYPES
R    8 C1C L1C D1C S1C C2P L2P D2P S2P                      SYS / # / OBS TYPES
C    8 C1I L1I D1I S1I C7I L7I D7I S7I                      SYS / # / OBS TYPES
E    8 C1C L1C D1C S1C C7Q L7Q D7Q S7Q                      SYS / # / OBS TYPES
DBHZ                                                        COMMENT
     30.000                                                 INTERVAL
  2020    05    14    11    00    0.0000000     GPS         TIME OF FIRST OBS
  2020    05    14    11    59   30.0000000     GPS         TIME OF LAST OBS
     0                                                      RCV CLOCK OFFS APPL
G L1C  0.00000                                              SYS / PHASE SHIFT
G L2Y  0.00000                                              SYS / PHASE SHIFT
R L1C  0.00000                                              SYS / PHASE SHIFT
R L2P  0.25000                                              SYS / PHASE SHIFT
C L1I  0.00000                                              SYS / PHASE SHIFT
C L7I  0.00000                                              SYS / PHASE SHIFT
E L1C  0.50000                                              SYS / PHASE SHIFT
E L7Q -0.25000                                              SYS / PHASE SHIFT
 11 R01  1 R02 -4 R07  5 R08  6 R10 -5 R11  0 R12 -1 R13 -2 GLONASS SLOT / FRQ #
    R21  4 R22 -3 R23  3                                    GLONASS SLOT / FRQ #
 C1C   71.950 C2C   71.950 C2P   71.950                     GLONASS COD/PHS/BIS
    18                                                      LEAP SECONDS
*** Above antenna height is from mark to ANTENNA BOTTOM.    COMMENT
    17     4        0.0000        ANT MEASURE TYPE/HEIGT    COMMENT
    0.0000    0.0000    0.0458    0.0405    0.0000          COMMENT
                    BASE STATION                            COMMENT
                                                            END OF HEADER
> 2020 05 14 11 00  0.0000000  0 14        .000000000000
G12  22553128.461 5 118517481.345 5     -2690.574          32.000    22553134.250 5  92351315.630 5     -2096.560          31.000
G25  20641929.133 8 108474037.889 8     -1392.066          51.000    20641931.141 8  84525244.906 8     -1084.727          51.000
G29  20224513.305 8 106280558.173 8       302.949          51.000    20224511.227 8  82816001.142 8       236.064          51.000
G32  24161486.531 6 126969467.068 6     -2891.477          41.000    24161491.734 7  98937250.295 7     -2253.099          42.000
R12  20933581.797 8 111823400.802 8     -2804.547          51.000    20933586.156 8  86973761.316 8     -2181.317          49.000
R13  19263802.461 6 102867627.039 6       827.711          39.000    19263804.914 7  80008158.493 7       643.775          42.000
R23  19378974.195 8 103664487.771 8      1719.324          51.000    19378979.867 7  80627934.234 7      1337.252          42.000
R24  21954383.688 6 117399967.595 6      3990.074          39.000
C29  21693029.461 8 112961297.259 8      -724.848          51.000
E01  27266406.703 5 143285941.892 5     -2399.461          35.000
E12  22976604.898 8 120742867.961 8      2425.051          50.000    22976603.406 8  92517265.338 8      1858.186          49.000
E26  26050692.266 6 136897316.155 6     -2558.188          38.000    26050693.617 6 104895347.767 6     -1960.068          37.000
E31  23679602.938 8 124437141.997 8      -707.875          51.000    23679606.523 8  95347948.143 8      -542.440          51.000
E33  24055865.062 8 126414446.100 8      -302.516          51.000    24055866.031 8  96863023.337 8      -231.831          51.000
> 2020 05 14 11 00 30.0000000  0 12        .000000000000
G25  20649916.086 8 108516009.226 8     -1403.590          51.000    20649917.898 8  84557949.838 8     -1093.706          51.000
G29  20222837.578 8 106271751.957 8       286.578          51.000    20222835.609 8  82809139.146 8       223.308          51.000
G32  24178015.555 7 127056327.149 7     -2896.812          43.000    24178021.430 7  99004933.409 7     -2257.260          43.000
R12  20949381.602 8 111907800.732 8     -2819.613          51.000    20949386.305 8  87039405.671 8     -2193.033          48.000
R13  19259213.586 6 102843122.473 6       808.461          39.000    19259216.180 7  79989099.384 7       628.803          42.000
R23  19369408.102 8 103613314.698 8      1694.672          51.000    19369413.719 7  80588132.978 7      1318.078          42.000
R24  21932039.539 6 117280483.164 6      3978.535          37.000
C29  21697253.953 8 112983295.156 8      -739.254          51.000
E12  22962796.797 8 120670307.012 8      2414.844          49.000    22962796.117 8  92461666.710 8      1850.329          50.000
E26  26065323.117 6 136974198.240 6     -2565.434          38.000    26065325.742 6 104954263.726 6     -1965.632          37.000
E31  23683676.586 8 124458548.436 8      -716.645          51.000    23683680.266 8  95364350.469 8      -549.171          51.000
E33  24057641.617 8 126423781.463 8      -317.395          51.000    24057642.016 8  96870176.413 8      -243.216          51.000
> 2020 05 14 11 01  0.0000000  0 15        .000000000000
G25  20657927.688 8 108558110.433 8     -1404.512          51.000    20657929.469 8  84590755.975 8     -1094.425          51.000
G29  20221213.430 8 106263217.456 8       281.008          51.000    20221211.508 8  82802488.880 8       218.967          51.000
G32  24194533.273 7 127143128.750 7     -2891.160          42.000    24194540.125 7  99072570.956 7     -2252.855          42.000
R12  20965224.023 8 111992427.096 8     -2823.523          51.000    20965228.234 7  87105226.181 7     -2196.074          46.000
R13  19254693.117 6 102818984.744 6       799.297          39.000    19254695.711 7  79970325.588 7       621.672          42.000
R23  19359938.742 8 103562659.245 8      1680.875          51.000    19359944.312 7  80548734.331 7      1307.347          42.000
R24  21909721.203 6 117161132.295 6      3977.051          39.000
C13  38115872.961 6 198479394.154 6      -207.523          36.000
C29  21701519.719 8 113005507.619 8      -742.926          51.000
C30  25098132.484 5 130692565.990 5     -3003.395          30.000
E01  27293830.016 5 143430045.026 5     -2398.316          35.000
E12  22949005.555 8 120597836.059 8      2415.203          48.000    22949006.047 8  92406137.043 8      1850.640          50.000
E26  26079954.359 6 137051089.052 6     -2562.121          37.000    26079958.141 6 105013181.045 6     -1962.956          37.000
E31  23687758.836 8 124480001.479 8      -714.824          51.000    23687762.734 8  95380788.494 8      -547.737          51.000
E33  24059461.562 8 126433344.988 8      -321.543          51.000    24059461.484 8  96877504.327 8      -246.338          51.000
> 2020 05 14 11 01 30.0000000  0 16        .000000000000
G12  22599353.133 5 118760413.349 5     -2709.117          32.000    22599354.867 4  92540578.625 4     -2111.000          26.000
G25  20666027.164 8 108600673.575 8     -1425.488          51.000    20666029.055 8  84623922.051 8     -1110.770          51.000
G29  20219704.156 8 106255286.581 8       255.363          51.000    20219702.070 8  82796308.975 8       198.984          51.000
G32  24211102.172 6 127230201.057 6     -2905.789          40.000    24211110.234 6  99140419.469 6     -2264.251          40.000
R12  20981172.016 8 112077616.512 8     -2848.023          51.000    20981175.703 7  87171484.559 7     -2215.132          46.000
R13  19250305.188 6 102795553.436 6       770.285          40.000    19250307.641 7  79952101.244 7       599.114          42.000
R23  19350629.773 8 103512860.967 8      1646.730          51.000    19350635.102 7  80510002.343 7      1280.790          42.000
R24  21887491.008 6 117042256.066 6      3955.449          38.000    21887482.328 5  91032817.453 5      3076.464          31.000
C13  38117124.062 5 198485950.102 5      -221.969          35.000
C29  21705889.711 8 113028262.748 8      -766.555          51.000
C30  25115496.922 5 130782986.733 5     -3017.047          32.000
E01  27307586.406 6 143502316.148 6     -2412.543          36.000
E12  22935294.875 7 120525788.717 7      2395.492          47.000    22935296.156 8  92350931.966 8      1835.537          49.000
E26  26094648.859 6 137128312.093 6     -2578.684          37.000    26094653.875 6 105072351.939 6     -1975.976          38.000
E31  23691913.242 8 124501833.770 8      -733.047          51.000    23691917.109 8  95397517.127 8      -561.706          51.000
E33  24061388.016 8 126443468.363 8      -345.762          51.000    24061388.102 8  96885261.218 8      -264.967          51.000
> 2020 05 14 11 02  0.0000000  0 15        .000000000000
G25  20674214.031 8 108643696.214 8     -1440.938          51.000    20674216.062 8  84657446.170 8     -1122.808          51.000
G29  20218309.305 8 106247956.630 8       235.156          51.000    20218307.078 8  82790597.337 8       183.239          51.000
G32  24227721.445 6 127317538.823 6     -2914.637          39.000    24227730.508 6  99208474.875 6     -2271.145          38.000
R12  20997224.961 8 112163365.579 8     -2866.695          51.000    20997228.141 7  87238178.172 7     -2229.658          46.000
R13  19246049.578 6 102772828.681 6       746.766          40.000    19246051.836 7  79934426.436 7       580.818          42.000
R23  19341480.602 8 103463918.842 8      1617.961          51.000    19341485.797 7  80471936.235 7      1258.414          42.000
R24  21865348.922 6 116923855.304 6      3939.562          40.000    21865343.391 5  90940727.998 5      3064.104          34.000
C13  38118435.094 5 198492790.640 5      -232.176          33.000
C29  21710363.211 8 113051557.169 8      -784.645          51.000
C30  25132905.750 5 130873644.078 5     -3024.852          33.000
E01  27321388.695 6 143574838.902 6     -2420.871          36.000    27321396.297 5 110011932.791 5     -1854.561          35.000
E12  22921664.859 7 120454164.175 7      2381.340          47.000    22921666.320 8  92296050.835 8      1824.660          48.000
E26  26109406.156 6 137205863.569 6     -2589.641          36.000    26109411.695 6 105131774.477 6     -1984.432          37.000
E31  23696139.641 8 124524043.572 8      -745.723          51.000    23696143.406 8  95414535.035 8      -571.437          51.000
E33  24063420.438 8 126454148.766 8      -364.383          51.000    24063420.891 8  96893444.925 8      -279.235          51.000
> 2020 05 14 11 02 30.0000000  0 15        .000000000000
G25  20682447.328 8 108686962.222 8     -1445.906          51.000    20682449.148 8  84691159.920 8     -1126.680          51.000
G29  20216987.609 8 106241011.034 8       225.367          51.000    20216985.516 8  82785185.186 8       175.611          51.000
G32  24244349.852 6 127404923.132 6     -2913.367          40.000    24244358.953 6  99276566.507 6     -2270.159          40.000
R12  21013341.016 8 112249453.459 8     -2875.113          51.000    21013344.414 7  87305135.312 7     -2236.202          46.000
R13  19241885.656 6 102750593.336 6       733.137          40.000    19241887.680 7  79917132.285 7       570.217          42.000
R23  19332450.383 8 103415614.058 8      1599.746          49.000    19332455.961 7  80434365.870 7      1244.247          43.000
R24  21843255.477 7 116805713.224 7      3933.902          42.000    21843252.445 5  90848839.754 5      3059.702          35.000
C13  38119761.219 5 198499701.661 5      -231.254          31.000
C29  21714899.016 8 113075175.819 8      -792.449          51.000
C30  25150318.781 5 130964322.530 5     -3022.953          33.000
E01                                                                  27335204.383 5 110067529.378 5     -1853.795          31.000
E12  22908074.938 8 120382747.886 8      2377.324          49.000    22908075.680 7  92241329.295 7      1821.634          47.000
E26  26124184.969 6 137283517.895 6     -2590.445          36.000    26124190.555 6 105191281.919 6     -1984.683          37.000
E31  23700396.820 8 124546415.482 8      -748.168          51.000    23700400.711 8  95431677.151 8      -573.269          51.000
E33  24065517.523 8 126465169.755 8      -372.812          51.000    24065518.219 8  96901889.591 8      -285.668          51.000
> 2020 05 14 11 03  0.0000000  0 16        .000000000000
G02  24004920.758 6 126146706.572 6     -2341.969          36.000
G18  23747011.578 5 124791403.414 5      3706.066          35.000
G25  20690708.609 8 108730375.317 8     -1457.703          51.000    20690710.359 8  84724988.278 8     -1135.873          51.000
G29  20215720.539 8 106234353.317 8       209.027          51.000    20215718.930 8  82779997.351 8       162.878          51.000
G32  24260968.711 6 127492254.886 6     -2918.316          40.000    24260976.789 6  99344617.174 6     -2274.013          41.000
R12  21029501.969 8 112335781.410 8     -2889.812          51.000    21029505.609 7  87372279.258 7     -2247.632          47.000
R13  19237795.477 6 102728751.441 6       713.133          41.000    19237797.414 7  79900144.143 7       554.659          43.000
R23  19323521.281 8 103367849.999 8      1574.895          50.000    19323526.961 7  80397216.034 7      1224.915          42.000
R24  21821193.648 7 116687735.232 7      3921.531          43.000    21821191.492 6  90757079.122 6      3050.080          36.000
C13  38121083.742 5 198506485.654 5      -237.766          30.000    38121094.234 4 153497842.347 4      -183.457          29.000
C29  21719478.461 8 113099022.335 8      -806.723          51.000
C30  25167717.930 5 131054925.156 5     -3026.617          33.000
E12  22894506.930 8 120311445.186 8      2366.660          50.000    22894506.875 7  92186694.814 7      1813.460          46.000
E26  26138966.242 6 137361193.293 6     -2597.395          36.000    26138971.805 6 105250799.435 6     -1990.017          37.000
E31  23704666.602 8 124568853.886 8      -757.203          51.000    23704670.703 8  95448870.216 8      -580.138          51.000
E33  24067661.047 8 126476434.619 8      -387.645          51.000    24067662.109 8  96910521.116 8      -297.020          51.000
> 2020 05 14 11 03 30.0000000  0 16        .000000000000
G02  24018335.023 5 126217198.213 5     -2355.691          34.000
G18  23725876.328 6 124680326.633 6      3700.793          36.000
G25  20699070.070 8 108774315.314 8     -1469.848          51.000    20699071.875 8  84759227.223 8     -1145.339          51.000
G29  20214580.422 8 106228362.548 8       192.145          51.000    20214579.266 8  82775329.217 8       149.723          51.000
G32  24277649.547 6 127579911.028 6     -2923.746          40.000    24277655.141 6  99412920.591 6     -2278.247          40.000
R12  21045778.906 7 112422734.586 7     -2905.078          47.000    21045783.773 8  87439909.492 8     -2259.505          49.000
R13  19233851.594 6 102707691.152 6       692.637          41.000    19233853.766 7  79883763.908 7       538.717          43.000
R23  19314766.219 8 103321014.532 8      1549.418          50.000    19314771.508 7  80360788.422 7      1205.103          43.000
R24  21799236.242 7 116570311.092 7      3908.418          43.000    21799234.250 6  90665749.212 6      3039.884          38.000
C13                                                                  38122485.203 5 153503438.723 5      -188.193          30.000
C29  21724173.828 8 113123472.123 8      -821.488          51.000
C30  25185174.922 5 131145826.968 5     -3031.719          34.000
E12  22881033.250 8 120240637.466 8      2355.637          50.000    22881032.188 7  92132439.608 7      1805.007          46.000
E26  26153821.773 5 137439260.168 5     -2605.227          34.000    26153827.594 6 105310616.895 6     -1996.054          36.000
E31  23709021.406 8 124591739.283 8      -766.668          51.000    23709025.734 8  95466405.776 8      -587.408          51.000
E33  24069923.195 8 126488322.769 8      -402.910          50.000    24069924.828 8  96919630.245 8      -308.786          51.000
> 2020 05 14 11 04  0.0000000  0 18        .000000000000
G02  24031804.031 5 126287983.767 5     -2364.859          31.000
G12  22677094.945 5 119168944.769 5     -2737.559          32.000    22677091.188 5  92858889.602 5     -2133.150          32.000
G18  23704751.375 5 124569303.851 5      3699.500          33.000
G25  20707484.281 8 108818532.699 8     -1478.797          51.000    20707486.008 8  84793682.296 8     -1152.309          51.000
G29  20213519.867 8 106222789.042 8       178.496          51.000    20213518.797 8  82770986.231 8       139.088          51.000
G32  24294345.148 6 127667646.290 6     -2925.926          41.000    24294344.609 6  99481275.216 6     -2279.942          41.000
R12  21062125.227 8 112510058.379 8     -2917.285          49.000    21062131.148 8  87507828.006 8     -2269.000          49.000
R13  19230007.352 7 102687162.219 7       675.254          42.000    19230009.188 7  79867796.978 7       525.201          43.000
R22  20960159.188 5 111886776.821 5     -3287.488          32.000    20960152.977 4  87023032.398 4     -2556.935          26.000
R23  19306137.117 8 103274854.790 8      1527.098          51.000    19306142.328 7  80324886.425 7      1187.743          42.000
R24  21777337.109 6 116453189.975 6      3898.473          38.000    21777333.383 6  90574655.080 6      3032.148          37.000
C13  38123884.047 4 198521067.262 4      -245.746          27.000    38123894.148 4 153509122.453 4      -190.570          29.000
C29  21728937.273 8 113148277.019 8      -833.082          51.000
C30  25202641.391 5 131236779.248 5     -3032.930          35.000
E12  22867606.531 8 120170076.832 8      2347.453          51.000    22867604.836 7  92078373.725 7      1798.629          46.000
E26  26168704.055 5 137517467.563 5     -2609.461          34.000    26168710.109 6 105370542.050 6     -1999.828          36.000
E31  23713413.938 8 124614822.888 8      -773.148          51.000    23713418.406 8  95484093.212 8      -592.391          51.000
E33  24072256.547 8 126500584.373 8      -415.328          50.000    24072258.180 8  96929025.493 8      -318.214          51.000
> 2020 05 14 11 04 30.0000000  0 15        .000000000000
G02  24045336.789 4 126359098.465 4     -2375.906          29.000
G25  20715959.422 8 108863070.469 8     -1489.461          51.000    20715960.930 8  84828387.020 8     -1160.619          51.000
G29  20212546.609 8 106217675.204 8       163.230          51.000    20212545.516 8  82767001.443 8       127.193          51.000
G32  24311060.422 6 127755487.318 6     -2929.559          39.000
R12  21078550.078 8 112597795.473 8     -2930.949          51.000    21078555.445 8  87576068.002 8     -2279.627          48.000
R13  19226270.875 7 102667209.815 7       655.688          42.000    19226272.680 7  79852278.441 7       509.979          44.000
R22  20978678.750 5 111985563.951 5     -3301.207          34.000    20978660.492 4  87099842.572 4     -2567.615          27.000
R23  19297642.898 8 103229416.116 8      1503.047          51.000    19297647.828 6  80289545.246 6      1169.036          41.000
R24  21755506.641 6 116336418.940 6      3886.777          37.000    21755498.031 5  90483833.320 5      3023.055          35.000
C29  21733776.688 8 113173478.610 8      -846.160          51.000
C30  25220125.586 6 131327823.299 6     -3035.832          36.000
E12  22854235.102 8 120099807.791 8      2337.930          50.000    22854233.086 7  92024531.266 7      1791.386          46.000
E26  26183621.031 5 137595857.084 5     -2615.180          32.000    26183627.195 5 105430606.714 5     -2003.953          35.000
E31  23717852.719 8 124638148.313 8      -781.074          51.000    23717857.109 8  95501965.932 8      -598.435          51.000
E33  24074669.023 8 126513261.913 8      -429.027          48.000    24074670.477 8  96938739.442 8      -328.696          51.000
> 2020 05 14 11 05  0.0000000  0 16        .000000000000
G02  24058937.508 5 126430569.763 5     -2397.629          32.000
G12  22708434.328 5 119333640.945 5     -2759.629          35.000    22708433.203 4  92987219.501 4     -2150.348          29.000
G14  23517914.969 5 123587478.355 5     -1985.141          32.000
G25  20724507.422 8 108907990.790 8     -1510.641          51.000    20724508.836 8  84863389.849 8     -1177.123          51.000
G29  20211672.547 8 106213082.763 8       137.445          51.000    20211671.570 8  82763422.921 8       107.100          51.000
G32  24327809.188 6 127843496.158 6     -2943.547          38.000
R12  21095064.062 8 112686008.161 8     -2955.438          51.000    21095069.031 8  87644677.842 8     -2298.677          48.000
R13  19222654.938 7 102647899.643 7       625.848          42.000    19222656.594 7  79837259.431 7       486.770          44.000
R23  19289295.375 8 103184762.685 8      1468.273          51.000    19289300.305 6  80254814.832 6      1141.990          41.000
R24  21733746.578 6 116220064.600 6      3864.422          38.000    21733740.398 4  90393335.715 4      3005.668          25.000
C29  21738704.078 8 113199137.602 8      -869.832          51.000
C30  25237638.750 6 131419019.281 6     -3049.641          36.000
E12  22840931.188 8 120029894.175 8      2317.496          51.000    22840928.914 7  91970961.126 7      1775.708          47.000
E26  26198584.609 5 137674490.469 5     -2632.047          33.000    26198590.344 5 105490857.471 5     -2016.631          33.000
E31  23722349.609 8 124661778.488 8      -799.676          51.000    23722353.703 8  95520072.162 8      -612.789          51.000
E33  24077172.164 7 126526417.224 7      -453.473          47.000    24077173.859 8  96948819.480 8      -347.457          51.000
> 2020 05 14 11 05 30.0000000  0 15        .000000000000
G14  23529250.344 5 123647031.090 5     -1992.309          35.000    23529255.078 5  96348368.065 5     -1552.448          34.000
G25  20733125.906 8 108953281.567 8     -1516.535          51.000    20733127.492 8  84898681.343 8     -1181.716          51.000
G29  20210895.383 8 106208999.249 8       127.031          51.000    20210894.727 8  82760240.970 8        98.985          51.000
G32  24344586.703 5 127931679.882 5     -2941.949          35.000
R12  21111664.336 8 112774682.955 8     -2964.117          51.000    21111669.211 7  87713647.047 7     -2305.428          47.000
R13  19219157.156 6 102629221.413 6       611.324          41.000    19219158.891 7  79822731.917 7       475.474          45.000
R23  19281092.320 8 103140883.456 8      1449.059          51.000    19281097.883 6  80220686.600 6      1127.046          41.000
R24  21712059.227 7 116104118.082 7      3857.438          42.000
C13  38128319.617 5 198544161.377 5      -267.625          30.000
C29  21743716.602 8 113225240.993 8      -878.125          51.000
C30  25255178.156 6 131510353.756 6     -3047.242          36.000
E12  22827692.781 8 119960325.398 8      2312.578          50.000    22827690.414 8  91917655.214 8      1771.880          48.000
E26  26213592.273 5 137753354.228 5     -2633.387          34.000    26213597.312 5 105551292.982 5     -2017.826          32.000
E31  23726902.047 8 124685701.957 8      -802.996          51.000    23726906.133 8  95538403.095 8      -615.238          51.000
E33  24079764.016 7 126540037.750 7      -462.359          46.000    24079765.594 8  96959255.973 8      -354.290          51.000
> 2020 05 14 11 06  0.0000000  0 16        .000000000000
G14  23540610.891 6 123706730.343 6     -1999.609          36.000    23540616.203 4  96394886.984 4     -1558.137          27.000
G25  20741764.922 8 108998680.303 8     -1522.035          49.000    20741766.789 8  84934056.954 8     -1186.001          50.000
G29  20210165.070 8 106205161.641 8       116.949          51.000    20210164.711 8  82757250.636 8        91.132          51.000
R12  21128301.055 8 112863551.862 8     -2972.578          51.000    21128305.039 7  87782767.250 7     -2312.005          45.000
R13  19215728.133 6 102610911.284 6       597.168          41.000    19215730.109 7  79808490.703 7       464.464          45.000
R22  21034703.883 5 112284671.360 5     -3342.562          34.000
R23  19272984.305 8 103097512.205 8      1430.168          51.000    19272990.547 6  80186953.444 6      1112.356          41.000
R24  21690399.336 7 115988315.412 7      3850.652          43.000    21690394.406 5  90213113.081 5      2994.955          34.000
C13  38129822.938 5 198551988.897 5      -266.648          31.000    38129826.484 4 153533013.420 4      -206.489          29.000
C29  21748764.500 8 113251527.704 8      -886.164          51.000
C30  25272693.938 6 131601565.403 6     -3045.719          37.000
E01  27432430.922 6 144158393.322 6     -2446.477          36.000
E12  22814470.289 8 119890840.520 8      2307.840          49.000    22814468.023 8  91864413.583 8      1768.345          49.000
E26  26228593.656 5 137832181.328 5     -2634.312          33.000    26228597.938 5 105611693.893 5     -2017.913          32.000
E31  23731460.500 8 124709656.931 8      -806.008          51.000    23731464.625 8  95556758.171 8      -617.537          51.000
E33  24082394.266 7 126553860.526 7      -471.020          46.000    24082395.789 8  96969847.440 8      -360.941          51.000
> 2020 05 14 11 06 30.0000000  0 17        .000000000000
G14  23552087.883 6 123767043.150 6     -2015.000          36.000    23552094.219 5  96441883.924 5     -1570.124          35.000
G18  23599453.516 5 124015964.363 5      3677.203          31.000
G25  20750514.469 8 109044659.503 8     -1536.895          50.000    20750516.250 8  84969884.856 8     -1197.580          50.000
G29  20209571.453 8 106202041.987 8        97.410          51.000    20209571.203 8  82754819.743 8        75.904          51.000
R12  21145063.625 8 112953094.358 8     -2990.391          51.000    21145067.055 7  87852411.324 7     -2325.862          46.000
R13  19212458.203 6 102593451.197 6       573.379          41.000    19212460.594 7  79794910.629 7       445.961          45.000
R22  21053551.578 5 112385305.818 5     -3359.523          35.000
R23  19265061.555 8 103055131.219 8      1401.777          51.000    19265068.062 7  80153990.473 7      1090.271          42.000
R24  21668856.961 7 115873140.721 7      3834.309          43.000    21668858.742 6  90123532.818 6      2982.240          38.000
C13  38131403.930 5 198560220.417 5      -276.492          31.000    38131405.836 4 153539370.516 4      -213.128          28.000
C29  21753937.500 8 113278464.966 8      -903.395          51.000
C30  25290275.555 6 131693120.965 6     -3052.551          36.000
E01  27446437.789 6 144232002.946 6     -2454.367          38.000
E12  22801353.758 8 119821913.620 8      2293.633          48.000    22801351.953 8  91811599.483 8      1757.507          50.000
E26                                                                  26243681.977 5 105672430.289 5     -2025.527          31.000
E31  23736115.133 8 124734116.514 8      -818.359          51.000    23736119.125 8  95575499.916 8      -627.099          51.000
E33  24085152.727 7 126568357.642 7      -489.090          47.000    24085154.633 8  96980955.602 8      -374.790          51.000
> 2020 05 14 11 07  0.0000000  0 15        .000000000000
G14  23563618.672 6 123827651.955 6     -2031.711          37.000    23563625.781 5  96489082.423 5     -1583.157          35.000
G25  20759312.836 8 109090894.683 8     -1552.020          50.000    20759314.672 8  85005912.253 8     -1209.366          50.000
G29  20209052.430 8 106199315.450 8        77.691          51.000    20209052.289 8  82752695.185 8        60.539          51.000
R12  21161890.336 8 113042979.408 8     -3008.562          51.000    21161893.852 7  87922321.862 7     -2339.993          47.000
R13  19209286.258 6 102576513.697 6       549.102          41.000    19209288.891 7  79781737.020 7       427.079          45.000
R22  21072462.289 5 112486278.406 5     -3377.941          31.000
R23  19257262.445 8 103013411.201 8      1372.812          51.000    19257268.844 7  80121541.588 7      1067.743          42.000
R24  21647370.945 7 115758266.912 7      3817.312          42.000    21647378.188 6  90034186.547 6      2969.021          41.000
C13  38132999.914 5 198568534.198 5      -285.445          31.000    38133002.492 4 153545798.262 4      -219.942          28.000
C29  21759173.406 8 113305730.236 8      -920.859          51.000
C30  25307860.836 6 131784697.527 6     -3059.480          36.000
E01  27460453.062 6 144305660.856 6     -2462.477          37.000
E12  22788281.492 7 119753221.795 7      2279.156          46.000    22788280.891 8  91758965.503 8      1746.399          51.000
E31  23740804.125 8 124758756.988 8      -831.066          51.000    23740807.930 8  95594380.259 8      -636.791          51.000
E33  24087977.977 7 126583204.149 7      -507.395          47.000    24087979.977 8  96992331.497 8      -388.792          51.000
> 2020 05 14 11 07 30.0000000  0 17        .000000000000
G02  24127897.797 6 126792946.873 6     -2433.617          36.000
G14  23575175.336 6 123888380.649 6     -2025.805          38.000    23575182.891 5  96536403.483 5     -1578.546          35.000
G18  23557468.930 5 123795330.762 5      3681.492          35.000    23557469.742 5  96463897.781 5      2868.695          34.000
G21  23429239.797 6 123121476.694 6      3409.633          38.000    23429240.250 5  95938826.699 5      2656.845          35.000
G25  20768130.273 8 109137230.065 8     -1545.898          51.000    20768132.195 8  85042017.746 8     -1204.596          51.000
G29  20208578.414 8 106196825.646 8        79.418          51.000    20208578.336 8  82750755.098 8        61.884          51.000
R12  21178751.266 8 113133047.677 8     -3005.094          51.000    21178755.219 7  87992374.960 7     -2337.295          47.000
R13  19206182.961 6 102559943.247 6       546.812          40.000    19206185.930 7  79768848.893 7       425.299          44.000
R23  19249557.922 8 102972194.813 8      1365.734          51.000    19249563.484 7  80089484.392 7      1062.238          42.000
R24  21625913.984 7 115643538.722 7      3822.164          43.000    21625923.664 7  89944953.492 7      2972.794          42.000
C13  38134582.430 5 198576776.946 5      -273.359          31.000
C29  21764442.719 8 113333168.212 8      -917.086          51.000
C30  25325420.742 5 131876139.402 5     -3045.043          35.000
E01  27474448.086 5 144379211.462 5     -2450.094          35.000
E12  22775224.164 7 119684610.805 7      2285.965          46.000    22775225.273 8  91706393.430 8      1751.607          51.000
E31  23745497.852 8 124783423.263 8      -822.305          51.000    23745501.578 8  95613280.376 8      -630.090          51.000
E33  24090840.008 8 126598243.824 8      -504.281          48.000    24090841.828 8  97003855.396 8      -386.373          51.000
> 2020 05 14 11 08  0.0000000  0 17        .000000000000
G02  24141873.430 6 126866384.518 6     -2455.297          36.000
G14  23586825.539 6 123949601.425 6     -2048.609          39.000    23586830.164 5  96584107.955 5     -1596.319          31.000
G18  23536516.781 6 123685216.890 6      3666.273          38.000    23536507.906 5  96378094.800 5      2856.846          33.000
G21  23409840.570 6 123019535.552 6      3392.922          37.000    23409843.031 6  95859392.126 6      2643.841          36.000
G25  20777036.297 8 109184031.542 8     -1567.551          51.000    20777038.203 8  85078486.423 8     -1221.468          51.000
G29  20208219.180 8 106194937.923 8        53.289          51.000    20208219.195 8  82749284.161 8        41.524          51.000
R12  21195715.781 8 113223670.290 8     -3029.582          51.000    21195719.992 7  88062859.180 7     -2356.342          46.000
R13  19203218.406 6 102544113.285 6       515.688          40.000    19203221.492 7  79756536.700 7       401.090          45.000
R23  19242017.203 8 102931855.013 8      1330.512          51.000    19242022.016 7  80058108.997 7      1034.842          42.000
R24  21604557.523 7 115529331.647 7      3798.477          45.000    21604565.797 6  89856125.771 6      2954.371          41.000
C13  38136220.719 5 198585309.058 5      -289.215          33.000
C29  21769814.562 8 113361140.410 8      -940.949          51.000
C30  25343024.516 5 131967807.854 5     -3058.781          35.000
E01  27488491.992 5 144453001.392 5     -2464.379          34.000
E12  22762252.508 8 119616448.009 8      2264.980          48.000    22762254.797 8  91654164.778 8      1735.502          50.000
E31  23750266.297 8 124808481.861 8      -841.512          51.000    23750270.016 8  95632481.108 8      -644.798          51.000
E33  24093808.242 8 126613841.988 8      -528.879          48.000    24093809.711 8  97015807.250 8      -405.248          50.000
> 2020 05 14 11 08 30.0000000  0 17        .000000000000
G02  24155915.836 5 126940176.383 5     -2464.332          35.000
G14  23598547.164 6 124011199.980 6     -2058.250          38.000    23598551.539 5  96632106.812 5     -1603.831          31.000
G18  23515592.539 5 123575261.434 5      3662.938          34.000    23515585.406 5  96292415.280 5      2854.240          33.000
G21  23390480.242 6 122917801.324 6      3388.629          37.000    23390484.008 5  95780118.770 5      2640.496          33.000
G25  20786009.594 8 109231186.815 8     -1576.812          51.000    20786011.820 8  85115230.783 8     -1228.685          51.000
G29  20207953.289 8 106193539.748 8        39.465          51.000    20207953.445 8  82748194.678 8        30.752          51.000
R12  21212762.961 8 113314731.574 8     -3041.676          51.000    21212767.047 7  88133684.596 7     -2365.748          47.000
R13  19200371.445 6 102528912.331 6       497.348          40.000    19200374.844 7  79744713.730 7       386.826          44.000
R23  19234619.133 8 102892278.904 8      1307.449          51.000    19234623.430 7  80027327.592 7      1016.905          42.000
R24  21583278.211 8 115415534.529 8      3787.289          48.000    21583284.711 6  89767616.952 6      2945.672          40.000
C13  38137893.266 5 198594020.302 5      -291.789          32.000
C29  21775267.445 8 113389534.608 8      -952.516          51.000
C30  25360651.055 5 132059590.258 5     -3059.984          34.000
E01  27502563.555 5 144526947.357 5     -2466.402          33.000
E12  22749345.781 8 119548622.726 8      2256.086          49.000    22749348.172 8  91602194.758 8      1728.767          50.000
E31  23755088.273 8 124833821.203 8      -848.367          51.000    23755092.273 8  95651896.950 8      -650.039          51.000
E33  24096861.570 8 126629885.999 8      -541.152          49.000    24096862.430 8  97028100.705 8      -414.664          50.000
> 2020 05 14 11 09  0.0000000  0 17        .000000000000
G02  24170015.891 5 127014271.455 5     -2475.402          34.000
G12  22835085.312 4 119999183.091 4     -2796.859          29.000    22835086.820 4  93505858.750 4     -2179.368          29.000
G14  23610330.492 6 124073124.731 6     -2070.418          37.000    23610334.367 5  96680359.786 5     -1613.316          34.000
G18  23494689.594 5 123465418.240 5      3658.812          34.000    23494683.648 5  96206823.328 5      2851.035          31.000
G21  23371151.719 6 122816227.957 6      3382.547          40.000    23371154.164 5  95700970.754 5      2635.763          31.000
G25  20795040.930 8 109278646.731 8     -1587.637          51.000    20795043.406 8  85152212.516 8     -1237.120          51.000
G29  20207771.023 8 106192581.191 8        24.184          51.000    20207771.312 8  82747447.747 8        18.844          51.000
R12  21229882.570 8 113406180.437 8     -3055.242          51.000    21229886.883 7  88204811.456 7     -2376.303          47.000
R13  19197633.602 6 102514292.492 6       477.168          39.000    19197636.992 7  79733342.736 7       371.131          44.000
R23  19227354.500 8 102853417.283 8      1282.969          51.000    19227358.305 7  79997101.897 7       997.865          42.000
R24  21562066.469 8 115302100.620 8      3774.449          50.000    21562072.148 6  89679390.666 6      2935.686          40.000
C13  38139590.742 5 198602861.972 5      -298.023          31.000    38139604.297 5 153572353.187 5      -230.351          30.000
C29  21780791.750 8 113418301.043 8      -965.570          51.000
C30  25378290.586 5 132151436.619 5     -3063.016          32.000
E12  22736494.492 8 119481087.256 8      2245.777          50.000    22736496.156 8  91550446.822 8      1720.766          49.000
E31  23759954.484 8 124859392.811 8      -856.812          51.000    23759958.609 8  95671490.762 8      -656.519          51.000
E33  24099990.047 8 126646326.157 8      -555.125          48.000    24099990.984 8  97040697.709 8      -425.388          50.000
> 2020 05 14 11 09 30.0000000  0 17        .000000000000
G02  24184175.625 5 127088682.711 5     -2486.324          33.000
G12  22851061.883 5 120083144.322 5     -2801.688          32.000    22851065.312 5  93571283.015 5     -2183.133          32.000
G14  23622178.148 5 124135388.056 5     -2081.984          35.000    23622181.344 5  96728876.603 5     -1622.332          34.000
G18  23473813.688 5 123355705.323 5      3653.949          31.000    23473806.859 5  96121332.798 5      2847.233          32.000
G21  23351857.219 6 122714833.079 6      3375.785          38.000    23351858.805 5  95621961.782 5      2630.485          35.000
G25  20804133.156 8 109326426.035 8     -1598.586          51.000    20804135.578 8  85189443.134 8     -1245.651          51.000
G29  20207674.992 8 106192076.474 8         8.680          51.000    20207675.281 8  82747054.467 8         6.763          51.000
R12  21247076.930 8 113498031.191 8     -3068.961          50.000    21247081.344 7  88276250.850 7     -2386.970          45.000
R13  19195007.445 6 102500270.432 6       456.785          39.000    19195010.945 7  79722436.687 7       355.277          44.000
R23  19220226.242 8 102815286.046 8      1258.254          51.000    19220230.117 7  79967444.313 7       978.645          42.000
R24  21540925.781 8 115189048.161 8      3761.465          50.000    21540930.250 6  89591461.065 6      2925.587          39.000
C13                                                                  38141333.258 5 153579327.491 5      -234.308          31.000
C29  21786390.070 8 113447453.340 8      -978.789          51.000
C30  25395944.836 5 132243360.158 5     -3064.742          30.000
E12  22723701.359 8 119413857.899 8      2235.250          50.000    22723702.234 8  91498933.476 8      1712.622          49.000
E31  23764867.898 8 124885212.109 8      -865.398          51.000    23764871.859 8  95691274.360 8      -663.130          51.000
E33  24103196.531 8 126663176.667 8      -569.141          50.000    24103197.688 8  97053609.166 8      -436.107          49.000
> 2020 05 14 11 10  0.0000000  0 14        .000000000000
G14  23634098.922 6 124198033.609 6     -2106.254          37.000    23634100.602 5  96777691.257 5     -1641.240          32.000
G21  23332605.375 6 122613665.515 6      3356.574          38.000    23332606.508 5  95543130.034 5      2615.525          30.000
G25  20813294.859 8 109374570.768 8     -1622.695          51.000    20813297.391 8  85226958.495 8     -1264.438          51.000
G29  20207673.945 8 106192071.376 8       -20.062          51.000    20207674.102 8  82747050.494 8       -15.630          51.000
R12  21264355.320 8 113590329.201 8     -3096.027          51.000    21264359.094 7  88348038.142 7     -2408.024          44.000
R13  19192502.859 6 102486896.067 6       423.047          39.000    19192506.086 7  79712034.420 7       329.039          43.000
R23  19213243.391 8 102777932.773 8      1220.141          51.000    19213247.547 7  79938391.795 7       948.998          42.000
R24  21519865.219 8 115076427.355 8      3734.688          48.000    21519868.234 6  89503867.189 6      2904.760          38.000
C13                                                                  38143095.156 5 153586423.595 5      -247.931          32.000
C29  21792071.062 8 113477036.177 8     -1004.949          51.000
C30  25413621.867 4 132335394.460 4     -3082.234          28.000
E12  22710975.336 8 119346982.289 8      2211.406          49.000    22710975.523 8  91447691.180 8      1694.397          49.000
E31  23769837.352 8 124911325.858 8      -887.293          51.000    23769841.133 8  95711283.575 8      -679.919          51.000
E33  24106489.922 8 126680483.223 8      -596.367          50.000    24106490.945 8  97066870.016 8      -456.942          49.000
> 2020 05 14 11 10 30.0000000  0 16        .000000000000
G14  23646095.086 6 124261073.889 6     -2089.219          36.000    23646094.531 5  96826813.494 5     -1627.963          32.000
G21  23313400.102 6 122512742.951 6      3378.902          36.000    23313401.156 5  95464489.061 5      2632.914          32.000
G25  20822528.867 8 109423095.753 8     -1605.375          51.000    20822531.383 8  85264770.156 8     -1250.942          51.000
G29  20207770.812 8 106192579.944 8        -7.078          51.000    20207770.977 8  82747446.793 8        -5.515          51.000
R12  21281720.453 8 113683088.482 8     -3080.883          51.000    21281723.445 7  88420184.207 7     -2396.245          45.000
R13  19190122.641 6 102474186.038 6       431.156          38.000    19190125.836 7  79702148.847 7       335.344          43.000
R22  21206850.047 5 113203578.688 5     -3447.133          32.000
R23  19206408.859 8 102741373.504 8      1224.223          51.000    19206413.492 7  79909956.802 7       952.173          42.000
R24  21498887.828 7 114964256.209 7      3750.215          47.000    21498889.477 6  89416623.006 6      2916.837          37.000
C13                                                                  38144895.805 5 153593678.289 5      -229.502          30.000
C29  21797837.023 8 113507063.128 8      -990.023          51.000
C30  25431322.625 4 132427570.168 4     -3056.992          28.000
E01  27559088.711 6 144823981.765 6     -2467.621          36.000
E12  22698319.836 8 119280476.749 8      2229.070          50.000    22698319.562 8  91396732.429 8      1708.079          49.000
E31  23774865.672 8 124937749.519 8      -867.469          51.000    23774869.414 8  95731530.250 8      -664.684          51.000
E33  24109872.523 8 126698259.974 8      -581.910          49.000    24109874.062 8  97080491.181 8      -445.828          48.000
> 2020 05 14 11 11  0.0000000  0 16        .000000000000
G14  23658124.180 6 124324285.749 6     -2116.691          36.000    23658121.383 5  96876069.490 5     -1649.370          33.000
G18  23411346.859 5 123027459.242 5      3638.793          34.000    23411350.242 5  95865562.787 5      2835.408          34.000
G25  20831793.242 8 109471780.398 8     -1632.352          51.000    20831795.727 8  85302706.248 8     -1271.962          51.000
G29  20207923.414 8 106193381.127 8       -38.438          51.000    20207923.602 8  82748071.111 8       -29.948          51.000
R12  21299129.359 8 113776083.682 8     -3110.703          48.000    21299132.484 7  88492513.758 7     -2419.436          46.000
R13  19187824.852 6 102461917.691 6       394.504          38.000    19187828.484 7  79692606.785 7       306.836          43.000
R22  21226322.633 5 113307532.259 5     -3475.559          33.000
R23  19199681.000 8 102705384.620 8      1183.234          51.000    19199686.133 7  79881965.478 7       920.293          43.000
R24  21477953.258 8 114852313.609 8      3720.574          49.000    21477954.219 6  89329556.578 6      2893.780          39.000
C13                                                                  38146692.523 4 153600926.564 4      -246.378          29.000
C29  21803646.430 8 113537314.650 8     -1018.820          51.000
C30  25449005.852 4 132519652.391 4     -3075.562          28.000
E01  27573253.672 5 144898425.486 5     -2487.688          33.000
E12  22685693.070 8 119214122.193 8      2202.465          50.000    22685692.711 8  91345889.360 8      1687.618          50.000
E31  23779911.227 8 124964263.205 8      -892.082          51.000    23779914.906 8  95751845.916 8      -683.528          51.000
E33  24113302.797 8 126716285.905 8      -611.820          51.000    24113304.672 8  97094303.278 8      -468.729          48.000
> 2020 05 14 11 11 30.0000000  0 16        .000000000000
G12  22915357.453 5 120421021.336 5     -2825.004          31.000
G14  23670268.922 6 124388107.041 6     -2126.957          37.000    23670264.805 5  96925800.273 5     -1657.378          35.000
G18  23390619.445 6 122918526.231 6      3634.234          36.000    23390619.273 5  95780680.050 5      2831.871          34.000
G25  20841171.703 8 109521064.638 8     -1642.508          49.000    20841174.312 8  85341109.552 8     -1279.876          50.000
G29  20208215.148 8 106194914.404 8       -53.098          51.000    20208215.156 8  82749265.870 8       -41.375          51.000
R12  21316665.234 7 113869760.710 7     -3123.484          47.000    21316669.625 7  88565373.653 7     -2429.377          45.000
R13  19185694.656 6 102450540.629 6       374.605          38.000    19185697.656 7  79683757.976 7       291.363          42.000
R23  19193143.703 8 102670414.728 8      1159.172          51.000    19193148.836 6  79854766.679 6       901.578          41.000
R24  21457146.281 8 114741050.263 8      3707.918          50.000    21457147.164 6  89243018.491 6      2883.936          40.000
C13  38148559.562 5 198649559.951 5      -323.543          31.000
C29  21809582.539 8 113568225.624 8     -1031.199          51.000
C30  25466756.734 4 132612085.865 4     -3077.121          29.000
E01  27587494.227 5 144973260.337 5     -2490.719          35.000    27587499.094 6 111083411.227 6     -1908.509          36.000
E12  22673178.938 8 119148360.082 8      2192.543          49.000    22673178.641 8  91295500.225 8      1679.968          49.000
E31  23785057.664 8 124991307.526 8      -900.039          51.000    23785061.336 8  95772568.177 8      -689.625          51.000
E33  24116864.141 8 126735000.421 8      -624.977          50.000    24116865.750 7  97108642.968 7      -478.893          46.000
> 2020 05 14 11 12  0.0000000  0 15        .000000000000
G14  23682435.938 6 124452043.767 6     -2135.617          38.000    23682431.211 6  96975621.079 6     -1664.114          36.000
G18  23369879.539 6 122809528.054 6      3631.539          39.000    23369878.227 6  95695746.445 6      2829.771          36.000
G25  20850570.797 8 109570457.124 8     -1650.891          50.000    20850573.305 8  85379597.212 8     -1286.405          50.000
G29  20208552.484 8 106196687.535 8       -65.762          51.000    20208552.609 8  82750647.514 8       -51.243          51.000
R12  21334234.820 7 113963618.943 7     -3134.305          47.000    21334240.383 7  88638374.547 7     -2437.793          44.000
R13  19183637.867 6 102439557.918 6       356.586          38.000    19183640.625 7  79675215.869 7       277.345          42.000
R23  19186703.273 8 102635964.373 8      1137.062          51.000    19186708.570 6  79827971.965 6       884.382          41.000
R24  21436373.633 8 114629969.386 8      3696.930          50.000    21436374.766 6  89156622.330 6      2875.393          41.000
C13  38150427.766 5 198659286.031 5      -325.473          30.000
C29  21815551.625 8 113599308.193 8     -1041.602          50.000
C30  25484482.266 4 132704385.988 4     -3076.836          28.000
E01  27601716.242 5 145047999.801 5     -2492.367          35.000    27601722.547 5 111140679.103 5     -1909.733          35.000
E12  22660684.102 8 119082700.548 8      2184.250          48.000    22660684.109 8  91245189.695 8      1673.673          50.000
E31  23790211.586 8 125018391.835 8      -906.109          51.000    23790215.375 8  95793321.079 8      -694.325          51.000
E33  24120462.680 8 126753911.636 8      -636.262          50.000    24120464.234 7  97123133.417 7      -487.597          45.000
> 2020 05 14 11 12 30.0000000  0 17        .000000000000
G12  22947667.438 5 120590796.516 5     -2832.316          33.000
G14  23694664.828 6 124516305.471 6     -2144.316          40.000    23694659.914 5  97025695.038 5     -1670.896          32.000
G18  23349167.031 6 122700679.560 6      3628.668          39.000    23349166.594 6  95610929.538 6      2827.540          38.000
G21  23236899.844 5 122110774.968 5      3341.641          35.000
G25  20860030.719 8 109620169.572 8     -1659.395          50.000    20860032.836 8  85418334.187 8     -1293.035          50.000
G29  20208975.805 8 106198912.049 8       -78.609          51.000    20208976.078 8  82752380.890 8       -61.254          51.000
R12  21351879.188 8 114057872.690 8     -3145.426          49.000    21351885.062 7  88711682.954 7     -2446.445          43.000
R13  19181695.609 6 102429187.280 6       338.316          40.000    19181698.562 6  79667149.811 6       263.135          41.000
R23  19180400.328 8 102602249.668 8      1114.605          49.000    19180406.062 6  79801749.437 6       866.915          41.000
R24  21415676.234 8 114519289.524 8      3685.656          49.000    21415677.844 7  89070538.072 7      2866.625          43.000
C13  38152323.234 4 198669158.314 4      -329.000          29.000
C29  21821593.891 8 113630771.108 8     -1052.012          51.000
C30  25502222.594 4 132796764.295 4     -3077.883          28.000
E01  27615959.211 5 145122844.849 5     -2493.883          31.000    27615966.211 5 111198033.200 5     -1910.780          34.000
E12  22648248.953 7 119017356.853 7      2175.844          47.000    22648249.836 8  91195121.167 8      1667.256          50.000
E31  23795413.547 8 125045728.504 8      -912.379          51.000    23795417.430 8  95814267.358 8      -699.122          51.000
E33  24124139.008 8 126773230.742 8      -647.727          50.000    24124140.367 7  97137936.386 7      -496.292          44.000
> 2020 05 14 11 13  0.0000000  0 16        .000000000000
G14  23706951.805 6 124580871.798 6     -2157.871          41.000    23706946.383 5  97076006.431 5     -1681.458          31.000
G18  23328480.562 6 122591966.347 6      3620.449          40.000    23328479.227 6  95526217.958 6      2821.126          37.000
G21  23217857.430 6 122010711.205 6      3331.602          36.000
G25  20869548.281 8 109670184.303 8     -1672.895          50.000    20869550.078 8  85457306.680 8     -1303.557          50.000
G29  20209481.672 8 106201569.760 8       -96.586          51.000    20209481.555 8  82754451.860 8       -75.259          51.000
R12  21369594.547 8 114152502.659 8     -3161.277          51.000    21369599.500 7  88785283.910 7     -2458.777          43.000
R13  19179865.094 6 102419412.061 6       314.996          39.000    19179867.836 6  79659546.861 6       244.997          41.000
R22  21304994.758 5 113727486.090 5     -3522.207          32.000    21304996.359 5  88454742.426 5     -2739.494          30.000
R23  19174231.453 8 102569253.332 8      1087.203          49.000    19174237.289 6  79776085.614 6       845.602          39.000
R24  21395050.500 8 114408995.732 8      3669.270          49.000    21395053.422 7  88984754.063 7      2853.876          44.000
C13  38154243.688 4 198679157.064 4      -336.480          29.000    38154247.711 5 153631337.942 5      -259.889          30.000
C29  21827705.516 8 113662595.780 8     -1067.453          50.000
E01  27630221.062 5 145197790.659 5     -2500.133          35.000    27630228.805 5 111255459.942 5     -1915.971          35.000
E12  22635870.578 7 118952312.765 7      2162.371          45.000    22635872.445 8  91145282.173 8      1656.939          49.000
E31  23800660.312 8 125073300.528 8      -923.672          51.000    23800664.109 8  95835393.989 8      -707.752          51.000
E33  24127889.547 8 126792939.504 8      -664.188          51.000    24127890.609 7  97153037.920 7      -508.809          44.000
> 2020 05 14 11 13 30.0000000  0 17        .000000000000
G12  22980103.695 5 120761259.056 5     -2846.059          31.000
G14  23719310.586 6 124645816.007 6     -2167.973          40.000    23719304.484 5  97126612.277 5     -1689.329          34.000
G18  23307834.391 6 122483466.941 6      3616.094          39.000    23307832.656 6  95441672.990 6      2817.735          36.000
G21  23198864.984 6 121910907.584 6      3325.457          37.000
G25  20879137.742 8 109720576.662 8     -1682.953          50.000    20879138.953 8  85496573.390 8     -1311.395          50.000
G29  20210084.297 8 106204735.321 8      -110.953          51.000    20210083.695 8  82756918.537 8       -86.457          51.000
R12  21387394.742 8 114247584.302 8     -3173.719          51.000    21387399.086 7  88859236.205 7     -2468.451          45.000
R13  19178160.750 6 102410310.715 6       295.344          39.000    19178163.375 6  79652468.016 6       229.712          41.000
R22  21324828.695 6 113833365.390 6     -3532.691          37.000    21324830.547 5  88537092.938 5     -2747.649          34.000
R23  19168211.602 8 102537052.828 8      1063.215          50.000    19168217.211 6  79751040.765 6       826.945          40.000
R24  21374511.672 8 114299168.229 8      3656.230          48.000    21374515.961 7  88899332.675 7      2843.735          45.000
C13  38156202.977 4 198689361.087 4      -341.289          29.000    38156205.938 4 153639226.062 4      -263.499          29.000
C29  21833900.805 8 113694855.877 8     -1079.461          50.000
E01  27644516.070 6 145272907.678 6     -2503.566          37.000    27644523.141 6 111313017.089 6     -1918.290          36.000
E12  22623564.148 7 118887645.107 7      2152.371          46.000    22623566.453 8  91095731.639 8      1649.252          49.000
E31  23805966.328 8 125101183.957 8      -931.547          51.000    23805969.891 8  95856759.236 8      -713.804          51.000
E33  24131728.414 8 126813112.692 8      -677.051          50.000    24131729.758 7  97168495.349 7      -518.902          43.000
> 2020 05 14 11 14  0.0000000  0 17        .000000000000
G12  22996361.609 5 120846716.063 5     -2851.793          35.000    22996361.531 5  94166249.360 5     -2222.176          32.000
G14  23731715.930 7 124711005.015 7     -2179.699          42.000    23731709.625 5  97177408.880 5     -1698.464          35.000
G18  23287204.008 6 122375053.758 6      3609.363          38.000    23287201.570 5  95357195.255 5      2812.494          35.000
G21  23179897.812 6 121811236.338 6      3317.809          36.000
G25  20888774.164 8 109771215.973 8     -1694.797          49.000    20888774.867 8  85536032.552 8     -1320.621          49.000
G29  20210758.562 8 106208277.726 8      -127.023          51.000    20210757.992 8  82759678.858 8       -98.979          51.000
R12  21405254.172 8 114342983.450 8     -3187.926          50.000    21405258.867 7  88933435.524 7     -2479.501          47.000
R13  19176558.219 6 102401752.735 6       273.609          40.000    19176560.820 6  79645811.793 6       212.807          41.000
R22  21344713.914 6 113939522.975 6     -3545.715          36.000    21344717.531 5  88619659.925 5     -2757.775          35.000
R23  19162316.070 8 102505515.732 8      1037.496          51.000    19162321.203 6  79726511.947 6       806.941          39.000
R24  21354036.203 8 114189676.609 8      3641.453          50.000    21354041.062 7  88814172.553 7      2832.241          45.000
C13  38158176.117 5 198699635.768 5      -346.367          30.000    38158178.992 4 153647173.386 4      -267.875          28.000
C29  21840154.594 8 113727420.896 8     -1093.215          50.000
E01  27658818.430 5 145348064.120 5     -2508.652          31.000    27658825.180 5 111370604.459 5     -1922.262          34.000
E12  22611305.383 7 118823224.710 7      2140.500          47.000    22611307.445 8  91046370.581 8      1640.111          49.000
E31  23811306.594 8 125129248.838 8      -941.180          50.000    23811310.367 8  95878263.489 8      -721.164          51.000
E33  24135630.828 8 126833619.152 8      -691.711          50.000    24135631.727 7  97184208.119 7      -530.048          43.000
> 2020 05 14 11 14 30.0000000  0 17        .000000000000
G12  23012662.758 5 120932384.439 5     -2857.727          30.000
G14  23744193.898 7 124776575.810 7     -2189.656          42.000    23744188.352 5  97228502.923 5     -1706.226          34.000
G18  23266617.070 6 122266869.585 6      3604.598          38.000    23266613.867 6  95272895.926 6      2808.777          36.000
G21  23160983.352 6 121711840.534 6      3311.000          36.000
G25  20898483.961 8 109822241.946 8     -1705.023          48.000    20898484.781 8  85575793.003 8     -1328.590          48.000
G29  20211530.922 8 106212335.675 8      -141.590          51.000    20211530.344 8  82762840.895 8      -110.330          51.000
R12  21423198.883 8 114438841.044 8     -3200.434          50.000    21423204.312 8  89007991.378 8     -2489.229          48.000
R13  19175084.594 6 102393882.473 6       253.176          40.000    19175087.023 7  79639690.475 7       196.914          42.000
R22  21364679.820 5 114046047.126 5     -3556.250          33.000    21364678.500 5  88702502.925 5     -2765.975          30.000
R23  19156571.469 8 102474784.804 8      1013.359          51.000    19156575.969 6  79702610.141 6       788.168          40.000
R24  21333651.180 8 114080666.394 8      3627.906          50.000    21333655.461 7  88729386.887 7      2821.705          46.000
C13  38160189.664 5 198710120.522 5      -350.051          32.000    38160187.617 4 153655261.370 4      -271.334          27.000
C29  21846493.328 8 113760428.151 8     -1105.258          50.000
E01                                                                  27673161.531 5 111428329.107 5     -1924.534          33.000
E12  22599121.156 8 118759192.716 8      2130.355          50.000    22599122.555 8  90997307.137 8      1632.311          49.000
E31  23816708.359 8 125157635.457 8      -949.223          51.000    23816712.180 8  95900014.275 8      -727.305          51.000
E33  24139623.086 8 126854597.990 8      -704.758          50.000    24139623.312 7  97200282.819 7      -540.081          44.000
> 2020 05 14 11 15  0.0000000  0 15        .000000000000
G12  23028992.578 5 121018171.274 5     -2862.910          33.000
G14  23756729.906 7 124842452.296 7     -2200.262          43.000    23756725.047 6  97279835.185 6     -1714.490          38.000
G18  23246059.031 6 122158844.084 6      3598.750          36.000    23246056.680 6  95188720.207 6      2804.221          37.000
G21  23142107.859 6 121612648.878 6      3303.418          37.000
