     3.02           OBSERVATION DATA    M (MIXED)           RINEX VERSION / TYPE
SAVERINEX           SC600               20200518 195932 LCL PGM / RUN BY / DATE
       G = GPS       R = GLONASS       C = COMPASS          COMMENT
       S = SBAS      J = QZSS          E = GALILEO          COMMENT
BEAN                                                        MARKER NAME
1                                                           MARKER NUMBER
GEODETIC                                                    MARKER TYPE
Unige DICCA         GTER                                    OBSERVER / AGENCY
SC60291900056       SC600               2.12(191202)        REC # / TYPE / VERS
                    HEMA45          NONE                    ANT # / TYPE
  4509407.8091   693652.4678  4442337.6214                  APPROX POSITION XYZ
        0.0000        0.0000        0.0000                  ANTENNA: DELTA H/E/N
G    8 C1C L1C D1C S1C C2Y L2Y D2Y S2Y                      SYS / # / OBS TYPES
R    8 C1C L1C D1C S1C C2P L2P D2P S2P                      SYS / # / OBS TYPES
C    4 C1I L1I D1I S1I                                      SYS / # / OBS TYPES
E    8 C1C L1C D1C S1C C7Q L7Q D7Q S7Q                      SYS / # / OBS TYPES
DBHZ                                                        COMMENT
     30.000                                                 INTERVAL
  2020    05    18    17    00    0.0000000     GPS         TIME OF FIRST OBS
  2020    05    18    17    59   30.0000000     GPS         TIME OF LAST OBS
     0                                                      RCV CLOCK OFFS APPL
G L1C  0.00000                                              SYS / PHASE SHIFT
G L2Y  0.00000                                              SYS / PHASE SHIFT
R L1C  0.00000                                              SYS / PHASE SHIFT
R L2P  0.25000                                              SYS / PHASE SHIFT
C L1I  0.00000                                              SYS / PHASE SHIFT
E L1C  0.50000                                              SYS / PHASE SHIFT
E L7Q -0.25000                                              SYS / PHASE SHIFT
 12 R05  1 R06 -4 R07  5 R08  6 R09 -2 R10 -5 R11  0 R12 -1 GLONASS SLOT / FRQ #
    R19  3 R20  2 R21  4 R22 -3                             GLONASS SLOT / FRQ #
 C1C   71.950 C2C   71.950 C2P   71.950                     GLONASS COD/PHS/BIS
    18                                                      LEAP SECONDS
*** Above antenna height is from mark to ANTENNA BOTTOM.    COMMENT
    17     4        0.0000        ANT MEASURE TYPE/HEIGT    COMMENT
    0.0000    0.0000    0.0458    0.0405    0.0000          COMMENT
                    BASE STATION                            COMMENT
                                                            END OF HEADER
> 2020 05 18 17 00  0.0000000  0 14        .000000000000
G08  20372828.477 8 107059934.705 8       503.156          51.000    20372830.664 8  83423332.590 8       392.070          51.000
G10  21612477.414 7 113574338.690 7     -1979.551          44.000    21612479.875 7  88499504.032 7     -1542.507          44.000
G14  24220596.000 6 127280091.635 6      2921.277          40.000    24220596.047 6  99179308.692 6      2276.320          38.000
G20  23732709.961 5 124716232.990 5     -3324.070          35.000
G22  23453709.875 5 123250068.249 5      3291.930          33.000    23453709.828 5  96039011.750 5      2565.143          32.000
G27  20861969.852 8 109630389.197 8     -1753.676          50.000    20861971.805 8  85426268.573 8     -1366.498          50.000
G32  23104170.844 5 121413232.083 5      2393.797          35.000    23104168.164 6  94607708.209 6      1865.296          36.000
R07  19953531.578 8 106812889.359 8      1815.398          51.000    19953533.359 8  83076616.197 8      1411.977          48.000
R12  23500969.414 6 125537913.243 6     -3790.676          36.000    23500972.555 4  97640596.913 4     -2948.309          25.000
R22  19606891.438 6 104662877.228 6       339.984          36.000    19606895.750 5  81404492.506 5       264.429          32.000
C27  21618937.656 8 112575465.836 8      -625.652          51.000
E12  21675947.031 8 113907860.965 8       -74.055          51.000    21675946.375 8  87280054.515 8       -56.737          51.000
E19  25641472.359 7 134746895.288 7      1558.715          44.000    25641474.148 7 103247633.168 7      1194.319          42.000
E24  24603471.477 6 129292099.846 6     -2528.734          41.000    24603484.938 8  99068043.702 8     -1937.593          48.000
> 2020 05 18 17 00 30.0000000  0 13        .000000000000
G08  20369944.344 8 107044778.303 8       510.055          51.000    20369946.367 8  83411522.405 8       397.445          51.000
G10  21623759.883 7 113633627.919 7     -1970.352          45.000    21623762.203 7  88545703.403 7     -1535.339          45.000
G14  24203871.422 6 127192210.679 6      2940.336          41.000    24203872.211 6  99110830.093 6      2291.174          40.000
G20  23751641.344 5 124815720.723 5     -3306.109          32.000
G27  20871965.367 8 109682917.346 8     -1745.500          49.000    20871967.711 8  85467199.600 8     -1360.130          49.000
G32  23090478.742 6 121341286.298 6      2404.906          36.000    23090475.844 6  94551646.640 6      1873.953          36.000
R07  19943371.086 8 106758502.015 8      1813.348          51.000    19943373.383 8  83034314.950 8      1410.382          48.000
R12  23522218.766 5 125651418.029 5     -3773.262          34.000    23522221.758 4  97728930.242 4     -2934.765          27.000
R22  19604957.641 6 104652556.039 6       351.176          41.000    19604960.195 5  81396464.984 5       273.140          32.000
C27  21622515.562 8 112594096.859 8      -613.645          51.000
E12  21676328.852 8 113909867.555 8       -56.988          51.000    21676327.977 8  87281592.036 8       -43.651          51.000
E19  25632552.336 7 134700021.770 7      1569.109          44.000    25632553.766 7 103211717.126 7      1202.290          42.000
E24  24617870.883 6 129367774.768 6     -2513.113          39.000    24617884.672 8  99126028.375 8     -1925.767          48.000
> 2020 05 18 17 01  0.0000000  0 14        .000000000000
G08  20367138.742 8 107030034.595 8       475.055          51.000    20367140.555 8  83400033.797 8       370.172          51.000
G10  21635108.664 7 113693265.472 7     -2003.227          44.000    21635111.273 7  88592174.232 7     -1560.953          43.000
G14  24187156.398 7 127104375.612 7      2917.406          43.000    24187157.070 6  99042387.278 6      2273.307          39.000
G20  23770589.258 5 124915292.471 5     -3330.098          32.000
G22  23416090.953 5 123052372.128 5      3280.145          32.000    23416085.266 5  95884956.597 5      2555.957          32.000
G27  20882032.250 8 109735821.687 8     -1779.156          48.000    20882035.234 8  85508423.772 8     -1386.356          49.000
R07  19933339.945 8 106704806.790 8      1768.625          50.000    19933342.664 8  82992552.001 8      1375.597          48.000
R12  23543485.836 5 125765018.590 5     -3797.926          34.000    23543490.484 4  97817286.114 4     -2953.948          27.000
R21  21783990.359 5 116570499.731 5     -2624.328          31.000    21783987.086 5  90665955.569 5     -2041.144          32.000
R22  19603081.961 7 104642542.794 7       319.051          42.000    19603086.008 6  81388676.910 6       248.151          36.000
C27  21626142.266 8 112612982.309 8      -643.223          51.000
E12  21676730.945 8 113911980.641 8       -81.691          51.000    21676729.859 8  87283211.158 8       -62.679          51.000
E19  25623691.633 7 134653458.025 7      1537.383          45.000    25623692.938 7 103176038.439 7      1178.040          42.000
E24  24632301.086 7 129443604.456 7     -2539.637          43.000    24632313.883 7  99184131.628 7     -1946.012          46.000
> 2020 05 18 17 01 30.0000000  0 13        .000000000000
G08  20364428.430 8 107015791.445 8       468.961          51.000    20364430.312 8  83388935.237 8       365.424          51.000
G10  21646539.844 7 113753335.693 7     -2006.836          46.000    21646542.180 7  88638982.218 7     -1563.768          46.000
G14  24170467.570 7 127016675.679 7      2923.508          44.000    24170467.789 6  98974049.744 6      2278.061          39.000
G22  23397339.555 5 122953848.614 5      3282.449          32.000    23397335.367 5  95808184.998 5      2557.753          32.000
G27  20892187.234 8 109789188.076 8     -1784.035          50.000    20892190.398 8  85550007.957 8     -1390.157          50.000
R07  19923455.016 8 106651894.381 8      1753.266          51.000    19923458.023 8  82951397.926 8      1363.651          48.000
R12  23564785.219 5 125878798.320 5     -3793.312          32.000    23564792.336 4  97905781.381 4     -2950.354          26.000
R21  21798682.484 4 116649147.376 4     -2623.312          27.000    21798683.086 4  90727115.378 4     -2040.351          27.000
R22  19601280.414 6 104632926.397 6       316.578          41.000    19601286.086 6  81381197.434 6       246.224          37.000
C27  21629834.492 8 112632208.279 8      -644.023          51.000
E12  21677169.797 8 113914287.004 8       -77.676          51.000    21677168.602 8  87284978.355 8       -59.479          51.000
E19  25614906.586 7 134607291.658 7      1534.625          44.000    25614907.656 7 103140664.216 7      1175.959          43.000
E24  24646777.398 7 129519673.388 7     -2537.055          46.000    24646788.891 7  99242418.143 7     -1943.947          46.000
> 2020 05 18 17 02  0.0000000  0 15        .000000000000
G08  20361802.133 8 107001989.766 8       452.984          51.000    20361804.109 8  83378180.678 8       352.975          51.000
G10  21658041.617 7 113813776.609 7     -2020.645          44.000    21658043.094 7  88686078.996 7     -1574.528          45.000
G14  24153793.477 7 126929053.985 7      2919.684          43.000    24153794.219 6  98905773.143 6      2275.078          40.000
G22  23378626.586 5 122855517.599 5      3275.465          33.000    23378624.742 5  95731563.448 5      2552.307          32.000
G27  20902419.156 8 109842955.818 8     -1798.590          51.000    20902421.742 8  85591904.897 8     -1401.499          51.000
R07  19913705.391 8 106599705.716 8      1727.848          51.000    19913708.375 8  82910806.752 8      1343.885          48.000
R08  22490263.898 5 120434349.746 5      4381.559          30.000
R12  23586101.281 4 125992723.846 4     -3798.277          29.000    23586120.516 4  97994372.116 4     -2954.222          29.000
R21  21813423.117 4 116728001.858 4     -2632.707          29.000
R22  19599541.570 6 104623647.000 6       304.055          40.000    19599547.070 6  81373980.131 6       236.487          37.000
C27  21633580.578 8 112651715.767 8      -654.637          51.000
C28  25039431.859 4 130386875.791 4     -2668.742          29.000
E12  21677634.023 8 113916726.905 8       -83.277          51.000    21677632.773 8  87286847.886 8       -63.834          51.000
E19  25606185.406 7 134561463.802 7      1522.379          42.000    25606186.758 7 103105549.420 7      1166.328          44.000
E24  24661287.133 7 129595919.501 7     -2544.176          47.000    24661298.352 7  99300840.413 7     -1949.505          46.000
> 2020 05 18 17 02 30.0000000  0 14        .000000000000
G08  20359265.859 8 106988661.383 8       435.512          51.000    20359267.852 8  83367794.922 8       339.360          51.000
G10  21669619.078 7 113874616.546 7     -2035.453          43.000    21669620.727 7  88733486.773 7     -1586.064          43.000
G14  24137140.305 6 126841544.061 6      2914.285          40.000    24137141.953 6  98837583.666 6      2270.875          37.000
G20  23827562.875 4 125214699.674 4     -3334.270          27.000
G22  23359958.047 5 122757411.696 5      3265.379          34.000    23359955.641 5  95655117.337 5      2544.460          32.000
G27  20912733.336 8 109897154.891 8     -1814.758          51.000    20912735.109 8  85634137.915 8     -1414.097          51.000
R07  19904097.336 8 106548274.197 8      1700.820          51.000    19904100.500 8  82870804.492 8      1322.860          48.000
R08  22465737.242 5 120303028.362 5      4372.738          34.000    22465759.422 4  93569079.620 4      3401.022          28.000
R22  19597871.734 6 104614736.813 6       289.988          41.000    19597877.078 6  81367049.923 6       225.546          37.000
C27  21637386.555 8 112671535.429 8      -666.680          51.000
C28  25054829.578 4 130467075.079 4     -2675.547          27.000
E12  21678129.547 8 113919331.122 8       -90.375          51.000    21678128.188 8  87288843.313 8       -69.206          51.000
E19  25597535.117 7 134516006.591 7      1508.199          43.000    25597536.969 7 103070718.578 7      1155.636          44.000
E24  24675835.781 7 129672371.337 7     -2552.625          47.000    24675847.789 7  99359420.309 7     -1955.928          47.000
> 2020 05 18 17 03  0.0000000  0 14        .000000000000
G08  20356821.508 8 106975816.300 8       421.922          51.000    20356823.617 8  83357785.763 8       328.770          51.000
G10  21681273.867 7 113935862.252 7     -2046.438          46.000    21681275.672 7  88781210.702 7     -1594.630          45.000
G14  24120510.422 6 126754157.339 6      2912.582          39.000    24120511.828 5  98769490.099 5      2269.551          34.000
G22  23341333.891 5 122659541.251 5      3260.594          33.000    23341330.555 5  95578854.697 5      2540.732          32.000
G27  20923131.156 8 109951793.338 8     -1826.770          51.000    20923132.289 8  85676713.302 8     -1423.457          51.000
G32  23022926.188 5 120986262.106 5      2339.836          32.000    23022936.586 5  94275071.130 5      1823.237          31.000
R07  19894632.648 8 106497610.891 8      1677.840          50.000    19894635.992 7  82831399.731 7      1304.987          47.000
R08  22441261.414 5 120171933.865 5      4368.793          30.000    22441276.094 4  93467117.415 4      3397.959          29.000
R22  19596273.453 7 104606205.971 7       279.797          42.000    19596277.305 6  81360414.866 6       217.623          36.000
C27  21641254.008 8 112691676.386 8      -674.891          51.000
C28  25070261.953 5 130547427.626 5     -2678.539          30.000
E12  21678658.016 8 113922108.700 8       -93.605          51.000    21678656.695 8  87290971.570 8       -71.667          51.000
E19  25588957.086 7 134470929.820 7      1498.125          42.000    25588959.742 7 103036179.219 7      1147.995          44.000
E24  24690424.336 7 129749035.644 7     -2557.070          45.000    24690437.906 7  99418162.993 7     -1959.284          47.000
> 2020 05 18 17 03 30.0000000  0 16        .000000000000
G01  22780796.219 5 119713891.850 5      2717.742          30.000
G08  20354466.219 8 106963439.298 8       405.422          51.000    20354468.359 8  83348141.340 8       315.913          51.000
G10  21693002.328 7 113997495.243 7     -2060.191          45.000    21693003.742 7  88829236.375 7     -1605.347          45.000
G14  24103902.062 6 126666880.471 6      2907.754          40.000    24103903.359 5  98701482.207 5      2265.788          34.000
G22  23322768.250 4 122561953.880 4      3252.422          28.000
G27  20933609.227 8 110006854.096 8     -1841.773          51.000    20933609.922 8  85719617.756 8     -1435.148          51.000
G32  23009610.562 5 120916287.075 5      2327.562          35.000    23009615.898 5  94220545.309 5      1813.697          35.000
R07  19885308.953 7 106447701.194 7      1651.785          47.000    19885312.227 8  82792581.082 8      1284.722          48.000
R08  22416821.211 5 120041054.549 5      4359.801          34.000    22416833.383 4  93365322.530 4      3390.956          25.000
R21  21857937.234 5 116966182.137 5     -2658.816          35.000
R22  19594743.047 6 104598039.202 6       266.695          41.000    19594745.281 6  81354062.932 6       207.430          37.000
C27  21645180.398 8 112712122.762 8      -686.098          51.000
C28  25085721.133 5 130627907.870 5     -2684.742          32.000
E12  21679216.422 8 113925043.484 8       -99.773          50.000    21679215.164 8  87293220.292 8       -76.456          51.000
E19  25580448.711 7 134426218.498 7      1484.766          43.000    25580451.516 7 103001919.915 7      1137.761          44.000
E24  24705049.117 7 129825893.981 7     -2564.531          43.000    24705064.781 7  99477054.381 7     -1965.042          47.000
> 2020 05 18 17 04  0.0000000  0 14        .000000000000
G01  22765302.102 5 119632460.687 5      2718.609          34.000
G08  20352191.711 8 106951486.230 8       396.461          51.000    20352193.805 8  83338827.255 8       308.931          51.000
G10  21704795.422 6 114059468.276 6     -2066.133          41.000    21704796.609 6  88877527.038 6     -1609.974          41.000
G14  24087306.773 6 126579671.302 6      2910.863          39.000    24087305.930 5  98633527.091 5      2268.205          32.000
G22  23304213.727 5 122464475.815 5      3251.262          35.000
G27  20944158.906 8 110062291.333 8     -1849.062          51.000    20944159.164 8  85762815.586 8     -1440.828          51.000
G32  22996352.234 6 120846607.232 6      2322.766          37.000    22996363.508 6  94166249.810 6      1809.956          37.000
R07  19876117.453 7 106398501.287 7      1633.270          46.000    19876120.727 7  82754314.465 7      1270.321          47.000
R22  19593272.812 7 104590191.423 7       261.543          42.000    19593273.680 6  81347959.125 6       203.425          37.000
C27  21649156.875 8 112732830.283 8      -689.621          51.000
C28  25101194.664 5 130708482.578 5     -2681.719          33.000
E12  21679796.250 8 113928090.670 8       -98.301          50.000    21679795.062 8  87295555.142 8       -75.309          51.000
E19  25572001.734 7 134381828.728 7      1479.488          44.000    25572004.570 7 102967906.993 7      1133.583          44.000
E24  24719701.906 7 129902899.226 7     -2564.020          44.000    24719719.367 8  99536058.386 8     -1964.689          48.000
> 2020 05 18 17 04 30.0000000  0 15        .000000000000
G08  20350027.602 8 106940113.551 8       372.570          51.000    20350029.617 8  83329965.431 8       290.315          51.000
G10  21716682.109 6 114121934.557 6     -2087.055          41.000    21716683.805 6  88926202.096 6     -1626.276          41.000
G14  24070754.688 7 126492688.200 7      2898.832          42.000    24070750.539 5  98565748.170 5      2258.836          33.000
G22  23285727.359 6 122367337.875 6      3235.539          39.000    23285706.297 5  95351077.919 5      2521.205          30.000
G27  20954809.609 8 110118259.767 8     -1871.398          51.000    20954809.641 8  85806427.335 8     -1458.233          51.000
G32  22983180.023 6 120777380.728 6      2303.195          38.000    22983185.320 6  94112307.027 6      1794.695          37.000
R06  21029723.281 4 112218632.118 4     -2479.258          28.000
R07  19867088.992 8 106350171.286 8      1599.652          50.000    19867092.203 7  82716724.460 7      1244.174          47.000
R21  21887845.445 5 117126264.400 5     -2676.633          32.000
R22  19591892.273 7 104582822.108 7       240.754          42.000    19591893.430 6  81342227.452 6       187.253          38.000
C27  21653213.148 8 112753953.319 8      -707.867          51.000
C28  25116717.297 5 130789305.421 5     -2694.910          33.000
E12  21680427.109 8 113931405.856 8      -111.922          50.000    21680426.000 8  87298095.343 8       -85.731          51.000
E19  25563645.664 7 134337916.957 7      1458.871          45.000    25563649.195 7 102934260.344 7      1117.815          44.000
E24  24734412.367 7 129980204.777 7     -2578.641          45.000    24734430.891 8  99595292.473 8     -1975.889          49.000
> 2020 05 18 17 05  0.0000000  0 13        .000000000000
G08  20347945.172 8 106929170.027 8       356.453          51.000    20347946.969 8  83321438.012 8       277.756          51.000
G10  21728633.258 7 114184739.713 7     -2100.379          43.000    21728635.781 7  88975141.197 7     -1636.659          43.000
G14  24054217.625 7 126405781.760 7      2894.594          42.000    24054214.938 5  98498029.024 5      2255.537          34.000
G22  23267276.148 6 122270383.754 6      3227.672          39.000    23267260.828 5  95275529.405 5      2515.075          35.000
G27  20965532.141 8 110174606.303 8     -1885.676          51.000    20965532.383 8  85850333.682 8     -1469.361          51.000
R07  19858195.172 8 106302558.247 8      1573.852          51.000    19858197.570 7  82679692.121 7      1224.110          47.000
R08  22343759.680 4 119649806.435 4      4334.750          28.000
R22  19590572.672 7 104575777.342 7       228.309          43.000    19590574.016 6  81336748.155 6       177.573          39.000
C27  21657320.484 8 112775341.237 8      -718.570          51.000
C28  25132259.766 5 130870224.872 5     -2700.496          31.000
E12  21681079.984 8 113934836.940 8      -117.496          50.000    21681079.102 8  87300724.357 8       -89.997          51.000
E19  25555352.242 7 134294332.270 7      1446.113          45.000    25555356.133 7 102900864.332 7      1108.034          45.000
E24  24749150.961 7 130057656.302 7     -2585.266          46.000    24749169.758 8  99654638.364 8     -1980.975          50.000
> 2020 05 18 17 05 30.0000000  0 14        .000000000000
G08  20345960.984 8 106918742.964 8       341.395          51.000    20345962.859 8  83313313.024 8       266.022          51.000
G10  21740665.211 7 114247968.013 7     -2112.223          44.000    21740667.828 7  89024409.996 7     -1645.888          44.000
G14  24037712.102 7 126319041.057 7      2890.863          44.000    24037711.398 6  98430438.952 6      2252.624          38.000
G22  23248879.508 6 122173684.114 6      3220.559          39.000
G27  20976342.844 8 110231416.618 8     -1898.934          51.000    20976343.352 8  85894601.416 8     -1479.692          51.000
G32  22957021.641 5 120639955.851 5      2279.574          32.000    22957026.836 5  94005186.490 5      1776.292          32.000
R07  19849452.031 8 106255751.642 8      1549.203          51.000    19849453.656 7  82643287.024 7      1204.939          47.000
R08  22319495.781 5 119519893.453 5      4328.539          32.000
R22  19589330.875 7 104569146.117 7       216.656          44.000    19589332.469 6  81331590.549 6       168.510          40.000
C27  21661495.266 8 112797080.096 8      -728.070          51.000
C28  25147836.258 5 130951326.062 5     -2703.730          30.000
E12  21681771.406 8 113938470.666 8      -122.152          50.000    21681770.773 8  87303508.639 8       -93.591          51.000
E19  25547137.781 7 134251162.315 7      1434.562          46.000    25547141.125 7 102867786.067 7      1099.249          44.000
E24  24763933.727 8 130135338.176 8     -2590.809          48.000    24763951.812 8  99714160.725 8     -1985.165          50.000
> 2020 05 18 17 06  0.0000000  0 14        .000000000000
G08  20344068.258 8 106908796.760 8       324.918          51.000    20344070.336 8  83305562.731 8       253.183          51.000
G10  21752770.477 7 114311580.489 7     -2125.391          44.000    21752772.164 7  89073978.129 7     -1656.145          44.000
G14  24021231.117 6 126232432.371 6      2886.078          41.000    24021232.414 6  98362951.672 6      2248.895          40.000
G22  23230525.961 6 122077236.115 6      3212.070          39.000
G27  20987234.375 8 110288653.143 8     -1913.621          51.000    20987235.070 8  85939201.274 8     -1491.133          51.000
G32  22944051.836 5 120571784.555 5      2267.512          34.000    22944051.875 5  93952065.767 5      1766.889          34.000
R07  19840853.031 8 106209716.465 8      1522.992          51.000    19840854.008 7  82607481.933 7      1184.549          47.000
R08  22295279.234 6 119390222.511 6      4319.590          37.000    22295277.625 4  92859042.629 4      3359.684          26.000
R21  21933095.094 5 117368435.926 5     -2701.637          31.000    21933108.055 4  91286586.337 4     -2101.276          27.000
R22  19588159.977 7 104562892.419 7       203.539          46.000    19588162.242 6  81326726.536 6       158.305          41.000
C27  21665730.688 8 112819133.765 8      -739.047          51.000
E12  21682494.430 8 113942270.429 8      -128.105          50.000    21682493.945 8  87306420.149 8       -98.183          51.000
E19  25538995.078 7 134208371.262 7      1421.426          44.000    25538997.930 7 102834998.145 7      1089.126          44.000
E24  24778753.250 8 130213211.425 8     -2597.629          49.000    24778769.773 8  99773829.739 8     -1990.418          49.000
> 2020 05 18 17 06 30.0000000  0 14        .000000000000
G08  20342265.094 8 106899321.010 8       309.148          51.000    20342267.273 8  83298179.025 8       240.895          51.000
G10  21764946.156 7 114375563.250 7     -2137.785          45.000    21764947.492 7  89123834.816 7     -1665.807          45.000
G11  20933391.758 5 110005725.269 5      2205.090          31.000
G14  24004772.641 6 126145946.911 6      2882.078          39.000    24004776.398 6  98295560.461 6      2245.775          39.000
G22  23212219.953 5 121981038.924 5      3204.203          34.000
G27  20998204.289 8 110346303.384 8     -1927.500          50.000    20998205.547 8  85984123.515 8     -1501.948          50.000
R07  19832396.000 8 106164442.505 8      1497.531          51.000    19832396.352 7  82572268.888 7      1164.747          46.000
R08  22271107.508 5 119260785.561 5      4311.906          35.000    22271107.195 4  92758369.547 4      3353.711          28.000
R21  21948275.438 6 117449668.152 6     -2710.750          36.000    21948284.750 4  91349774.879 4     -2108.364          26.000
R22  19587057.555 7 104557005.252 7       191.109          46.000    19587059.891 7  81322147.644 7       148.641          42.000
C27  21670024.414 8 112841490.981 8      -749.168          51.000
E12  21683246.984 8 113946224.797 8      -133.297          50.000    21683246.492 8  87309450.118 8      -102.119          51.000
E19  25530922.242 7 134165948.690 7      1409.016          44.000    25530924.219 7 102802492.528 7      1079.743          43.000
E24  24793606.570 8 130291262.330 8     -2603.641          49.000    24793621.258 8  99833634.893 8     -1994.896          48.000
> 2020 05 18 17 07  0.0000000  0 14        .000000000000
G01  22673094.828 5 119147916.673 5      2676.773          35.000
G08  20340553.219 8 106890324.763 8       295.168          51.000    20340555.539 8  83291168.961 8       230.001          51.000
G10  21777193.391 7 114439922.614 7     -2148.297          45.000    21777194.969 7  89173984.930 7     -1674.001          44.000
G14  23988339.945 6 126059596.210 6      2879.332          38.000    23988344.867 6  98228274.164 6      2243.635          38.000
G22  23193954.586 5 121885058.968 5      3197.930          31.000    23193944.109 5  94975340.517 5      2491.893          31.000
G27  21009254.359 8 110404374.897 8     -1939.418          49.000    21009256.117 8  86029374.045 8     -1511.235          50.000
R07  19824082.781 8 106119939.790 8      1473.926          51.000    19824082.773 7  82537655.673 7      1146.387          47.000
R08  22246980.023 5 119131595.015 5      4305.703          32.000    22246979.164 5  92657888.023 5      3348.877          30.000
R22  19586025.289 7 104551494.419 7       180.844          46.000    19586028.195 7  81317861.418 7       140.653          42.000
C27  21674378.094 8 112864160.452 8      -757.547          51.000
C28  25194729.805 5 131195547.046 5     -2715.367          32.000
E12  21684030.656 8 113950342.387 8      -136.586          51.000    21684030.102 8  87312605.160 8      -104.669          51.000
E19  25522921.289 7 134123904.257 7      1398.543          44.000    25522922.469 7 102770276.665 7      1071.521          43.000
E24  24808494.531 8 130369497.253 8     -2607.500          48.000    24808507.891 7  99893581.082 7     -1997.961          47.000
> 2020 05 18 17 07 30.0000000  0 11        .000000000000
G08  20338934.828 8 106881820.068 8       274.637          51.000    20338937.156 8  83284541.922 8       214.003          51.000
G10  21789513.750 7 114504667.150 7     -2165.258          43.000    21789515.414 7  89224435.234 7     -1687.214          43.000
G14  23971936.273 6 125973393.696 6      2870.332          40.000    23971941.484 6  98161103.434 6      2236.625          40.000
G27  21020386.727 8 110462877.788 8     -1957.988          49.000    21020388.516 8  86074960.728 8     -1525.705          49.000
R07  19815915.656 8 106076221.438 8      1443.523          50.000    19815916.133 7  82503652.520 7      1122.740          47.000
R08  22222900.727 5 119002666.197 5      4292.727          34.000    22222903.617 5  92557610.066 5      3338.790          32.000
R22  19585065.430 7 104546372.097 7       163.605          46.000    19585068.797 7  81313877.372 7       127.249          43.000
C27  21678793.828 8 112887153.287 8      -772.461          51.000
E12  21684847.484 8 113954634.381 8      -146.594          51.000    21684846.914 8  87315893.834 8      -112.301          51.000
E19  25514994.758 7 134082250.118 7      1381.457          44.000    25514995.648 7 102738359.858 7      1058.480          43.000
E24  24823418.867 7 130447925.070 7     -2618.102          47.000    24823431.617 8  99953675.041 8     -2006.012          48.000
> 2020 05 18 17 08  0.0000000  0 14        .000000000000
G08  20337405.367 8 106873782.579 8       260.727          51.000    20337407.773 8  83278278.943 8       203.164          51.000
G10  21801902.102 7 114569769.714 7     -2175.324          45.000    21801903.773 7  89275164.472 7     -1695.058          45.000
G11  20895898.891 5 109808689.210 5      2176.137          31.000
G14  23955557.453 7 125887317.464 7      2867.848          44.000    23955561.680 7  98094031.112 7      2234.690          43.000
G22  23157550.523 6 121693738.217 6      3180.301          37.000    23157545.297 4  94826289.778 4      2478.159          28.000
G27  21031596.555 8 110521786.192 8     -1969.840          50.000    21031597.922 8  86120863.354 8     -1534.943          50.000
G32  22892840.164 5 120302689.753 5      2218.926          30.000
R07  19807890.406 8 106033263.834 8      1419.832          49.000    19807890.914 7  82470241.028 7      1104.314          47.000
R08  22198867.297 6 118873977.256 6      4286.199          39.000    22198873.414 5  92457518.768 5      3333.714          33.000
R22  19584174.039 7 104541614.085 7       153.078          46.000    19584177.852 7  81310176.686 7       119.061          42.000
C27  21683266.938 8 112910444.891 8      -780.773          51.000
E12  21685692.688 8 113959075.907 8      -149.926          50.000    21685692.188 8  87319297.090 8      -114.887          51.000
E19  25507137.812 7 134040961.936 7      1370.895          43.000    25507138.797 7 102706723.507 7      1050.324          43.000
E24  24838374.383 7 130526518.500 7     -2621.789          47.000    24838387.555 8 100013895.916 8     -2008.990          48.000
> 2020 05 18 17 08 30.0000000  0 15        .000000000000
G08  20335967.828 8 106866227.934 8       243.340          51.000    20335970.164 8  83272392.205 8       189.615          51.000
G10  21814361.031 7 114635242.501 7     -2188.910          45.000    21814362.977 7  89326182.194 7     -1705.644          45.000
G14  23939205.992 7 125801384.461 7      2861.645          47.000    23939209.148 7  98027070.368 7      2229.853          44.000
G22  23139423.023 6 121598473.194 6      3170.980          41.000    23139412.500 4  94752057.442 4      2470.903          28.000
G27  21042886.469 8 110581113.610 8     -1984.941          51.000    21042887.242 8  86167092.477 8     -1546.708          51.000
G32  22880213.312 5 120236328.285 5      2206.027          35.000    22880218.297 6  93690654.514 6      1718.988          36.000
R07  19800010.336 8 105991083.033 8      1392.594          50.000    19800011.477 8  82437433.765 8      1083.132          48.000
R08  22174883.523 6 118745546.810 6      4276.312          41.000    22174889.391 5  92357628.500 5      3326.024          33.000
R22  19583353.766 7 104537235.853 7       139.184          46.000    19583357.430 7  81306771.403 7       108.254          43.000
C27  21687800.320 8 112934049.895 8      -792.383          51.000
C28  25241836.523 4 131440872.951 4     -2733.613          28.000
E04  27188398.180 6 142875997.055 6      3113.395          40.000    27188400.930 6 109476423.802 6      2385.462          38.000
E12  21686569.156 8 113963681.612 8      -156.621          50.000    21686568.797 8  87322826.130 8      -120.023          51.000
E19  25499353.461 7 134000055.377 7      1356.754          44.000    25499354.219 7 102675379.554 7      1039.707          42.000
E24  24853363.211 7 130605289.904 7     -2629.043          46.000    24853377.844 8 100074253.182 8     -2014.494          49.000
> 2020 05 18 17 09  0.0000000  0 17        .000000000000
G01  22612316.477 5 118828524.639 5      2650.078          30.000
G08  20334627.117 8 106859182.207 8       227.270          51.000    20334629.352 8  83266902.032 8       177.093          51.000
G10  21826894.938 7 114701108.469 7     -2200.852          42.000    21826897.125 7  89377506.331 7     -1714.949          42.000
G14  23922886.938 7 125715622.744 7      2856.672          46.000    23922889.062 7  97960243.118 7      2225.981          43.000
G22  23121345.062 7 121503476.845 7      3163.168          42.000    23121333.023 4  94678034.451 4      2464.818          27.000
G27  21054260.828 8 110640884.453 8     -1998.965          51.000    21054261.430 8  86213667.115 8     -1557.638          51.000
G32  22867662.023 6 120170362.269 6      2193.094          36.000    22867664.336 6  93639252.650 6      1708.913          37.000
R07  19792280.406 8 105949706.192 8      1366.664          51.000    19792282.305 8  82405251.823 8      1062.961          48.000
R08  22150954.586 6 118617404.190 6      4267.414          41.000    22150958.789 5  92257962.089 5      3319.103          33.000
R21  22024903.102 5 117859694.711 5     -2753.691          30.000
R22  19582609.648 7 104533264.435 7       126.441          46.000    19582613.117 7  81303682.503 7        98.343          43.000
C27  21692398.609 8 112957993.622 8      -802.863          51.000
C28  25257600.664 5 131522956.913 5     -2738.770          31.000
E04  27170629.312 6 142782619.714 6      3112.371          39.000    27170631.820 6 109404875.024 6      2384.699          38.000
E12  21687481.711 8 113968476.981 8      -162.172          51.000    21687481.508 8  87326500.504 8      -124.289          51.000
E19  25491647.016 7 133959556.646 7      1343.934          45.000    25491646.805 7 102644348.043 7      1029.902          42.000
E24  24868390.211 7 130684262.405 7     -2634.867          44.000    24868406.492 8 100134764.562 8     -2019.014          49.000
> 2020 05 18 17 09 30.0000000  0 16        .000000000000
G01  22597204.445 5 118749119.991 5      2642.062          31.000    22597212.430 5  92531778.734 5      2058.744          31.000
G08  20333372.242 8 106852587.602 8       209.637          51.000    20333374.375 8  83261763.379 8       163.353          51.000
G10  21839492.250 7 114767306.849 7     -2214.703          45.000    21839494.305 7  89429089.476 7     -1725.743          45.000
G14  23906589.203 7 125629977.038 7      2850.094          44.000    23906590.555 7  97893506.234 7      2220.855          42.000
G22  23103307.000 7 121408692.135 7      3153.250          42.000    23103295.766 5  94604176.369 5      2457.084          31.000
G27  21065708.047 8 110701039.090 8     -2014.172          51.000    21065708.742 8  86260540.833 8     -1569.485          51.000
G32  22855174.125 6 120104737.396 6      2179.223          39.000    22855175.633 6  93588116.559 6      1698.096          38.000
R07  19784690.367 8 105909075.698 8      1339.215          51.000    19784692.195 8  82373650.325 8      1041.612          49.000
R08  22127069.133 6 118489494.076 6      4256.910          41.000    22127071.820 5  92158476.508 5      3310.930          34.000
R22  19581930.914 7 104529641.062 7       112.496          46.000    19581934.031 7  81300864.323 7        87.497          42.000
C27  21697050.953 8 112982218.173 8      -814.859          51.000
C28  25273382.070 5 131605132.113 5     -2743.688          30.000
E04  27152860.719 6 142689247.059 6      3109.891          39.000    27152862.938 6 109333329.880 6      2382.703          37.000
E12  21688419.203 8 113973403.538 8      -169.004          51.000    21688419.133 8  87330275.404 8      -129.511          51.000
E19  25484007.047 7 133919408.408 7      1329.805          44.000    25484007.023 7 102613585.159 7      1018.962          43.000
E24  24883444.930 7 130763375.278 7     -2642.023          46.000    24883461.781 8 100195383.461 8     -2024.429          50.000
> 2020 05 18 17 10  0.0000000  0 15        .000000000000
G08  20332224.477 8 106846556.256 8       197.629          51.000    20332226.539 8  83257063.623 8       153.997          51.000
G10  21852173.625 7 114833946.646 7     -2222.453          45.000    21852175.562 7  89481016.547 7     -1731.785          46.000
G14  23890334.484 7 125544561.301 7      2849.520          42.000    23890336.484 6  97826948.617 6      2220.411          41.000
G22  23085351.766 6 121314326.765 6      3149.512          36.000
G27  21077248.859 8 110761687.944 8     -2023.852          49.000    21077250.219 8  86307799.672 8     -1577.027          49.000
G32  22842770.977 6 120039567.728 6      2170.969          36.000    22842771.188 5  93537335.054 5      1691.667          35.000
R07  19777261.086 8 105869305.983 8      1317.426          51.000    19777263.266 8  82342718.339 8      1024.664          49.000
R08  22103248.500 6 118361933.478 6      4252.410          40.000    22103251.891 5  92059262.758 5      3307.433          35.000
R22  19581338.758 7 104526480.048 7       103.711          46.000    19581340.961 7  81298405.784 7        80.664          43.000
C27  21701778.414 8 113006834.110 8      -821.094          51.000
C28  25289218.688 5 131687548.984 5     -2745.906          35.000
E04  27135114.422 6 142595992.246 6      3112.547          39.000    27135117.289 6 109261875.034 6      2384.837          37.000
E12  21689402.906 8 113978572.812 8      -170.320          51.000    21689402.922 8  87334236.269 8      -130.442          51.000
E19  25476454.945 7 133879722.678 7      1321.102          44.000    25476455.523 7 102583176.638 7      1012.285          43.000
E24  24898547.922 8 130842737.689 8     -2643.516          49.000    24898564.312 8 100256193.551 8     -2025.497          50.000
> 2020 05 18 17 10 30.0000000  0 16        .000000000000
G01  22567097.664 5 118590883.442 5      2633.027          32.000
G08  20331148.391 8 106840901.668 8       180.246          51.000    20331150.258 8  83252657.446 8       140.452          51.000
G10  21864902.852 7 114900838.098 7     -2235.812          44.000    21864904.391 7  89533139.744 7     -1742.192          44.000
G14  23874088.281 7 125459190.895 7      2842.535          43.000    23874090.586 6  97760426.284 6      2214.962          40.000
G27  21088847.625 8 110822642.520 8     -2038.836          49.000    21088850.047 8  86355296.738 8     -1588.703          49.000
G32  22830419.992 6 119974668.528 6      2156.840          39.000    22830420.805 6  93486764.260 6      1680.648          39.000
R07  19769957.094 8 105830207.977 8      1290.020          50.000    19769959.609 8  82312308.775 8      1003.345          49.000
R08  22079458.422 6 118234534.995 6      4241.770          40.000    22079461.742 5  91960175.082 5      3299.154          34.000
R21  22071441.953 5 118108773.669 5     -2778.254          33.000
R22  19580797.852 7 104523591.944 7        89.781          47.000    19580799.977 7  81296159.484 7        69.830          43.000
C27  21706545.281 8 113031655.887 8      -832.711          51.000
C28  25305053.883 6 131769994.547 6     -2750.035          37.000
E04  27117355.664 6 142502669.482 6      3109.742          39.000    27117358.273 6 109190368.085 6      2382.679          36.000
E12  21690397.133 8 113983797.508 8      -177.070          51.000    21690397.219 8  87338239.609 8      -135.770          51.000
E19  25468955.664 7 133840313.140 7      1307.078          45.000    25468956.375 7 102552979.755 7      1001.357          43.000
E24  24913662.578 8 130922159.970 8     -2650.422          51.000    24913678.000 8 100317049.512 8     -2030.855          50.000
> 2020 05 18 17 11  0.0000000  0 17        .000000000000
G08  20330189.547 8 106835862.833 8       162.336          51.000    20330191.055 8  83248731.090 8       126.496          51.000
G10  21877724.797 7 114968217.190 7     -2249.523          45.000    21877725.781 7  89585642.907 7     -1752.875          45.000
G11  20822478.336 5 109422882.454 5      2113.754          33.000
G14  23857896.812 7 125374106.564 7      2835.883          44.000    23857899.867 6  97694126.872 6      2209.782          41.000
G22  23049505.664 7 121125960.773 7      3129.703          45.000    23049499.312 4  94383844.905 4      2438.736          29.000
G27  21100550.180 8 110884140.116 8     -2054.414          50.000    21100552.961 8  86403216.965 8     -1600.842          50.000
G32  22818166.047 6 119910280.523 6      2142.125          37.000    22818168.664 6  93436591.767 6      1669.188          38.000
R06  21220960.891 4 113239113.270 4     -2748.117          28.000
R07  19762824.125 8 105792025.201 8      1262.152          50.000    19762826.828 8  82282611.042 8       981.674          50.000
R08  22055745.078 6 118107545.845 6      4230.750          40.000    22055748.398 5  91861405.759 5      3290.583          33.000
R22  19580353.086 7 104521219.859 7        74.949          46.000    19580356.258 7  81294314.534 7        58.294          43.000
C27  21711396.828 8 113056919.823 8      -844.965          51.000
C28  25320939.008 6 131852703.879 6     -2756.711          40.000
E04  27099630.109 6 142409518.808 6      3106.672          38.000    27099631.664 6 109118992.976 6      2380.622          37.000
E12  21691447.258 8 113989316.070 8      -184.137          51.000    21691447.430 8  87342468.112 8      -141.083          51.000
E19  25461554.297 7 133801419.188 7      1292.512          45.000    25461555.336 7 102523177.900 7       990.432          43.000
E24  24928833.453 8 131001878.219 8     -2657.492          51.000    24928847.852 8 100378132.244 8     -2036.257          51.000
> 2020 05 18 17 11 30.0000000  0 15        .000000000000
G08  20329316.531 8 106831274.392 8       145.199          51.000    20329317.961 8  83245155.691 8       113.142          51.000
G10  21890607.430 7 115035915.428 7     -2262.055          45.000    21890608.391 7  89638394.763 7     -1762.640          45.000
G14  23841729.414 7 125289145.224 7      2829.785          45.000    23841732.727 6  97627923.274 6      2205.027          41.000
G22  23031670.945 7 121032230.637 7      3120.512          47.000    23031661.328 5  94310808.471 5      2431.571          32.000
G27  21112324.797 8 110946013.574 8     -2068.961          51.000    21112327.188 8  86451430.027 8     -1612.177          51.000
G32  22805978.773 6 119846239.969 6      2128.648          40.000    22805981.391 6  93386690.009 6      1658.684          40.000
R07  19755830.812 8 105754590.121 8      1235.188          50.000    19755833.734 8  82253494.877 8       960.701          49.000
R08  22032076.898 6 117980799.921 6      4220.531          39.000    22032082.422 5  91762825.554 5      3282.632          32.000
R22  19579973.734 8 104519195.892 8        61.387          49.000    19579977.523 7  81292740.321 7        47.745          43.000
C27  21716301.594 8 113082461.387 8      -856.184          51.000
C28  25336842.211 6 131935511.571 6     -2762.309          36.000
E04  27081906.016 5 142316375.658 5      3104.465          35.000    27081906.844 6 109047623.716 6      2378.614          37.000
E12  21692521.734 8 113994962.441 8      -190.480          51.000    21692521.922 8  87346794.545 8      -145.962          51.000
E19  25454219.688 7 133762875.194 7      1278.691          45.000    25454221.117 7 102493644.211 7       979.875          44.000
E24  24944028.219 8 131081724.011 8     -2663.812          50.000    24944041.867 8 100439312.685 8     -2041.130          51.000
> 2020 05 18 17 12  0.0000000  0 15        .000000000000
G08  20328536.227 8 106827173.950 8       127.758          51.000    20328537.641 8  83241960.535 8        99.552          51.000
G10  21903557.188 7 115103967.368 7     -2274.801          43.000    21903558.711 7  89691422.210 7     -1772.572          43.000
G14  23825593.148 7 125204346.590 7      2823.160          45.000    23825595.977 7  97561846.462 7      2199.868          42.000
G22  23013882.273 7 120938752.508 7      3110.930          46.000    23013874.555 5  94237968.437 5      2424.104          31.000
G27  21124177.891 8 111008298.679 8     -2083.816          51.000    21124179.711 8  86499963.847 8     -1623.753          51.000
G32  22793865.367 6 119782586.238 6      2114.539          41.000    22793869.266 6  93337089.757 6      1647.696          41.000
R07  19748984.359 8 105717941.298 8      1207.641          51.000    19748987.211 8  82224990.242 8       939.276          48.000
R08  22008461.961 6 117854338.579 6      4210.074          37.000    22008470.625 5  91664466.746 5      3274.502          30.000
R22  19579667.234 8 104517558.528 8        47.355          49.000    19579671.016 7  81291466.814 7        36.832          44.000
C27  21721266.805 8 113108317.288 8      -867.891          51.000
C28  25352768.375 5 132018453.493 5     -2768.031          32.000
E04  27064190.367 5 142223279.669 5      3101.320          32.000    27064190.617 6 108976289.747 6      2376.830          36.000
E12  21693627.625 8 114000773.692 8      -197.156          51.000    21693627.781 8  87351247.313 8      -150.981          51.000
E19  25446959.000 7 133724719.177 7      1264.672          45.000    25446960.633 7 102464407.806 7       969.082          44.000
E24  24959253.406 8 131161732.121 8     -2670.359          48.000    24959266.961 8 100500617.512 8     -2046.075          51.000
> 2020 05 18 17 12 30.0000000  0 14        .000000000000
G08  20327853.953 8 106823589.331 8       111.008          50.000    20327855.445 8  83239167.322 8        86.500          50.000
G10  21916578.703 6 115172398.027 6     -2287.262          39.000    21916580.633 6  89744744.788 6     -1782.282          40.000
G14  23809493.656 7 125119740.696 7      2817.074          46.000    23809495.594 6  97495919.854 6      2195.126          40.000
G22  22996145.711 7 120845554.649 7      3102.117          42.000    22996141.469 6  94165346.807 6      2417.237          36.000
G27  21136114.359 8 111071021.756 8     -2098.004          51.000    21136115.758 8  86548838.942 8     -1634.808          51.000
G32  22781831.414 6 119719349.278 6      2101.402          39.000    22781836.125 6  93287814.204 6      1637.459          38.000
R07  19742290.312 8 105682108.139 8      1180.957          51.000    19742292.805 7  82197120.039 7       918.525          46.000
R22  19579438.641 8 104516336.652 8        33.926          50.000    19579442.195 7  81290516.469 7        26.387          43.000
C27  21726297.469 8 113134514.822 8      -878.836          51.000
C28  25368721.914 4 132101555.927 4     -2771.594          29.000
E04  27046488.945 5 142130257.907 5      3099.668          31.000    27046488.430 6 108905013.449 6      2374.870          37.000
E12  21694770.102 8 114006777.285 8      -203.133          50.000    21694770.227 8  87355847.467 8      -155.581          51.000
E19  25439777.227 7 133686979.352 7      1251.215          44.000    25439778.906 7 102435490.298 7       958.735          43.000
E24  24974513.945 8 131241927.608 8     -2676.074          48.000    24974527.984 8 100562065.955 8     -2050.495          51.000
> 2020 05 18 17 13  0.0000000  0 14        .000000000000
G08  20327265.180 8 106820496.101 8        95.008          51.000    20327266.672 8  83236757.003 8        74.032          50.000
G10  21929667.148 6 115241179.587 6     -2298.383          40.000    21929668.875 6  89798340.837 6     -1790.945          39.000
G14  23793426.453 8 125035304.757 8      2811.785          48.000    23793427.430 6  97430125.629 6      2191.001          39.000
G22  22978456.680 6 120752613.379 6      3094.219          38.000    22978454.328 5  94092925.098 5      2411.086          33.000
G27  21148128.922 8 111134156.204 8     -2111.219          51.000    21148130.148 8  86598034.582 8     -1645.106          51.000
G32  22769871.688 6 119656506.026 6      2088.453          36.000    22769877.750 5  93238845.495 5      1627.369          35.000
R07  19735744.266 8 105647065.694 8      1155.012          51.000    19735746.180 7  82169864.838 7       898.345          46.000
R08  21961391.898 4 117602252.811 4      4190.594          29.000    21961405.797 4  91468465.070 4      3259.351          27.000
R22  19579283.266 8 104515505.204 8        21.285          50.000    19579285.828 7  81289869.793 7        16.555          43.000
C27  21731389.070 8 113161028.888 8      -888.992          51.000
E04                                                                  27028796.984 6 108833776.547 6      2373.996          36.000
E12  21695944.250 8 114012947.880 8      -208.348          50.000    21695944.352 8  87360575.589 8      -159.640          51.000
E19  25432669.656 7 133649631.053 7      1238.594          44.000    25432671.695 7 102406872.809 7       949.040          44.000
E24  24989804.969 8 131322282.848 8     -2681.004          48.000    24989819.562 8 100623636.836 8     -2054.255          50.000
> 2020 05 18 17 13 30.0000000  0 14        .000000000000
G08  20326766.594 8 106817876.114 8        78.152          51.000    20326768.086 8  83234715.447 8        60.898          51.000
G10  21942818.609 6 115310291.089 6     -2310.594          41.000    21942820.266 6  89852193.935 6     -1800.463          41.000
G14  23777388.414 7 124951022.845 7      2805.570          47.000    23777389.391 6  97364451.453 6      2186.162          38.000
G22  22960814.750 7 120659911.653 7      3084.703          44.000    22960809.062 5  94020690.057 5      2403.671          30.000
G27  21160217.781 8 111197682.249 8     -2125.230          51.000    21160218.805 8  86647535.368 8     -1656.024          51.000
G32  22757984.648 5 119594040.279 5      2074.277          35.000    22757990.891 5  93190170.869 5      1616.323          33.000
R07  19729342.398 8 105612796.084 8      1128.098          51.000    19729344.227 7  82143210.764 7       877.412          45.000
R08  21937950.594 6 117476680.979 6      4179.742          37.000    21937953.047 5  91370798.430 5      3250.911          30.000
R22  19579197.492 8 104515046.383 8         7.676          50.000    19579199.141 7  81289512.916 7         5.970          43.000
C27  21736537.852 8 113187841.094 8      -899.988          51.000
E04                                                                  27011112.430 6 108762566.046 6      2372.421          37.000
E12  21697146.656 8 114019266.960 8      -214.336          50.000    21697146.656 8  87365417.474 8      -164.270          51.000
E19  25425633.281 7 133612656.787 7      1225.012          43.000    25425635.703 7 102378541.888 7       938.705          43.000
E24  25005122.531 8 131402776.828 8     -2686.629          48.000    25005137.555 8 100685314.018 8     -2058.601          50.000
> 2020 05 18 17 14  0.0000000  0 16        .000000000000
G08  20326364.055 8 106815760.288 8        62.863          51.000    20326365.438 8  83233066.748 8        48.984          51.000
G10  21956038.078 6 115379760.220 6     -2320.855          41.000    21956039.531 6  89906325.720 6     -1808.459          41.000
G14  23761385.508 7 124866927.898 7      2800.863          45.000    23761386.070 6  97298922.967 6      2182.491          38.000
G22  22943225.906 8 120567480.760 8      3077.301          48.000    22943217.516 5  93948666.086 5      2397.900          30.000
G27  21172386.469 8 111261628.920 8     -2137.855          51.000    21172387.477 8  86697363.907 8     -1665.861          51.000
G32  22746175.719 6 119531960.497 6      2062.551          36.000    22746180.070 6  93141815.850 6      1607.182          37.000
R07  19723090.961 8 105579331.561 8      1102.824          51.000    19723092.547 7  82117182.830 7       857.752          47.000
R08  21914561.047 6 117351422.617 6      4170.820          39.000    21914562.477 5  91273375.371 5      3243.971          33.000
R21  22181747.211 5 118699008.801 5     -2838.973          31.000
R22  19579187.305 8 104514991.444 8        -4.180          50.000    19579187.797 7  81289470.205 7        -3.251          43.000
C27  21741749.570 8 113214981.384 8      -909.477          51.000
E04                                                                  26993440.383 6 108691406.302 6      2371.601          38.000
E12  21698383.109 8 114025764.745 8      -218.828          51.000    21698383.008 8  87370396.290 8      -167.659          51.000
E19  25418673.492 6 133576087.265 6      1213.074          41.000    25418676.281 7 102350521.079 7       929.439          43.000
E24  25020471.812 8 131483437.466 8     -2690.758          48.000    25020487.125 8 100747118.879 8     -2061.672          51.000
E33  26212812.688 6 137749277.621 6     -1991.305          36.000
> 2020 05 18 17 14 30.0000000  0 15        .000000000000
G08  20326053.008 8 106814125.728 8        46.777          51.000    20326054.203 8  83231793.054 8        36.450          51.000
G10  21969321.039 6 115449561.281 6     -2332.141          39.000    21969321.859 6  89960716.154 6     -1817.249          39.000
G14  23745413.734 7 124782999.267 7      2795.176          44.000    23745414.102 6  97233524.221 6      2178.065          38.000
G22  22925684.898 8 120475298.634 8      3068.797          49.000    22925678.391 6  93876835.956 6      2391.273          37.000
G27  21184630.445 8 111325971.716 8     -2151.137          51.000    21184631.625 8  86747501.113 8     -1676.210          51.000
G32  22734441.078 6 119470293.895 6      2048.859          36.000    22734439.680 5  93093763.957 5      1596.508          35.000
R07  19716985.594 8 105546648.971 8      1076.668          51.000    19716987.320 7  82091763.079 7       837.411          47.000
R08  21891225.023 6 117226457.759 6      4160.812          39.000    21891227.414 6  91176180.553 6      3236.187          36.000
R22  19579248.281 8 104515317.762 8       -16.922          50.000    19579248.719 7  81289724.004 7       -13.161          44.000
C27  21747020.031 8 113242426.726 8      -919.672          51.000
C28  25432812.367 5 132435372.195 5     -2788.465          30.000
E04  26975776.125 6 141758653.270 6      3093.391          38.000    26975776.266 5 108620280.633 5      2370.503          35.000
E12  21699649.148 8 114032418.027 8      -224.254          50.000    21699648.945 8  87375494.258 8      -171.864          51.000
E19  25411786.281 6 133539899.792 6      1200.027          41.000    25411789.719 7 102322793.040 7       919.460          43.000
E24  25035847.875 8 131564239.163 8     -2695.449          48.000    25035863.391 8 100809031.809 8     -2065.461          51.000
> 2020 05 18 17 15  0.0000000  0 15        .000000000000
G08  20325840.531 8 106813008.989 8        27.922          51.000    20325841.594 8  83230922.858 8        21.757          51.000
G10  21982673.508 6 115519727.884 6     -2345.781          39.000    21982674.773 6  90015391.438 6     -1827.881          39.000
G14  23729481.047 7 124699275.809 7      2786.605          44.000    23729480.023 6  97168285.249 6      2171.384          38.000
G22  22908198.156 8 120383402.705 8      3057.613          48.000    22908194.461 6  93805228.827 6      2382.556          41.000
G27  21196956.367 8 111390745.514 8     -2167.078          51.000    21196957.602 8  86797974.164 8     -1688.632          51.000
G32  22722787.992 6 119409054.796 6      2032.953          38.000    22722783.172 5  93046045.246 5      1584.128          33.000
R07  19711033.344 8 105514786.035 8      1047.656          51.000    19711035.070 8  82066980.805 8       814.847          48.000
R08  21867950.258 6 117101826.925 6      4148.043          41.000    21867954.023 6  91079245.502 6      3226.259          38.000
R21  22213693.000 5 118869948.369 5     -2858.801          34.000    22213689.188 4  92454401.870 4     -2223.515          24.000
R22  19579387.602 8 104516062.930 8       -32.570          50.000    19579388.555 7  81290303.578 7       -25.332          45.000
C27  21752356.180 8 113270212.973 8      -932.676          51.000
E04  26958130.008 6 141665910.382 6      3089.418          38.000    26958126.922 5 108549218.007 5      2366.983          34.000
E12  21700951.711 8 114039262.955 8      -232.184          51.000    21700951.180 8  87380739.058 8      -177.871          51.000
E19  25404979.945 7 133504131.486 7      1184.621          44.000    25404983.172 7 102295386.157 7       907.532          43.000
E24  25051257.172 8 131645215.724 8     -2702.875          48.000    25051272.672 8 100871078.705 8     -2071.046          50.000
> 2020 05 18 17 15 30.0000000  0 16        .000000000000
G08  20325721.758 8 106812384.589 8        13.391          51.000    20325723.078 8  83230436.298 8        10.434          51.000
G10  21996090.164 6 115590230.964 6     -2354.840          41.000    21996092.469 6  90070328.869 6     -1834.940          41.000
G14  23713582.484 7 124615733.467 7      2782.453          44.000    23713582.352 6  97103187.356 6      2168.145          40.000
G22  22890760.750 7 120291767.662 7      3050.910          47.000    22890758.969 7  93733824.969 7      2377.333          43.000
G27  21209358.758 8 111455922.308 8     -2178.641          51.000    21209359.945 8  86848761.258 8     -1697.642          51.000
G32  22711211.930 6 119348218.782 6      2022.074          39.000    22711207.969 6  92998640.754 6      1575.648          36.000
R07  19705229.477 8 105483716.338 8      1023.191          51.000    19705231.180 8  82042815.483 8       795.816          49.000
R08  21844733.617 7 116977506.190 7      4139.562          42.000    21844737.508 6  90982551.646 6      3219.660          40.000
R21  22229741.352 5 118955788.523 5     -2864.426          32.000
R22  19579600.633 8 104517200.575 8       -43.672          50.000    19579602.312 7  81291188.408 7       -33.967          46.000
C27  21757752.945 8 113298313.563 8      -941.148          51.000
C28  25465007.914 5 132602971.646 5     -2798.070          30.000
E04  26940492.727 6 141573224.535 6      3089.223          38.000    26940487.703 5 108478199.062 5      2367.429          33.000
E12  21702285.750 8 114046272.826 8      -235.699          50.000    21702284.688 8  87386110.260 8      -180.607          51.000
E19  25398249.016 7 133468756.293 7      1173.434          44.000    25398251.492 7 102268280.504 7       899.035          44.000
E24  25066694.039 7 131726338.025 7     -2705.707          47.000    25066709.180 8 100933237.276 8     -2073.186          49.000
> 2020 05 18 17 16  0.0000000  0 16        .000000000000
G01  22404133.516 4 117734515.898 4      2558.961          29.000
