     3.04           OBSERVATION DATA    M (MIXED)           RINEX VERSION / TYPE
Convert 2.6.2       NovAtel             20200515 161804 UTC PGM / RUN BY / DATE 
Rinex Version 3.04 Observation File                         COMMENT             
                                                            MARKER NAME         
                                                            MARKER NUMBER       
                                                            MARKER TYPE         
                                                            OBSERVER / AGENCY   
                    NovAtel GPSCard                         REC # / TYPE / VERS 
                                                            ANT # / TYPE        
        0.0000        0.0000        0.0000                  APPROX POSITION XYZ 
        0.0000        0.0000        0.0000                  ANTENNA: DELTA H/E/N
G    8 C1C L1C D1C S1C C2W L2W D2W S2W                      SYS / # / OBS TYPES 
R    8 C1C L1C D1C S1C C2P L2P D2P S2P                      SYS / # / OBS TYPES 
E    8 C1C L1C D1C S1C C7Q L7Q D7Q S7Q                      SYS / # / OBS TYPES 
C    8 C2I L2I D2I S2I C7I L7I D7I S7I                      SYS / # / OBS TYPES 
DBHZ                                                        SIGNAL STRENGTH UNIT
    30.000                                                  INTERVAL            
  2020    05    15    03    00    0.0000000     GPS         TIME OF FIRST OBS   
  2020    05    15    03    59   30.0000000     GPS         TIME OF LAST OBS    
G L1C  0.00000  06 G30 G07 G05 G28 G13 G15                  SYS / PHASE SHIFT   
G L2W  0.00000  06 G30 G07 G05 G28 G15 G13                  SYS / PHASE SHIFT   
R L1C  0.00000  05 R10 R11 R08 R09 R07                      SYS / PHASE SHIFT   
R L2P  0.25000  04 R11 R08 R09 R07                          SYS / PHASE SHIFT   
E L1C  0.50000  05 E30 E03 E08 E02 E25                      SYS / PHASE SHIFT   
E L7Q -0.25000  05 E30 E03 E08 E25 E02                      SYS / PHASE SHIFT   
C L2I  0.00000  03 C25 C23 C05                              SYS / PHASE SHIFT   
C L7I  0.00000  01 C05                                      SYS / PHASE SHIFT   
  5 R10 -7 R11  0 R08  6 R09 -2 R07  5                      GLONASS SLOT / FRQ #
 C1C  -71.950 C2C  -71.950 C2P  -71.950                     GLONASS COD/PHS/BIS 
     0     0     0     0GPS                                 LEAP SECONDS        
                                                            END OF HEADER       
> 2020 05 15 03 00  0.0000000  0 17      -0.000000000000
G30  20502222.305 8 107739928.350 8      -846.176          51.000    20502223.906 8  83953217.585 8      -659.355          51.000  
G07  22290826.766 5 117139104.991 5     -2351.891          34.000    22290826.094 5  91277214.627 5     -1832.636          31.000  
G05  20613113.688 8 108322627.344 8      -622.531          51.000    20613111.727 8  84407250.670 8      -485.089          51.000  
G28  21953007.484 7 115363856.420 7      2456.965          47.000    21953006.281 7  89893925.164 7      1914.519          44.000  
R10  19173012.102 8 102202541.268 8       525.930          49.000                                                                  
R11  22193641.906 5 118595743.175 5      3994.020          35.000    22193642.656 5  92241110.331 5      3106.457          33.000  
R08  19301346.219 8 103357442.444 8       699.711          50.000    19301346.883 7  80389128.602 7       544.220          47.000  
R09  20264823.672 7 108212601.821 7     -2532.512          43.000    20264825.125 5  84165393.986 5     -1969.729          33.000  
R07  20863256.273 8 111682255.899 8     -2748.441          51.000    20863257.984 7  86863973.420 7     -2137.677          46.000  
E30  24434413.203 8 128403666.394 8      2861.059          51.000    24434408.062 7  98387258.005 7      2192.262          46.000  
E03  25940629.086 6 136318914.405 6     -2169.379          37.000    25940634.617 6 104452226.892 6     -1662.181          40.000  
E08  21429673.906 8 112613685.791 8      -106.109          51.000    21429674.086 8  86288430.885 8       -81.308          51.000  
E25                                                                  26114117.914 5 105150742.414 5     -1642.722          33.000  
E02  23676906.047 8 124423046.448 8       533.188          51.000    23676906.305 8  95337127.302 8       408.544          51.000  
C25  23505962.867 6 122401738.939 6     -2313.797          39.000                                                                  
C23  21897232.000 8 114024716.887 8       556.992          51.000                                                                  
C05  39805792.539 6 207279207.384 6         2.070          37.000    39805790.789 6 160281419.466 6         1.489          41.000  
> 2020 05 15 03 00 30.0000000  0 17      -0.000000000000
G30  20507068.539 8 107765395.176 8      -856.625          51.000    20507070.219 8  83973061.873 8      -667.500          51.000  
G07  22304253.227 6 117209657.17326     -2356.195          36.000    22304254.094 5  91332190.75325     -1835.997          34.000  
G05  20616700.094 8 108341474.360 8      -639.000          51.000    20616698.031 8  84421936.656 8      -497.919          51.000  
G28  21938996.016 8 115290224.574 8      2446.902          48.000    21938994.492 7  89836549.686 7      1906.675          44.000  
R10  19170101.008 8 102187021.967 8       503.754          49.000                                                                  
R11  22171224.836 6 118475946.123 6      3987.258          39.000    22171224.547 6  92147934.867 6      3101.201          37.000  
R08  19297455.875 8 103336608.608 8       684.051          50.000    19297455.922 8  80372924.512 8       532.040          48.000  
R09  20279079.312 7 108288725.338 7     -2547.219          44.000    20279078.578 5  84224600.979 5     -1981.180          30.000  
R07  20878678.125 8 111764807.829 8     -2760.129          50.000    20878679.539 7  86928180.441 7     -2146.767          46.000  
E30  24418076.094 8 128317814.415 8      2857.438          51.000    24418072.016 8  98321475.351 8      2189.481          48.000  
E03  25953006.641 6 136383950.827 6     -2171.445          40.000    25953009.508 6 104502059.951 6     -1663.722          39.000  
E08  21430280.664 8 112616873.848 8      -111.418          51.000    21430280.609 8  86290873.683 8       -85.393          51.000  
E25                                                                  26126358.406 5 105200034.816 5     -1647.335          33.000  
E02  23673879.852 8 124407144.226 8       521.957          51.000    23673880.344 8  95324942.477 8       399.917          51.000  
C25  23519296.195 6 122471166.855 6     -2319.504          40.000                                                                  
C23  21894041.578 8 114008102.836 8       545.652          51.000                                                                  
C05  39805758.383 6 207279028.931 6         5.109          36.000    39805756.516 6 160281281.467 6         3.745          41.000  
> 2020 05 15 03 01  0.0000000  0 17      -0.000000000000
G30  20512019.531 8 107791412.369 8      -872.832          51.000    20512020.953 8  83993334.996 8      -680.129          51.000  
G07  22317744.742 5 117280553.334 5     -2365.523          35.000                                                                  
G05  20620426.289 8 108361055.948 8      -661.371          51.000    20620424.211 8  84437195.021 8      -515.354          51.000  
G28  21925087.648 8 115217132.096 8      2431.148          49.000    21925085.766 7  89779594.546 7      1894.402          45.000  
R10  19167359.078 8 102172406.100 8       475.848          48.000                                                                  
R11  22148893.469 7 118356604.724 7      3974.180          43.000    22148891.750 6  92055113.838 6      3091.032          40.000  
R08  19293698.922 8 103316489.474 8       662.430          50.000    19293699.023 8  80357276.292 8       515.223          48.000  
R09  20293462.625 6 108365530.658 6     -2567.781          40.000    20293463.609 5  84284338.428 5     -1997.161          33.000  
R07  20894210.945 8 111847956.175 8     -2777.816          49.000    20894212.648 7  86992851.391 7     -2160.524          47.000  
E30  24401805.289 8 128232312.037 8      2847.848          51.000    24401803.133 8  98255960.558 8      2182.109          50.000  
E03  25965442.008 6 136449293.444 6     -2179.695          39.000    25965442.336 6 104552127.653 6     -1670.121          38.000  
E08  21430963.039 8 112620459.208 8      -122.504          51.000    21430962.930 8  86293620.906 8       -93.870          51.000  
E25                                                                  26138680.305 5 105249651.316 5     -1656.616          32.000  
E02  23670963.656 8 124391818.556 8       504.859          51.000    23670964.094 8  95313199.429 8       386.802          51.000  
C25  23532705.906 6 122540994.340 6     -2330.926          39.000                                                                  
C23  21890962.570 8 113992069.462 8       528.355          51.000                                                                  
C05  39805752.031 6 207278995.905 6         2.887          36.000    39805750.109 6 160281255.943 6         1.812          41.000  
> 2020 05 15 03 01 30.0000000  0 17      -0.000000000000
G30  20517038.602 8 107817787.343 8      -885.145          51.000    20517039.859 8  84013886.922 8      -689.723          51.000  
G07  22331267.430 5 117351608.354 5     -2370.930          35.000    22331269.633 5  91442774.999 5     -1847.478          32.000  
G05  20624255.688 8 108381180.063 8      -679.898          51.000    20624254.039 8  84452876.123 8      -529.791          51.000  
G28  21911246.117 8 115144390.481 8      2418.805          51.000    21911243.773 7  89722912.790 7      1884.786          45.000  
R10  19164750.031 8 102158498.948 8       451.734          48.000                                                                  
R11  22126611.602 7 118237527.298 7      3964.770          43.000    22126608.312 6  91962498.117 6      3083.710          41.000  
R08  19290039.414 8 103296892.181 8       644.527          51.000    19290039.297 8  80342033.961 8       501.299          48.000  
R09  20307935.656 6 108442819.532 6     -2584.223          40.000    20307937.125 4  84344452.005 4     -2009.957          28.000  
R07  20909818.398 8 111931505.110 8     -2791.680          48.000    20909820.648 8  87057833.913 8     -2171.307          48.000  
E30  24385564.555 8 128146969.494 8      2842.004          51.000    24385564.805 8  98190568.207 8      2177.671          51.000  
E03  25977899.117 6 136514750.710 6     -2183.805          40.000    25977897.117 6 104602283.242 6     -1673.144          39.000  
E08  21431684.664 8 112624251.199 8      -129.840          51.000    21431684.734 8  86296526.457 8       -99.464          51.000  
E25                                                                  26151046.367 5 105299427.014 5     -1662.061          31.000  
E02  23668120.820 8 124376878.159 8       491.562          51.000    23668121.367 8  95301751.593 8       376.694          51.000  
C25  23546155.414 6 122611030.059 6     -2337.859          38.000                                                                  
C23  21887958.289 8 113976426.927 8       514.938          51.000                                                                  
C05  39805737.195 6 207278918.777 6         2.996          36.000    39805735.305 6 160281196.282 6         2.332          41.000  
> 2020 05 15 03 02  0.0000000  0 15      -0.000000000000
G30  20522134.766 8 107844567.335 8      -904.801          51.000    20522136.008 8  84034754.452 8      -705.040          51.000  
G05  20628197.617 8 108401895.243 8      -705.750          51.000    20628196.117 8  84469017.808 8      -549.935          51.000  
G28  21897481.055 8 115072050.505 8      2399.242          51.000    21897478.266 7  89666543.990 7      1869.543          46.000  
R10  19162283.109 8 102145349.661 8       420.195          48.000                                                                  
R11  22104388.414 7 118118765.886 7      3948.062          42.000    22104384.258 7  91870128.180 7      3070.719          42.000  
R08  19286486.828 8 103277868.046 8       619.109          50.000    19286486.695 8  80327237.409 8       481.530          48.000  
R09  20322508.430 6 108520638.048 6     -2608.066          39.000    20322508.695 5  84404977.404 5     -2028.496          33.000  
R07  20925509.484 8 112015502.794 8     -2812.812          49.000    20925512.258 7  87123165.429 7     -2187.743          46.000  
E30  24369363.953 8 128061836.777 8      2828.922          51.000    24369366.297 8  98125336.624 8      2167.575          51.000  
E03  25990387.430 6 136580370.920 6     -2195.516          41.000    25990384.844 6 104652563.712 6     -1682.180          40.000  
E08  21432454.898 8 112628298.926 8      -144.566          51.000    21432455.062 8  86299627.952 8      -110.781          51.000  
E02  23665360.477 8 124362371.554 8       471.035          51.000    23665361.195 8  95290636.160 8       360.911          51.000  
C25  23559653.867 6 122681320.339 6     -2352.598          38.000                                                                  
C23  21885038.352 8 113961223.099 8       494.172          51.000                                                                  
C05  39805723.195 6 207278845.560 6        -2.793          36.000    39805721.234 6 160281139.666 6        -2.244          41.000  
> 2020 05 15 03 02 30.0000000  0 15      -0.000000000000
G30  20527316.219 8 107871794.636 8      -911.027          51.000    20527317.109 8  84055970.533 8      -709.892          51.000  
G05  20632260.141 8 108423244.618 8      -718.137          51.000    20632258.797 8  84485653.674 8      -559.587          51.000  
G28  21883800.883 8 115000158.073 8      2392.906          51.000    21883797.922 7  89610523.943 7      1864.606          47.000  
R10  19159966.430 8 102133001.503 8       402.324          48.000                                                                  
R11  22082232.719 6 118000367.926 6      3944.258          41.000    22082227.891 6  91778040.908 6      3067.760          41.000  
R08  19283049.758 8 103259463.443 8       607.238          50.000    19283049.789 8  80312922.731 8       472.297          49.000  
R09  20337188.352 5 108599041.745 5     -2618.145          33.000    20337189.008 5  84465936.44525     -2036.335          34.000  
R07  20941293.484 8 112099992.541 8     -2820.379          51.000    20941295.562 7  87188879.711 7     -2193.628          46.000  
E30  24353212.469 8 127976958.874 8      2829.055          51.000    24353215.867 8  98060300.283 8      2167.760          51.000  
E03  26002914.203 6 136646197.435 6     -2193.332          38.000    26002912.836 6 104703002.190 6     -1680.657          41.000  
E08  21433282.164 8 112632646.518 8      -145.758          51.000    21433282.297 8  86302959.223 8      -111.706          51.000  
E02  23662690.867 8 124348342.254 8       463.820          51.000    23662691.711 8  95279886.454 8       355.404          51.000  
C25  23573209.188 6 122751906.475 6     -2354.090          36.000                                                                  
C23  21882211.117 8 113946500.780 8       486.793          51.000                                                                  
C05  39805718.172 6 207278819.504 6         3.762          37.000    39805716.281 6 160281119.505 6         3.063          41.000  
> 2020 05 15 03 03  0.0000000  0 15      -0.000000000000
G30  20532562.234 8 107899361.664 8      -925.113          51.000    20532562.820 8  84077451.354 8      -720.865          51.000  
G05  20636422.953 8 108445121.497 8      -738.527          51.000    20636421.898 8  84502700.563 8      -575.476          51.000  
G28  21870185.984 8 114928609.413 8      2378.621          51.000    21870182.477 7  89554771.746 7      1853.472          46.000  
R10  19157779.961 8 102121346.329 8       376.359          49.000                                                                  
R11  22060124.312 6 117882227.807 6      3933.008          39.000    22060119.359 6  91686154.192 6      3059.010          39.000  
R08  19279708.203 8 103241571.970 8       587.254          50.000    19279708.867 8  80299007.137 8       456.753          48.000  
R09  20351955.023 6 108677889.284 6     -2636.391          39.000    20351949.859 5  84527262.343 5     -2050.530          33.000  
R07  20957148.938 8 112184864.685 8     -2835.996          50.000    20957150.312 7  87254891.344 7     -2205.778          45.000  
E30  24337089.945 8 127892231.070 8      2821.094          51.000    24337093.484 8  97995378.978 8      2161.625          51.000  
E03  26015458.391 6 136712123.841 6     -2199.625          37.000    26015459.477 6 104753517.165 6     -1685.676          39.000  
E08  21434146.383 8 112637188.316 8      -155.254          51.000    21434146.547 8  86306439.298 8      -118.976          51.000  
E02  23660091.859 8 124334684.027 8       448.426          51.000    23660092.859 8  95269421.079 8       343.635          51.000  
C25  23586801.266 5 122822681.094 5     -2363.098          34.000                                                                  
C23  21879455.828 8 113932154.400 8       471.383          51.000                                                                  
C05  39805701.969 6 207278735.224 6         3.082          37.000    39805700.094 6 160281054.337 6         2.392          41.000  
> 2020 05 15 03 03 30.0000000  0 15      -0.000000000000
G30  20537883.906 8 107927326.885 8      -938.883          51.000    20537884.398 8  84099242.449 8      -731.597          51.000  
G05  20640697.539 8 108467584.839 8      -758.668          51.000    20640696.594 8  84520204.468 8      -591.170          51.000  
G28  21856648.258 8 114857466.692 8      2364.449          51.000    21856643.891 7  89499335.862 7      1842.428          45.000  
R10  19155734.516 8 102110444.196 8       350.684          48.000                                                                  
R11  22038076.570 6 117764409.153 6      3921.520          36.000    22038071.375 6  91594517.477 6      3050.071          37.000  
R08  19276474.422 8 103224256.497 8       567.445          49.000    19276475.461 8  80285539.548 8       441.346          49.000  
R09  20366818.023 6 108757252.838 6     -2654.133          36.000    20366815.875 5  84588989.505 5     -2064.323          35.000  
R07  20973087.062 8 112270179.248 8     -2851.297          51.000    20973086.922 7  87321247.050 7     -2217.679          42.000  
E30  24321007.656 8 127807714.524 8      2813.562          51.000    24321010.672 8  97930619.545 8      2155.863          51.000  
E03  26028033.758 6 136778209.499 6     -2205.719          36.000    26028036.094 6 104804154.205 6     -1690.079          37.000  
E08  21435059.078 8 112641984.601 8      -164.242          51.000    21435059.398 8  86310114.365 8      -125.851          51.000  
E02  23657574.859 8 124321456.546 8       433.629          51.000    23657575.875 8  95259285.760 8       332.267          51.000  
C25  23600440.758 6 122893701.804 6     -2371.246          37.000                                                                  
C23  21876784.500 8 113918242.899 8       456.340          51.000                                                                  
C05  39805686.000 6 207278652.050 6         2.344          37.000    39805684.141 6 160280989.990 6         2.090          41.000  
> 2020 05 15 03 04  0.0000000  0 15      -0.000000000000
G30  20543282.125 8 107955694.018 8      -951.887          51.000    20543282.570 8  84121346.688 8      -741.730          51.000  
G05  20645084.531 8 108490639.162 8      -777.945          51.000    20645083.867 8  84538168.876 8      -606.191          51.000  
G28  21843188.703 8 114786737.188 8      2351.105          51.000    21843183.727 7  89444221.959 7      1832.034          44.000  
R10  19153831.273 8 102100299.521 8       325.824          48.000                                                                  
R11  22016091.891 5 117646919.798 5      3910.945          34.000    22016085.203 6  91503136.900 6      3041.850          36.000  
R08  19273349.539 8 103207524.238 8       548.367          49.000    19273351.273 8  80272525.563 8       426.508          49.000  
R09  20381776.391 6 108837133.676 6     -2670.930          37.000    20381778.906 6  84651119.086 6     -2077.390          36.000  
R07  20989107.898 8 112355939.250 8     -2865.738          50.000    20989105.742 6  87387949.205 6     -2228.911          40.000  
E30  24304966.617 8 127723415.721 8      2806.613          51.000    24304968.773 8  97866026.960 8      2150.529          51.000  
E03  26040640.367 5 136844487.351 5     -2210.949          33.000    26040643.953 5 104854917.027 5     -1693.839          32.000  
E08  21436021.320 8 112647040.977 8      -172.508          51.000    21436021.734 8  86313988.729 8      -132.208          51.000  
E02  23655140.641 8 124308664.784 8       419.477          51.000    23655141.602 8  95249484.292 8       321.411          51.000  
C25  23614127.469 6 122964971.845 6     -2379.121          36.000                                                                  
C23  21874197.742 8 113904770.892 8       442.086          51.000                                                                  
C05  39805671.109 6 207278574.704 6         3.016          37.000    39805669.352 6 160280930.226 6         2.033          41.000  
> 2020 05 15 03 04 30.0000000  0 15      -0.000000000000
G30  20548755.352 8 107984456.154 8      -967.785          51.000    20548755.898 8  84143758.742 8      -754.119          51.000  
G05  20649583.055 8 108514279.032 8      -800.266          50.000    20649582.500 8  84556589.549 8      -623.584          50.000  
G28  21829806.703 8 114716417.822 8      2334.605          51.000    21829802.086 7  89389427.639 7      1819.174          44.000  
R10  19152068.789 8 102090905.917 8       298.039          48.000                                                                  
R08  19270332.719 8 103191371.214 8       526.223          48.000    19270334.859 8  80259962.095 8       409.284          48.000  
R09  20396831.250 5 108917522.774 5     -2690.363          33.000    20396833.297 5  84713643.932 5     -2092.505          35.000  
R07  21005210.242 8 112442138.380 8     -2883.230          49.000    21005207.820 7  87454992.917 7     -2242.513          42.000  
E30  24288965.992 8 127639330.607 8      2796.715          51.000    24288967.359 8  97801598.116 8      2142.966          51.000  
E03  26053279.586 5 136910902.421 5     -2218.555          34.000    26053282.766 5 104905768.260 5     -1700.247          31.000  
E08  21437032.000 8 112652352.468 8      -183.863          51.000    21437032.812 8  86318058.571 8      -140.873          51.000  
E25  26226341.078 5 137820350.324 5     -2226.387          33.000    26226341.477 5 105602608.408 5     -1706.433          32.000  
E02  23652788.008 8 124296303.096 8       402.359          51.000    23652789.172 8  95240012.374 8       308.287          51.000  
C25  23627860.445 6 123036483.793 6     -2390.453          36.000                                                                  
C23  21871694.273 8 113891732.512 8       424.941          51.000                                                                  
C05  39805656.383 6 207278497.813 6        -0.164          37.000    39805654.633 6 160280870.745 6        -0.051          41.000  
> 2020 05 15 03 05  0.0000000  0 15      -0.000000000000
G30  20554306.102 8 108013626.288 8      -978.059          51.000    20554306.695 8  84166488.713 8      -762.124          51.000  
G05  20654195.523 8 108538517.621 8      -816.809          50.000    20654194.883 8  84575476.760 8      -636.474          50.000  
G28  21816505.531 8 114646525.349 8      2323.707          50.000    21816501.867 7  89334965.971 7      1810.678          44.000  
R10  19150450.250 8 102082277.386 8       275.941          48.000                                                                  
R08  19267427.250 7 103175814.066 7       509.672          47.000    19267429.625 8  80247862.098 8       396.412          48.000  
R09  20411981.391 5 108998431.163 5     -2704.246          35.000    20411983.242 5  84776572.713 5     -2103.306          35.000  
R07  21021396.055 7 112528789.665 7     -2894.750          45.000    21021396.070 7  87522388.355 7     -2251.473          45.000  
E30  24273008.750 8 127555474.905 8      2792.426          51.000    24273009.602 8  97737345.059 8      2139.616          51.000  
E03  26065951.250 5 136977489.920 5     -2221.027          35.000    26065955.984 5 104956792.449 5     -1701.498          31.000  
E08  21438093.922 8 112657933.939 8      -189.516          51.000    21438095.414 8  86322335.267 8      -145.207          51.000  
E25                                                                  26239066.977 5 105653849.186 5     -1710.908          34.000  
E02  23650519.875 8 124284385.707 8       390.895          51.000    23650521.094 8  95230880.884 8       299.523          51.000  
C25  23641642.492 5 123108249.813 5     -2395.418          31.000                                                                  
C23  21869276.875 8 113879141.614 8       413.344          51.000                                                                  
C05  39805644.508 6 207278436.589 6         2.668          36.000    39805642.711 6 160280822.617 6         2.199          41.000  
> 2020 05 15 03 05 30.0000000  0 14      -0.000000000000
G30  20559888.789 8 108042963.206 8      -991.141          51.000    20559889.188 8  84189348.627 8      -772.321          51.000  
G05  20658876.062 8 108563114.525 8      -836.262          49.000    20658875.320 8  84594643.153 8      -651.633          49.000  
G28  21803240.922 8 114576822.210 8      2309.848          50.000    21803238.430 7  89280651.862 7      1799.882          45.000  
R10  19148929.602 8 102074170.089 8       251.020          49.000                                                                  
R08  19264587.750 7 103160609.891 7       490.172          47.000    19264590.164 8  80236036.631 8       381.245          48.000  
R09  20427183.164 5 109079616.530 5     -2721.234          34.000    20427185.328 5  84839716.022 5     -2116.510          34.000  
R07  21037618.391 7 112615647.278 7     -2909.328          43.000    21037622.977 7  87589944.344 7     -2262.808          47.000  
E30  24257049.469 8 127471610.169 8      2785.109          51.000    24257050.078 8  97673085.071 8      2134.085          51.000  
E03  26078608.602 5 137044012.644 5     -2226.258          33.000                                                                  
E08  21439161.742 8 112663546.040 8      -198.113          51.000    21439163.664 8  86326635.436 8      -151.768          51.000  
E25                                                                  26251799.578 6 105705117.469 6     -1717.355          36.000  
E02  23648290.688 8 124272672.630 8       376.555          51.000    23648291.852 8  95221905.933 8       288.481          51.000  
C23  21866899.734 8 113866760.094 8       398.863          51.000                                                                  
C05  39805589.656 6 207278150.25626         2.855          37.000    39805587.938 6 160280601.985 6         2.205          41.000  
> 2020 05 15 03 06  0.0000000  0 15      -0.000000000000
G30  20565592.836 8 108072937.649 8     -1004.926          51.000    20565593.156 8  84212705.342 8      -783.059          51.000  
G05  20663714.820 8 108588541.476 8      -856.500          50.000    20663713.812 8  84614456.357 8      -667.403          50.000  
G28  21790103.016 8 114507782.783 8      2295.121          50.000    21790101.508 7  89226854.938 7      1788.410          46.000  
R10  19147596.352 8 102067062.088 8       225.215          50.000                                                                  
R11  21928713.680 5 117180029.022 5      3866.164          32.000    21928708.289 4  91139995.185 4      3007.023          26.000  
R08  19261904.312 7 103146241.999 7       470.023          46.000    19261906.828 8  80224861.612 8       365.574          48.000  
R09  20442526.641 6 109161565.003 6     -2738.160          36.000    20442523.219 5  84903433.172 5     -2129.684          33.000  
R07  21053971.789 8 112703190.833 8     -2924.602          49.000    21053977.703 8  87658033.834 8     -2274.691          48.000  
E30  24241178.500 8 127388209.959 8      2777.180          51.000    24241178.930 8  97609181.020 8      2127.967          51.000  
E03  26091341.953 5 137110929.427 5     -2232.160          33.000    26091347.617 5 105059041.942 5     -1710.435          32.000  
E08  21440325.562 8 112669661.446 8      -207.355          51.000    21440327.469 8  86331321.263 8      -158.844          51.000  
E25                                                                  26264628.062 5 105756773.745 5     -1724.473          35.000  
E02  23646190.133 8 124261635.840 8       361.488          51.000    23646191.562 8  95213449.177 8       277.024          51.000  
C23  21864652.430 8 113855055.411 8       383.770          51.000                                                                  
C05  39805581.812 6 207278109.666 6         2.129          37.000    39805580.109 6 160280570.590 6         1.580          41.000  
> 2020 05 15 03 06 30.0000000  0 16      -0.000000000000
G30  20571380.109 8 108103349.889 8     -1022.996          51.000    20571380.570 8  84236403.201 8      -797.140          51.000  
G05  20668673.602 8 108614599.475 8      -880.988          50.000    20668672.500 8  84634761.300 8      -686.485          50.000  
G28  21777054.273 8 114439210.762 8      2276.070          51.000    21777053.484 7  89173422.234 7      1773.562          46.000  
R10  19146412.414 8 102060750.629 8       195.266          49.000                                                                  
R11  21907054.891 6 117064284.729 6      3849.785          37.000                                                                  
R08  19259340.062 7 103132509.542 7       445.402          46.000    19259342.336 7  80214180.822 7       346.424          47.000  
R09  20457971.445 5 109244036.296 5     -2760.094          33.000    20457969.438 5  84967577.503 5     -2146.737          33.000  
R07  21070416.852 8 112791217.028 8     -2944.035          49.000    21070422.312 8  87726498.636 8     -2289.806          48.000  
E30  24225358.375 8 127305077.266 8      2764.957          51.000    24225358.836 8  97545481.969 8      2118.614          51.000  
E03                                                                  26104117.852 5 105110473.312 5     -1718.451          35.000  
E08  21441547.500 8 112676082.304 8      -220.684          51.000    21441549.227 8  86336241.147 8      -169.074          51.000  
E25                                                                  26277514.672 5 105808664.689 5     -1734.796          34.000  
E02  23644180.609 8 124251076.798 8       342.402          51.000    23644182.156 8  95205358.487 8       262.414          51.000  
C25  23683237.844 5 123324843.742 5     -2424.906          34.000                                                                  
C23  21862496.852 8 113843830.570 8       364.348          51.000                                                                  
C05  39805583.320 6 207278117.080 6        -2.941          36.000    39805581.523 6 160280576.299 6        -2.057          41.000  
> 2020 05 15 03 07  0.0000000  0 16      -0.000000000000
G30  20577233.578 8 108134109.913 8     -1028.863          51.000    20577234.000 8  84260372.047 8      -801.712          51.000  
G05  20673735.258 8 108641199.026 8      -893.402          50.000    20673734.344 8  84655488.206 8      -696.158          50.000  
G28  21764078.000 8 114371019.849 8      2268.969          50.000    21764077.438 7  89120286.444 7      1768.028          45.000  
R10  19145360.906 8 102055145.529 8       177.453          50.000                                                                  
R11  21885452.320 6 116948839.602 6      3845.281          39.000                                                                  
R08  19256877.289 7 103119324.292 7       432.699          44.000    19256879.836 7  80203925.640 7       336.544          46.000  
R09  20473499.180 6 109326956.733 6     -2769.293          38.000    20473502.797 5  85032071.227 5     -2153.895          33.000  
R07  21086935.273 8 112879633.953 8     -2951.359          51.000    21086939.617 7  87795267.321 7     -2295.502          47.000  
E30  24209572.758 8 127222124.861 8      2764.348          51.000    24209573.086 8  97481921.072 8      2118.123          50.000  
E03  26116912.828 5 137245302.541 5     -2240.871          34.000    26116913.195 6 105161993.876 6     -1717.047          39.000  
E08  21442810.633 8 112682720.497 8      -222.676          51.000    21442812.336 8  86341327.564 8      -170.661          51.000  
E25                                                                  26290442.461 4 105860717.037 4     -1736.224          29.000  
E02  23642245.336 8 124240906.721 8       334.859          50.000    23642246.773 8  95197565.831 8       256.503          51.000  
C25  23697203.852 6 123397579.669 6     -2425.215          37.000                                                                  
C23  21860416.164 8 113832997.280 8       356.852          51.000                                                                  
C05  39805577.109 6 207278085.720 6         4.039          37.000    39805575.250 6 160280551.298 6         2.993          41.000  
> 2020 05 15 03 07 30.0000000  0 16      -0.000000000000
G30  20583141.133 8 108165154.384 8     -1033.922          51.000    20583141.125 8  84284562.538 8      -805.654          51.000  
G13  21325356.344 5 112065514.076 5      2042.070          32.000                                                                  
G05  20678887.969 8 108668277.312 8      -905.012          50.000    20678887.156 8  84676588.170 8      -705.204          50.000  
G28  21751162.508 8 114303150.611 8      2262.480          49.000    21751162.000 7  89067401.310 7      1762.972          43.000  
R10  19144429.891 8 102050183.163 8       160.523          50.000                                                                  
R11  21863892.797 6 116833633.230 6      3841.863          41.000    21863910.633 4  90870597.21024      2988.123          28.000  
R08  19254505.883 7 103106625.153 7       421.000          46.000    19254508.047 7  80194048.536 7       327.445          46.000  
R09  20489101.070 6 109410260.066 6     -2777.680          39.000    20489100.938 5  85096862.606 5     -2160.421          30.000  
R07  21103514.734 8 112968377.266 8     -2957.844          51.000    21103517.188 7  87864289.890 7     -2300.546          46.000  
E30  24193809.898 8 127139292.190 8      2764.598          49.000    24193809.945 8  97418451.906 8      2118.431          50.000  
E03  26129718.586 5 137312595.439 5     -2237.934          34.000    26129719.383 6 105213555.957 6     -1715.176          38.000  
E08  21444103.359 8 112689514.585 8      -223.469          51.000    21444105.133 8  86346533.420 8      -171.235          51.000  
E02  23640371.906 8 124231063.460 8       328.297          49.000    23640373.719 8  95190023.584 8       251.534          51.000  
C25  23711195.461 5 123470444.854 5     -2425.188          35.000                                                                  
C23  21858398.820 8 113822493.723 8       350.184          51.000                                                                  
C05  39805551.516 6 207277952.113 6        11.969          37.000    39805549.562 6 160280448.001 6         9.044          41.000  
> 2020 05 15 03 08  0.0000000  0 15      -0.000000000000
G30  20589138.234 8 108196669.751 8     -1055.227          51.000    20589138.086 8  84309119.975 8      -822.255          51.000  
G13  21313782.289 5 112004681.25725      2026.180          33.000                                                                  
G05  20684167.625 8 108696022.106 8      -932.871          51.000    20684166.750 8  84698207.495 8      -726.913          51.000  
G28  21738344.367 8 114235792.942 8      2239.672          48.000    21738342.773 6  89014914.804 6      1745.199          40.000  
R10  19143655.055 8 102046052.854 8       126.922          49.000                                                                  
R11  21842414.758 7 116718859.374 7      3821.543          43.000    21842432.641 5  90781351.152 5      2972.312          32.000  
R08  19252261.156 7 103094604.852 7       392.531          45.000    19252263.117 7  80184699.445 7       305.302          46.000  
R07  21120189.711 8 113057636.611 8     -2980.797          50.000    21120190.906 7  87933713.796 7     -2318.401          45.000  
E30  24178105.633 7 127056768.437 7      2748.668          47.000    24178105.656 8  97355219.465 8      2106.129          50.000  
E03                                                                  26142570.531 5 105265303.403 5     -1725.634          34.000  
E08  21445461.703 8 112696652.932 8      -240.578          51.000    21445463.375 8  86352003.065 8      -184.348          51.000  
E02  23638596.414 8 124221734.663 8       305.523          49.000    23638598.562 8  95182875.533 8       234.070          51.000  
C25  23725247.070 5 123543623.575 5     -2441.246          33.000                                                                  
C23  21856480.445 8 113812505.540 8       327.375          51.000                                                                  
C05  39805542.156 6 207277903.402 6         3.324          36.000    39805540.203 6 160280410.297 6         2.640          41.000  
> 2020 05 15 03 08 30.0000000  0 15      -0.000000000000
G30  20595197.789 8 108228512.928 8     -1067.664          51.000    20595197.844 8  84333932.860 8      -831.946          51.000  
G05  20689547.062 8 108724290.599 8      -951.848          51.000    20689546.078 8  84720234.879 8      -741.700          51.000  
G28  21725597.461 8 114168807.292 8      2225.805          49.000    21725593.930 6  88962718.228 6      1734.397          39.000  
R10  19143009.156 8 102042610.271 8       102.539          49.000                                                                  
R11  21820991.875 7 116604376.215 7      3810.426          46.000    21821003.336 5  90692308.631 5      2963.665          34.000  
R08  19250116.711 7 103083121.086 7       373.027          46.000    19250118.500 7  80175767.613 7       290.132          46.000  
R09  20520590.992 6 109578401.108 6     -2817.906          38.000    20520597.719 5  85227674.024 5     -2191.708          31.000  
R07  21136933.695 8 113147266.445 8     -2994.543          51.000    21136933.453 7  88003425.844 7     -2329.089          43.000  
E30  24162432.898 7 126974413.363 7      2741.641          45.000    24162433.742 8  97292116.231 8      2100.763          50.000  
E03                                                                  26155439.500 5 105317116.318 5     -1729.418          35.000  
E08  21446858.852 8 112703994.345 8      -248.754          51.000    21446860.305 8  86357628.307 8      -190.655          51.000  
E02  23636892.180 8 124212778.407 8       291.672          50.000    23636894.250 8  95176012.910 8       223.465          51.000  
C25  23739331.852 5 123616930.56425     -2449.281          30.000                                                                  
C23  21854634.016 8 113802891.861 8       313.445          51.000                                                                  
C05  39805522.102 6 207277799.091 6         3.520          37.000    39805520.133 6 160280329.624 6         2.900          40.000  
> 2020 05 15 03 09  0.0000000  0 15      -0.000000000000
G30  20601309.297 8 108260629.847 8     -1071.148          51.000    20601309.617 8  84358959.039 8      -834.658          51.000  
G13  21290724.945 5 111883524.02825      2018.059          31.000                                                                  
G05  20695016.117 8 108753029.303 8      -961.836          51.000    20695014.688 8  84742628.682 8      -749.483          51.000  
G28  21712912.180 8 114102143.390 8      2220.766          50.000    21712906.891 6  88910772.332 6      1730.467          41.000  
R10  19142481.797 8 102039800.354 8        87.164          48.000                                                                  
R11  21799614.344 7 116490133.185 7      3808.148          46.000    21799619.938 5  90603452.911 5      2961.894          35.000  
R08  19248062.883 7 103072121.228 7       362.602          47.000    19248064.109 7  80167212.159 7       282.023          45.000  
R09  20536447.992 6 109663061.322 6     -2824.094          37.000    20536444.047 4  85293520.713 4     -2196.521          29.000  
R07  21153736.617 8 113237211.352 8     -2999.344          50.000    21153735.469 7  88073382.962 7     -2332.823          44.000  
E30  24146782.336 7 126892175.663 7      2743.387          45.000    24146784.352 8  97229102.905 8      2102.038          49.000  
E03                                                                  26168318.055 6 105368975.970 6     -1726.107          38.000  
E08  21448284.906 8 112711486.661 8      -248.281          51.000    21448285.898 8  86363369.165 8      -190.221          51.000  
E02  23635248.828 8 124204141.779 8       286.574          50.000    23635250.867 8  95169395.224 8       219.574          51.000  
C23  21852849.352 8 113793600.025 8       308.293          51.000                                                                  
C05  39805481.375 6 207277586.929 6        12.500          37.000    39805479.430 6 160280165.568 6         9.877          41.000  
> 2020 05 15 03 09 30.0000000  0 15      -0.000000000000
G30  20607526.422 8 108293302.260 8     -1089.891          51.000    20607526.945 8  84384418.076 8      -849.266          51.000  
G05  20700628.250 8 108782520.606 8      -987.215          51.000    20700626.625 8  84765608.898 8      -769.262          51.000  
G28  21700342.547 8 114036086.337 8      2200.160          51.000    21700337.570 7  88859299.314 7      1714.414          44.000  
R10  19142126.945 7 102037909.936 7        56.285          47.000                                                                  
R11  21778335.875 7 116376421.037 7      3790.285          46.000    21778337.781 6  90515010.141 6      2948.000          37.000  
R08  19246153.977 8 103061896.028 8       336.512          48.000    19246154.562 7  80159259.222 7       261.731          45.000  
R09  20552419.547 5 109748396.642 5     -2846.055          32.000    20552421.836 5  85359858.487 5     -2213.599          31.000  
R07  21170651.781 8 113327758.559 8     -3019.691          50.000    21170650.938 7  88143808.521 7     -2348.652          46.000  
E30  24131209.320 7 126810339.866 7      2729.500          47.000    24131211.672 8  97166397.548 8      2091.490          50.000  
E03  26181261.469 6 137583460.184 6     -2263.781          37.000    26181259.703 6 105421088.210 6     -1735.003          37.000  
E08  21449793.625 8 112719413.574 8      -263.043          51.000    21449794.102 8  86369443.035 8      -201.567          51.000  
E02  23633720.000 8 124196107.726 8       266.160          51.000    23633722.078 8  95163239.271 8       203.977          51.000  
C25  23767633.633 4 123764278.541 4     -2460.430          29.000                                                                  
C23  21851180.125 8 113784910.167 8       287.906          51.000                                                                  
C05  39805473.875 6 207277547.495 6         6.465          37.000    39805471.852 6 160280135.062 6         5.401          41.000  
> 2020 05 15 03 10  0.0000000  0 15      -0.000000000000
G30  20613800.219 8 108326271.816 8     -1106.152          51.000    20613800.789 8  84410108.635 8      -861.937          51.000  
G05  20706334.547 8 108812506.687 8     -1009.992          51.000    20706332.828 8  84788974.654 8      -787.010          51.000  
G28  21687839.789 8 113970381.361 8      2182.184          51.000    21687835.953 7  88808100.635 7      1700.403          46.000  
R10  19141895.164 7 102036676.842 7        27.914          47.000                                                                  
R11  21757108.203 7 116262980.931 7      3774.496          44.000    21757107.203 6  90426779.003 6      2935.723          38.000  
R08  19244340.727 8 103052185.132 8       312.867          48.000    19244341.109 7  80151706.289 7       243.341          45.000  
R09  20568470.781 6 109834090.666 6     -2864.773          38.000    20568474.781 5  85426509.328 5     -2228.157          33.000  
R07  21187630.258 8 113418644.332 8     -3037.336          51.000    21187630.242 8  88214497.458 8     -2362.373          48.000  
E30  24115665.016 8 126728650.270 8      2718.383          49.000    24115667.086 8  97103804.233 8      2082.948          50.000  
E03  26194215.742 6 137651543.389 6     -2272.645          37.000    26194214.688 5 105473255.840 5     -1741.510          32.000  
E08  21451336.133 8 112727518.578 8      -275.312          51.000    21451336.078 8  86375653.365 8      -210.942          51.000  
E02  23632257.258 8 124188419.019 8       248.395          51.000    23632258.953 8  95157347.922 8       190.358          51.000  
C25  23781843.227 5 123838281.106 5     -2471.789          34.000                                                                  
C23  21849577.492 8 113776567.074 8       270.258          51.000                                                                  
C05  39805450.516 6 207277426.063 6         3.543          37.000    39805448.516 6 160280041.172 6         2.586          40.000  
> 2020 05 15 03 10 30.0000000  0 15      -0.000000000000
G30  20620151.039 8 108359645.851 8     -1119.074          51.000    20620151.734 8  84436114.383 8      -872.006          51.000  
G05  20712155.508 8 108843095.456 8     -1029.594          51.000    20712153.695 8  84812810.070 8      -802.281          51.000  
G28  21675425.156 8 113905139.485 8      2167.125          51.000    21675422.352 7  88757262.828 7      1688.669          46.000  
R10  19141807.320 7 102036210.527 7         2.996          46.000                                                                  
R11  21735953.211 6 116149926.078 6      3762.113          40.000    21735948.227 6  90338847.530 6      2926.092          39.000  
R08  19242644.859 8 103043101.136 8       292.480          50.000    19242644.914 7  80144640.935 7       227.485          45.000  
R09  20584613.758 6 109920276.028 6     -2881.059          36.000    20584615.594 5  85493542.345 5     -2240.824          32.000  
R07  21204692.031 8 113509978.389 8     -3051.762          48.000    21204693.289 8  88285535.076 8     -2373.593          48.000  
E30  24100169.883 8 126647217.068 8      2710.156          50.000    24100171.555 8  97041407.381 8      2076.615          50.000  
E03  26207202.477 6 137719807.465 6     -2278.504          36.000                                                                  
E08  21452933.273 8 112735910.960 8      -284.492          51.000    21452932.773 8  86382083.887 8      -218.006          51.000  
E02  23630881.000 8 124181184.146 8       233.676          51.000    23630882.039 8  95151804.324 8       179.035          51.000  
C25  23796097.359 5 123912528.982 5     -2478.879          33.000                                                                  
C23  21848062.242 8 113768678.059 8       255.461          51.000                                                                  
C05  39805432.117 6 207277330.458 6         2.742          36.000    39805430.227 6 160279967.227 6         2.151          41.000  
> 2020 05 15 03 11  0.0000000  0 14      -0.000000000000
G30  20626572.602 8 108393391.629 8     -1131.555          51.000    20626573.359 8  84462409.798 8      -881.731          51.000  
G07  22595080.742 5 118737950.05125     -2490.215          30.000                                                                  
G05  20718084.734 8 108874254.930 8     -1048.770          51.000    20718083.352 8  84837090.175 8      -817.223          51.000  
G28  21663092.953 8 113840332.143 8      2152.496          51.000    21663090.539 7  88706763.624 7      1677.270          45.000  
R10  19141857.430 7 102036478.065 7       -21.664          47.000                                                                  
R08  19241060.148 8 103034613.442 8       272.453          49.000    19241060.195 7  80138039.390 7       211.908          46.000  
R09  20600834.992 5 110006916.790 5     -2896.012          33.000    20600833.211 5  85560934.21025     -2252.457          31.000  
R07  21221830.750 8 113601727.012 8     -3065.832          48.000    21221833.188 7  88356895.130 7     -2384.533          47.000  
E30  24084717.953 8 126566010.284 8      2702.582          50.000    24084719.188 8  96979184.025 8      2070.727          51.000  
E03  26220218.219 5 137788175.638 5     -2283.301          32.000                                                                  
E08  21454579.141 8 112744559.891 8      -293.199          51.000    21454578.352 8  86388710.990 8      -224.674          51.000  
E02  23629584.883 8 124174371.519 8       219.488          51.000    23629585.625 8  95146584.271 8       168.146          51.000  
C23  21846628.336 8 113761211.491 8       241.312          51.000                                                                  
C05  39805412.703 6 207277229.499 6         3.102          37.000    39805410.867 6 160279889.169 6         2.362          41.000  
> 2020 05 15 03 11 30.0000000  0 13      -0.000000000000
G30  20633067.062 8 108427520.218 8     -1143.035          51.000    20633067.500 8  84489003.512 8      -890.677          51.000  
G05  20724124.750 8 108905996.809 8     -1066.922          51.000    20724123.781 8  84861824.113 8      -831.368          51.000  
G28  21650845.805 8 113775973.243 8      2138.672          50.000    21650843.242 7  88656613.872 7      1666.498          44.000  
R10  19142047.586 7 102037490.818 7       -45.141          47.000                                                                  
R11  21693834.312 6 115924872.976 6      3738.949          41.000    21693838.547 7  90163798.939 7      2908.072          42.000  
R08  19239588.969 8 103026736.745 8       253.258          49.000    19239589.625 7  80131913.038 7       196.978          46.000  
R09  20617146.922 5 110094022.745 5     -2910.160          33.000    20617143.484 5  85628673.657 5     -2263.461          32.000  
R07  21239049.562 8 113693901.636 8     -3078.629          51.000    21239051.938 7  88428586.527 7     -2394.490          47.000  
E30  24069311.531 8 126485043.794 8      2695.816          50.000    24069312.422 8  96917144.765 8      2065.567          51.000  
E08  21456276.250 8 112753478.364 8      -300.902          51.000    21456275.117 8  86395544.621 8      -230.568          51.000  
E02  23628371.383 8 124167993.366 8       206.258          51.000    23628372.047 8  95141697.124 8       158.054          51.000  
C23  21845278.023 8 113754179.296 8       228.062          51.000                                                                  
C05  39805394.656 6 207277135.636 6         3.793          36.000    39805392.797 6 160279816.563 6         2.906          41.000  
> 2020 05 15 03 12  0.0000000  0 12      -0.000000000000
G30  20639626.023 8 108461987.813 8     -1155.109          51.000    20639626.367 8  84515861.390 8      -900.086          51.000  
G05  20730267.562 8 108938277.884 8     -1085.527          50.000    20730266.727 8  84886978.195 8      -845.866          50.000  
G28  21638675.984 8 113712022.459 8      2124.441          49.000    21638672.727 7  88606782.124 7      1655.412          42.000  
R10  19142369.352 8 102039204.536 8       -69.328          48.000                                                                  
R11  21672877.789 7 115812876.285 7      3727.285          46.000    21672881.406 7  90076690.421 7      2899.003          43.000  
R08  19238224.562 8 103019428.929 8       233.605          49.000    19238225.039 7  80126229.179 7       181.693          46.000  
R07  21256340.234 8 113786457.337 8     -3092.031          51.000    21256341.586 7  88500574.304 7     -2404.914          47.000  
E30  24053942.648 8 126404276.503 8      2688.422          50.000    24053943.391 8  96855258.143 8      2059.925          51.000  
E08  21458016.641 8 112762624.448 8      -309.113          51.000    21458015.164 8  86402552.667 8      -236.868          51.000  
E02  23627232.234 8 124162006.949 8       192.512          51.000    23627232.938 8  95137110.149 8       147.515          51.000  
C23  21844002.992 8 113747538.844 8       214.355          51.000                                                                  
C05  39805370.016 6 207277006.662 6         4.391          36.000    39805368.016 6 160279716.838 6         3.280          41.000  
> 2020 05 15 03 12 30.0000000  0 13      -0.000000000000
G30  20646247.766 8 108496785.434 8     -1165.441          51.000    20646248.320 8  84542976.427 8      -908.136          51.000  
G05  20736511.211 8 108971089.289 8     -1102.496          51.000    20736510.609 8  84912545.500 8      -859.088          51.000  
G28  21626582.062 7 113648474.521 7      2111.738          44.000    21626578.938 7  88557264.322 7      1645.514          42.000  
R10  19142820.641 7 102041610.557 7       -91.715          47.000                                                                  
R11  21651980.453 8 115701205.421 8      3716.996          48.000    21651984.016 7  89989835.335 7      2890.998          42.000  
R08  19236965.273 8 103012684.448 8       215.445          49.000    19236965.906 8  80120983.467 8       167.569          48.000  
R07  21273699.992 8 113879384.976 8     -3103.703          48.000    21273700.703 7  88572851.318 7     -2413.995          47.000  
E30  24038609.742 8 126323702.212 8      2682.738          49.000    24038610.969 8  96793519.377 8      2055.558          51.000  
E08  21459798.992 8 112771991.097 8      -315.805          51.000    21459797.359 8  86409729.716 8      -242.001          51.000  
E02  23626166.078 8 124156404.398 8       180.391          51.000    23626166.891 8  95132817.316 8       138.230          51.000  
C25  23853531.891 5 124211600.031 5     -2503.930          32.000                                                                  
C23  21842801.703 8 113741282.062 8       202.188          51.000                                                                  
C05  39805337.039 6 207276835.188 6         6.172          36.000    39805335.078 6 160279584.216 6         5.023          41.000  
> 2020 05 15 03 13  0.0000000  0 15      -0.000000000000
G30  20652939.523 8 108531951.277 8     -1178.516          51.000    20652940.188 8  84570378.401 8      -918.324          51.000  
G05  20742863.375 8 109004469.885 8     -1122.336          51.000    20742862.875 8  84938556.336 8      -874.548          51.000  
G28  21614571.812 6 113585371.234 6      2095.910          41.000    21614570.328 6  88508092.950 6      1633.180          40.000  
R10  19143409.273 8 102044747.788 8      -116.945          48.000                                                                  
R11  21631151.750 8 115589903.290 8      3703.656          49.000    21631154.641 6  89903267.025 6      2880.622          40.000  
R08  19235818.742 8 103006544.692 8       194.391          48.000    19235819.516 8  80116208.089 8       151.193          48.000  
R09  20666554.836 5 110357898.92225     -2953.531          32.000    20666560.305 5  85833923.83725     -2297.191          33.000  
R07  21291135.922 7 113972722.911 7     -3118.180          47.000    21291137.008 7  88645447.478 7     -2425.248          46.000  
E30  24023320.766 8 126243361.921 8      2673.867          49.000    24023322.938 8  96731959.910 8      2048.835          51.000  
E03                                                                  26272555.508 5 105788697.145 5     -1763.297          34.000  
E08  21461630.898 8 112781618.455 8      -325.496          51.000    21461629.328 8  86417106.517 8      -249.376          51.000  
E02  23625180.570 8 124151225.084 8       165.383          51.000    23625181.156 8  95128848.766 8       126.743          51.000  
C25  23867988.367 6 124286839.880 6     -2511.746          38.000                                                                  
C23  21841681.656 8 113735447.711 8       187.203          51.000                                                                  
C05  39805303.508 6 207276660.333 6         5.578          37.000    39805301.508 6 160279449.005 6         4.425          41.000  
> 2020 05 15 03 13 30.0000000  0 15      -0.000000000000
G30  20659703.773 8 108567498.041 8     -1190.031          51.000    20659704.359 8  84598077.176 8      -927.297          51.000  
G05  20749326.383 8 109038432.984 8     -1140.609          50.000    20749325.914 8  84965021.058 8      -888.787          50.000  
G28  21602650.664 7 113522728.589 7      2081.543          46.000    21602650.828 7  88459280.509 7      1621.982          45.000  
R10  19144137.461 8 102048628.961 8      -140.664          49.000                                                                  
R11  21610394.688 7 115478986.842 7      3691.934          47.000    21610397.781 6  89816998.703 6      2871.504          38.000  
R08  19234788.211 8 103001025.728 8       174.676          48.000    19234788.828 8  80111915.573 8       135.859          48.000  
R09  20683190.375 4 110446698.21324     -2967.047          29.000    20683193.508 5  85903012.454 5     -2307.707          32.000  
R07  21308649.219 7 114066484.325 7     -3131.066          42.000    21308652.383 7  88718373.111 7     -2435.271          44.000  
E30  24008079.258 8 126163271.014 8      2666.652          50.000    24008081.938 8  96670591.525 8      2043.280          51.000  
E03  26285710.961 5 138132342.590 5     -2305.070          35.000                                                                  
E08  21463515.102 8 112791521.059 8      -333.586          51.000    21463513.562 8  86424694.231 8      -255.593          51.000  
E02  23624278.102 8 124146482.735 8       151.961          51.000    23624278.414 8  95125215.033 8       116.435          51.000  
