     3.02           OBSERVATION DATA    M (MIXED)           RINEX VERSION / TYPE
SAVERINEX           SC600               20200511 025931 LCL PGM / RUN BY / DATE
       G = GPS       R = GLONASS       C = COMPASS          COMMENT
       S = SBAS      J = QZSS          E = GALILEO          COMMENT
BEAN                                                        MARKER NAME
1                                                           MARKER NUMBER
GEODETIC                                                    MARKER TYPE
Unige DICCA         GTER                                    OBSERVER / AGENCY
SC60291900056       SC600               2.12(191226)        REC # / TYPE / VERS
                    HEMA45          NONE                    ANT # / TYPE
  4509407.8091   693652.4678  4442337.6214                  APPROX POSITION XYZ
        0.0000        0.0000        0.0000                  ANTENNA: DELTA H/E/N
G    8 C1C L1C D1C S1C C2Y L2Y D2Y S2Y                      SYS / # / OBS TYPES
R    8 C1C L1C D1C S1C C2P L2P D2P S2P                      SYS / # / OBS TYPES
C    8 C1I L1I D1I S1I C7I L7I D7I S7I                      SYS / # / OBS TYPES
E    8 C1C L1C D1C S1C C7Q L7Q D7Q S7Q                      SYS / # / OBS TYPES
DBHZ                                                        COMMENT
     30.000                                                 INTERVAL
  2020    05    11    00    00    0.0000000     GPS         TIME OF FIRST OBS
  2020    05    11    00    59   30.0000000     GPS         TIME OF LAST OBS
     0                                                      RCV CLOCK OFFS APPL
G L1C  0.00000                                              SYS / PHASE SHIFT
G L2Y  0.00000                                              SYS / PHASE SHIFT
R L1C  0.00000                                              SYS / PHASE SHIFT
R L2P  0.25000                                              SYS / PHASE SHIFT
C L1I  0.00000                                              SYS / PHASE SHIFT
C L7I  0.00000                                              SYS / PHASE SHIFT
E L1C  0.50000                                              SYS / PHASE SHIFT
E L7Q -0.25000                                              SYS / PHASE SHIFT
 13 R01  1 R02 -4 R07  5 R08  6 R09 -2 R10 -5 R11  0 R12 -1 GLONASS SLOT / FRQ #
    R13 -2 R17  4 R18 -3 R22 -3 R23  3                      GLONASS SLOT / FRQ #
 C1C   71.950 C2C   71.950 C2P   71.950                     GLONASS COD/PHS/BIS
    18                                                      LEAP SECONDS
*** Above antenna height is from mark to ANTENNA BOTTOM.    COMMENT
    17     4        0.0000        ANT MEASURE TYPE/HEIGT    COMMENT
    0.0000    0.0000    0.0458    0.0405    0.0000          COMMENT
                    BASE STATION                            COMMENT
                                                            END OF HEADER
> 2020 05 11 00 00  0.0000000  0 13        .000000000000
G04  21472872.961 7 112840717.382 7     -2204.996          43.000    21472873.875 7  87927851.580 7     -1718.176          43.000
G06  21062024.953 6 110681690.950 6         9.297          40.000    21062025.773 6  86245459.066 6         7.247          39.000
G07  22472386.992 8 118093155.821 8      2834.395          51.000    22472384.531 8  92020629.417 8      2208.622          51.000
G09  20269155.227 8 106515225.874 8      -162.855          51.000    20269155.312 8  82998867.849 8      -126.900          51.000
R02  19744028.625 6 105357934.845 6      -836.453          40.000    19744032.938 5  81945070.272 5      -650.575          34.000
R17  21991034.047 6 117678480.002 6     -3991.234          40.000    21991019.648 5  91527647.481 5     -3104.296          31.000
C19  24044216.305 5 125204545.144 5     -2252.086          30.000
C21  23798478.797 5 123924902.999 5      2170.523          30.000
C22  21932528.008 8 114208403.564 8      -101.684          51.000
E07  23861028.773 7 125390550.848 7       865.582          42.000    23861031.273 7  96078474.634 7       663.226          43.000
E08  22306013.047 7 117218910.013 7     -1358.039          42.000    22306014.312 7  89817093.153 7     -1040.545          47.000
E13  25655818.117 8 134822232.949 8     -2898.242          48.000    25655820.461 7 103305342.121 7     -2220.776          43.000
E30  26354513.711 7 138493906.846 7      2950.660          42.000    26354514.008 7 106118715.619 7      2260.689          45.000
> 2020 05 11 00 00 30.0000000  0 11        .000000000000
G04  21485509.039 7 112907119.461 7     -2216.590          43.000    21485509.227 7  87979593.458 7     -1727.213          42.000
G06  21062056.766 6 110681858.221 6       -14.547          40.000    21062056.641 6  86245589.421 6       -11.335          38.000
G07  22456261.133 8 118008413.894 8      2820.824          50.000    22456257.539 8  91954596.780 8      2198.048          50.000
G09  20270147.984 8 106520442.115 8      -179.320          51.000    20270147.828 8  83002932.447 8      -139.730          51.000
R02  19748784.188 7 105383308.475 7      -849.742          42.000    19748787.617 5  81964805.309 5      -660.911          34.000
R17  22013465.312 6 117798522.597 6     -4005.750          39.000    22013451.445 5  91621013.936 5     -3115.586          31.000
C22  21933163.078 8 114211710.425 8      -113.203          51.000
E07  23856130.906 6 125364810.666 6       856.379          41.000    23856132.164 7  96058751.645 7       655.998          43.000
E08  22313804.898 7 117259856.633 7     -1365.973          43.000    22313806.570 7  89848467.840 7     -1046.612          47.000
E13  25672410.211 8 134909416.128 8     -2908.094          48.000    25672408.891 7 103372144.749 7     -2228.238          43.000
E30  26337697.648 6 138405543.016 6      2946.090          38.000    26337696.914 7 106051008.304 7      2257.513          43.000
> 2020 05 11 00 01  0.0000000  0 12        .000000000000
G04  21498123.852 7 112973410.727 7     -2221.078          42.000    21498123.711 6  88031248.975 6     -1730.710          41.000
G06  21062138.281 6 110682284.856 6       -31.613          39.000    21062137.539 6  86245921.860 6       -24.634          39.000
G07  22440125.125 8 117923620.933 8      2814.195          49.000    22440121.258 8  91888524.357 8      2192.879          49.000
G09  20271147.539 8 106525694.533 8      -188.668          51.000    20271147.305 8  83007025.240 8      -147.014          51.000
R02  19753528.266 7 105408618.741 7      -855.660          44.000    19753530.555 6  81984491.055 6      -665.516          36.000
R17  22035888.359 5 117918525.784 5     -4012.918          32.000    22035874.695 5  91714349.762 5     -3121.155          31.000
C21  23773510.680 5 123794926.464 5      2163.559          33.000
C22  21933777.742 8 114214910.975 8      -117.840          51.000
E07  23851199.961 6 125338896.651 6       853.895          40.000    23851200.430 7  96038895.464 7       654.088          44.000
E08  22321554.219 7 117300579.337 7     -1366.832          44.000    22321556.211 7  89879670.924 7     -1047.169          47.000
E13  25688970.461 7 134996433.962 7     -2910.719          46.000    25688966.930 7 103438820.705 7     -2230.387          43.000
E30  26320818.461 6 138316852.487 6      2948.926          37.000    26320818.461 7 105983050.742 7      2259.486          44.000
> 2020 05 11 00 01 30.0000000  0 12        .000000000000
G04  21510840.492 7 113040236.701 7     -2230.797          43.000    21510840.344 6  88083321.142 6     -1738.283          41.000
G06  21062392.438 6 110683618.086 6       -53.867          39.000    21062391.648 6  86246960.746 6       -41.974          40.000
G07  22424102.734 8 117839426.233 8      2802.426          48.000    22424099.617 8  91822918.091 8      2183.708          48.000
G09  20272276.883 8 106531629.439 8      -203.516          51.000    20272276.727 8  83011649.840 8      -158.584          51.000
R02  19758383.484 7 105434522.699 7      -867.723          45.000    19758385.648 6  82004638.587 6      -674.895          36.000
R12  20924059.336 6 111772645.599 6      2065.719          36.000    20924063.320 5  86934258.692 5      1606.670          33.000
C21  23761076.344 5 123730171.323 5      2156.992          32.000
C22  21934495.289 8 114218646.677 8      -127.809          51.000
E07  23846358.516 6 125313455.657 6       845.879          41.000    23846359.500 7  96019401.735 7       648.084          44.000
E08  22329384.195 7 117341724.674 7     -1372.914          44.000    22329386.078 7  89911197.882 7     -1051.973          46.000
E13  25705621.695 7 135083931.660 7     -2918.965          45.000    25705617.188 7 103505864.348 7     -2236.612          44.000
E30  26304002.031 6 138228484.539 6      2946.223          41.000    26304002.828 7 105915340.309 7      2257.136          44.000
> 2020 05 11 00 02  0.0000000  0 14        .000000000000
G04  21523593.609 6 113107254.187 6     -2238.898          40.000    21523593.695 6  88135542.559 6     -1744.596          39.000
G06  21062753.781 6 110685516.672 6       -74.371          41.000    21062753.375 6  86248440.118 6       -57.955          41.000
G07  22408129.688 8 117755490.997 8      2791.746          48.000    22408128.000 8  91757513.994 8      2175.387          48.000
G09  20273471.000 8 106537904.480 8      -216.629          51.000    20273470.984 8  83016539.482 8      -168.802          51.000
R02  19763284.867 7 105460673.683 7      -877.684          46.000    19763285.977 6  82024978.243 6      -682.643          37.000
R11  21971000.773 5 117406331.906 5     -1631.660          32.000    21970993.383 5  91316025.938 5     -1269.069          30.000
R12  20912515.805 5 111710994.788 5      2042.227          34.000    20912523.680 5  86886308.169 5      1588.408          31.000
R17  22081003.469 5 118159917.751 5     -4035.621          31.000
C21  23748653.945 5 123665472.588 5      2153.344          30.000
C22  21935250.672 8 114222579.304 8      -136.172          51.000
E07  23841542.219 7 125288146.008 7       839.605          43.000    23841544.023 7  96000008.643 7       643.355          44.000
E08  22337229.508 7 117382950.689 7     -1377.398          44.000    22337230.914 7  89942786.641 7     -1055.391          46.000
E13  25722298.055 6 135171565.720 6     -2925.340          41.000    25722293.938 7 103573012.530 7     -2241.333          44.000
E30  26287183.398 7 138140099.664 7      2944.680          44.000    26287184.945 7 105847616.863 7      2256.313          45.000
> 2020 05 11 00 02 30.0000000  0 14        .000000000000
G04  21536381.172 6 113174452.822 6     -2244.598          38.000    21536381.625 6  88187905.090 6     -1749.040          37.000
G06  21063220.984 6 110687971.846 6       -93.141          41.000    21063221.711 6  86250353.247 6       -72.577          41.000
G07  22392204.953 8 117671808.352 8      2782.527          48.000    22392204.789 8  91692306.724 8      2168.200          48.000
G09  20274727.938 8 106544510.088 8      -228.184          51.000    20274728.141 8  83021686.725 8      -177.805          51.000
R02  19768230.641 7 105487061.961 7      -886.156          45.000    19768231.102 6  82045502.451 6      -689.233          38.000
R12  20901095.500 5 111649993.626 5      2020.016          35.000    20901099.188 4  86838862.938 4      1571.123          26.000
R17  22103646.688 6 118281047.512 6     -4044.207          38.000    22103646.359 5  91996368.332 5     -3145.494          33.000
C19  24109405.656 5 125544015.869 5     -2274.656          31.000
C21  23736240.391 5 123600842.615 5      2151.168          32.000
C22  21936042.203 8 114226700.423 8      -142.973          51.000
E07  23836749.727 7 125262958.797 7       835.031          44.000    23836751.742 7  95980709.334 7       639.790          44.000
E08  22345087.953 7 117424248.142 7     -1380.336          44.000    22345089.156 7  89974430.157 7     -1057.684          45.000
E13  25738994.656 5 135259325.431 5     -2930.004          35.000    25738994.398 7 103640257.046 7     -2244.888          44.000
E30  26270360.711 7 138051691.139 7      2944.863          47.000    26270362.586 7 105779875.287 7      2256.325          45.000
> 2020 05 11 00 03  0.0000000  0 12        .000000000000
G06  21063803.250 6 110691033.836 6      -118.422          39.000    21063805.445 6  86252739.201 6       -92.277          38.000
G07  22376338.664 8 117588430.204 8      2767.703          49.000    22376339.352 8  91627336.729 8      2156.652          49.000
G09  20276057.203 8 106551495.441 8      -245.707          51.000    20276057.266 8  83027129.864 8      -191.460          51.000
R02  19773229.633 6 105513738.034 6      -900.699          41.000    19773229.914 6  82066250.495 6      -700.544          39.000
R12  20889808.328 6 111589695.980 6      1991.676          38.000    20889805.383 4  86791903.767 4      1549.081          29.000
R17  22126338.719 6 118402472.426 6     -4058.930          39.000    22126341.602 5  92090809.879 5     -3156.948          33.000
C21  23723847.984 4 123536300.684 4      2142.539          28.000
C22  21936879.492 8 114231059.829 8      -155.672          51.000
E07  23831989.531 7 125237943.792 7       824.695          43.000    23831991.742 7  95961541.980 7       631.808          43.000
E08  22352969.414 7 117465666.564 7     -1388.781          44.000    22352970.234 7  90006166.370 7     -1064.353          45.000
E13  25755722.203 5 135347258.912 5     -2940.262          33.000    25755727.555 7 103707634.761 7     -2252.904          43.000
E30  26253543.594 8 137963311.005 8      2939.164          49.000    26253545.047 7 105712155.419 7      2252.003          45.000
> 2020 05 11 00 03 30.0000000  0 13        .000000000000
G02  23043962.461 6 121096870.755 6      1912.672          37.000
G06  21064516.961 6 110694787.417 6      -133.953          38.000    21064520.086 6  86255664.123 6      -104.373          38.000
G07  22360547.180 8 117505443.470 8      2762.250          51.000    22360547.789 8  91562671.744 8      2152.403          51.000
G09  20277474.719 8 106558944.418 8      -253.395          51.000    20277474.484 8  83032934.257 8      -197.447          51.000
R02  19778298.164 7 105540787.913 7      -905.016          42.000    19778298.797 6  82087289.329 6      -703.898          40.000
R12  20878670.086 6 111530191.094 6      1972.715          39.000    20878672.711 5  86745622.171 5      1534.331          35.000
R17  22149097.844 5 118524274.105 5     -4063.520          35.000    22149105.750 5  92185544.445 5     -3160.521          32.000
C21  23711490.227 4 123471954.090 4      2142.691          29.000
C22  21937778.578 8 114235741.707 8      -158.863          51.000
E07  23827277.391 7 125213185.511 7       823.434          42.000    23827280.586 7  95942571.371 7       631.080          43.000
E08  22360890.148 7 117507290.291 7     -1388.219          44.000    22360890.266 7  90038059.862 7     -1063.790          44.000
E13  25772502.891 6 135435421.130 6     -2941.227          36.000    25772509.445 6 103775209.127 6     -2253.721          41.000
E30  26236748.328 8 137875046.064 8      2942.840          50.000    26236749.109 7 105644523.849 7      2254.793          45.000
> 2020 05 11 00 04  0.0000000  0 14        .000000000000
G03  23710850.102 5 124601361.307 5     -3026.684          34.000    23710850.469 5  97091967.410 5     -2358.455          34.000
G04  21575035.828 5 113377577.856 5     -2269.887          32.000
G06  21065345.891 6 110699146.012 6      -156.152          39.000    21065349.664 6  86259060.449 6      -121.674          39.000
G07  22344814.062 8 117422763.364 8      2750.309          50.000    22344814.188 8  91498245.704 8      2143.101          50.000
G09  20278963.656 8 106566769.505 8      -267.695          51.000    20278963.609 8  83039031.733 8      -208.594          51.000
R02  19783420.266 6 105568123.363 6      -916.586          41.000    19783421.883 6  82108550.252 6      -712.900          40.000
R12  20867663.867 6 111471393.950 6      1947.344          38.000    20867668.906 5  86699891.162 5      1514.601          35.000
R17  22171911.203 6 118646359.751 6     -4074.535          36.000    22171922.039 5  92280499.992 5     -3169.080          33.000
C21  23699153.133 5 123407735.084 5      2138.379          32.000
C22  21938723.062 8 114240660.445 8      -168.473          51.000
E07  23822598.164 7 125188597.102 7       816.254          43.000    23822601.688 7  95923730.927 7       625.456          42.000
E08  22368833.289 7 117549032.095 7     -1393.809          45.000    22368832.930 7  90070043.861 7     -1068.196          44.000
E13  25789317.383 6 135523779.410 6     -2948.848          38.000    25789323.258 6 103842912.250 6     -2259.420          39.000
E30  26219958.609 8 137786811.656 8      2940.008          50.000    26219958.992 7 105576915.685 7      2252.727          44.000
> 2020 05 11 00 04 30.0000000  0 12        .000000000000
G04  21588025.984 5 113445836.184 5     -2286.730          34.000    21588025.031 5  88399350.527 5     -1781.862          30.000
G06  21066303.469 6 110704179.341 6      -184.766          38.000    21066307.578 6  86262982.499 6      -143.970          39.000
G07  22329152.742 8 117340462.147 8      2731.434          49.000    22329152.422 8  91434114.909 8      2128.393          48.000
G09  20280537.328 8 106575039.542 8      -288.742          51.000    20280537.422 8  83045475.914 8      -224.994          51.000
R02  19788608.883 6 105595814.758 6      -934.656          40.000    19788610.406 6  82130088.045 6      -726.955          40.000
R12  20856803.961 6 111413378.440 6      1915.047          41.000    20856804.914 5  86654767.891 5      1489.475          30.000
R17  22194789.922 6 118768795.616 6     -4092.895          39.000    22194803.812 6  92375727.910 6     -3183.359          36.000
C22  21939726.344 8 114245885.269 8      -184.906          51.000
E07  23817965.117 7 125164248.037 7       802.148          42.000    23817967.469 6  95905073.871 6       614.615          41.000
E08  22376812.133 7 117590961.284 7     -1406.375          44.000    22376811.203 7  90102171.380 7     -1077.504          43.000
E13  25806178.000 6 135612373.442 6     -2962.707          41.000    25806181.320 6 103910795.937 6     -2269.875          36.000
E30  26203187.875 8 137698679.533 8      2930.414          50.000    26203187.922 6 105509385.893 6      2245.418          41.000
> 2020 05 11 00 05  0.0000000  0 14        .000000000000
G04  21601012.234 5 113514087.699 5     -2283.652          32.000    21601014.836 4  88452530.379 4     -1779.469          29.000
G06  21067332.195 6 110709585.694 6      -194.527          41.000    21067336.141 7  86267195.236 7      -151.583          42.000
G07  22313505.930 7 117258239.807 7      2731.742          46.000    22313505.672 7  91370045.565 7      2128.630          46.000
G09  20282138.117 8 106583451.866 8      -290.449          51.000    20282138.008 8  83052030.974 8      -226.324          51.000
R02  19793806.953 6 105623555.573 6      -933.492          39.000    19793808.969 6  82151664.226 6      -726.046          41.000
R11  22028369.555 5 117712842.469 5     -1776.125          34.000
R12  20846033.305 7 111355840.617 7      1901.879          44.000    20846034.969 5  86610016.325 5      1479.242          32.000
R17  22217677.688 6 118891269.671 6     -4090.969          40.000    22217691.617 6  92470985.514 6     -3181.865          36.000
C19  24175240.500 5 125886784.755 5     -2294.422          30.000
C22  21940730.992 8 114251117.378 8      -182.172          51.000
E07  23813320.031 7 125139836.395 7       806.867          42.000    23813320.758 6  95886368.833 6       618.330          40.000
E08  22384769.047 7 117632775.576 7     -1399.633          44.000    22384767.711 7  90134210.918 7     -1072.512          42.000
E13  25823026.164 7 135700899.569 7     -2957.715          43.000    25823025.234 5 103978627.543 5     -2266.035          35.000
E30  26186379.281 8 137610349.887 8      2939.766          49.000    26186377.992 6 105441704.729 6      2252.599          40.000
> 2020 05 11 00 05 30.0000000  0 14        .000000000000
G06  21068459.406 6 110715509.274 6      -213.781          40.000    21068463.680 6  86271810.986 6      -166.589          40.000
G07  22297901.820 7 117176242.796 7      2721.996          46.000    22297902.266 7  91306151.807 7      2121.036          46.000
G09  20283793.320 8 106592149.930 8      -302.293          51.000    20283793.172 8  83058808.696 8      -235.553          51.000
R02  19799042.125 6 105651491.841 6      -941.969          41.000    19799044.594 7  82173392.392 7      -732.642          42.000
R11  22038366.609 5 117766264.077 5     -1798.898          34.000    22038364.984 4  91596045.561 4     -1399.143          26.000
R12  20835379.984 7 111298930.531 7      1878.750          43.000    20835384.320 4  86565752.988 4      1461.244          26.000
R17  22240600.891 6 119013924.543 6     -4099.020          39.000    22240612.188 6  92566383.689 6     -3188.129          36.000
C19  24188434.562 5 125955519.764 5     -2297.547          34.000
C21  23662250.797 4 123215547.914 4      2130.141          28.000
C22  21941764.727 8 114256499.986 8      -189.395          51.000
E07  23808689.953 6 125115506.253 6       802.031          40.000    23808690.992 6  95867726.233 6       614.558          40.000
E08  22392731.578 7 117674618.755 7     -1402.605          44.000    22392730.000 7  90166272.586 7     -1074.784          42.000
E13  25839888.625 7 135789500.055 7     -2962.137          44.000    25839885.312 6 104046516.164 6     -2269.399          37.000
E30  26169560.984 8 137521969.158 8      2939.379          48.000    26169558.398 6 105373984.445 6      2252.212          41.000
> 2020 05 11 00 06  0.0000000  0 13        .000000000000
G06  21069804.648 6 110722577.933 6      -231.992          39.000    21069808.688 6  86277319.057 6      -180.773          38.000
G07  22282460.961 8 117095100.966 8      2713.254          48.000    22282461.531 8  91242924.409 8      2114.227          48.000
G09  20285622.281 8 106601760.818 8      -312.910          51.000    20285622.297 8  83066297.695 8      -243.826          51.000
R02  19804433.695 7 105680260.959 7      -949.676          44.000    19804436.477 6  82195768.407 6      -738.637          41.000
R11  22048600.164 5 117820951.783 5     -1821.180          32.000
R12  20824964.312 7 111243288.947 7      1856.938          43.000    20824966.164 6  86522476.208 6      1444.291          37.000
R17  22263678.000 6 119137394.706 6     -4106.117          39.000    22263684.914 5  92662415.960 5     -3193.650          35.000
C21  23650059.430 4 123152023.930 4      2128.219          28.000
C22  21942946.938 8 114262655.586 8      -195.477          51.000
E07  23804195.258 6 125091885.310 6       798.449          40.000    23804197.203 6  95849627.120 6       611.736          40.000
E08  22400819.289 7 117717118.423 7     -1404.613          44.000    22400817.250 6  90198837.253 6     -1076.391          41.000
E13  25856883.984 7 135878800.992 7     -2965.449          45.000    25856880.703 6 104114941.557 6     -2272.200          40.000
E30  26152853.156 7 137434167.304 7      2940.023          47.000    26152850.039 7 105306707.690 7      2252.766          43.000
> 2020 05 11 00 06 30.0000000  0 13        .000000000000
G06  21071207.789 6 110729953.142 6      -255.871          39.000    21071211.617 6  86283065.942 6      -199.380          39.000
G07  22267024.273 8 117013977.870 8      2699.094          49.000    22267024.445 8  91179711.617 8      2103.190          49.000
G09  20287465.117 8 106611444.986 8      -328.605          51.000    20287465.242 8  83073843.812 8      -256.053          51.000
R02  19809821.898 7 105709011.688 7      -962.691          43.000    19809824.484 6  82218130.103 6      -748.757          41.000
R12  20814626.609 6 111188066.732 6      1829.109          40.000    20814630.492 6  86479525.741 6      1422.644          38.000
R17  22286747.664 6 119260821.337 6     -4118.012          38.000    22286748.922 5  92758414.354 5     -3202.901          32.000
C19  24215012.414 5 126093935.387 5     -2307.840          32.000
C21  23637790.586 5 123088200.592 5      2120.938          31.000
C22  21944117.984 8 114268753.338 8      -206.891          51.000
E07  23799676.516 7 125068134.770 7       789.348          42.000    23799678.398 6  95831428.701 6       604.711          40.000
E08  22408872.031 7 117759435.391 7     -1412.008          45.000    22408869.820 6  90231261.948 6     -1082.018          41.000
E13  25873852.281 7 135967961.714 7     -2974.109          44.000    25873849.742 6 104183259.541 6     -2278.929          41.000
E30  26136096.570 7 137346107.726 7      2935.078          45.000    26136092.797 7 105239233.485 7      2248.935          45.000
> 2020 05 11 00 07  0.0000000  0 11        .000000000000
G06  21072737.188 6 110737988.137 6      -281.387          40.000    21072739.742 6  86289327.040 6      -219.259          40.000
G07  22251658.852 8 116933228.872 8      2682.316          50.000    22251658.750 8  91116790.350 8      2090.120          50.000
G09  20289388.930 8 106621555.140 8      -347.184          51.000    20289389.117 8  83081721.857 8      -270.536          51.000
R02  19815273.844 7 105738102.267 7      -978.332          46.000    19815276.289 6  82240756.089 6      -760.925          39.000
R12  20804434.781 5 111133625.942 5      1798.473          32.000    20804438.383 6  86437182.845 6      1398.809          38.000
R17  22309875.828 6 119384560.100 6     -4132.848          38.000    22309871.812 5  92854655.541 5     -3214.437          30.000
C22  21945345.430 8 114275143.819 8      -220.934          51.000
E07  23795200.062 7 125044608.086 7       777.469          42.000    23795201.398 6  95813401.734 6       595.863          40.000
E08  22416957.227 7 117801922.843 7     -1422.141          43.000    22416955.461 6  90263817.268 6     -1089.869          41.000
E13  25890860.281 7 136057333.858 7     -2985.586          43.000    25890858.227 7 104251739.519 7     -2287.806          42.000
E30  26119358.969 7 137258146.081 7      2927.395          45.000    26119355.297 8 105171834.326 8      2243.051          49.000
> 2020 05 11 00 07 30.0000000  0 12        .000000000000
G06  21074346.469 6 110746441.647 6      -295.004          40.000    21074348.516 6  86295914.154 6      -229.873          39.000
G07  22236318.961 8 116852615.263 8      2678.641          51.000    22236318.578 8  91053974.568 8      2087.252          50.000
G09  20291347.711 8 106631848.980 8      -352.441          51.000    20291348.031 8  83089743.037 8      -274.630          51.000
R02  19820743.648 7 105767287.006 7      -980.590          44.000    19820745.156 6  82263455.300 6      -762.681          38.000
R17  22333014.688 6 119508360.401 6     -4133.980          37.000    22333007.383 4  92950944.517 4     -3215.327          28.000
C19  24241633.133 5 126232553.900 5     -2314.172          33.000
C21  23613389.969 5 122961118.260 5      2114.352          35.000
C22  21946583.227 8 114281588.060 8      -221.832          51.000
E07  23790719.070 6 125021063.533 6       778.918          40.000    23790720.789 6  95795361.076 6       596.758          39.000
E08  22425028.602 7 117844338.831 7     -1418.809          44.000    22425028.188 7  90296317.814 7     -1087.256          42.000
E13  25907861.859 7 136146674.064 7     -2983.672          44.000    25907860.133 7 104320195.002 7     -2286.064          43.000
E30  26102594.289 7 137170043.017 7      2932.879          44.000    26102591.703 8 105104326.800 8      2247.373          51.000
> 2020 05 11 00 08  0.0000000  0 14        .000000000000
G06  21076094.125 6 110755623.100 6      -317.918          40.000    21076095.969 6  86303068.513 6      -247.731          40.000
G07  22221063.766 8 116772448.511 8      2665.027          50.000    22221063.344 8  90991506.984 8      2076.645          50.000
G09  20293400.211 8 106642635.369 8      -367.484          51.000    20293400.766 8  83098148.027 8      -286.351          51.000
R02  19826289.680 7 105796881.356 7      -993.012          44.000    19826291.211 6  82286473.091 6      -772.345          38.000
R11  22090632.758 5 118045578.224 5     -1920.652          32.000
R12  20784416.727 5 111026627.049 5      1754.078          35.000    20784412.945 5  86354050.606 5      1364.277          31.000
R17  22356222.312 6 119632533.136 6     -4144.539          36.000    22356212.430 4  93047523.153 4     -3223.536          25.000
C19  24254983.508 5 126302075.087 5     -2320.703          33.000
C21  23601224.328 5 122897766.423 5      2108.379          33.000
C22  21947890.203 8 114288393.271 8      -232.602          51.000
E07  23786293.320 6 124997810.635 6       770.527          39.000    23786296.508 6  95777543.940 6       590.344          39.000
E08  22433145.352 7 117886992.761 7     -1425.551          44.000    22433146.406 6  90329000.694 6     -1092.233          41.000
E13  25924915.758 7 136236290.139 7     -2991.738          43.000    25924913.922 7 104388861.860 7     -2292.203          42.000
E30  26085860.766 7 137082110.373 7      2928.422          42.000    26085860.133 8 105036949.824 8      2243.868          51.000
> 2020 05 11 00 08 30.0000000  0 12        .000000000000
G06  21077947.320 6 110765359.649 6      -331.297          41.000    21077948.328 6  86310655.446 6      -258.153          41.000
G07  22205860.992 8 116692557.898 8      2660.648          50.000    22205860.508 8  90929254.550 8      2073.233          50.000
G09  20295513.383 8 106653740.732 8      -373.121          51.000    20295514.164 8  83106801.566 8      -290.744          51.000
R02  19831878.617 7 105826708.298 7      -995.762          43.000    19831881.172 6  82309671.798 6      -774.484          40.000
R11  22101467.352 5 118103451.429 5     -1937.453          35.000
R12  20774609.148 6 110974265.354 6      1736.250          39.000    20774619.023 4  86313325.087 4      1350.423          29.000
R17  22379462.461 6 119756897.704 6     -4146.273          38.000    22379453.461 4  93144312.028 4     -3224.882          25.000
C22  21949233.680 8 114295388.501 8      -233.984          51.000
E07  23781890.828 7 124974676.553 7       771.520          42.000    23781894.211 6  95759817.838 6       591.242          38.000
E08  22441274.516 7 117929711.488 7     -1422.742          44.000    22441275.727 6  90361733.247 6     -1090.153          40.000
E13  25941988.227 7 136326007.376 7     -2989.984          43.000    25941986.609 7 104457606.227 7     -2290.901          42.000
E30  26069125.188 7 136994177.510 7      2933.418          43.000    26069127.516 8 104969572.631 8      2247.702          51.000
> 2020 05 11 00 09  0.0000000  0 14        .000000000000
G06  21079923.250 7 110775740.569 7      -359.832          43.000    21079923.836 7  86318744.457 7      -280.389          43.000
G07  22190728.188 8 116613034.981 8      2641.316          50.000    22190727.141 8  90867288.626 8      2058.169          50.000
G09  20297704.125 8 106665253.616 8      -393.656          51.000    20297704.992 8  83115772.631 8      -306.745          51.000
R02  19837528.539 7 105856859.422 7     -1013.809          45.000    19837531.852 6  82333122.672 6      -788.518          40.000
R11  22112438.891 5 118162067.238 5     -1970.516          32.000
R12  20764954.766 6 110922681.334 6      1703.406          40.000    20764958.656 4  86273204.338 4      1324.868          29.000
R17  22402751.891 6 119881540.490 6     -4162.559          39.000    22402746.586 4  93241259.344 4     -3237.549          24.000
C19  24281755.695 5 126441515.618 5     -2330.652          32.000
C21  23576951.383 4 122771413.228 4      2098.996          29.000
C22  21950630.641 8 114302662.624 8      -250.309          51.000
E07  23777528.594 7 124951750.586 7       757.582          42.000    23777529.273 6  95742251.200 6       580.383          36.000
E08  22449432.914 7 117972583.946 7     -1434.844          44.000    22449433.562 6  90394583.614 6     -1099.438          41.000
E13  25959096.406 7 136415913.307 7     -3003.234          42.000    25959095.234 7 104526495.169 7     -2301.135          42.000
E30  26052407.320 7 136906335.797 7      2923.262          45.000    26052411.781 8 104902265.301 8      2239.965          51.000
> 2020 05 11 00 09 30.0000000  0 12        .000000000000
G03  23902660.047 5 125609325.870 5     -3086.438          32.000
G06  21082071.141 7 110787026.196 7      -381.637          44.000    21082070.391 7  86327538.422 7      -297.379          44.000
G07  22175715.070 8 116534141.731 8      2629.016          48.000    22175713.664 8  90805813.357 8      2048.584          48.000
G09  20300021.836 8 106677433.618 8      -407.320          51.000    20300022.719 8  83125263.532 8      -317.392          51.000
R02  19843289.031 7 105887598.890 7     -1024.379          47.000    19843292.250 7  82357031.162 7      -796.739          42.000
R12  20755493.180 5 110872142.132 5      1677.020          35.000    20755496.898 5  86233896.223 5      1304.349          35.000
R17  22426141.625 6 120006722.277 6     -4171.387          40.000
C22  21952130.648 8 114310474.029 8      -259.641          51.000
E07  23773255.508 6 124929293.020 6       750.652          41.000    23773252.883 6  95725043.480 6       575.043          36.000
E08  22457669.922 7 118015870.307 7     -1439.910          44.000    22457671.016 6  90427751.070 6     -1103.392          40.000
E13  25976289.281 6 136506266.452 6     -3009.387          40.000    25976289.008 6 104595726.780 6     -2305.927          41.000
E30  26035758.117 7 136818847.878 7      2920.105          47.000    26035763.156 8 104835229.092 8      2237.561          49.000
> 2020 05 11 00 10  0.0000000  0 13        .000000000000
G03  23920266.672 5 125701899.804 5     -3104.859          30.000
G06  21084280.969 7 110798638.554 7      -414.469          44.000    21084278.898 7  86336587.017 7      -322.963          44.000
G07  22160712.352 8 116455303.367 8      2604.977          48.000    22160710.383 8  90744380.875 8      2029.852          48.000
G09  20302356.375 8 106689702.181 8      -432.418          51.000    20302357.438 8  83134823.455 8      -336.949          51.000
R02  19849049.945 8 105918339.156 8     -1047.008          49.000    19849053.086 7  82380940.245 7      -814.336          43.000
R12  20746118.750 5 110822063.361 5      1639.434          34.000    20746120.922 5  86194946.097 5      1275.115          33.000
R17  22449522.555 6 120131850.084 6     -4192.281          38.000
C19  24308677.992 5 126581696.843 5     -2352.062          34.000
C22  21953623.844 8 114318250.552 8      -280.371          51.000
E07  23768961.172 6 124906726.052 6       732.055          39.000    23768957.883 6  95707751.949 6       560.796          37.000
E08  22465875.461 7 118058992.445 7     -1456.695          44.000    22465878.211 6  90460792.726 6     -1116.100          40.000
E13  25993457.188 6 136596487.306 6     -3027.105          39.000    25993457.812 6 104664857.005 6     -2319.533          39.000
E30  26019067.297 8 136731138.201 8      2905.348          48.000    26019071.531 7 104768022.987 7      2226.158          47.000
> 2020 05 11 00 10 30.0000000  0 12        .000000000000
G06  21086606.195 7 110810856.301 7      -420.508          45.000    21086604.414 7  86346107.296 7      -327.668          45.000
G07  22145773.594 8 116376800.278 8      2607.945          49.000    22145770.633 8  90683209.691 8      2032.168          49.000
G09  20304760.750 8 106702337.288 8      -430.516          51.000    20304761.734 8  83144668.983 8      -335.467          51.000
R02  19854864.164 8 105949363.914 8     -1042.082          49.000    19854866.852 7  82405070.633 7      -810.508          43.000
R12  20736884.516 6 110772731.411 6      1628.125          36.000    20736886.758 6  86156576.710 6      1266.319          36.000
R17  22472946.656 6 120257203.004 6     -4185.188          37.000
C19  24322134.789 5 126651826.448 5     -2342.730          35.000
C22  21955163.305 8 114326268.716 8      -274.434          51.000
E07  23764698.930 6 124884328.314 6       740.383          38.000    23764697.023 6  95690590.039 6       567.576          38.000
E08  22474103.219 7 118102228.735 7     -1446.164          45.000    22474106.180 6  90493921.857 6     -1108.190          37.000
E13  26010653.086 6 136686852.575 6     -3017.898          38.000    26010654.500 6 104734097.890 6     -2312.033          37.000
E30  26002387.969 7 136643487.619 7      2917.602          47.000    26002390.781 7 104700862.168 7      2235.481          45.000
> 2020 05 11 00 11  0.0000000  0 13        .000000000000
G06  21089048.789 7 110823693.617 7      -441.258          43.000    21089048.148 7  86356110.380 7      -343.840          43.000
G07  22130902.000 8 116298648.658 8      2596.105          51.000    22130898.719 8  90622312.385 8      2022.939          51.000
G09  20307237.523 8 106715352.525 8      -443.191          51.000    20307238.281 8  83154810.720 8      -345.344          51.000
R02  19860734.414 8 105980687.862 8     -1052.184          49.000    19860736.750 7  82429433.699 7      -818.365          44.000
R12  20727792.859 5 110724163.386 5      1603.660          30.000    20727794.727 5  86118801.600 5      1247.294          32.000
R17  22496416.109 5 120382791.668 5     -4192.852          35.000
C19  24335622.008 5 126722090.280 5     -2347.266          30.000
C21  23528748.641 5 122520383.044 5      2082.234          34.000
C22  21956751.906 8 114334543.186 8      -283.156          51.000
E07  23760471.562 6 124862114.101 6       734.359          38.000    23760470.852 6  95673568.771 6       562.859          37.000
E08  22482355.500 7 118145593.382 7     -1450.750          43.000    22482356.664 6  90527149.369 6     -1111.859          36.000
E13  26027878.656 5 136777374.907 5     -3022.875          35.000    26027881.336 5 104803459.235 5     -2316.274          33.000
E30  25985723.250 7 136555912.769 7      2914.852          46.000    25985725.320 7 104633759.397 7      2233.437          46.000
> 2020 05 11 00 11 30.0000000  0 17        .000000000000
G03  23973294.422 5 125980531.491 5     -3105.188          35.000    23973295.141 5  98166634.683 5     -2419.627          34.000
G04  21773991.445 5 114423080.864 5     -2377.805          34.000
G06  21091625.367 7 110837236.051 7      -461.066          45.000    21091625.430 7  86366662.940 7      -359.273          44.000
G07  22116114.250 8 116220936.624 8      2585.172          51.000    22116111.438 8  90561757.591 8      2014.420          51.000
G09  20309802.719 8 106728832.828 8      -454.879          51.000    20309803.633 8  83165314.852 8      -354.451          51.000
R02  19866676.875 8 106012397.868 8     -1061.145          50.000    19866678.820 7  82454097.033 7      -825.335          44.000
R12  20718860.281 5 110676448.975 5      1578.438          33.000    20718861.289 5  86081690.383 5      1227.664          34.000
R17  22519945.422 6 120508698.665 6     -4200.105          36.000
C05  39773103.148 5 207108984.012 5       -25.160          35.000
C12  24452017.523 6 127328068.409 6     -1988.441          37.000    24452017.758 6  98458146.252 6     -1537.698          37.000
C19  24349153.336 5 126792572.886 5     -2350.988          34.000
C21  23516755.305 5 122457966.933 5      2079.156          34.000
C22  21958406.328 8 114343159.237 8      -290.711          51.000
E07  23756295.469 6 124840169.199 6       729.168          38.000    23756294.016 6  95656753.801 6       558.791          37.000
E08  22490648.102 7 118189171.734 7     -1453.902          43.000    22490649.156 6  90560540.636 6     -1113.978          37.000
E13                                                                  26045158.531 4 104873059.253 4     -2319.485          28.000
E30  25969089.867 7 136468501.499 7      2913.277          47.000    25969092.109 7 104566782.004 7      2232.231          46.000
> 2020 05 11 00 12  0.0000000  0 15        .000000000000
G03  23991038.844 6 126073768.953 6     -3108.684          36.000    23991039.273 5  98239287.299 5     -2422.351          35.000
G04  21787588.555 5 114494549.244 5     -2383.781          31.000
G06  21094314.578 7 110851371.496 7      -479.461          43.000    21094316.305 7  86377677.595 7      -373.609          43.000
G07  22101389.320 8 116143554.726 8      2575.402          51.000    22101387.305 8  90501460.016 8      2006.807          51.000
G09  20312434.945 8 106742665.562 8      -465.465          51.000    20312436.148 8  83176093.602 8      -362.700          51.000
R02  19872670.320 8 106044379.918 8     -1069.008          50.000    19872672.258 7  82478971.963 7      -831.451          45.000
R17  22543511.195 5 120634805.523 5     -4206.277          32.000    22543504.961 4  93827105.195 4     -3271.555          26.000
C05  39773249.750 5 207109747.201 5       -23.652          35.000    39773244.742 6 160150378.968 6       -18.253          37.000
C12  24463507.898 6 127387909.595 6     -1998.859          36.000    24463504.773 5  98504419.212 5     -1545.433          35.000
C19  24362707.938 5 126863163.351 5     -2353.008          35.000
C21  23504782.258 6 122395658.443 6      2076.660          37.000
C22  21960105.367 8 114352006.422 8      -297.289          51.000
E07  23752148.914 6 124818381.624 6       725.324          37.000    23752147.234 6  95640059.414 6       555.552          37.000
E08  22498959.656 6 118232851.786 6     -1456.082          41.000    22498962.945 6  90594009.758 6     -1115.657          37.000
E30  25952467.148 7 136381144.250 7      2912.516          47.000    25952468.961 7 104499845.946 7      2231.725          44.000
> 2020 05 11 00 12 30.0000000  0 16        .000000000000
G04  21801219.852 5 114566177.458 5     -2391.043          32.000
G06  21097114.062 7 110866087.296 7      -501.074          44.000    21097117.180 7  86389144.428 7      -390.447          44.000
G07  22086724.570 8 116066492.050 8      2562.543          48.000    22086723.797 8  90441411.174 8      1996.784          48.000
G09  20315131.750 8 106756837.420 8      -478.840          51.000    20315132.961 8  83187136.604 8      -373.122          51.000
R02  19878712.180 8 106076621.407 8     -1079.879          49.000    19878714.562 7  82504048.668 7      -839.906          45.000
R11  22192990.703 5 118592602.604 5     -2130.941          34.000
R12  20701414.148 5 110583242.840 5      1528.035          35.000    20701417.711 5  86009194.094 5      1188.472          31.000
R17  22567111.086 5 120761094.951 5     -4213.215          31.000    22567104.078 4  93925330.300 4     -3276.942          26.000
C05  39773391.039 5 207110483.955 5       -24.719          35.000    39773386.039 6 160150948.698 6       -19.292          37.000
C12  24475062.414 6 127448084.620 6     -2012.066          36.000    24475058.844 6  98550950.483 6     -1555.891          39.000
C19  24376281.594 5 126933849.221 5     -2358.172          35.000
C21  23492829.000 5 122333445.647 5      2071.629          30.000
C22  21961846.547 8 114361072.698 8      -306.738          51.000
E07  23748029.117 5 124796738.735 5       718.609          35.000    23748029.375 6  95623475.958 6       550.581          39.000
E08  22507288.453 6 118276620.679 6     -1461.121          41.000    22507293.633 5  90627546.910 5     -1120.006          34.000
E30  25935852.555 8 136293830.620 8      2908.949          48.000    25935853.195 7 104432943.284 7      2228.962          45.000
> 2020 05 11 00 13  0.0000000  0 17        .000000000000
G02  22851214.039 6 120083946.698 6      1637.922          37.000
G04  21814880.969 5 114637974.755 5     -2397.461          34.000
G06  21100020.930 7 110881364.452 7      -520.199          45.000    21100024.508 7  86401048.747 7      -405.350          45.000
G07  22072116.820 7 115989732.199 7      2552.035          46.000    22072117.391 7  90381598.255 7      1988.599          46.000
G09  20317889.391 8 106771329.022 8      -489.930          51.000    20317890.562 8  83198428.767 8      -381.763          51.000
R02  19884799.172 8 106109103.839 8     -1088.348          50.000    19884801.945 7  82529312.791 7      -846.493          46.000
R11  22205007.969 6 118656810.721 6     -2152.598          36.000    22205012.891 4  92288662.343 4     -1674.246          29.000
R12  20692886.336 5 110537719.330 5      1504.047          34.000    20692895.578 4  85973787.452 4      1169.820          29.000
C05  39773523.602 5 207111172.959 5       -23.754          35.000    39773518.258 6 160151481.499 6       -18.398          37.000
C12  24486677.477 5 127508573.057 5     -2023.488          35.000    24486673.930 6  98597723.923 6     -1564.261          39.000
C19  24389871.953 5 127004612.037 5     -2362.246          34.000
C21  23480895.070 5 122271310.954 5      2067.852          31.000
C22  21963626.367 8 114370339.995 8      -313.832          51.000
E07  23743933.461 5 124775222.038 5       713.438          35.000    23743935.953 6  95606989.151 6       546.657          41.000
E08  22515631.078 6 118320459.504 6     -1464.125          41.000    22515633.672 5  90661128.664 5     -1122.042          30.000
E13  26097098.594 5 137141178.003 5     -3039.723          33.000    26097107.086 6 105082234.609 6     -2329.168          37.000
E30  25919243.359 8 136206544.337 8      2907.379          48.000    25919243.664 7 104366061.603 7      2227.798          47.000
> 2020 05 11 00 13 30.0000000  0 16        .000000000000
G02  22841900.961 6 120034991.272 6      1627.992          38.000
G06  21103039.664 7 110897228.236 7      -535.285          45.000    21103043.305 7  86413410.130 7      -417.105          45.000
G07  22057572.406 7 115913303.276 7      2545.270          46.000    22057573.750 7  90322043.256 7      1983.327          46.000
G09  20320712.602 8 106786165.011 8      -497.000          51.000    20320713.836 8  83209989.276 8      -387.273          51.000
R02  19890936.062 8 106141851.995 8     -1092.555          49.000    19890938.688 7  82554783.579 7      -849.768          46.000
R11  22217148.547 6 118721681.799 6     -2170.125          37.000    22217149.227 4  92339117.592 4     -1687.875          27.000
R12  20684505.570 6 110492941.115 6      1483.414          38.000
C05  39773651.570 6 207111839.486 6       -18.891          36.000    39773646.375 6 160151996.878 6       -14.468          37.000
C12  24498357.531 4 127569397.722 4     -2029.051          29.000    24498354.016 6  98644757.384 6     -1569.634          40.000
C19  24403483.195 5 127075476.720 5     -2360.801          33.000
C21  23468983.062 5 122209280.386 5      2069.039          32.000
C22  21965449.734 8 114379833.862 8      -316.984          51.000
E07  23739867.688 6 124753856.788 6       713.234          38.000    23739870.297 6  95590618.420 6       546.085          41.000
E08  22523991.625 7 118364393.466 7     -1462.789          42.000
E13  26114457.562 5 137232401.968 5     -3039.160          35.000    26114463.039 6 105152124.317 6     -2328.587          37.000
E30  25902644.430 8 136119312.960 8      2910.012          49.000    25902644.133 7 104299221.960 7      2229.788          46.000
> 2020 05 11 00 14  0.0000000  0 16        .000000000000
G03  24062251.219 5 126447995.658 5     -3135.070          32.000
G06  21106190.977 7 110913787.374 7      -567.441          46.000    21106193.914 7  86426313.334 7      -442.162          46.000
G07  22043112.562 8 115837316.074 8      2521.594          48.000    22043113.609 8  90262832.447 8      1964.878          48.000
G09  20323621.945 8 106801453.682 8      -521.043          51.000    20323623.062 8  83221902.533 8      -406.008          51.000
R02  19897143.820 8 106174977.499 8     -1114.488          50.000    19897146.203 7  82580547.869 7      -866.824          47.000
R11  22229431.852 6 118787323.596 6     -2204.539          36.000    22229429.305 4  92390153.190 4     -1714.648          26.000
R12  20676283.094 6 110449020.988 6      1445.402          36.000    20676281.414 4  85904754.424 4      1124.202          27.000
R17  22638112.734 5 121141113.022 5     -4239.086          32.000    22638114.047 4  94220870.545 4     -3297.067          28.000
C05  39773796.109 6 207112592.762 6       -30.367          36.000    39773790.875 6 160152578.586 6       -23.304          37.000
C12                                                                  24510119.117 6  98692132.869 6     -1587.857          39.000
C22  21967337.469 8 114389662.864 8      -337.004          51.000
E07  23735851.219 6 124732752.178 6       695.266          36.000    23735853.172 6  95574447.286 6       532.733          41.000
E08  22532390.742 6 118408531.325 6     -1478.492          41.000
E13  26131853.789 5 137323831.228 5     -3055.445          33.000    26131859.406 6 105222185.161 6     -2341.296          36.000
E26  23758103.914 6 124849677.182 6      -926.867          39.000    23758099.727 5  95664030.757 5      -709.694          32.000
E30  25886076.898 8 136032247.802 8      2895.562          49.000    25886076.516 8 104232509.696 8      2218.672          48.000
> 2020 05 11 00 14 30.0000000  0 16        .000000000000
G06  21109457.523 7 110930950.671 7      -583.609          46.000    21109459.797 7  86439687.296 7      -454.764          46.000
G07  22028720.047 8 115761681.321 8      2513.805          49.000    22028720.016 8  90203896.294 8      1958.809          49.000
G09  20326599.961 8 106817103.380 8      -529.105          51.000    20326600.922 8  83234097.103 8      -412.290          51.000
R02  19903404.969 8 106208387.846 8     -1119.867          51.000    19903407.625 8  82606533.698 8      -871.008          48.000
R11  22241841.148 5 118853640.992 5     -2222.902          35.000    22241842.008 4  92441733.356 4     -1728.924          29.000
R12  20668204.086 5 110405868.903 5      1424.113          34.000    20668207.750 5  85871206.268 5      1107.647          35.000
R17  22661881.961 5 121268219.974 5     -4241.938          31.000    22661872.688 4  94319731.319 4     -3299.291          28.000
C05  39773939.812 5 207113340.835 5       -26.535          35.000    39773934.508 6 160153157.028 6       -20.147          38.000
C12                                                                  24521951.297 6  98739779.118 6     -1593.898          38.000
C19  24430815.086 5 127217642.421 5     -2377.133          32.000
C22  21969272.227 8 114399737.232 8      -341.375          51.000
E07  23731866.664 6 124711817.143 6       694.031          36.000    23731868.859 6  95558406.156 6       531.494          41.000
E08  22540811.445 6 118452782.064 6     -1478.312          41.000
E13                                                                  26149280.492 5 105292346.054 5     -2341.757          35.000
E26  23763403.773 5 124877539.301 5      -937.422          35.000    23763398.484 5  95685358.663 5      -718.168          31.000
E30  25869523.781 7 135945260.214 7      2896.734          47.000    25869524.023 8 104165856.885 8      2219.612          48.000
> 2020 05 11 00 15  0.0000000  0 16        .000000000000
G06  21112814.383 7 110948590.147 7      -601.547          46.000    21112816.578 7  86453432.322 7      -468.741          47.000
G07  22014370.859 8 115686274.058 8      2504.133          51.000    22014369.695 8  90145137.382 8      1951.272          51.000
G09  20329622.156 8 106832985.737 8      -538.965          51.000    20329623.203 8  83246472.961 8      -419.973          51.000
R02  19909695.227 8 106241952.947 8     -1127.129          51.000    19909698.289 8  82632639.874 8      -876.656          48.000
R11  22254352.328 5 118920501.569 5     -2243.594          35.000
R12  20660245.906 6 110363357.879 6      1400.598          37.000    20660253.883 6  85838142.157 6      1089.357          40.000
R17  22685638.234 5 121395383.328 5     -4245.629          33.000    22685636.469 4  94418636.099 4     -3302.159          28.000
C05  39774058.406 5 207113958.336 5       -23.715          35.000    39774053.281 6 160153634.558 6       -18.546          37.000
C12  24533830.297 5 127754059.935 5     -2070.777          31.000    24533827.250 6  98787596.637 6     -1601.202          39.000
C19  24444485.047 4 127288849.246 4     -2379.141          29.000
C22  21971229.922 8 114409930.951 8      -347.336          51.000
E07  23727891.281 6 124690924.203 6       690.094          38.000    23727893.844 6  95542397.269 6       528.629          41.000
E08  22549229.758 7 118497017.775 7     -1479.781          42.000
E13                                                                  26166701.391 5 105362507.816 5     -2343.155          33.000
E26  23768760.352 5 124905678.617 5      -949.176          33.000    23768756.625 4  95706934.420 4      -728.194          29.000
E30  25852960.828 7 135858224.852 7      2896.207          46.000    25852961.391 7 104099167.434 7      2219.240          46.000
> 2020 05 11 00 15 30.0000000  0 16        .000000000000
G06  21116307.141 8 110966943.649 8      -621.777          48.000    21116309.258 8  86467733.742 8      -484.502          48.000
G07  22000110.789 8 115611334.243 8      2492.152          51.000    22000108.609 8  90086742.725 8      1941.937          51.000
G09  20332733.852 8 106849338.086 8      -550.973          51.000    20332734.992 8  83259215.049 8      -429.329          51.000
R02  19916059.867 8 106275914.919 8     -1136.762          51.000    19916063.117 8  82659054.732 8      -884.148          48.000
R11  22267011.891 6 118988144.638 6     -2265.809          39.000
R12  20652452.969 4 110321695.780 4      1373.609          27.000    20652459.898 6  85805766.699 6      1068.363          36.000
R17  22709451.039 5 121522840.985 5     -4251.504          35.000    22709456.883 4  94517769.773 4     -3306.725          25.000
C05  39774197.273 5 207114681.497 5       -23.719          35.000    39774192.219 6 160154193.760 6       -18.428          38.000
C12  24545795.117 5 127816353.624 5     -2081.914          33.000    24545792.758 6  98835766.083 6     -1610.137          41.000
C21  23421604.219 4 121962459.967 4      2046.816          27.000
C22  21973255.930 8 114420480.435 8      -355.691          51.000
E07  23723969.844 6 124670311.413 6       684.430          36.000    23723972.320 6  95526603.060 6       524.277          41.000
E08  22557690.562 6 118541476.447 6     -1484.016          41.000
E13                                                                  26184167.109 5 105432851.599 5     -2346.262          31.000
E26  23774222.180 5 124934379.699 5      -963.809          34.000    23774218.992 5  95728926.937 5      -738.239          31.000
E30  25836433.945 7 135771382.119 7      2893.418          44.000    25836435.289 7 104032625.566 7      2217.008          47.000
> 2020 05 11 00 16  0.0000000  0 17        .000000000000
G02  22796657.133 5 119797251.761 5      1549.801          33.000
G06  21119907.078 8 110985859.652 8      -639.113          49.000    21119909.281 8  86482473.492 8      -498.010          49.000
G07  21985911.414 8 115536712.911 8      2482.984          51.000    21985908.797 8  90028596.236 8      1934.796          51.000
G09  20335906.242 8 106866008.588 8      -560.031          51.000    20335907.148 8  83272205.053 8      -436.388          51.000
R02  19922470.258 8 106310120.611 8     -1143.312          51.000    19922473.500 8  82685659.142 8      -889.243          48.000
R11  22279789.359 6 119056413.676 6     -2285.199          40.000    22279799.562 4  92599498.441 4     -1777.377          26.000
R12  20644807.133 4 110280853.068 4      1351.523          28.000    20644802.039 6  85773975.681 6      1051.185          36.000
R17  22733290.859 5 121650434.489 5     -4254.711          32.000
C05  39774327.750 5 207115360.775 5       -21.285          35.000    39774322.688 6 160154719.000 6       -16.272          38.000
C12  24557817.492 5 127878950.716 5     -2091.102          32.000    24557816.508 6  98884170.080 6     -1616.794          40.000
C19  24471931.750 5 127431755.726 5     -2383.758          30.000
C22  21975321.438 8 114431236.338 8      -361.133          51.000
E07  23720072.203 5 124649827.688 5       680.957          33.000    23720074.703 6  95510907.732 6       522.203          41.000
E08  22566164.844 6 118586006.740 6     -1484.801          40.000
E13                                                                  26201649.039 5 105503185.222 5     -2347.297          30.000
E26  23779757.602 5 124963468.842 5      -975.223          35.000    23779756.383 5  95751216.037 5      -747.338          33.000
E30  25819914.602 7 135684583.148 7      2893.348          44.000    25819917.391 7 103966117.270 7      2216.969          45.000
> 2020 05 11 00 16 30.0000000  0 14        .000000000000
G06  21123632.523 8 111005434.479 8      -662.961          50.000    21123634.336 8  86497726.619 8      -516.590          50.000
G07  21971791.273 8 115462508.713 8      2466.883          51.000    21971788.742 8  89970774.807 8      1922.246          51.000
G09  20339157.367 8 106883093.147 8      -575.844          51.000    20339158.031 8  83285517.704 8      -448.709          51.000
R02  19928944.680 8 106344668.356 8     -1156.844          51.000    19928947.664 8  82712529.614 8      -899.767          48.000
R11  22292701.758 6 119125404.561 6     -2311.016          37.000    22292708.734 5  92653157.992 5     -1797.457          30.000
R12  20637312.047 5 110240815.954 5      1322.152          34.000    20637306.078 6  85742828.112 6      1028.341          36.000
C05  39774468.250 6 207116092.019 6       -24.516          36.000    39774463.070 6 160155284.481 6       -19.256          37.000
C12  24569915.352 5 127941944.808 5     -2106.406          32.000    24569915.484 6  98932881.039 6     -1628.496          37.000
C22  21977445.125 8 114442294.916 8      -373.191          51.000
E07  23716215.617 5 124629554.636 5       671.961          32.000    23716219.734 6  95495385.384 6       515.005          41.000
E08  22574671.352 6 118630705.187 6     -1492.285          39.000
E13  26219184.133 5 137782743.650 5     -3071.031          31.000
E26  23785385.039 5 124993041.108 5      -993.090          35.000    23785382.578 5  95773882.251 5      -761.154          34.000
E30  25803423.727 7 135597926.854 7      2886.641          46.000    25803424.633 7 103899718.283 7      2212.051          43.000
> 2020 05 11 00 17  0.0000000  0 13        .000000000000
G06  21127460.344 8 111025547.740 8      -679.254          49.000    21127461.211 8  86513399.312 8      -529.289          49.000
G07  21957727.656 8 115388603.616 8      2458.742          50.000    21957725.516 8  89913186.454 8      1915.906          51.000
G09  20342464.273 8 106900471.067 8      -584.059          51.000    20342464.953 8  83299058.946 8      -455.111          51.000
R02  19935460.039 8 106379435.551 8     -1162.445          51.000    19935462.914 8  82739570.759 8      -904.124          49.000
R11  22305724.305 4 119194992.360 4     -2329.172          29.000    22305731.242 4  92707281.935 4     -1811.575          27.000
R12  20629935.938 6 110201392.431 6      1299.477          38.000    20629942.086 5  85712208.393 5      1010.704          34.000
C05  39774595.867 5 207116756.550 5       -20.965          35.000    39774590.727 6 160155798.311 6       -16.184          37.000
C12  24582067.445 5 128005214.892 5     -2113.234          30.000
C22  21979604.234 8 114453537.701 8      -377.742          51.000
