     3.02           OBSERVATION DATA    M (MIXED)           RINEX VERSION / TYPE
SAVERINEX           SC600               20200505 115930 LCL PGM / RUN BY / DATE
       G = GPS       R = GLONASS       C = COMPASS          COMMENT
       S = SBAS      J = QZSS          E = GALILEO          COMMENT
BEAN                                                        MARKER NAME
1                                                           MARKER NUMBER
GEODETIC                                                    MARKER TYPE
Unige DICCA         GTER                                    OBSERVER / AGENCY
SC60291900056       SC600               2.12(191226)        REC # / TYPE / VERS
                    HEMA45          NONE                    ANT # / TYPE
  4509407.8091   693652.4678  4442337.6214                  APPROX POSITION XYZ
        0.0000        0.0000        0.0000                  ANTENNA: DELTA H/E/N
G    8 C1C L1C D1C S1C C2Y L2Y D2Y S2Y                      SYS / # / OBS TYPES
R    8 C1C L1C D1C S1C C2P L2P D2P S2P                      SYS / # / OBS TYPES
C    8 C1I L1I D1I S1I C7I L7I D7I S7I                      SYS / # / OBS TYPES
E    8 C1C L1C D1C S1C C7Q L7Q D7Q S7Q                      SYS / # / OBS TYPES
DBHZ                                                        COMMENT
     30.000                                                 INTERVAL
  2020    05    05    09    00    0.0000000     GPS         TIME OF FIRST OBS
  2020    05    05    09    59   30.0000000     GPS         TIME OF LAST OBS
     0                                                      RCV CLOCK OFFS APPL
G L1C  0.00000                                              SYS / PHASE SHIFT
G L2Y  0.00000                                              SYS / PHASE SHIFT
R L1C  0.00000                                              SYS / PHASE SHIFT
R L2P  0.25000                                              SYS / PHASE SHIFT
C L1I  0.00000                                              SYS / PHASE SHIFT
C L7I  0.00000                                              SYS / PHASE SHIFT
E L1C  0.50000                                              SYS / PHASE SHIFT
E L7Q -0.25000                                              SYS / PHASE SHIFT
 13 R01  1 R06 -4 R07  5 R08  6 R09 -2 R10 -7 R11  0 R16 -1 GLONASS SLOT / FRQ #
    R18 -3 R19  3 R20  2 R21  4 R22 -3                      GLONASS SLOT / FRQ #
 C1C   71.950 C2C   71.950 C2P   71.950                     GLONASS COD/PHS/BIS
    18                                                      LEAP SECONDS
*** Above antenna height is from mark to ANTENNA BOTTOM.    COMMENT
    17     4        0.0000        ANT MEASURE TYPE/HEIGT    COMMENT
    0.0000    0.0000    0.0458    0.0405    0.0000          COMMENT
                    BASE STATION                            COMMENT
                                                            END OF HEADER
> 2020 05 05 09 00  0.0000000  0 15        .000000000000
G02  24135883.422 5 126834946.661 5      2276.477          34.000
G12  20077406.938 8 105507486.212 8       326.879          48.000    20077405.719 8  82213616.019 8       254.711          48.000
G24  20530754.234 8 107889838.180 8     -1372.051          51.000    20530755.391 8  84070000.920 8     -1069.130          51.000
G25  21358774.133 5 112241114.727 5      2151.516          30.000
R01  21835106.352 6 116721147.896 6     -2867.203          37.000    21835113.117 5  90783211.326 5     -2230.047          35.000
R09  23190757.633 5 123837352.975 5     -3032.309          32.000
R10  20471016.844 6 109122021.713 6     -1713.145          38.000
R21  21680948.719 8 116019075.393 8      3918.043          50.000    21680953.492 8  90237102.820 8      3047.370          48.000
C14  25420657.438 7 132371998.375 7     -2606.957          45.000    25420656.398 7 102358416.349 7     -2015.904          47.000
C26  21840057.594 8 113726886.252 8     -1041.254          51.000
C29  25528503.289 4 132933614.584 4     -2578.266          29.000
E15  25567949.773 7 134360504.495 7      2265.164          43.000    25567957.352 6 102951621.056 6      1735.708          37.000
E21                                                                  25586885.492 5 103027780.658 5      1388.437          35.000
E27  23342315.766 8 122664692.748 8      -168.840          51.000    23342317.859 8  93989843.621 8      -129.434          51.000
E30  24739680.023 6 130007896.425 6     -2017.953          37.000    24739673.516 5  99616447.634 5     -1545.981          34.000
> 2020 05 05 09 00 30.0000000  0 13        .000000000000
G02  24122901.469 6 126766729.845 6      2269.559          38.000
G12  20075572.281 8 105497844.546 8       314.281          50.000    20075570.906 8  82206103.014 8       244.894          50.000
G24  20538618.875 8 107931169.037 8     -1385.035          51.000    20538620.656 8  84102206.774 8     -1079.248          51.000
G25  21346512.891 5 112176684.221 5      2142.086          30.000
R01  21851239.805 5 116807392.646 5     -2884.117          33.000    21851245.945 5  90850290.607 5     -2243.199          34.000
R10  20480678.227 6 109173519.329 6     -1721.633          36.000
R21  21659013.672 8 115901692.087 8      3905.828          49.000    21659018.281 7  90145804.722 7      3037.866          47.000
C14  25435684.844 7 132450250.254 7     -2611.457          44.000    25435684.523 7 102418925.607 7     -2019.308          47.000
C26  21846073.727 8 113758213.371 8     -1048.848          51.000
E15  25555038.617 7 134292652.501 7      2256.652          43.000    25555044.719 5 102899630.701 5      1728.968          34.000
E21                                                                  25576544.133 5 102986139.585 5      1386.503          35.000
E27  23343287.891 8 122669800.786 8      -173.336          51.000    23343289.820 8  93993757.555 8      -132.801          51.000
E30                                                                  24751194.898 6  99662827.523 6     -1546.903          36.000
> 2020 05 05 09 01  0.0000000  0 13        .000000000000
G02  24109945.969 6 126698651.158 6      2262.355          39.000    24109953.344 5  98726218.301 5      1762.874          33.000
G12  20073796.391 8 105488511.011 8       301.730          49.000    20073795.023 8  82198830.135 8       235.115          49.000
G19  22750093.812 5 119552544.594 5     -2751.699          32.000
G24  20546544.078 8 107972818.200 8     -1397.793          51.000    20546546.062 8  84134660.687 8     -1089.189          51.000
R01  21867451.305 6 116894061.561 6     -2900.117          37.000    21867458.664 5  90917699.741 5     -2255.650          33.000
R10  20490372.867 6 109225197.888 6     -1730.102          39.000
R21  21637133.047 8 115784602.350 8      3893.605          49.000    21637137.547 7  90054734.912 7      3028.357          46.000
C14  25450724.188 7 132528564.880 7     -2615.883          42.000    25450724.477 7 102479483.378 7     -2022.718          47.000
C26  21852120.367 8 113789700.762 8     -1056.504          51.000
E15  25542163.352 7 134224988.467 7      2247.910          43.000    25542165.398 6 102847784.292 6      1722.610          36.000
E21  25566201.219 6 134351304.840 6      1806.875          37.000    25566202.508 6 102944499.869 6      1384.758          37.000
E27  23344272.266 8 122674973.833 8      -177.797          51.000    23344274.250 8  93997721.317 8      -136.258          51.000
E30                                                                  24762709.438 5  99709179.001 5     -1548.166          35.000
> 2020 05 05 09 01 30.0000000  0 14        .000000000000
G02  24097060.352 6 126630938.987 6      2253.973          37.000    24097070.203 4  98673457.591 4      1756.355          28.000
G12  20072121.578 8 105479710.512 8       287.387          48.000    20072120.234 8  82191972.618 8       223.938          48.000
G19  22765852.109 5 119635358.652 5     -2766.754          33.000
G24  20554572.805 8 108015010.059 8     -1412.566          51.000    20554575.039 8  84167537.458 8     -1100.701          51.000
G25  21322154.312 5 112048693.998 5      2121.691          33.000
R01  21883785.422 6 116981380.065 6     -2918.324          37.000    21883792.984 5  90985614.098 5     -2269.808          32.000
R10  20500143.562 5 109277285.565 5     -1740.105          34.000
R21  21615350.859 8 115668040.357 8      3879.426          48.000    21615355.352 7  89964075.594 7      3017.331          44.000
C14  25465817.820 6 132607163.169 6     -2621.852          41.000    25465818.453 7 102540260.467 7     -2027.340          47.000
C26  21858240.805 8 113821571.946 8     -1065.977          51.000
E15  25529367.023 7 134157739.775 7      2237.617          42.000    25529366.250 6 102796256.115 6      1714.592          37.000
E21  25555901.344 5 134297176.907 5      1803.504          35.000    25555904.055 6 102903034.461 6      1381.516          37.000
E27  23345311.805 8 122680437.268 8      -184.066          51.000    23345313.945 8  94001907.580 8      -141.023          51.000
E30  24774252.453 5 130189580.819 5     -2023.379          32.000    24774258.344 5  99755674.791 5     -1550.381          35.000
> 2020 05 05 09 02  0.0000000  0 14        .000000000000
G02  24084232.383 6 126563531.510 6      2243.551          37.000    24084242.445 5  98620932.255 5      1748.215          33.000
G12  20070535.938 8 105471378.594 8       271.504          49.000    20070534.672 8  82185480.190 8       211.558          49.000
G19  22781704.430 5 119718662.596 5     -2783.484          34.000
G24  20562693.000 8 108057680.908 8     -1428.746          51.000    20562695.266 8  84200787.463 8     -1113.309          51.000
G25  21310086.344 5 111985257.915 5      2108.250          30.000    21310082.117 4  87261223.440 4      1642.792          27.000
R01  21900228.477 6 117069278.756 6     -2937.859          39.000    21900236.586 5  91053979.733 5     -2285.002          33.000
R10  20509979.398 6 109329717.560 6     -1751.762          39.000
R21  21593655.602 7 115551945.285 7      3863.676          47.000    21593659.633 6  89873779.514 6      3005.087          40.000
C14  25480953.297 6 132685979.121 6     -2629.234          40.000    25480954.109 7 102601205.874 7     -2033.036          47.000
C26  21864422.750 8 113853763.545 8     -1076.855          51.000
E15  25516637.430 7 134090844.236 7      2225.465          42.000    25516635.570 6 102744998.510 6      1705.259          41.000
E21                                                                  25545636.984 5 102861694.144 5      1377.590          35.000
E27  23346394.344 8 122686126.868 8      -191.883          51.000    23346396.594 8  94006267.136 8      -146.985          51.000
E30  24785822.602 5 130250373.807 5     -2027.484          34.000
> 2020 05 05 09 02 30.0000000  0 14        .000000000000
G02  24071423.992 6 126496223.097 6      2243.559          36.000    24071435.055 5  98568484.204 5      1748.237          31.000
G12  20068999.938 8 105463305.846 8       266.672          50.000    20068999.000 8  82179189.733 8       207.796          50.000
G19  22797611.070 5 119802247.997 5     -2788.734          31.000
G24  20570864.703 8 108100621.681 8     -1434.004          51.000    20570866.797 8  84234247.776 8     -1117.409          51.000
G25  21298052.422 5 111922012.398 5      2107.480          35.000
R01  21916740.008 7 117157540.673 7     -2946.391          42.000    21916748.641 5  91122627.866 5     -2291.637          32.000
R10  20519841.086 6 109382282.088 6     -1752.281          37.000
R21  21572008.305 7 115436109.111 7      3858.812          46.000    21572009.641 6  89783684.855 6      3001.302          37.000
C14  25496090.547 7 132764803.347 7     -2625.551          42.000    25496091.555 7 102662157.726 7     -2030.375          47.000
C26  21870626.578 8 113886068.872 8     -1076.836          51.000
E15  25503935.539 7 134024095.070 7      2224.324          43.000    25503935.508 7 102693853.063 7      1704.430          44.000
E21                                                                  25535362.406 5 102820319.005 5      1381.355          34.000
E27  23347480.203 8 122691833.770 8      -188.684          51.000    23347482.398 8  94010639.957 8      -144.534          51.000
E30  24797379.234 5 130311106.822 5     -2020.609          32.000
> 2020 05 05 09 03  0.0000000  0 15        .000000000000
G02  24058684.258 6 126429274.545 6      2236.027          37.000
G12  20067562.344 8 105455750.196 8       253.613          49.000    20067561.375 8  82173302.242 8       197.621          49.000
G19  22813619.984 4 119886370.594 4     -2803.891          29.000    22813620.977 4  93417963.103 4     -2184.850          28.000
G24  20579136.953 8 108144090.624 8     -1447.316          51.000    20579138.766 8  84268119.643 8     -1127.779          51.000
G25  21286099.469 5 111859190.897 5      2097.422          35.000
R01  21933368.867 7 117246425.022 7     -2962.668          42.000    21933376.148 5  91191760.038 5     -2304.303          33.000
R10  20529775.203 5 109435241.304 5     -1760.859          35.000
R11  20116986.242 5 107499014.730 5      1568.191          30.000
R21  21550459.094 7 115320799.882 7      3845.406          47.000    21550459.156 6  89693999.974 6      2990.872          40.000
C14  25511278.516 7 132843889.616 7     -2630.129          43.000    25511279.359 8 102723312.211 8     -2033.918          48.000
C26  21876901.672 8 113918744.309 8     -1085.098          51.000
E15  25491310.094 6 133957752.719 6      2215.113          39.000    25491312.766 7 102643019.327 7      1697.202          44.000
E21                                                                  25525129.125 6 102779107.300 6      1378.856          36.000
E27  23348618.492 8 122697816.448 8      -193.742          51.000    23348620.703 8  94015224.085 8      -148.395          51.000
E30                                                                  24808977.945 5  99895460.457 5     -1549.854          35.000
> 2020 05 05 09 03 30.0000000  0 15        .000000000000
G02  24045953.219 6 126362367.749 6      2219.938          38.000
G12  20066161.836 8 105448389.936 8       232.672          50.000    20066160.117 8  82167566.972 8       181.303          50.000
G19  22829669.086 5 119970719.161 5     -2824.398          33.000    22829669.867 5  93483680.861 5     -2200.830          30.000
G24  20587448.523 8 108187766.194 8     -1468.629          51.000    20587449.828 8  84302152.518 8     -1144.389          51.000
G25  21274165.125 5 111796472.733 5      2078.680          32.000
R01  21950052.445 6 117335600.823 6     -2986.727          40.000    21950057.883 5  91261118.826 5     -2323.016          35.000
R10  20539723.273 6 109488268.592 6     -1778.113          39.000
R21  21528948.352 7 115205694.754 7      3823.910          47.000    21528949.578 7  89604473.792 7      2974.155          43.000
C14  25526455.422 7 132922917.131 7     -2642.469          45.000    25526456.070 8 102784421.268 8     -2043.463          49.000
C24  22481723.367 5 117068246.964 5      1416.012          30.000
C26  21883186.789 8 113951471.648 8     -1101.172          51.000
E15  25478700.969 6 133891497.858 6      2197.469          38.000    25478706.180 7 102592252.647 7      1683.745          44.000
E21                                                                  25514874.508 5 102737812.852 5      1370.783          34.000
E27  23349748.078 8 122703753.555 8      -206.605          51.000    23349750.711 8  94019768.289 8      -158.263          51.000
E30                                                                  24820540.852 5  99942006.049 5     -1556.852          34.000
> 2020 05 05 09 04  0.0000000  0 12        .000000000000
G02  24033318.836 5 126295972.657 5      2209.789          35.000
G12  20064887.266 8 105441691.937 8       217.598          50.000    20064885.117 8  82162347.746 8       169.557          50.000
G24  20595888.062 8 108232114.685 8     -1484.078          51.000    20595889.031 8  84336709.743 8     -1156.428          51.000
R01  21966877.641 6 117425538.989 6     -3005.258          39.000    21966883.297 6  91331070.643 6     -2337.426          37.000
R10  20549773.977 5 109541820.854 5     -1789.375          31.000
R21  21507566.070 8 115091273.970 8      3807.953          49.000    21507568.836 7  89515479.880 7      2961.741          45.000
C14  25541709.281 7 133002346.311 7     -2648.992          45.000    25541709.945 8 102845840.912 8     -2048.396          50.000
C24  22473606.344 4 117025959.592 4      1408.508          29.000
C26  21889570.688 8 113984713.995 8     -1111.270          51.000
E15  25466198.984 6 133825799.707 6      2185.891          39.000    25466204.641 7 102541912.454 7      1674.963          44.000
E21                                                                  25504687.617 5 102696793.617 5      1366.982          34.000
E27  23350957.984 8 122710112.166 8      -213.613          51.000    23350960.883 8  94024641.465 8      -163.666          51.000
> 2020 05 05 09 04 30.0000000  0 11        .000000000000
G02  24020714.508 6 126229736.584 6      2204.934          36.000
G12  20063670.992 8 105435300.395 8       207.508          49.000    20063668.875 8  82157367.324 8       161.694          50.000
G24  20604387.875 8 108276780.880 8     -1494.527          51.000    20604388.477 8  84371514.526 8     -1164.567          51.000
R01  21983776.281 6 117515873.508 6     -3018.223          40.000    21983782.977 6  91401330.814 6     -2347.507          38.000
R10  20559855.164 5 109595571.633 5     -1795.273          31.000
R21  21486245.234 8 114977180.376 8      3797.195          49.000    21486248.734 7  89426740.446 7      2953.374          47.000
C14  25556972.141 7 133081822.505 7     -2650.156          45.000    25556972.633 8 102907296.933 8     -2049.444          49.000
C26  21895985.969 8 114018119.364 8     -1116.672          51.000
E15  25453734.500 6 133760304.771 6      2179.109          37.000    25453741.484 7 102491727.989 7      1669.809          44.000
E21  25494489.234 5 133974447.753 5      1784.051          33.000    25494501.531 6 102655777.514 6      1367.036          36.000
E27  23352180.586 8 122716536.842 8      -215.723          51.000    23352183.602 8  94029564.254 8      -165.243          51.000
> 2020 05 05 09 05  0.0000000  0 13        .000000000000
G02  24008147.305 5 126163694.031 5      2195.469          35.000
G12  20062518.695 8 105429246.286 8       193.211          48.000    20062516.867 8  82152649.838 8       150.554          48.000
G24  20612953.836 8 108321796.215 8     -1509.254          51.000    20612954.305 8  84406591.364 8     -1176.042          51.000
G25  21238821.961 5 111610791.746 5      2048.848          35.000
R01  22000754.297 6 117606632.968 6     -3035.449          40.000    22000761.906 6  91471921.490 6     -2360.902          37.000
R10  20569980.891 5 109649537.312 5     -1805.695          35.000
R21  21464992.070 8 114863450.752 8      3781.875          50.000    21464996.742 8  89338284.110 8      2941.458          49.000
C14  25572249.562 7 133161374.941 7     -2656.105          45.000    25572249.734 8 102968811.889 8     -2053.872          49.000
C24  22457430.078 5 116941733.539 5      1396.715          32.000
C26  21902438.711 8 114051719.512 8     -1126.199          51.000
E15  25441315.875 6 133695046.773 6      2168.203          40.000    25441323.375 7 102441725.114 7      1661.332          42.000
E21  25484308.086 5 133920943.410 5      1779.355          31.000    25484322.516 5 102614789.055 5      1363.785          33.000
E27  23353421.828 8 122723059.403 8      -222.082          51.000    23353424.852 8  94034562.055 8      -170.185          51.000
> 2020 05 05 09 05 30.0000000  0 10        .000000000000
G12  20061454.570 8 105423655.685 8       177.664          49.000    20061453.133 8  82148293.518 8       138.440          49.000
G24  20621609.703 8 108367286.283 8     -1525.242          49.000    20621610.641 8  84442038.138 8     -1188.500          49.000
R01  22017833.297 6 117697941.446 6     -3053.742          38.000    22017843.281 6  91542939.254 6     -2375.133          38.000
R10  20580170.609 4 109703844.908 4     -1816.902          29.000
R21  21443831.953 8 114750218.317 8      3765.121          49.000    21443836.750 8  89250214.402 8      2928.424          48.000
C14  25587565.234 7 133241126.128 7     -2662.594          46.000    25587564.836 7 103030480.544 7     -2058.935          47.000
C26  21908952.930 8 114085639.648 8     -1136.934          51.000
E15  25428967.578 7 133630153.828 7      2155.957          42.000    25428974.086 6 102392001.966 6      1652.114          40.000
E21                                                                  25474173.883 4 102573941.880 4      1359.284          29.000
E27  23354705.742 8 122729805.920 8      -229.621          51.000    23354708.656 8  94039731.454 8      -175.905          51.000
> 2020 05 05 09 06  0.0000000  0 10        .000000000000
G12  20060457.961 8 105418418.195 8       161.480          50.000    20060456.664 8  82144212.339 8       125.829          50.000
G24  20630334.820 8 108413141.486 8     -1541.848          49.000    20630336.484 8  84477769.478 8     -1201.440          49.000
R01  22034993.625 6 117789683.213 6     -3072.527          40.000    22035005.516 6  91614293.957 6     -2389.743          38.000
R10  20590398.320 5 109758410.037 5     -1828.793          31.000
R21  21422744.859 8 114637375.726 8      3747.457          50.000    21422749.094 8  89162447.924 8      2914.689          48.000
C14  25602897.852 7 133320964.966 7     -2669.930          46.000    25602896.680 7 103092216.953 7     -2064.471          46.000
C26  21915507.789 8 114119771.267 8     -1148.441          51.000
C29  25710799.594 5 133882876.413 5     -2699.852          32.000
E15  25416668.789 7 133565518.244 7      2142.957          42.000    25416673.758 6 102342475.985 6      1641.967          39.000
E27  23356011.508 8 122736666.687 8      -237.840          51.000    23356014.172 8  94044988.401 8      -182.208          51.000
> 2020 05 05 09 06 30.0000000  0 10        .000000000000
G12  20059516.469 8 105413470.500 8       153.645          48.000    20059515.086 8  82140356.994 8       119.723          48.000
G24  20639117.797 8 108459298.480 8     -1550.191          50.000    20639119.938 8  84513735.962 8     -1207.941          50.000
R01  22052224.172 6 117881790.024 6     -3082.922          41.000    22052235.797 6  91685932.517 6     -2397.831          38.000
R10  20600663.016 4 109813115.018 4     -1832.516          29.000
R21  21401720.242 8 114524863.806 8      3738.301          51.000    21401723.125 7  89074938.649 7      2907.567          47.000
C14  25618234.875 7 133400826.698 7     -2668.844          46.000    25618232.750 7 103153971.057 7     -2063.698          45.000
C26  21922091.125 8 114154052.232 8     -1151.613          51.000
C29  25726321.727 5 133963708.928 5     -2703.668          31.000
E15  25404406.242 6 133501078.910 6      2138.133          39.000    25404410.727 6 102293100.433 6      1638.540          39.000
E27  23357327.000 8 122743578.798 8      -237.688          51.000    23357329.477 8  94050284.694 8      -182.169          51.000
> 2020 05 05 09 07  0.0000000  0 12        .000000000000
G12  20058685.234 8 105409102.598 8       139.539          49.000    20058683.719 8  82136953.442 8       108.732          49.000
G24  20648013.812 8 108506047.101 8     -1564.445          50.000    20648016.430 8  84550163.459 8     -1219.051          50.000
R01  22069578.883 7 117974552.684 7     -3099.266          44.000    22069588.516 6  91758081.211 6     -2410.540          37.000
R10  20611011.273 5 109868281.738 5     -1842.941          31.000
R21  21380813.234 8 114412982.466 8      3722.535          51.000    21380814.602 7  88987919.875 7      2895.305          44.000
C14  25633630.891 7 133480996.685 7     -2673.703          45.000    25633627.773 7 103215963.530 7     -2067.577          43.000
C24  22425553.367 5 116775738.240 5      1367.465          31.000
C26  21928758.453 8 114188770.538 8     -1160.965          51.000
C29  25741930.984 5 134044997.162 5     -2713.648          30.000
E15  25392237.055 7 133437128.434 7      2127.156          42.000    25392241.102 6 102244099.411 6      1629.965          39.000
E27  23358707.383 8 122750832.694 8      -243.809          51.000    23358709.797 8  94055842.867 8      -186.817          51.000
E30                                                                  24901964.828 5 100269890.989 5     -1567.077          35.000
> 2020 05 05 09 07 30.0000000  0 14        .000000000000
G02  23946093.281 5 125837560.220 5      2150.895          33.000
G12  20057922.547 8 105405094.748 8       126.270          49.000    20057921.016 8  82133830.412 8        98.392          49.000
G24  20656980.625 8 108553167.726 8     -1578.223          51.000    20656983.555 8  84586880.807 8     -1229.784          51.000
R01  22087014.258 7 118067744.176 7     -3114.777          44.000    22087021.375 6  91830563.457 6     -2422.605          38.000
R10  20621410.117 5 109923712.768 5     -1852.629          32.000
R11  20040096.805 5 107088219.058 5      1479.422          30.000    20040089.680 4  83290819.982 4      1150.671          26.000
R21  21359982.586 8 114301513.194 8      3707.426          50.000    21359982.906 7  88901221.608 7      2883.553          44.000
C14  25649043.797 7 133561255.151 7     -2678.145          44.000    25649039.820 7 103278024.399 7     -2070.836          42.000
C24  22417691.867 5 116734803.948 5      1360.117          32.000
C26  21935467.938 8 114223708.970 8     -1169.531          51.000
C29  25757585.398 4 134126505.617 4     -2722.934          28.000
E15  25380120.234 7 133373449.187 7      2116.742          43.000    25380122.977 6 102195306.194 6      1621.937          39.000
E27  23360110.945 8 122758208.901 8      -249.195          51.000    23360113.320 8  94061494.762 8      -190.951          51.000
E30                                                                  24913637.602 5 100316913.513 5     -1568.564          31.000
> 2020 05 05 09 08  0.0000000  0 11        .000000000000
G02  23933844.500 5 125773190.121 5      2143.203          34.000
G12  20057240.391 8 105401510.370 8       114.438          48.000    20057239.070 8  82131037.405 8        89.172          48.000
G24  20666030.414 8 108600724.416 8     -1590.477          51.000    20666033.508 8  84623937.969 8     -1239.332          51.000
R01  22104541.000 7 118161425.405 7     -3128.879          44.000    22104546.320 6  91903426.584 6     -2433.576          39.000
R21  21339240.891 7 114190525.570 7      3693.551          47.000    21339241.133 7  88814897.912 7      2872.762          43.000
C14  25664485.359 7 133641663.164 7     -2680.875          43.000    25664481.180 7 103340200.915 7     -2072.866          42.000
C24  22409874.695 5 116694098.673 5      1354.055          30.000
C26  21942232.023 8 114258931.307 8     -1176.859          51.000
E15  25368067.430 6 133310107.175 6      2107.680          39.000    25368069.453 6 102146771.471 6      1615.107          37.000
E27  23361549.961 8 122765771.572 8      -253.145          51.000    23361552.242 8  94067289.530 8      -194.007          51.000
E30  24925332.336 5 130983500.760 5     -2047.812          35.000
> 2020 05 05 09 08 30.0000000  0 11        .000000000000
G02  23921640.523 6 125709075.562 6      2137.406          36.000
G12  20056628.859 8 105398297.070 8       104.438          49.000    20056627.836 8  82128533.544 8        81.380          49.000
G24  20675153.305 8 108648664.483 8     -1600.941          51.000    20675156.492 8  84661293.865 8     -1247.484          51.000
R01  22122148.297 7 118255539.228 7     -3140.734          44.000    22122152.156 6  91976626.178 6     -2442.796          39.000
R10  20642355.508 5 110035382.898 5     -1866.172          31.000
R21  21318580.164 8 114079971.320 8      3681.543          48.000    21318581.195 7  88728911.223 7      2863.419          44.000
C14  25679945.398 7 133722166.867 7     -2681.469          43.000    25679941.352 6 103402451.441 6     -2073.433          41.000
C26  21949040.625 8 114294386.217 8     -1182.203          51.000
E15  25356069.484 6 133247052.441 6      2100.664          41.000    25356067.266 5 102098456.875 5      1609.899          31.000
E27  23363014.531 8 122773468.747 8      -255.219          51.000    23363016.758 8  94073187.351 8      -195.548          51.000
E30  24937038.859 5 131045023.605 5     -2047.258          32.000
> 2020 05 05 09 09  0.0000000  0 10        .000000000000
G12  20056079.266 8 105395408.874 8        95.445          50.000    20056078.336 8  82126282.998 8        74.373          50.000
G24  20684340.508 8 108696942.194 8     -1610.328          51.000    20684343.633 8  84698912.848 8     -1254.801          51.000
R01  22139826.375 7 118350035.117 7     -3151.559          43.000    22139829.336 6  92050122.929 6     -2451.212          40.000
R21  21297993.734 8 113969808.503 8      3670.184          49.000    21297995.078 7  88643229.023 7      2854.587          45.000
C14  25695414.727 7 133802718.749 7     -2681.266          42.000    25695411.164 7 103464739.221 7     -2073.322          42.000
C24  22394383.992 5 116613387.713 5      1347.555          32.000
C26  21955885.250 8 114330028.845 8     -1186.660          51.000
E15  25344117.164 6 133184241.329 6      2094.172          37.000    25344111.695 5 102050236.021 5      1604.508          31.000
E27  23364495.906 8 122781253.915 8      -256.457          51.000    23364498.461 8  94079150.371 8      -196.485          51.000
E30  24948739.242 6 131106503.184 6     -2044.484          38.000
> 2020 05 05 09 09 30.0000000  0 10        .000000000000
G12  20055642.086 8 105393111.497 8        61.297          50.000    20055641.094 8  82124492.846 8        47.767          50.000
G24  20693642.469 8 108745823.305 8     -1644.789          51.000    20693645.305 8  84737002.016 8     -1281.654          51.000
R01  22157624.844 7 118445179.513 7     -3187.770          44.000    22157627.773 6  92124124.092 6     -2479.379          40.000
R10  20663515.664 5 110148193.938 5     -1901.098          32.000
R21  21277532.133 8 113860312.814 8      3633.168          50.000    21277534.352 7  88558065.760 7      2825.800          47.000
C14  25710943.234 6 133883580.176 6     -2705.895          39.000    25710940.648 7 103527266.339 7     -2092.239          43.000
C26  21962816.711 8 114366123.214 8     -1216.043          51.000
E15  25332263.234 6 133121942.211 6      2062.605          36.000    25332257.594 5 102002498.340 5      1580.659          35.000
E27  23366045.125 8 122789395.346 8      -282.723          51.000    23366047.797 8  94085388.600 8      -216.599          51.000
E30  24960486.266 6 131168228.168 6     -2067.199          40.000    24960479.461 5 100505519.717 5     -1583.748          33.000
> 2020 05 05 09 10  0.0000000  0 11        .000000000000
G12  20055230.867 8 105390950.333 8        58.297          50.000    20055229.992 8  82122808.826 8        45.426          50.000
G24  20702972.766 8 108794853.194 8     -1648.344          51.000    20702975.367 8  84775207.100 8     -1284.424          51.000
R01  22175457.336 7 118540506.252 7     -3192.293          44.000    22175460.281 6  92198267.064 6     -2482.895          39.000
R10  20674145.805 6 110204847.736 6     -1899.957          36.000
R11  19999171.859 5 106869464.387 5      1431.137          35.000    19999176.719 4  83120732.481 4      1113.109          28.000
R21  21257109.516 8 113751026.299 8      3627.613          51.000    21257112.648 7  88473065.195 7      2821.480          47.000
C14  25726443.695 6 133964298.594 6     -2699.430          37.000    25726442.641 7 103589682.922 7     -2087.515          42.000
C26  21969748.516 8 114402219.377 8     -1214.656          51.000
E15                                                                  25320416.750 6 101954808.268 6      1580.082          37.000
E27  23367575.727 8 122797437.803 8      -277.938          51.000    23367578.305 8  94091551.012 8      -212.959          51.000
E30  24972195.609 5 131229771.995 5     -2059.234          30.000    24972179.875 5 100552661.344 5     -1577.609          33.000
> 2020 05 05 09 10 30.0000000  0 11        .000000000000
G02  23873352.016 5 125455311.370 5      2101.152          32.000
G12  20054925.781 8 105389347.455 8        54.070          49.000    20054924.961 8  82121559.838 8        42.133          49.000
G24  20712411.703 8 108844454.073 8     -1652.988          51.000    20712414.195 8  84813857.117 8     -1288.046          51.000
R01  22193403.695 7 118636441.175 7     -3197.777          44.000    22193406.250 6  92272883.059 6     -2487.160          37.000
R10  20684856.406 6 110261944.937 6     -1900.582          38.000
R21  21236807.430 8 113642384.017 8      3620.664          51.000    21236810.969 7  88388565.683 7      2816.072          47.000
C14  25741996.445 6 134045290.810 6     -2694.250          36.000    25741996.938 7 103652311.230 7     -2083.456          42.000
C26  21976761.305 8 114438736.678 8     -1214.379          51.000
E15  25308659.484 5 132997898.436 5      2060.707          33.000    25308666.273 6 101907489.273 6      1578.714          39.000
E27  23369167.984 8 122805804.268 8      -274.387          51.000    23369170.297 8  94097961.676 8      -210.220          51.000
E30  24983931.812 6 131291432.405 6     -2051.914          39.000
> 2020 05 05 09 11  0.0000000  0 10        .000000000000
G12  20054669.203 8 105387999.428 8        38.883          51.000    20054668.117 8  82120509.413 8        30.298          51.000
G24  20721901.336 8 108894322.925 8     -1668.516          51.000    20721903.969 8  84852715.931 8     -1300.142          51.000
R01  22211405.016 7 118732671.921 7     -3214.516          42.000    22211407.773 6  92347729.127 6     -2500.182          38.000
R10  20695592.859 6 110319177.820 6     -1911.645          38.000
R21  21216568.883 8 113534081.816 8      3602.527          51.000    21216572.031 7  88304330.695 7      2801.969          46.000
C14  25757544.438 6 134126254.061 6     -2700.168          37.000    25757545.406 7 103714917.120 7     -2088.122          42.000
C26  21983797.281 8 114475374.897 8     -1225.070          51.000
E15  25296945.414 6 132936326.348 6      2047.508          39.000    25296950.961 6 101860310.583 6      1568.915          41.000
E27  23370764.148 8 122814191.623 8      -281.766          51.000    23370766.133 8  94104388.347 8      -215.922          51.000
E30  24995669.922 6 131353096.973 6     -2056.312          38.000    24995677.984 6 100647218.165 6     -1575.422          36.000
> 2020 05 05 09 11 30.0000000  0 10        .000000000000
G12  20054501.883 8 105387120.007 8        22.066          51.000    20054500.742 8  82119824.151 8        17.195          51.000
G24  20731482.414 8 108944673.023 8     -1685.930          51.000    20731485.219 8  84891949.732 8     -1313.714          51.000
R01  22229500.773 7 118829411.491 7     -3232.555          42.000    22229505.234 6  92422970.978 6     -2514.209          38.000
R10  20706396.875 6 110376762.910 6     -1924.988          36.000
R21  21196435.180 8 113426342.288 8      3582.422          50.000    21196436.633 7  88220533.331 7      2786.331          42.000
C14  25773128.078 6 134207398.005 6     -2707.500          37.000    25773128.562 6 103777662.684 6     -2093.520          40.000
C26  21990897.062 8 114512346.323 8     -1237.453          51.000
E15  25285306.141 6 132875153.165 6      2032.914          40.000    25285312.047 6 101813437.684 6      1557.616          40.000
E27  23372404.977 8 122822813.899 8      -290.840          51.000    23372406.680 8  94110995.026 8      -222.878          51.000
E30  25007416.195 5 131414859.741 5     -2061.684          32.000    25007437.492 6 100694569.319 6     -1579.884          36.000
> 2020 05 05 09 12  0.0000000  0 10        .000000000000
G12  20054413.758 8 105386656.556 8         8.426          51.000    20054412.797 8  82119463.028 8         6.566          51.000
G24  20741145.484 8 108995452.444 8     -1699.840          51.000    20741148.125 8  84931518.076 8     -1324.551          51.000
R01  22247681.336 7 118926603.002 7     -3247.289          43.000    22247687.305 6  92498564.343 6     -2525.672          39.000
R10  20717254.789 6 110434660.619 6     -1934.367          38.000
R21  21176396.852 8 113319116.711 8      3565.527          48.000    21176396.422 6  88137135.724 6      2773.191          41.000
C14  25788736.633 6 134288668.663 6     -2711.230          37.000    25788736.312 6 103840506.286 6     -2096.462          40.000
C26  21998051.258 8 114549599.678 8     -1246.582          51.000
E15  25273732.523 6 132814328.970 6      2021.715          37.000    25273737.523 5 101766832.136 5      1548.930          35.000
E27  23374080.539 8 122831619.173 8      -296.656          51.000    23374082.195 8  94117741.920 8      -227.263          51.000
E30  25019195.891 5 131476736.028 5     -2063.695          34.000    25019210.680 5 100741995.406 5     -1581.743          32.000
> 2020 05 05 09 12 30.0000000  0 10        .000000000000
G12  20054396.797 8 105386566.373 8        -2.949          51.000    20054395.555 8  82119392.750 8        -2.301          51.000
G24  20750882.305 8 109046618.574 8     -1711.680          51.000    20750884.461 8  84971387.744 8     -1333.776          51.000
R01  22265938.523 7 119024199.197 7     -3259.621          44.000    22265945.070 6  92574472.447 6     -2535.261          39.000
R10  20728163.602 5 110492803.553 5     -1942.461          32.000
R21  21156446.008 7 113212367.158 7      3550.457          43.000    21156446.953 7  88054108.320 7      2761.467          43.000
C14  25804361.250 6 134370022.110 6     -2712.652          36.000    25804360.430 6 103903413.893 6     -2097.634          40.000
C26  22005251.531 8 114587093.552 8     -1253.555          51.000
E15                                                                  25262219.211 5 101720463.195 5      1541.908          35.000
E27  23375782.922 8 122840565.512 8      -300.230          51.000    23375784.625 8  94124596.911 8      -230.092          51.000
E30                                                                  25030993.461 5 100789438.229 5     -1581.725          34.000
> 2020 05 05 09 13  0.0000000  0 11        .000000000000
G12  20054453.602 8 105386864.273 8       -15.809          51.000    20054451.930 8  82119624.859 8       -12.318          51.000
G24  20760695.438 8 109098185.195 8     -1725.020          51.000    20760697.211 8  85011569.490 8     -1344.174          51.000
G25  21059239.094 4 110667048.250 4      1882.766          28.000
R01  22284273.852 7 119122210.919 7     -3273.438          44.000    22284280.305 6  92650703.737 6     -2546.010          40.000
R10  20739119.680 6 110551218.683 6     -1951.371          37.000
R21  21136587.289 7 113106112.815 7      3534.051          46.000    21136592.008 7  87971466.026 7      2748.706          45.000
C14  25820003.859 5 134451470.534 5     -2715.312          34.000    25820002.945 6 103966394.955 6     -2100.078          39.000
C26  22012500.844 8 114624842.706 8     -1262.062          51.000
E15                                                                  25250763.766 6 101674343.719 6      1533.587          36.000
E27  23377514.914 8 122849667.659 8      -305.508          51.000    23377516.664 8  94131571.285 8      -234.096          51.000
E30  25042772.234 5 131600653.590 5     -2066.414          35.000    25042787.000 5 100836922.351 5     -1583.201          33.000
> 2020 05 05 09 13 30.0000000  0 10        .000000000000
G12  20054586.469 8 105387562.221 8       -28.059          51.000    20054584.703 8  82120168.716 8       -21.861          51.000
G24  20770587.203 8 109150165.404 8     -1737.684          51.000    20770589.000 8  85052073.519 8     -1354.039          51.000
R01  22302688.383 7 119220647.080 7     -3286.352          45.000    22302695.219 6  92727265.131 6     -2556.054          40.000
R10  20750132.234 5 110609919.446 5     -1959.703          35.000
R21  21116827.773 8 113000371.509 8      3518.023          49.000    21116833.883 7  87889222.804 7      2736.240          47.000
C14  25835665.883 5 134533024.669 5     -2718.016          31.000    25835665.953 6 104029457.737 6     -2101.929          37.000
C26  22019801.633 8 114662860.413 8     -1269.832          51.000
E15  25239377.273 6 132633802.370 6      1991.090          40.000    25239376.617 6 101628485.107 6      1525.898          37.000
E27  23379279.016 8 122858938.809 8      -309.961          51.000    23379280.891 8  94138675.158 8      -237.535          51.000
E30  25054578.016 5 131662691.391 5     -2067.102          35.000
> 2020 05 05 09 14  0.0000000  0 10        .000000000000
G12  20054813.719 8 105388756.458 8       -39.617          51.000    20054812.062 8  82121099.283 8       -30.871          51.000
G24  20780575.898 8 109202655.295 8     -1749.668          51.000    20780577.852 8  85092974.719 8     -1363.378          51.000
R01  22321200.109 7 119319601.771 7     -3298.449          46.000    22321207.383 6  92804229.828 6     -2565.461          40.000
R10  20761215.680 5 110669004.106 5     -1967.246          31.000
R21  21097183.984 8 112895246.302 8      3502.574          50.000    21097189.758 7  87807458.780 7      2724.224          47.000
C14  25851365.078 5 134614841.779 5     -2719.758          30.000    25851367.375 5 104092674.423 5     -2103.358          35.000
C26  22027172.625 8 114701242.673 8     -1277.035          51.000
E15  25228071.844 6 132574391.838 6      1981.480          41.000    25228073.312 5 101582962.853 5      1517.822          35.000
E27  23381093.742 8 122868475.770 8      -313.785          51.000    23381095.758 8  94145982.693 8      -240.427          51.000
E30                                                                  25066420.453 6 100932067.986 6     -1584.110          36.000
> 2020 05 05 09 14 30.0000000  0  9        .000000000000
G12  20055080.289 8 105390158.031 8       -54.906          50.000    20055078.742 8  82122191.410 8       -42.784          50.000
G24  20790606.547 8 109255366.295 8     -1765.531          51.000    20790608.555 8  85134048.212 8     -1375.739          51.000
R01  22339753.383 7 119418777.270 7     -3314.559          45.000    22339760.820 6  92881366.266 6     -2577.990          40.000
R21  21077600.859 8 112790447.550 8      3482.914          51.000    21077605.570 7  87725948.696 7      2708.933          46.000
C14  25867046.375 4 134696498.147 4     -2724.539          27.000    25867052.195 5 104155822.070 5     -2107.448          34.000
C26  22034558.859 8 114739703.725 8     -1288.152          51.000
E15  25216793.625 6 132515133.521 6      1967.879          40.000    25216796.453 6 101537557.096 6      1507.748          36.000
E27  23382904.234 8 122877989.994 8      -321.504          51.000    23382906.406 8  94153272.795 8      -246.335          51.000
E30                                                                  25078236.281 6 100979633.035 6     -1587.535          39.000
> 2020 05 05 09 15  0.0000000  0 12        .000000000000
G02  23767947.367 5 124901410.971 5      2000.105          31.000
G12  20055441.719 8 105392057.611 8       -74.172          50.000    20055440.109 8  82123671.596 8       -57.796          50.000
G24  20800734.477 8 109308588.889 8     -1785.215          51.000    20800736.711 8  85175520.363 8     -1391.077          51.000
R01  22358402.453 7 119518465.132 7     -3333.984          46.000    22358409.648 6  92958901.229 6     -2593.099          39.000
R11  19921288.219 5 106453333.898 5      1333.824          32.000    19921291.312 4  82797042.801 4      1037.419          29.000
R21  21058134.578 8 112686276.252 8      3459.211          51.000    21058137.914 7  87644926.637 7      2690.497          45.000
C14                                                                  25882774.094 5 104219121.861 5     -2114.371          33.000
C24  22304727.867 4 116146574.178 4      1245.578          27.000
C26  22042015.547 8 114778532.137 8     -1303.000          51.000
E15  25205601.211 6 132456320.326 6      1950.559          40.000    25205606.492 6 101492492.564 6      1494.249          39.000
E27  23384765.789 8 122887772.589 8      -333.148          51.000    23384768.180 8  94160768.536 8      -255.249          51.000
E30                                                                  25090085.617 6 101027325.405 6     -1593.931          37.000
> 2020 05 05 09 15 30.0000000  0 10        .000000000000
G12  20055882.648 8 105394374.751 8       -72.539          50.000    20055881.219 8  82125477.153 8       -56.524          50.000
G24  20810944.297 8 109362242.201 8     -1783.902          51.000    20810946.719 8  85217328.136 8     -1390.054          51.000
R01  22377131.656 7 119618579.831 7     -3332.449          45.000    22377137.812 6  93036768.187 6     -2591.905          39.000
R10  20794723.844 5 110847609.207 5     -1989.012          31.000
R11  19913813.102 5 106413378.767 5      1338.305          31.000
R21  21038770.656 8 112582655.459 8      3456.613          48.000    21038773.234 7  87564332.674 7      2688.477          44.000
C14  25898508.758 4 134860330.840 4     -2722.895          28.000    25898517.055 5 104282510.777 5     -2105.590          32.000
C26  22049527.555 8 114817648.937 8     -1297.156          51.000
E15  25194478.852 5 132397874.363 5      1953.699          35.000    25194485.523 6 101447709.272 6      1496.939          40.000
E27  23386663.242 8 122897743.695 8      -323.859          51.000    23386665.828 8  94168408.720 8      -248.197          51.000
> 2020 05 05 09 16  0.0000000  0 11        .000000000000
G12  20056352.109 8 105396842.254 8       -97.617          51.000    20056351.102 8  82127399.897 8       -76.065          51.000
G24  20821185.320 8 109416059.722 8     -1809.559          51.000    20821187.703 8  85259263.845 8     -1410.046          51.000
G32  22450110.336 6 117976122.181 6      1449.676          39.000
R01  22395889.445 7 119718845.798 7     -3357.867          45.000    22395894.781 6  93114752.749 6     -2611.678          39.000
R10  20805961.766 6 110907511.132 6     -2010.570          36.000
R21  21019459.070 8 112479318.201 8      3426.672          48.000    21019462.086 7  87483959.195 7      2665.189          44.000
C14  25914221.688 4 134942157.086 4     -2737.410          28.000    25914229.664 5 104345782.874 5     -2117.479          33.000
C26  22057044.383 8 114856790.299 8     -1317.867          51.000
E15                                                                  25183383.008 6 101403004.497 6      1478.891          41.000
E27  23388545.883 8 122907636.959 8      -341.422          51.000    23388548.703 8  94175989.257 8      -261.618          51.000
E30  25113766.648 6 131973729.999 6     -2081.484          36.000    25113777.453 6 101122775.187 6     -1594.883          37.000
> 2020 05 05 09 16 30.0000000  0 11        .000000000000
G12  20056931.000 8 105399884.409 8      -105.164          51.000    20056929.930 8  82129770.394 8       -81.946          51.000
G24  20831538.188 8 109470465.115 8     -1817.660          51.000    20831540.344 8  85301657.619 8     -1416.359          51.000
G32  22441868.172 6 117932818.243 6      1437.395          38.000
R01  22414754.742 7 119819690.930 7     -3365.234          42.000    22414760.047 6  93193187.801 6     -2617.408          39.000
R10  20817287.258 6 110967878.700 6     -2014.207          37.000
R21  21000283.414 8 112376701.174 8      3414.355          51.000    21000285.352 7  87404145.935 7      2655.610          43.000
C14  25929985.305 4 135024238.243 4     -2735.258          28.000    25929995.070 6 104409261.644 6     -2115.017          37.000
C26  22064646.898 8 114896377.271 8     -1321.305          51.000
E15  25172374.203 5 132281716.440 5      1923.883          33.000    25172381.164 7 101358705.048 7      1474.312          42.000
E27  23390494.578 8 122917877.137 8      -341.367          51.000    23390497.602 8  94183835.610 8      -261.537          51.000
E30                                                                  25125651.797 5 101170583.272 5     -1592.183          35.000
> 2020 05 05 09 17  0.0000000  0 13        .000000000000
G12  20057586.320 8 105403328.274 8      -125.512          50.000    20057584.883 8  82132453.893 8       -97.801          50.000
G24  20841970.125 8 109525286.279 8     -1838.289          51.000    20841972.250 8  85344375.363 8     -1432.436          51.000
G25  20975258.086 6 110225730.264 6      1790.738          38.000    20975256.234 5  85890163.117 5      1395.380          31.000
G32  22433733.602 6 117890077.903 6      1411.508          38.000
R01  22433692.570 6 119920935.532 6     -3385.438          40.000    22433699.953 6  93271933.592 6     -2633.118          39.000
R10  20828669.203 5 111028537.352 5     -2031.102          34.000
R21  20981210.711 8 112274633.400 8      3389.000          51.000    20981211.242 7  87324759.938 7      2635.892          42.000
C14                                                                  25945779.633 6 104472813.263 6     -2122.539          38.000
C26  22072302.141 8 114936239.292 8     -1337.270          51.000
E15  25161442.938 6 132224262.360 6      1905.285          41.000    25161447.086 7 101314680.307 7      1459.765          42.000
E21  25245818.758 5 132667675.592 5      1695.520          33.000
E27  23392476.555 8 122928292.035 8      -354.047          51.000    23392479.656 8  94191815.852 8      -271.268          51.000
E30  25137521.812 5 132098576.697 5     -2087.316          34.000
> 2020 05 05 09 17 30.0000000  0 10        .000000000000
G12  20058309.664 8 105407129.561 8      -129.574          51.000    20058308.414 8  82135415.946 8      -100.967          51.000
G24  20852472.555 8 109580478.292 8     -1842.832          51.000    20852474.734 8  85387382.071 8     -1435.976          51.000
G25  20965037.148 6 110172016.548 6      1788.883          36.000
G32  22425699.031 5 117847858.820 5      1401.781          32.000
R01  22452696.219 6 120022530.435 6     -3389.305          41.000    22452704.812 6  93350951.842 6     -2636.126          38.000
R21  20962232.180 8 112173074.675 8      3379.961          51.000    20962231.281 6  87245769.942 6      2628.862          41.000
C14                                                                  25961573.883 6 104536402.410 6     -2117.881          36.000
C26  22080001.773 8 114976333.112 8     -1337.262          51.000
E15  25150571.078 7 132167122.733 7      1902.445          42.000    25150572.977 7 101270897.981 7      1457.891          43.000
E27  23394483.469 8 122938837.880 8      -350.578          51.000    23394486.484 8  94199896.427 8      -268.595          51.000
> 2020 05 05 09 18  0.0000000  0  9        .000000000000
G12  20059112.727 8 105411348.633 8      -160.648          51.000    20059111.688 8  82138703.539 8      -125.181          51.000
G24  20863057.227 8 109636101.623 8     -1874.324          51.000    20863059.094 8  85430724.929 8     -1460.512          51.000
G25  20954881.469 5 110118658.744 5      1759.023          33.000    20954877.719 5  85806720.831 5      1370.668          30.000
R01  22471778.023 7 120124533.353 7     -3419.996          42.000    22471785.336 6  93430287.361 6     -2660.000          37.000
R21  20943360.867 8 112072091.266 8      3343.129          51.000    20943359.750 7  87167227.368 7      2600.214          43.000
C14                                                                  25977389.023 5 104600073.784 5     -2133.814          33.000
C26  22087757.500 8 115016719.112 8     -1364.000          51.000
E15  25139770.062 7 132110362.132 7      1872.422          42.000    25139771.703 7 101227406.122 7      1434.863          44.000
E27  23396526.875 8 122949575.519 8      -374.277          51.000    23396529.758 8  94208123.968 8      -286.790          51.000
> 2020 05 05 09 18 30.0000000  0 11        .000000000000
G12  20059983.070 8 105415921.800 8      -158.703          51.000    20059981.961 8  82142267.058 8      -123.662          51.000
G24  20873711.969 8 109692092.561 8     -1872.961          51.000    20873713.828 8  85474354.219 8     -1459.450          51.000
G25  20944782.047 5 110065594.541 5      1763.062          31.000
G29  23919175.125 6 125696104.724 6      3805.137          36.000
R01  22490924.023 7 120226875.728 7     -3417.316          43.000    22490929.281 6  93509886.897 6     -2657.916          36.000
R21  20924586.117 8 111971623.094 8      3339.879          51.000    20924585.570 7  87089085.475 7      2597.681          44.000
C14                                                                  25993212.281 5 104663777.328 5     -2124.127          30.000
C26  22095557.492 8 115057334.993 8     -1358.094          51.000
E15  25129028.672 7 132053919.251 7      1875.738          42.000    25129030.633 7 101184157.716 7      1437.227          43.000
E27  23398594.781 8 122960442.016 8      -364.754          51.000    23398597.570 8  94216450.236 8      -279.439          51.000
E30  25173233.375 5 132286242.178 5     -2087.578          33.000
> 2020 05 05 09 19  0.0000000  0 11        .000000000000
G12  20060919.516 8 105420843.007 8      -160.410          51.000    20060918.172 8  82146101.777 8      -124.995          51.000
G24  20884435.531 8 109748445.196 8     -1875.156          51.000    20884437.727 8  85518265.335 8     -1461.161          51.000
G29  23897457.961 5 125581981.547 5      3811.836          35.000    23897461.414 5  97856100.936 5      2970.271          35.000
G32  22402235.156 5 117724519.378 5      1353.367          32.000
R01  22510131.516 7 120329547.866 7     -3418.293          42.000    22510135.898 6  93589742.954 6     -2658.675          37.000
R21  20905907.602 8 111871669.327 8      3332.684          50.000    20905907.906 7  87011343.652 7      2592.090          46.000
C24  22248421.555 5 115853365.520 5      1202.395          30.000
C26  22103400.164 8 115098175.705 8     -1355.785          51.000
E15  25118347.461 6 131997790.628 6      1875.012          40.000    25118349.812 6 101141150.068 6      1436.736          41.000
E21  25207146.219 5 132464446.476 5      1698.590          33.000
E27  23400686.258 8 122971432.132 8      -358.988          51.000    23400688.898 8  94224871.240 8      -275.108          51.000
> 2020 05 05 09 19 30.0000000  0 12        .000000000000
G12  20061939.977 8 105426205.103 8      -201.641          51.000    20061938.422 8  82150280.014 8      -157.126          51.000
G24  20895245.750 8 109805252.003 8     -1916.750          51.000    20895247.781 8  85562530.380 8     -1493.571          51.000
G25  20924786.047 5 109960492.238 5      1724.852          33.000
G29  23875779.008 6 125468055.773 6      3778.727          37.000    23875784.820 5  97767327.571 5      2944.462          30.000
R01  22529416.688 7 120432640.120 7     -3459.141          42.000    22529421.891 6  93669925.777 6     -2690.446          38.000
R21  20887342.781 8 111772329.002 8      3285.133          49.000    20887344.812 7  86934078.949 7      2555.103          46.000
C12  24449238.117 6 127313599.555 6      3328.344          38.000
C24  22241593.422 5 115817792.155 5      1165.164          33.000
C26  22111303.469 8 115139333.762 8     -1392.668          50.000
E15  25107743.578 6 131942071.174 6      1834.715          36.000    25107746.906 6 101098455.974 6      1405.943          39.000
E21  25197524.867 5 132413886.574 5      1665.824          31.000    25197527.312 6 101460003.777 6      1276.495          36.000
E27  23402819.078 8 122982639.193 8      -392.750          51.000    23402821.508 8  94233458.459 8      -300.950          51.000
> 2020 05 05 09 20  0.0000000  0 14        .000000000000
G02  23656463.727 5 124315530.041 5      1900.652          35.000
G12  20063018.641 8 105431873.465 8      -194.453          51.000    20063016.938 8  82154696.919 8      -151.519          51.000
G24  20906116.883 8 109862378.899 8     -1909.848          51.000    20906119.227 8  85607044.824 8     -1488.193          51.000
G25  20914851.836 5 109908272.222 5      1733.414          35.000
G29  23854112.672 6 125354195.727 6      3793.957          36.000    23854121.930 6  97678605.426 6      2956.324          36.000
R01  22548753.766 7 120536011.398 7     -3450.848          44.000    22548759.758 6  93750325.654 6     -2683.993          37.000
R21  20868867.953 7 111673469.569 7      3286.918          47.000    20868870.742 7  86857188.279 7      2556.492          46.000
C12  24429970.820 6 127213263.571 6      3342.754          37.000
C24  22234794.266 5 115782377.980 5      1177.836          31.000
C26  22119242.750 8 115180676.339 8     -1381.551          50.000
E15  25097193.039 5 131886638.707 5      1843.043          34.000    25097196.570 6 101055974.019 6      1412.040          36.000
E21                                                                  25187913.977 5 101421300.101 5      1289.667          35.000
E27  23404967.633 8 122993929.080 8      -378.098          51.000    23404969.742 8  94242109.143 8      -289.687          51.000
E30  25209028.555 5 132474345.898 5     -2090.879          32.000
> 2020 05 05 09 20 30.0000000  0 12        .000000000000
G02  23645658.273 5 124258771.688 5      1882.574          31.000
G12  20064180.281 8 105437977.881 8      -213.574          51.000    20064178.320 8  82159453.625 8      -166.421          51.000
G24  20917073.492 8 109919955.366 8     -1929.516          51.000    20917076.273 8  85651909.558 8     -1503.519          51.000
G29  23832484.305 6 125240534.504 6      3782.770          36.000    23832490.617 6  97590038.301 6      2947.610          36.000
R01  22568167.625 7 120639790.456 7     -3469.016          44.000    22568173.695 6  93831042.669 6     -2698.126          38.000
R11  19841926.953 5 106029183.485 5      1225.926          35.000    19841912.617 4  82467125.830 4       953.501          28.000
R21  20850508.523 8 111575228.678 8      3261.520          49.000    20850512.328 7  86780778.780 7      2536.740          46.000
C12  24410745.719 6 127113145.545 6      3331.051          37.000    24410743.352 6  98291939.753 6      2575.614          36.000
C26  22127242.703 8 115222332.969 8     -1396.539          51.000
E15  25086718.648 6 131831599.341 6      1824.973          36.000    25086721.703 5 101013805.533 5      1398.239          33.000
E21                                                                  25178332.883 5 101382716.077 5      1282.032          33.000
E27  23407156.750 8 123005432.443 8      -389.770          51.000    23407158.492 8  94250923.392 8      -298.643          51.000
> 2020 05 05 09 21  0.0000000  0 12        .000000000000
G02  23634932.461 5 124202408.159 5      1871.004          34.000
G12  20065430.008 8 105444544.638 8      -226.605          51.000    20065427.734 8  82164570.578 8      -176.576          51.000
G24  20928120.609 8 109978008.010 8     -1943.059          51.000    20928123.594 8  85697145.348 8     -1514.072          51.000
G29  23810898.156 5 125127111.455 5      3776.891          35.000    23810896.945 5  97501641.855 5      2943.032          35.000
R01  22587662.586 7 120744000.639 7     -3480.586          44.000    22587668.711 6  93912094.987 6     -2707.122          38.000
