     3.02           OBSERVATION DATA    M (MIXED)           RINEX VERSION / TYPE
SAVERINEX           SC600               20200514 065932 LCL PGM / RUN BY / DATE
       G = GPS       R = GLONASS       C = COMPASS          COMMENT
       S = SBAS      J = QZSS          E = GALILEO          COMMENT
BEAN                                                        MARKER NAME
1                                                           MARKER NUMBER
GEODETIC                                                    MARKER TYPE
Unige DICCA         GTER                                    OBSERVER / AGENCY
SC60291900056       SC600               2.12(191226)        REC # / TYPE / VERS
                    HEMA45          NONE                    ANT # / TYPE
  4509407.8091   693652.4678  4442337.6214                  APPROX POSITION XYZ
        0.0000        0.0000        0.0000                  ANTENNA: DELTA H/E/N
G    8 C1C L1C D1C S1C C2Y L2Y D2Y S2Y                      SYS / # / OBS TYPES
R    8 C1C L1C D1C S1C C2P L2P D2P S2P                      SYS / # / OBS TYPES
C    8 C1I L1I D1I S1I C7I L7I D7I S7I                      SYS / # / OBS TYPES
E    8 C1C L1C D1C S1C C7Q L7Q D7Q S7Q                      SYS / # / OBS TYPES
DBHZ                                                        COMMENT
     30.000                                                 INTERVAL
  2020    05    14    04    00    0.0000000     GPS         TIME OF FIRST OBS
  2020    05    14    04    59   30.0000000     GPS         TIME OF LAST OBS
     0                                                      RCV CLOCK OFFS APPL
G L1C  0.00000                                              SYS / PHASE SHIFT
G L2Y  0.00000                                              SYS / PHASE SHIFT
R L1C  0.00000                                              SYS / PHASE SHIFT
R L2P  0.25000                                              SYS / PHASE SHIFT
C L1I  0.00000                                              SYS / PHASE SHIFT
C L7I  0.00000                                              SYS / PHASE SHIFT
E L1C  0.50000                                              SYS / PHASE SHIFT
E L7Q -0.25000                                              SYS / PHASE SHIFT
 14 R04  6 R05  1 R06 -4 R07  5 R08  6 R09 -2 R10 -7 R11  0 GLONASS SLOT / FRQ #
    R15  0 R16 -1 R19  3 R20  2 R21  4 R22 -3               GLONASS SLOT / FRQ #
 C1C   71.950 C2C   71.950 C2P   71.950                     GLONASS COD/PHS/BIS
    18                                                      LEAP SECONDS
*** Above antenna height is from mark to ANTENNA BOTTOM.    COMMENT
    17     4        0.0000        ANT MEASURE TYPE/HEIGT    COMMENT
    0.0000    0.0000    0.0458    0.0405    0.0000          COMMENT
                    BASE STATION                            COMMENT
                                                            END OF HEADER
> 2020 05 14 04 00  0.0000000  0 13        .000000000000
G05  21664762.258 8 113849084.014 8     -2568.293          49.000    21664761.055 8  88713566.867 8     -2001.267          49.000
G28  20936835.219 8 110023834.760 8       618.285          51.000    20936833.250 8  85732888.764 8       481.781          49.000
G30  21458949.547 7 112767549.527 7     -2056.035          42.000    21458951.312 7  87870833.884 7     -1602.105          42.000
R06  22822795.945 5 121786783.080 5     -4060.613          32.000
R07  19462436.047 8 104183929.748 8     -1454.781          51.000    19462438.148 8  81031962.551 8     -1131.500          49.000
R09  19240474.562 8 102743049.204 8      -902.750          51.000    19240474.953 8  79911238.906 8      -702.142          51.000
R10  19905525.828 8 106107647.142 8      2112.676          50.000
C05  39799612.062 6 207247023.123 6        10.406          36.000    39799610.430 6 160256527.080 6         7.911          40.000
C20  22411398.898 8 116702009.130 8     -1643.602          51.000
E01  26475481.828 6 139129599.213 6      2882.234          41.000    26475484.820 7 106605806.964 7      2208.546          42.000
E19  23872647.617 7 125451618.319 7       190.656          46.000    23872649.422 8  96125262.188 8       146.108          50.000
E21  23635338.250 8 124204553.509 8       836.266          51.000    23635339.969 8  95169721.529 8       640.769          51.000
E27  24946359.953 6 131094010.640 6     -1948.539          41.000    24946361.891 6 100448653.011 6     -1493.081          38.000
> 2020 05 14 04 00 30.0000000  0 14        .000000000000
G05  21679461.664 8 113926329.261 8     -2581.773          49.000    21679460.781 8  88773757.960 8     -2011.772          49.000
G13  20431205.375 5 107366734.422 5      1109.680          34.000
G28  20933356.070 8 110005552.160 8       600.090          51.000    20933353.852 8  85718642.568 8       467.602          49.000
G30  21470708.969 6 112829343.181 6     -2063.730          40.000    21470711.344 6  87918984.766 6     -1608.105          40.000
R06  22845643.273 5 121908697.755 5     -4067.645          33.000
R07  19470648.734 8 104227893.469 8     -1476.512          51.000    19470650.969 8  81066156.525 8     -1148.398          48.000
R09  19245600.977 8 102770424.068 8      -922.719          51.000    19245601.258 8  79932530.463 8      -717.670          51.000
R10  19893688.055 8 106044544.209 8      2093.711          49.000
C05  39799550.062 6 207246700.590 6        11.109          36.000    39799548.445 6 160256277.670 6         8.361          40.000
C20  22420906.320 8 116751515.845 8     -1657.301          51.000
E01  26459041.375 6 139043202.730 6      2877.207          41.000    26459042.562 7 106539607.077 7      2204.487          43.000
E19  23871585.094 7 125446034.734 7       181.199          47.000    23871587.000 8  96120983.859 8       138.760          50.000
E21  23630598.492 8 124179646.073 8       823.797          51.000    23630600.211 8  95150636.606 8       631.239          51.000
E27  24957507.281 6 131152588.569 6     -1957.086          40.000    24957507.094 6 100493537.355 6     -1499.460          37.000
> 2020 05 14 04 01  0.0000000  0 14        .000000000000
G05  21694240.930 8 114003996.037 8     -2595.785          49.000    21694240.547 8  88834277.524 8     -2022.690          49.000
G13  20424904.141 5 107333612.649 5      1098.000          35.000
G28  20929984.266 8 109987834.275 8       581.320          51.000    20929982.047 8  85704836.406 8       452.977          49.000
G30  21482515.805 6 112891385.933 6     -2071.906          40.000    21482518.211 6  87967329.772 6     -1614.472          40.000
R06  22868535.172 5 122030853.392 5     -4076.254          33.000
R07  19478987.070 8 104272528.228 8     -1498.887          51.000    19478988.555 8  81100872.467 8     -1165.801          48.000
R09  19250842.562 8 102798412.453 8      -943.016          51.000    19250842.758 8  79954299.201 8      -733.457          51.000
R10  19881960.328 8 105982029.162 8      2074.109          49.000
C05  39799488.695 6 207246381.531 6        10.734          36.000    39799487.094 6 160256030.528 6         8.291          40.000
C20  22430494.992 8 116801447.802 8     -1671.398          51.000
E01  26442633.500 6 138956979.152 6      2871.414          39.000    26442632.891 7 106473539.661 7      2200.118          44.000
E19  23870580.438 7 125440754.681 7       171.129          47.000    23870582.398 8  96116938.102 8       131.092          50.000
E21  23625933.352 8 124155130.429 8       810.852          51.000    23625934.977 8  95131851.882 8       621.299          51.000
E27  24968705.633 6 131211434.054 6     -1965.750          38.000    24968704.031 6 100538626.754 6     -1506.275          36.000
> 2020 05 14 04 01 30.0000000  0 14        .000000000000
G05  21709098.648 8 114082077.238 8     -2609.695          48.000    21709098.969 8  88895120.032 8     -2033.529          48.000
G13  20418665.789 5 107300831.987 5      1087.262          33.000    20418663.336 4  83611042.944 4       847.190          27.000
G28  20926718.617 8 109970675.557 8       562.500          51.000    20926716.867 8  85691465.971 8       438.312          48.000
G30  21494368.586 6 112953671.118 6     -2079.930          41.000    21494370.586 6  88015863.658 6     -1620.724          41.000
R06  22891470.711 5 122153242.092 5     -4083.262          34.000
R07  19487449.523 8 104317828.238 8     -1521.172          51.000    19487451.055 8  81136105.777 8     -1183.134          49.000
R09  19256197.406 8 102827006.855 8      -963.246          51.000    19256197.719 8  79976539.291 8      -749.191          51.000
R10  19870342.211 8 105920098.070 8      2054.477          48.000
C05  39799426.938 6 207246059.179 6        10.320          36.000    39799425.352 6 160255781.625 6         8.074          40.000
C20  22440163.914 8 116851798.843 8     -1685.469          51.000
E01  26426257.281 6 138870924.300 6      2865.398          36.000    26426254.898 7 106407601.533 7      2195.598          44.000
E19  23869632.672 7 125435773.500 7       160.930          47.000    23869634.719 8  96113121.343 8       123.325          50.000
E21  23621341.703 8 124131001.226 8       797.809          51.000    23621343.195 8  95113363.270 8       611.266          51.000
E27  24979953.281 6 131270540.227 6     -1974.664          39.000    24979952.367 6 100583915.911 6     -1512.976          36.000
> 2020 05 14 04 02  0.0000000  0 14        .000000000000
G05  21724023.836 7 114160514.387 7     -2620.215          46.000    21724024.938 7  88956239.916 7     -2041.726          46.000
G15  21854208.578 5 114844592.542 5      2615.645          35.000    21854199.500 5  89489285.672 5      2038.177          33.000
G28  20923548.930 8 109954020.636 8       547.074          50.000    20923547.266 8  85678488.068 8       426.289          48.000
G30  21506256.203 6 113016141.276 6     -2085.020          37.000    21506257.812 6  88064541.677 6     -1624.694          36.000
R06  22914438.797 6 122275804.465 6     -4087.980          36.000
R07  19496025.508 8 104363735.840 8     -1540.223          51.000    19496026.984 8  81171811.672 8     -1197.954          48.000
R09  19261654.836 8 102856148.018 8      -980.227          51.000    19261655.094 8  79999204.614 8      -762.398          51.000
R10  19858822.758 8 105858694.178 8      2038.230          48.000
C05  39799353.977 6 207245679.382 6        14.164          36.000    39799352.492 6 160255487.930 6        10.684          40.000
C20  22449902.281 8 116902512.532 8     -1696.254          50.000
E01  26409900.930 5 138784965.324 5      2863.000          31.000    26409898.922 7 106341750.611 7      2193.754          45.000
E19  23868731.172 7 125431036.095 7       154.094          47.000    23868733.414 8  96109491.372 8       118.048          51.000
E21  23616813.039 8 124107202.378 8       788.043          51.000    23616814.242 8  95095127.768 8       603.876          51.000
E27  24991239.289 6 131329849.471 6     -1980.133          40.000    24991240.078 6 100629360.639 6     -1517.077          36.000
> 2020 05 14 04 02 30.0000000  0 15        .000000000000
G05  21739032.047 7 114239385.149 7     -2636.730          45.000    21739033.305 7  89017697.675 7     -2054.595          45.000
G13  20406368.469 5 107236189.175 5      1064.273          32.000
G15  21839318.242 5 114766310.914 5      2604.105          34.000    21839301.156 5  89428286.993 5      2029.176          33.000
G28  20920490.375 8 109937949.970 8       525.391          49.000    20920489.133 8  85665965.461 8       409.395          49.000
G30  21518193.781 5 113078875.438 5     -2095.844          33.000    21518195.086 5  88113425.437 5     -1633.119          32.000
R06  22937453.664 5 122398619.031 5     -4099.039          34.000
R07  19504730.055 8 104410332.120 8     -1565.367          51.000    19504731.219 8  81208053.221 8     -1217.508          48.000
R09  19267229.250 8 102885915.334 8     -1003.195          51.000    19267229.680 8  80022356.981 8      -780.263          51.000
R10  19847418.070 8 105797900.102 8      2015.707          49.000
C05  39799285.242 6 207245321.510 6        11.094          36.000    39799283.750 6 160255211.169 6         8.621          40.000
C20  22459725.617 8 116953667.773 8     -1713.141          51.000
E01  26393581.289 5 138699205.817 5      2854.809          32.000    26393580.883 7 106276049.497 7      2187.154          44.000
E19  23867891.516 7 125426623.418 7       141.023          47.000    23867893.812 8  96106110.216 8       108.186          50.000
E21  23612362.641 8 124083814.384 8       772.219          51.000    23612363.570 8  95077207.081 8       591.721          51.000
E27  25002578.641 6 131389440.682 6     -1991.648          39.000    25002580.906 6 100675021.353 6     -1525.718          36.000
> 2020 05 14 04 03  0.0000000  0 14        .000000000000
G05  21754145.672 8 114318806.748 8     -2652.094          48.000    21754146.680 8  89079584.659 8     -2066.567          48.000
G13  20400348.117 5 107204551.677 5      1051.098          34.000    20400347.438 5  83536010.261 5       819.037          33.000
G28  20917565.977 8 109922583.562 8       504.922          48.000    20917565.164 8  85653991.630 8       393.446          48.000
G30  21530203.859 4 113141983.726 4     -2105.887          27.000    21530204.789 4  88162588.846 4     -1640.951          28.000
R06  22960538.266 5 122521805.296 5     -4107.754          35.000
R07  19513585.766 8 104457738.749 8     -1589.059          51.000    19513587.109 8  81244925.023 8     -1235.934          49.000
R09  19272943.547 8 102916428.560 8     -1024.848          51.000    19272943.586 8  80046089.470 8      -797.104          51.000
R10  19836151.016 8 105737838.601 8      1994.570          50.000
C05  39799243.602 6 207245104.216 6         9.398          36.000    39799241.977 6 160255043.136 6         7.104          40.000
C20  22469656.914 8 117005382.403 8     -1728.645          51.000
E01  26377323.359 5 138613771.798 5      2846.910          35.000    26377323.375 7 106210590.868 7      2181.351          44.000
E19  23867136.656 8 125422656.264 8       129.363          48.000    23867138.875 8  96103070.434 8        99.111          50.000
E21  23608013.070 8 124060956.945 8       757.605          51.000    23608013.883 8  95059692.932 8       580.488          51.000
E27  25013994.219 5 131449432.042 5     -2002.121          35.000    25013996.898 6 100720988.735 6     -1533.907          36.000
> 2020 05 14 04 03 30.0000000  0 14        .000000000000
G05  21769301.766 8 114398449.497 8     -2665.039          50.000    21769301.961 8  89141643.928 8     -2076.657          50.000
G07  24085091.234 5 126568001.067 5     -2845.266          33.000
G13  20394359.133 6 107173076.476 6      1039.461          37.000    20394360.102 5  83511493.221 5       809.970          31.000
G28  20914713.438 8 109907594.512 8       486.867          48.000    20914712.461 7  85642311.831 7       379.377          46.000
R06  22983629.703 5 122645027.926 5     -4114.137          33.000
R07  19522530.250 8 104505621.287 8     -1610.637          50.000    19522531.758 7  81282166.999 7     -1252.717          47.000
R09  19278734.430 8 102947352.328 8     -1044.184          51.000    19278734.648 8  80070141.289 8      -812.143          51.000
R10  19824959.352 8 105678178.165 8      1975.395          50.000
C05  39799166.695 6 207244702.972 6         9.789          36.000    39799164.969 6 160254732.827 6         7.760          40.000
C20  22479633.438 8 117057330.877 8     -1742.004          51.000
E01  26361063.953 6 138528332.865 6      2841.512          36.000    26361064.438 7 106145124.653 7      2177.328          44.000
E19  23866404.328 8 125418807.723 8       119.781          48.000    23866406.195 8  96100121.554 8        91.813          50.000
E21  23603702.133 8 124038302.554 8       745.281          51.000    23603702.781 8  95042334.355 8       571.075          51.000
E27  25025424.039 5 131509488.286 5     -2009.777          34.000    25025425.922 5 100767010.514 5     -1539.831          35.000
> 2020 05 14 04 04  0.0000000  0 12        .000000000000
G05  21784554.805 8 114478601.148 8     -2678.496          51.000    21784553.500 8  89204099.708 8     -2087.143          51.000
G13  20388456.477 6 107142054.911 6      1028.230          37.000    20388454.859 5  83487311.548 5       801.219          30.000
G28  20911988.078 8 109893272.952 8       467.977          49.000    20911986.977 7  85631152.162 7       364.657          46.000
R07  19531618.906 8 104554274.610 8     -1632.910          51.000    19531620.672 7  81320008.457 7     -1270.044          47.000
R09  19284657.016 8 102978979.081 8     -1064.133          51.000    19284657.461 8  80094739.875 8      -827.659          51.000
R10  19813898.031 8 105619214.158 8      1955.547          49.000
C05  39799109.492 6 207244406.133 6         9.793          36.000    39799107.797 6 160254502.510 6         7.594          40.000
C20  22489710.039 8 117109799.708 8     -1755.973          51.000
E01  26344857.656 6 138443175.293 6      2835.250          36.000    26344859.734 7 106079874.010 7      2172.689          44.000
E19  23865749.969 8 125415368.572 8       109.395          48.000    23865751.617 8  96097486.358 8        83.828          51.000
E21  23599485.141 8 124016141.207 8       732.125          51.000    23599485.734 8  95025353.567 8       561.009          51.000
E27  25036920.406 6 131569910.216 6     -2018.496          38.000    25036923.094 5 100813307.787 5     -1546.233          34.000
> 2020 05 14 04 04 30.0000000  0 14        .000000000000
G05  21799876.898 8 114559115.296 8     -2689.645          51.000    21799874.016 8  89266837.945 8     -2095.827          51.000
G13  20382612.188 5 107111344.530 5      1019.059          34.000    20382606.938 5  83463367.503 5       794.087          31.000
G15  21780261.266 5 114456054.972 5      2569.062          32.000
G28  20909362.805 8 109879475.294 8       451.367          50.000    20909361.617 7  85620400.749 7       351.715          46.000
G30  21566436.398 5 113332403.141 5     -2126.676          34.000    21566435.680 5  88310947.563 5     -1657.156          35.000
R07  19540824.266 8 104603551.683 8     -1652.801          51.000    19540826.273 7  81358335.036 7     -1285.515          47.000
R09  19290683.445 8 103011160.740 8     -1081.742          51.000    19290683.750 8  80119770.042 8      -841.355          51.000
R10  19802939.375 8 105560800.902 8      1938.203          48.000
C05  39799044.898 6 207244069.372 6        11.691          36.000    39799043.125 6 160254242.083 6         9.273          40.000
C20  22499859.172 8 117162645.565 8     -1767.645          51.000
E01  26328676.258 5 138358156.463 5      2831.789          32.000    26328681.836 7 106014729.702 7      2169.785          44.000
E19  23865146.258 8 125412195.916 8       101.520          48.000    23865148.016 8  96095055.339 8        77.758          51.000
E21  23595334.414 8 123994329.087 8       721.434          51.000    23595335.289 8  95008640.393 8       552.790          51.000
E27  25048458.273 6 131630546.410 6     -2024.738          38.000    25048461.211 5 100859769.257 5     -1551.222          34.000
> 2020 05 14 04 05  0.0000000  0 12        .000000000000
G05  21815274.469 8 114640026.264 8     -2703.957          51.000    21815270.312 8  89329885.391 8     -2106.983          51.000
G28  20906844.492 8 109866239.141 8       431.492          50.000    20906842.672 7  85610086.880 7       336.228          46.000
G30  21578603.273 4 113396324.758 4     -2136.094          28.000    21578602.094 4  88360767.602 4     -1664.495          28.000
R07  19550153.109 8 104653489.426 8     -1675.945          50.000    19550154.750 7  81397175.479 7     -1303.516          46.000
R09  19296820.492 8 103043932.898 8     -1102.570          51.000    19296820.961 8  80145259.488 8      -857.555          51.000
R10  19792091.078 8 105502977.563 8      1917.297          48.000
C05  39798979.781 6 207243730.745 6        11.398          36.000    39798978.102 6 160253980.241 6         8.455          40.000
C20  22510087.664 8 117215904.598 8     -1782.516          51.000
E01  26312529.250 5 138273274.099 5      2825.047          32.000    26312537.797 7 105949721.318 7      2164.419          43.000
E19  23864600.375 7 125409327.736 7        90.164          47.000    23864602.367 8  96092857.629 8        69.102          51.000
E21  23591257.195 8 123972903.630 8       707.395          51.000    23591258.078 8  94992223.493 8       542.015          51.000
E27  25060044.461 5 131691432.706 5     -2034.219          35.000    25060047.789 5 100906422.326 5     -1558.415          35.000
> 2020 05 14 04 05 30.0000000  0 13        .000000000000
G05  21830741.352 8 114721302.267 8     -2717.227          51.000    21830736.562 8  89393217.279 8     -2117.319          51.000
G13  20371118.047 5 107050933.514 5       993.570          30.000
G28  20904427.305 8 109853534.782 8       412.594          51.000    20904424.773 7  85600187.384 7       321.502          46.000
G30  21590810.664 5 113460474.244 5     -2144.508          31.000    21590808.688 5  88410751.117 5     -1671.048          32.000
R07  19559599.867 8 104704057.037 8     -1698.148          51.000    19559600.766 7  81436505.814 7     -1320.782          46.000
R09  19303061.969 8 103077262.921 8     -1122.293          51.000    19303062.828 8  80171182.829 8      -872.895          51.000
R10  19781347.664 7 105445714.378 7      1897.273          45.000
C05  39798908.727 6 207243360.678 6        11.012          36.000    39798907.031 6 160253694.057 6         8.297          40.000
C20  22520389.266 8 117269546.246 8     -1796.438          51.000
E01  26296412.711 6 138188580.332 6      2818.945          37.000    26296421.945 7 105884826.834 7      2159.723          42.000
E19  23864106.891 7 125406734.879 7        79.875          47.000    23864108.961 8  96090870.873 8        61.239          51.000
E21  23587247.781 8 123951834.845 8       694.371          51.000    23587248.375 8  94976079.891 8       531.991          51.000
E27                                                                  25071676.422 5 100953242.934 5     -1564.940          35.000
> 2020 05 14 04 06  0.0000000  0 13        .000000000000
G05  21846290.992 8 114803015.402 8     -2729.438          51.000    21846286.477 8  89456889.808 8     -2126.837          51.000
G13  20365477.516 6 107021314.495 6       982.812          36.000    20365473.336 5  83393193.557 5       765.828          35.000
G28  20902125.336 8 109841436.836 8       394.699          51.000    20902122.961 7  85590760.447 7       307.561          47.000
G30  21603069.148 5 113524882.230 5     -2150.488          32.000    21603069.500 5  88460955.306 5     -1675.702          31.000
R07  19569178.336 8 104755329.786 8     -1719.273          51.000    19569178.664 7  81476384.582 7     -1337.213          45.000
R09  19309421.828 8 103111224.384 8     -1140.891          51.000    19309422.547 8  80197597.297 8      -887.362          51.000
R10  19770724.086 7 105389088.074 7      1878.605          46.000
C05  39798845.781 6 207243033.147 6        11.719          36.000    39798844.156 6 160253440.761 6         8.941          40.000
C20  22530777.883 8 117323643.534 8     -1809.293          51.000
E01  26280339.719 6 138104112.024 6      2813.512          40.000    26280348.734 6 105820104.379 6      2155.625          40.000
E19  23863680.312 7 125404493.040 7        70.324          47.000    23863682.219 8  96089153.080 8        53.948          51.000
E21  23583320.453 8 123931197.359 8       682.289          51.000    23583320.867 8  94960266.755 8       522.760          51.000
E27                                                                  25083360.023 6 101000287.028 6     -1570.303          36.000
> 2020 05 14 04 06 30.0000000  0 14        .000000000000
G05  21861910.523 8 114885098.469 8     -2742.789          50.000    21861907.227 8  89520850.615 8     -2137.238          50.000
G07  24182702.977 4 127080961.426 4     -2856.770          29.000
G13  20359899.875 6 106992005.266 6       970.438          39.000    20359895.773 5  83370369.237 5       756.182          32.000
G28  20899926.359 8 109829880.933 8       375.656          51.000    20899924.031 7  85581755.872 7       292.722          47.000
G30  21615367.008 5 113589512.641 5     -2158.598          35.000    21615369.984 5  88511316.685 5     -1682.021          35.000
R07  19578875.758 8 104807240.708 8     -1741.441          51.000    19578876.273 7  81516759.697 7     -1354.457          47.000
R09  19315887.078 8 103145749.071 8     -1160.680          51.000    19315887.992 8  80224449.833 8      -902.751          51.000
R10  19760208.914 7 105333033.794 7      1858.457          46.000
C05  39798778.664 5 207242684.014 5        11.832          35.000    39798777.094 6 160253170.778 6         8.772          40.000
C20  22541241.375 8 117378131.313 8     -1823.234          51.000
E01  26264297.867 7 138019804.540 7      2807.039          42.000    26264306.234 6 105755505.172 6      2150.791          39.000
E19  23863308.391 7 125402538.069 7        59.828          47.000    23863309.992 8  96087655.106 8        45.920          51.000
E21  23579462.828 8 123910926.267 8       669.082          51.000    23579463.273 8  94944734.371 8       512.682          51.000
E27  25095083.727 5 131875557.949 5     -2057.961          34.000    25095085.656 6 101047503.845 6     -1577.196          37.000
> 2020 05 14 04 07  0.0000000  0 13        .000000000000
G05  21877602.859 8 114967567.400 8     -2755.270          49.000    21877601.680 8  89585112.144 8     -2146.963          49.000
G13  20354389.672 6 106963049.330 6       959.730          40.000    20354386.406 5  83347806.200 5       747.842          34.000
G28  20897834.148 8 109818885.916 8       357.109          51.000    20897831.727 7  85573188.332 7       278.267          47.000
G30  21627709.172 5 113654369.875 5     -2165.691          34.000    21627712.102 5  88561854.830 5     -1687.549          33.000
R07  19588695.688 8 104859808.180 8     -1763.156          51.000    19588696.867 8  81557645.468 8     -1371.344          48.000
R09  19322461.125 8 103180853.685 8     -1179.766          51.000    19322461.781 8  80251753.409 8      -917.599          51.000
R10  19749804.750 7 105277571.163 7      1839.082          46.000
C05  39798711.039 6 207242330.889 6        11.512          36.000    39798709.406 6 160252898.444 6         9.095          40.000
C20  22551783.352 8 117433027.159 8     -1836.578          51.000
E01  26248290.484 7 137935677.825 7      2801.145          44.000    26248298.828 6 105691044.457 6      2146.382          38.000
E19  23862994.617 7 125400889.225 7        49.918          47.000    23862996.266 8  96086391.690 8        38.267          51.000
E21  23575678.430 8 123891040.230 8       656.516          51.000    23575678.891 8  94929497.033 8       503.041          51.000
E27  25106855.867 5 131937416.552 5     -2066.543          31.000    25106857.227 6 101094906.506 6     -1583.087          37.000
> 2020 05 14 04 07 30.0000000  0 15        .000000000000
G05  21893368.289 8 115050419.714 8     -2766.008          50.000    21893368.969 8  89649672.421 8     -2155.331          50.000
G07  24215351.469 5 127252491.796 5     -2857.043          31.000
G13  20348946.961 6 106934448.225 6       949.840          37.000    20348945.531 5  83325519.656 5       740.138          35.000
G28  20895848.734 8 109808452.004 8       340.465          51.000    20895846.641 8  85565058.017 8       265.297          48.000
G30  21640094.523 5 113719452.768 5     -2171.266          31.000    21640096.656 4  88612568.824 4     -1691.892          29.000
R06  23169921.172 5 123639138.696 5     -4166.754          30.000
R07  19598637.969 8 104913031.632 8     -1782.855          51.000    19598639.680 8  81599041.468 8     -1386.665          48.000
R09  19329143.141 8 103216536.102 8     -1196.902          51.000    19329143.914 8  80279506.398 8      -930.921          51.000
R10  19739511.953 7 105222701.136 7      1821.301          47.000
C05  39798642.922 6 207241976.843 6        14.055          36.000    39798641.258 6 160252623.897 6        10.741          40.000
C20  22562403.594 8 117488330.223 8     -1848.164          51.000
E01  26232317.531 7 137851733.180 7      2797.156          44.000    26232326.320 6 105626723.248 6      2143.111          37.000
E19  23862739.320 7 125399547.756 7        41.641          47.000    23862741.023 8  96085363.801 8        31.865          51.000
E21  23571967.438 8 123871539.289 8       645.676          51.000    23571967.586 8  94914554.752 8       494.780          51.000
E27                                                                  25118675.461 6 101142493.947 6     -1587.717          37.000
> 2020 05 14 04 08  0.0000000  0 14        .000000000000
G05  21909209.391 8 115133665.264 8     -2780.562          51.000    21909210.844 8  89714539.099 8     -2166.672          51.000
G13  20343574.148 6 106906214.664 6       935.879          38.000    20343573.250 5  83303519.439 5       729.256          34.000
G28  20893972.258 8 109798591.056 8       319.820          51.000    20893970.617 8  85557374.185 8       249.211          48.000
G30  21652524.977 5 113784772.066 5     -2181.246          35.000    21652525.578 6  88663466.971 6     -1699.672          36.000
R06  23193379.453 5 123764323.078 5     -4175.594          33.000
R07  19608704.695 8 104966921.777 8     -1806.641          48.000    19608706.703 8  81640956.027 8     -1405.165          49.000
R09  19335935.344 8 103252805.819 8     -1218.062          51.000    19335936.352 8  80307716.176 8      -947.382          50.000
R10  19729331.852 7 105168436.403 7      1799.594          47.000
C05  39798576.477 6 207241630.802 6        11.797          36.000    39798574.836 6 160252356.283 6         9.346          40.000
C20  22573104.297 8 117544051.287 8     -1863.539          51.000
E01  26216381.672 7 137767983.649 7      2789.117          44.000    26216390.227 6 105562551.539 6      2137.238          37.000
E19  23862545.008 7 125398525.980 7        29.512          47.000    23862546.594 8  96084580.870 8        22.556          51.000
E21  23568332.078 8 123852435.249 8       630.941          51.000    23568331.992 8  94899916.577 8       483.431          51.000
E27                                                                  25130542.578 6 101190274.092 6     -1595.457          38.000
> 2020 05 14 04 08 30.0000000  0 14        .000000000000
G05  21925120.672 8 115217277.600 8     -2791.746          51.000    21925122.047 8  89779691.571 8     -2175.387          51.000
G13  20338267.242 6 106878326.124 6       925.395          40.000    20338265.234 6  83281788.147 6       721.087          38.000
G28  20892200.312 8 109789279.408 8       302.637          51.000    20892198.859 8  85550118.352 8       235.821          48.000
G30  21664994.922 6 113850302.638 6     -2186.523          38.000    21664995.125 6  88714529.726 6     -1703.784          37.000
R06  23216876.867 5 123889695.149 5     -4180.547          35.000
R07  19618891.398 8 105021454.029 8     -1827.094          48.000    19618893.977 8  81683370.006 8     -1421.070          49.000
R09  19342832.523 8 103289636.337 8     -1235.652          51.000    19342833.742 8  80336362.139 8      -961.060          50.000
R10  19719260.953 8 105114753.136 8      1781.113          48.000
C05  39798507.234 6 207241270.229 6        13.500          36.000    39798505.602 6 160252077.444 6        10.705          40.000
C20  22583880.352 8 117600165.815 8     -1875.562          51.000
E01  26200478.312 7 137684406.708 7      2784.504          45.000    26200483.898 6 105498512.132 6      2133.620          38.000
E19  23862407.305 7 125397800.890 7        20.715          47.000    23862408.734 8  96084025.270 8        15.947          51.000
E21  23564767.648 8 123833704.263 8       619.727          51.000    23564768.102 8  94885564.271 8       474.814          51.000
E27                                                                  25142453.094 6 101238227.563 6     -1600.261          38.000
> 2020 05 14 04 09  0.0000000  0 14        .000000000000
G05  21941105.008 8 115301273.397 8     -2806.652          51.000    21941105.867 8  89845142.827 8     -2187.005          51.000
G13  20333030.367 7 106850803.397 7       910.895          42.000    20333027.797 6  83260341.834 6       709.788          36.000
G28  20890536.453 8 109780536.635 8       281.473          51.000    20890535.109 8  85543305.789 8       219.329          49.000
G30  21677508.539 6 113916062.721 6     -2196.438          39.000    21677508.648 6  88765771.323 6     -1711.513          39.000
R06  23240408.391 5 124015268.370 5     -4189.227          32.000
R07  19629201.766 8 105076647.142 8     -1851.238          50.000    19629204.273 8  81726298.016 8     -1439.852          49.000
R09  19349838.047 8 103327045.324 8     -1256.992          51.000    19349839.227 8  80365457.999 8      -977.664          50.000
R10  19709302.977 8 105061672.103 8      1758.871          48.000
C05  39798438.883 6 207240914.534 6        11.387          36.000    39798437.312 6 160251802.393 6         8.745          40.000
C20  22594735.375 8 117656692.138 8     -1891.465          51.000
E01  26184611.297 7 137601022.997 7      2775.723          44.000    26184611.805 6 105434620.746 6      2127.059          41.000
E19  23862329.789 7 125397392.825 7         7.902          47.000    23862331.242 8  96083712.587 8         6.058          51.000
E21  23561278.148 8 123815365.736 8       604.371          51.000    23561279.039 8  94871512.673 8       463.107          51.000
E27                                                                  25154409.469 6 101286368.115 6     -1607.998          38.000
> 2020 05 14 04 09 30.0000000  0 13        .000000000000
G05  21957162.414 8 115385653.514 8     -2818.477          51.000    21957162.539 8  89910893.536 8     -2196.216          51.000
G13  20327863.992 7 106823651.006 7       899.320          43.000    20327860.852 6  83239184.157 6       700.772          38.000
G28  20888981.617 8 109772366.086 8       263.371          50.000    20888980.602 8  85536939.120 8       205.224          49.000
G30  21690065.992 6 113982054.342 6     -2203.527          36.000    21690066.461 6  88817193.389 6     -1717.031          37.000
R07  19639636.531 8 105132503.639 8     -1872.375          51.000    19639638.648 8  81769741.962 8     -1456.295          49.000
R09  19356951.984 8 103365033.570 8     -1275.316          51.000    19356953.164 8  80395004.413 8      -991.916          50.000
R10  19699458.539 8 105009197.466 8      1739.621          48.000
C05  39798372.148 6 207240567.020 6        12.121          36.000    39798370.641 6 160251533.689 6         8.890          40.000
C20  22605670.250 8 117713632.605 8     -1904.406          51.000
E01  26168781.727 7 137517836.999 7      2769.930          44.000    26168778.930 7 105370880.838 7      2122.453          43.000
E19  23862313.461 7 125397306.091 7        -1.973          47.000    23862314.711 8  96083646.123 8        -1.538          51.000
E21  23557864.164 8 123797422.910 8       592.000          51.000    23557864.781 8  94857764.246 8       453.560          51.000
E27                                                                  25166411.555 6 101334697.144 6     -1613.889          38.000
> 2020 05 14 04 10  0.0000000  0 13        .000000000000
G05  21973288.789 8 115470396.221 8     -2831.105          51.000    21973287.828 8  89976926.764 8     -2206.056          51.000
G13  20322764.328 7 106796850.597 7       886.852          43.000    20322761.102 5  83218300.709 5       691.053          35.000
G28  20887531.945 8 109764748.320 8       244.340          50.000    20887531.125 8  85531003.192 8       190.395          49.000
G30  21702663.273 5 114048256.761 5     -2210.172          34.000    21702663.453 5  88868779.688 5     -1722.215          33.000
R07  19650191.672 8 105189002.667 8     -1894.297          51.000    19650193.461 8  81813685.623 8     -1473.342          48.000
R09  19364170.359 8 103403578.870 8     -1294.410          51.000    19364171.219 8  80424984.072 8     -1006.763          49.000
R10  19689724.062 7 104957309.320 7      1719.602          47.000
C05  39798303.438 6 207240208.484 6        12.078          36.000    39798301.750 6 160251256.400 6         9.071          40.000
C20  22616680.805 8 117770966.878 8     -1917.992          51.000
E01  26152986.133 7 137434830.355 7      2763.609          44.000    26152982.117 7 105307278.309 7      2117.595          44.000
E19  23862354.617 7 125397521.501 7       -12.645          47.000    23862355.508 8  96083811.177 8        -9.656          51.000
E21  23554521.555 8 123779856.107 8       578.965          51.000    23554522.016 8  94844303.940 8       443.646          51.000
E27                                                                  25178455.977 6 101383198.477 6     -1619.594          37.000
> 2020 05 14 04 10 30.0000000  0 13        .000000000000
G05  21989485.055 8 115555506.988 8     -2842.316          50.000    21989483.195 8  90043246.810 8     -2214.792          50.000
G13  20317733.258 7 106770411.795 7       875.859          43.000    20317730.312 6  83197699.027 6       682.488          39.000
G28  20886189.055 8 109757691.623 8       226.602          51.000    20886187.992 8  85525504.465 8       176.573          48.000
G30  21715302.508 5 114114677.202 5     -2216.953          33.000    21715302.680 5  88920535.873 5     -1727.490          31.000
R07  19660867.914 8 105246151.509 8     -1915.000          51.000    19660869.359 7  81858134.675 7     -1489.444          47.000
R09  19371494.164 8 103442687.349 8     -1312.301          51.000    19371495.219 8  80455401.772 8     -1020.678          49.000
R10  19680101.859 8 104906017.183 8      1700.547          49.000
C05  39798233.992 5 207239847.759 5        12.879          35.000    39798232.359 6 160250977.038 6         9.929          40.000
C20  22627768.844 8 117828702.148 8     -1930.523          51.000
E01  26137226.195 7 137352012.587 7      2758.191          44.000    26137222.555 7 105243820.515 7      2113.428          44.000
E19  23862454.859 7 125398048.290 7       -22.098          47.000    23862455.562 8  96084214.823 8       -16.878          51.000
E21  23551251.875 8 123762673.542 8       567.035          51.000    23551252.602 8  94831138.085 8       434.496          51.000
E27                                                                  25190544.898 6 101431877.424 6     -1625.095          36.000
> 2020 05 14 04 11  0.0000000  0 14        .000000000000
G05  22005749.867 8 115640980.407 8     -2855.379          48.000    22005747.938 8  90109849.440 8     -2224.971          48.000
G13  20312770.516 7 106744333.114 7       862.996          44.000    20312768.492 6  83177377.958 6       672.464          37.000
G28  20884952.500 8 109751193.200 8       207.137          51.000    20884951.227 8  85520440.749 8       161.405          49.000
G30  21727982.477 6 114181311.626 6     -2224.586          37.000    21727982.812 6  88972458.772 6     -1733.441          36.000
R06  23334897.977 5 124519446.201 5     -4212.875          30.000
R07  19671664.469 8 105303946.515 8     -1937.391          51.000    19671665.727 7  81903086.306 7     -1506.859          46.000
R09  19378922.492 8 103482353.777 8     -1331.570          51.000    19378923.516 8  80486253.408 8     -1035.666          48.000
R10  19670591.609 8 104855319.071 8      1679.750          50.000
C05  39798163.609 6 207239480.640 6        12.133          36.000    39798161.977 6 160250693.529 6         9.657          40.000
C20  22638933.234 8 117886834.665 8     -1944.527          51.000
E01  26121501.766 7 137269382.140 7      2751.035          45.000    26121499.008 7 105180506.229 7      2107.939          45.000
E19  23862613.867 7 125398884.529 7       -33.125          47.000    23862614.641 8  96084855.577 8       -25.420          51.000
E21  23548054.812 8 123745872.367 8       553.496          51.000    23548055.320 8  94818264.462 8       424.051          51.000
E27                                                                  25202677.594 6 101480730.668 6     -1631.479          36.000
> 2020 05 14 04 11 30.0000000  0 13        .000000000000
G05  22022083.117 7 115726817.391 7     -2867.473          46.000    22022082.203 7  90176735.414 7     -2234.391          46.000
G13  20307877.023 7 106718618.822 7       850.828          43.000    20307875.453 6  83157340.847 6       662.986          40.000
G28  20883822.656 8 109745255.897 8       188.312          50.000    20883821.352 8  85515814.287 8       146.737          48.000
G30  21740703.789 6 114248161.820 6     -2231.953          38.000    21740704.367 6  89024549.862 6     -1739.181          38.000
R07  19682582.062 8 105362389.688 8     -1959.176          51.000    19682583.719 7  81948542.067 7     -1523.806          47.000
R09  19386455.406 8 103522578.974 8     -1350.461          50.000    19386456.492 8  80517539.668 8     -1050.359          48.000
R10  19661193.344 8 104805219.038 8      1659.684          50.000
C05  39798092.867 5 207239111.837 5        12.188          35.000    39798091.250 6 160250408.349 6         9.270          40.000
C20  22650174.000 8 117945366.456 8     -1957.980          51.000
E01  26105813.523 7 137186943.250 7      2744.492          45.000    26105811.547 7 105117338.721 7      2103.087          44.000
E19  23862832.633 7 125400033.926 7       -43.719          47.000    23862833.398 8  96085736.274 8       -33.508          51.000
E21  23544930.906 8 123729455.562 8       540.562          51.000    23544930.977 8  94805685.329 8       414.245          51.000
E27  25214854.555 6 132504969.289 6     -2137.254          36.000    25214854.078 6 101529759.416 6     -1637.430          36.000
> 2020 05 14 04 12  0.0000000  0 13        .000000000000
G05  22038486.125 7 115813021.811 7     -2879.258          47.000    22038486.625 7  90243907.705 7     -2243.578          47.000
G13  20303054.516 7 106693276.734 7       838.906          44.000    20303053.117 6  83137593.786 6       653.696          39.000
G28  20882800.875 8 109739886.596 8       169.863          50.000    20882799.523 8  85511630.410 8       132.361          48.000
G30  21753467.320 6 114315233.254 6     -2239.055          38.000    21753467.594 6  89076813.305 6     -1744.718          38.000
R07  19693621.500 8 105421486.755 8     -1980.410          49.000    19693623.711 8  81994506.424 8     -1540.319          48.000
R09  19394093.594 8 103563366.915 8     -1368.617          51.000    19394094.367 7  80549263.616 7     -1064.480          47.000
R10  19651908.625 8 104755723.555 8      1640.199          51.000
C05  39798022.758 6 207238747.898 6        12.336          36.000    39798021.328 6 160250126.516 6         9.479          40.000
C20  22661492.008 8 118004302.959 8     -1970.898          51.000
E01  26090162.938 7 137104703.651 7      2738.332          45.000    26090161.430 7 105054323.948 7      2098.223          43.000
E19  23863112.562 8 125401504.007 8       -54.047          48.000    23863113.219 8  96086862.686 8       -41.305          51.000
E21  23541881.031 8 123713429.520 8       528.020          51.000    23541881.688 8  94793405.623 8       404.610          51.000
E27  25227074.219 5 132569190.125 5     -2144.141          34.000    25227074.602 6 101578967.578 6     -1643.116          36.000
> 2020 05 14 04 12 30.0000000  0 13        .000000000000
G05  22054957.391 8 115899581.298 8     -2891.691          48.000    22054958.555 8  90311356.670 8     -2253.266          48.000
G13  20298301.047 7 106668298.568 7       826.117          42.000    20298300.086 6  83118130.287 6       643.728          41.000
G28  20881885.156 8 109735075.377 8       150.621          49.000    20881884.102 8  85507881.421 8       117.367          49.000
G30  21766271.102 6 114382515.221 6     -2246.680          38.000    21766271.875 6  89129240.771 6     -1750.659          38.000
R07  19704781.148 8 105481226.806 8     -2002.535          50.000    19704783.320 8  82040970.883 8     -1557.527          48.000
R09  19401835.016 8 103604705.658 8     -1387.508          50.000    19401835.703 7  80581415.955 7     -1079.170          47.000
R10  19642735.406 8 104706823.591 8      1619.668          50.000
C05  39797951.742 6 207238376.975 6        12.285          36.000    39797950.422 6 160249840.841 6         9.234          40.000
C20  22672884.938 8 118063633.721 8     -1984.750          50.000
E01  26074548.406 7 137022655.040 7      2731.297          45.000    26074546.641 6 104991455.533 6      2092.806          41.000
E19  23863451.578 8 125403285.736 8       -65.195          48.000    23863452.258 8  96088227.895 8       -49.862          51.000
E21  23538903.547 8 123697784.615 8       514.582          51.000    23538905.125 8  94781417.973 8       394.305          51.000
E27  25239340.250 5 132633628.076 5     -2152.277          31.000    25239337.164 5 101628346.640 5     -1649.178          34.000
> 2020 05 14 04 13  0.0000000  0 14        .000000000000
G05  22071497.094 8 115986496.775 8     -2902.688          50.000    22071498.109 8  90379083.012 8     -2261.834          50.000
G13  20293617.586 7 106643688.282 7       814.449          43.000    20293616.414 6  83098953.419 6       634.636          41.000
G15  21538732.609 5 113186755.458 5      2406.980          31.000
G28  20881076.094 8 109730824.995 8       132.590          50.000    20881075.383 8  85504569.425 8       103.314          48.000
G30  21779115.406 6 114450009.208 6     -2253.199          37.000    21779116.258 6  89181833.447 6     -1755.743          37.000
R07  19716061.945 8 105541611.699 8     -2023.262          51.000    19716063.656 8  82087936.909 8     -1573.648          48.000
R09  19409679.789 8 103646595.593 8     -1405.203          50.000    19409680.391 8  80613997.002 8     -1092.936          48.000
R10  19633674.258 8 104658522.303 8      1600.359          50.000
C05  39797880.344 6 207238005.434 6        13.125          36.000    39797879.062 6 160249553.528 6         9.977          40.000
C20  22684353.523 8 118123360.370 8     -1997.191          49.000
E01  26058971.219 7 136940801.230 7      2725.594          46.000    26058968.250 6 104928736.425 6      2088.361          40.000
E19  23863850.492 8 125405382.662 8       -74.824          48.000    23863851.297 8  96089834.629 8       -57.291          50.000
E21  23535999.359 8 123682523.389 8       502.660          51.000    23536001.016 8  94769724.294 8       385.158          51.000
E27                                                                  25251642.617 5 101677897.611 5     -1654.406          33.000
> 2020 05 14 04 13 30.0000000  0 13        .000000000000
G05  22088099.555 8 116073740.915 8     -2914.715          50.000    22088100.031 8  90447065.460 8     -2271.206          50.000
G13  20288999.914 7 106619422.571 7       801.824          45.000    20288998.539 6  83080045.055 6       624.795          41.000
G28  20880369.352 8 109727111.135 8       113.652          48.000    20880368.547 8  85501675.477 8        88.557          48.000
G30  21791994.695 6 114517689.654 6     -2260.172          36.000    21791996.102 6  89234571.440 6     -1761.173          36.000
R07  19727458.438 8 105602615.496 8     -2044.938          51.000    19727460.148 8  82135384.268 8     -1590.507          49.000
R09  19417622.570 8 103689009.404 8     -1423.570          51.000    19417623.438 7  80646985.515 7     -1107.221          47.000
R10  19624720.461 8 104610795.703 8      1580.270          48.000
C05  39797803.914 6 207237607.711 6        12.180          36.000    39797802.688 6 160249245.936 6         9.693          40.000
C20  22695893.938 8 118183457.729 8     -2010.523          51.000
E01  26043427.211 8 136859119.055 8      2718.766          48.000    26043424.023 6 104866148.846 6      2083.117          40.000
E19  23864304.984 8 125407771.143 8       -85.645          48.000    23864305.742 8  96091664.745 8       -65.567          50.000
E21  23533163.312 8 123667621.361 8       489.633          51.000    23533164.961 8  94758305.837 8       375.149          51.000
E27                                                                  25263986.797 5 101727604.700 5     -1660.267          33.000
> 2020 05 14 04 14  0.0000000  0 14        .000000000000
G05  22104772.492 8 116161355.296 8     -2925.883          50.000    22104772.219 8  90515336.391 8     -2279.912          50.000
G13  20284456.734 7 106595546.892 7       790.012          46.000    20284455.531 6  83061440.608 6       615.594          41.000
G28  20879772.922 8 109723977.635 8        95.359          49.000    20879772.289 8  85499233.785 8        74.306          48.000
G30  21804917.469 6 114585599.477 6     -2266.758          36.000    21804919.766 6  89287488.173 6     -1766.308          36.000
R06  23477624.094 5 125281076.679 5     -4248.379          32.000
R07  19738978.414 8 105664281.991 8     -2065.891          50.000    19738980.156 8  82183347.086 8     -1606.804          48.000
R09  19425671.547 8 103731989.254 8     -1441.473          50.000    19425672.141 7  80680414.271 7     -1121.142          47.000
R10  19615882.805 8 104563688.857 8      1560.648          49.000
C05  39797731.016 5 207237229.002 5        12.816          35.000    39797729.617 6 160248951.911 6        10.164          40.000
C20  22707514.742 8 118243968.402 8     -2023.199          51.000
E01  26027924.930 8 136777653.802 8      2712.516          49.000    26027923.344 7 104803727.475 7      2078.319          42.000
E19  23864823.547 8 125410496.058 8       -95.664          48.000    23864824.023 8  96093752.662 8       -73.379          50.000
E21  23530403.891 8 123653122.449 8       477.254          51.000    23530405.781 8  94747196.279 8       365.658          51.000
E27                                                                  25276377.953 5 101777492.519 5     -1665.268          33.000
> 2020 05 14 04 14 30.0000000  0 14        .000000000000
G05  22121508.945 8 116249303.595 8     -2936.562          51.000    22121507.750 8  90583867.521 8     -2288.231          51.000
G13  20279981.727 7 106572029.346 7       778.617          47.000    20279980.453 7  83043115.261 7       606.715          42.000
G28  20879280.961 8 109721391.198 8        77.586          50.000    20879279.891 8  85497218.356 8        60.457          48.000
G30  21817877.344 6 114653704.346 6     -2272.594          37.000    21817880.219 6  89340556.925 6     -1770.852          36.000
R06  23501520.477 5 125408595.707 5     -4252.562          32.000
R07  19750614.797 8 105726575.865 8     -2086.309          48.000    19750617.312 8  82231797.915 8     -1622.684          48.000
R09  19433819.578 8 103775499.351 8     -1458.523          50.000    19433820.219 7  80714255.472 7     -1134.407          47.000
R10  19607155.922 8 104517168.437 8      1541.496          50.000
C05  39797655.133 5 207236833.093 5        14.203          35.000    39797653.656 6 160248646.191 6        10.771          40.000
C20  22719208.945 8 118304858.442 8     -2035.418          51.000
E01  26012458.109 8 136696373.491 8      2706.816          49.000    26012458.844 7 104741447.785 7      2074.054          46.000
E19  23865399.984 8 125413524.885 8      -105.480          48.000    23865399.852 8  96096073.440 8       -80.784          50.000
E21  23527715.109 8 123638993.341 8       465.422          51.000    23527717.016 8  94736370.088 8       356.652          51.000
E27                                                                  25288808.570 5 101827545.544 5     -1670.105          32.000
> 2020 05 14 04 15  0.0000000  0 13        .000000000000
G05  22138312.500 8 116337604.616 8     -2949.605          51.000    22138310.539 8  90652673.493 8     -2298.394          51.000
G13  20275579.000 7 106548892.138 7       764.703          46.000    20275577.305 7  83025086.278 7       595.873          43.000
G28  20878897.102 8 109719372.667 8        57.336          50.000    20878895.578 8  85495645.472 8        44.677          48.000
G30  21830877.984 6 114722024.367 6     -2281.926          36.000    21830881.266 6  89393793.291 6     -1778.124          36.000
R06  23525448.562 4 125536284.871 4     -4259.160          29.000
R07  19762372.352 8 105789517.535 8     -2109.242          50.000    19762375.828 8  82280752.533 8     -1640.522          48.000
R09  19442070.570 8 103819558.464 8     -1478.172          50.000    19442070.961 7  80748523.659 7     -1149.689          47.000
R10  19598543.070 8 104471256.183 8      1519.898          50.000
C05  39797580.414 5 207236443.598 5        12.594          35.000    39797578.836 6 160248344.966 6         9.687          40.000
C20  22730979.688 8 118366147.684 8     -2049.957          51.000
E01  25997030.812 8 136615300.397 8      2698.586          49.000    25997033.367 8 104679326.847 8      2067.745          48.000
E19  23866038.453 8 125416879.651 8      -117.605          49.000    23866037.969 8  96098643.978 8       -90.194          50.000
E21  23525100.773 8 123625254.936 8       451.051          51.000    23525102.562 8  94725843.256 8       345.592          51.000
> 2020 05 14 04 15 30.0000000  0 13        .000000000000
G05  22155182.531 8 116426254.806 8     -2960.145          51.000    22155180.078 8  90721751.535 8     -2306.609          51.000
G13  20271248.617 7 106526135.317 7       752.918          45.000    20271246.516 7  83007353.688 7       586.689          43.000
G15  21470789.711 5 112829765.665 5      2355.082          33.000
G28  20878620.922 8 109717920.463 8        39.656          51.000    20878619.367 8  85494513.895 8        30.901          48.000
R06  23549407.500 4 125664150.124 4     -4263.637          28.000
R07  19774251.227 8 105853104.523 8     -2129.566          51.000    19774254.633 8  82330209.040 8     -1656.329          48.000
R09  19450423.461 8 103864162.640 8     -1495.066          50.000    19450424.109 7  80783215.812 7     -1162.829          46.000
R10  19590044.188 8 104425951.634 8      1500.699          50.000
C05  39797506.469 5 207236058.662 5        13.738          35.000    39797504.922 6 160248047.309 6        10.379          40.000
C20  22742826.461 8 118427833.657 8     -2062.152          51.000
E01  25981642.727 8 136534434.271 8      2692.727          48.000    25981646.617 8 104617364.490 8      2063.225          50.000
E19  23866738.711 8 125420559.695 8      -127.422          48.000    23866738.359 8  96101463.729 8       -97.617          50.000
E21  23522560.500 8 123611905.681 8       439.078          51.000    23522562.336 8  94715614.606 8       336.505          51.000
> 2020 05 14 04 16  0.0000000  0 11        .000000000000
G05  22172116.227 8 116515240.700 8     -2972.562          51.000    22172113.859 8  90791091.183 8     -2316.282          51.000
G13  20266988.570 7 106503749.033 7       739.125          46.000    20266986.445 7  82989909.815 7       575.942          43.000
G28  20878450.516 8 109717023.620 8        19.973          51.000    20878448.703 8  85493815.052 8        15.566          48.000
R07  19786248.703 8 105917324.436 8     -2151.941          51.000    19786251.406 8  82380157.821 8     -1673.732          48.000
R09  19458875.984 8 103909298.323 8     -1514.164          49.000    19458876.078 7  80818321.329 7     -1177.683          46.000
R10  19581657.156 8 104381243.833 8      1479.668          50.000
C05  39797431.219 5 207235666.722 5        12.574          35.000    39797429.836 6 160247744.989 6         9.527          39.000
C20  22754746.758 8 118489904.502 8     -2076.141          51.000
E01  25966292.031 8 136453765.415 8      2684.922          48.000    25966296.766 8 104555553.272 8      2057.290          51.000
E19  23867498.844 8 125424554.733 8      -139.098          48.000    23867498.828 8  96104524.840 8      -106.608          50.000
E21  23520092.227 8 123598934.542 8       425.316          51.000    23520094.211 8  94705675.689 8       325.949          51.000
> 2020 05 14 04 16 30.0000000  0 11        .000000000000
G05  22189111.453 8 116604552.507 8     -2983.496          50.000    22189109.797 8  90860684.793 8     -2324.802          50.000
G13  20262797.820 7 106481727.227 7       727.066          46.000    20262796.094 7  82972749.968 7       566.545          44.000
G28  20878384.133 8 109716674.468 8         1.617          51.000    20878382.195 7  85493542.999 7         1.260          47.000
R07  19798362.602 8 105982168.897 8     -2172.785          51.000    19798364.742 8  82430592.372 8     -1689.944          48.000
R09  19467426.109 8 103954955.792 8     -1531.539          49.000    19467426.758 7  80853832.731 7     -1191.194          47.000
R10  19573380.820 8 104337125.969 8      1459.871          50.000
C05  39797353.773 5 207235263.764 5        13.215          35.000    39797352.164 6 160247432.626 6         9.723          40.000
C20  22766738.656 8 118552351.976 8     -2088.719          51.000
E01  25950977.570 8 136373287.844 8      2678.398          49.000    25950982.805 8 104493888.614 8      2052.261          51.000
E19  23868317.688 8 125428858.217 8      -149.617          48.000    23868317.820 8  96107822.291 8      -114.651          49.000
E21  23517694.617 8 123586334.171 8       412.848          51.000    23517696.703 8  94696020.863 8       316.332          51.000
> 2020 05 14 04 17  0.0000000  0 11        .000000000000
G05  22206173.625 8 116694218.310 8     -2993.836          50.000    22206172.508 8  90930554.271 8     -2332.856          50.000
G13  20258682.680 7 106460102.671 7       715.238          47.000    20258681.305 7  82955899.663 7       557.329          43.000
G28  20878427.898 8 109716904.440 8       -16.238          51.000    20878425.539 7  85493722.194 7       -12.653          46.000
R07  19810598.125 8 106047667.940 8     -2193.215          51.000    19810599.945 7  82481536.061 7     -1705.834          47.000
R09  19476079.266 8 104001164.152 8     -1548.402          49.000    19476080.062 7  80889772.564 7     -1204.313          46.000
R10  19565221.086 8 104293629.624 8      1440.543          50.000
C05  39797279.617 5 207234877.761 5        13.301          35.000    39797278.039 6 160247134.104 6        10.524          40.000
C20  22778808.008 8 118615205.787 8     -2100.863          51.000
E01  25935705.703 8 136293033.766 8      2672.449          49.000    25935710.984 8 104432395.210 8      2047.655          51.000
E19  23869201.461 8 125433502.090 8      -159.465          48.000    23869201.320 8  96111380.570 8      -122.205          49.000
E21  23515373.461 8 123574135.440 8       400.945          51.000    23515375.680 8  94686673.782 8       307.212          51.000
> 2020 05 14 04 17 30.0000000  0 12        .000000000000
G05  22223296.617 8 116784201.013 8     -3004.879          51.000    22223294.906 8  91000670.650 8     -2341.464          51.000
G13  20254636.742 7 106438841.681 7       702.426          46.000    20254635.555 7  82939332.649 7       547.345          44.000
G28  20878575.039 8 109717678.061 8       -34.883          50.000    20878572.609 7  85494325.033 7       -27.181          46.000
G30  21896467.477 4 115066706.585 4     -2311.973          28.000
R07  19822948.969 8 106113785.182 8     -2214.355          51.000    19822950.609 7  82532960.573 7     -1722.276          46.000
