     3.02           OBSERVATION DATA    M (MIXED)           RINEX VERSION / TYPE
SAVERINEX           SC600               20200515 105930 LCL PGM / RUN BY / DATE
       G = GPS       R = GLONASS       C = COMPASS          COMMENT
       S = SBAS      J = QZSS          E = GALILEO          COMMENT
BEAN                                                        MARKER NAME
1                                                           MARKER NUMBER
GEODETIC                                                    MARKER TYPE
Unige DICCA         GTER                                    OBSERVER / AGENCY
SC60291900056       SC600               2.12(191202)        REC # / TYPE / VERS
                    HEMA45          NONE                    ANT # / TYPE
  4509407.8091   693652.4678  4442337.6214                  APPROX POSITION XYZ
        0.0000        0.0000        0.0000                  ANTENNA: DELTA H/E/N
G    8 C1C L1C D1C S1C C2Y L2Y D2Y S2Y                      SYS / # / OBS TYPES
R    8 C1C L1C D1C S1C C2P L2P D2P S2P                      SYS / # / OBS TYPES
C    4 C1I L1I D1I S1I                                      SYS / # / OBS TYPES
E    8 C1C L1C D1C S1C C7Q L7Q D7Q S7Q                      SYS / # / OBS TYPES
DBHZ                                                        COMMENT
     30.000                                                 INTERVAL
  2020    05    15    08    00    0.0000000     GPS         TIME OF FIRST OBS
  2020    05    15    08    59   30.0000000     GPS         TIME OF LAST OBS
     0                                                      RCV CLOCK OFFS APPL
G L1C  0.00000                                              SYS / PHASE SHIFT
G L2Y  0.00000                                              SYS / PHASE SHIFT
R L1C  0.00000                                              SYS / PHASE SHIFT
R L2P  0.25000                                              SYS / PHASE SHIFT
C L1I  0.00000                                              SYS / PHASE SHIFT
E L1C  0.50000                                              SYS / PHASE SHIFT
E L7Q -0.25000                                              SYS / PHASE SHIFT
 13 R01  1 R02 -4 R03  5 R08  6 R09 -2 R10 -5 R11  0 R12 -1 GLONASS SLOT / FRQ #
    R19  3 R20  2 R21  4 R22 -3 R23  3                      GLONASS SLOT / FRQ #
 C1C   71.950 C2C   71.950 C2P   71.950                     GLONASS COD/PHS/BIS
    18                                                      LEAP SECONDS
*** Above antenna height is from mark to ANTENNA BOTTOM.    COMMENT
    17     4        0.0000        ANT MEASURE TYPE/HEIGT    COMMENT
    0.0000    0.0000    0.0458    0.0405    0.0000          COMMENT
                    BASE STATION                            COMMENT
                                                            END OF HEADER
> 2020 05 15 08 00  0.0000000  0 13        .000000000000
G12  20211665.406 8 106213001.225 8       863.812          51.000    20211663.188 8  82763378.802 8       673.101          51.000
G15  24255582.812 6 127463921.220 6     -3706.957          36.000    24255580.383 6  99322518.021 6     -2888.544          36.000
G17  24277863.414 5 127581031.069 5     -2982.234          32.000    24277868.312 5  99413791.941 5     -2323.822          31.000
G24  20292036.016 8 106635370.547 8      -844.672          50.000    20292038.547 8  83092500.547 8      -658.183          50.000
R03  21164928.125 4 113297481.306 4     -1309.930          28.000    21164934.219 4  88120315.981 4     -1018.840          26.000
R12  20070177.664 8 107211286.874 8     -1274.859          51.000    20070181.555 8  83386556.423 8      -991.557          51.000
R21  22380726.648 4 119763725.694 4     -2526.266          28.000
R22  20603878.672 5 109984898.164 5      1540.047          33.000    20603887.461 5  85543820.137 5      1197.811          34.000
C19  24896365.352 7 129641928.490 7     -2442.547          45.000
C27  22989538.289 8 119712560.733 8      2006.867          51.000
E07  27219865.773 5 143041352.286 5     -3119.754          35.000    27219871.547 6 109603098.478 6     -2390.545          38.000
E15  26114229.180 7 137231185.758 7      2587.016          47.000    26114229.320 7 105151190.928 7      1982.220          44.000
E27  23331870.977 8 122609792.400 8        50.238          50.000    23331873.164 8  93947784.385 8        38.521          49.000
> 2020 05 15 08 00 30.0000000  0 12        .000000000000
G12  20206726.852 8 106187047.793 8       856.250          51.000    20206724.992 8  82743155.356 8       667.208          51.000
G15  24276702.609 6 127574903.053 6     -3702.012          36.000    24276699.961 6  99408997.317 6     -2884.691          36.000
G24  20296850.891 8 106660672.911 8      -852.219          50.000    20296853.555 8  83112216.685 8      -664.067          50.000
R12  20077316.688 8 107249422.563 8     -1277.816          51.000    20077320.734 8  83416217.490 8      -993.857          51.000
R21  22394909.562 6 119839634.545 6     -2540.816          36.000
R22  20595252.016 6 109938847.032 6      1519.797          36.000    20595257.398 6  85508002.560 6      1182.064          37.000
C19  24910411.992 7 129715073.055 7     -2443.992          45.000
C27  22977968.398 8 119652314.069 8      1999.477          51.000
E07  27237631.852 5 143134710.909 5     -3114.227          33.000    27237637.289 5 109674632.903 5     -2386.249          35.000
E15  26099432.148 7 137153429.774 7      2586.719          46.000    26099432.406 7 105091611.733 7      1982.055          44.000
E27  23331552.938 8 122608120.719 8        51.047          50.000    23331554.758 8  93946503.490 8        39.087          49.000
E30  24317930.680 5 127791607.963 5     -1929.195          33.000
> 2020 05 15 08 01  0.0000000  0 14        .000000000000
G12  20201914.445 8 106161758.551 8       849.195          50.000    20201912.461 8  82723449.461 8       661.711          50.000
G15  24297876.797 6 127686170.847 6     -3696.523          37.000    24297875.070 6  99495699.452 6     -2880.408          36.000
G17  24311962.375 5 127760211.271 5     -2985.219          34.000    24311964.594 5  99553444.903 5     -2326.148          34.000
G19  22207035.609 6 116698752.338 6     -2116.973          36.000
G24  20301792.516 8 106686640.281 8      -859.410          50.000    20301795.141 8  83132451.001 8      -669.670          50.000
R02  22583243.531 5 120508493.382 5     -4094.219          35.000    22583243.297 5  93728842.457 5     -3184.395          31.000
R12  20084555.609 8 107288091.684 8     -1280.258          51.000    20084559.453 8  83446293.459 8      -995.756          50.000
R21  22409252.148 5 119916384.617 5     -2555.992          35.000
R22  20586821.508 5 109893844.472 5      1500.000          35.000    20586826.891 6  85473000.520 6      1166.673          38.000
C19  24924550.945 7 129788696.275 7     -2444.883          46.000
C27  22966524.102 8 119592721.001 8      1992.629          51.000
E07  27255451.430 5 143228347.545 5     -3108.707          32.000    27255453.781 5 109746380.426 5     -2382.026          32.000
E15  26084721.250 7 137076124.793 7      2586.434          46.000    26084721.906 7 105032378.099 7      1981.956          45.000
E27  23331314.070 8 122606864.065 8        52.211          51.000    23331315.633 8  93945540.600 8        40.048          49.000
> 2020 05 15 08 01 30.0000000  0 14        .000000000000
G12  20197167.258 8 106136812.502 8       819.914          50.000    20197165.133 8  82704010.967 8       638.891          50.000
G15  24319044.625 5 127797401.704 5     -3712.504          32.000    24319043.219 5  99582372.781 5     -2892.860          30.000
G17  24329094.906 5 127850222.318 5     -3009.414          33.000    24329093.977 5  99623583.339 5     -2345.001          32.000
G19  22219249.320 5 116762942.786 5     -2150.469          31.000
G24  20306799.891 8 106712952.986 8      -888.723          51.000    20306802.359 8  83152954.407 8      -692.508          51.000
R02  22606332.797 6 120631732.970 6     -4115.781          38.000    22606337.430 5  93824695.393 5     -3201.166          30.000
R12  20091833.352 8 107326968.392 8     -1305.352          51.000    20091836.812 8  83476530.888 8     -1015.273          50.000
R21  22423702.648 6 119993713.197 6     -2593.023          36.000
R22  20578526.211 6 109849566.937 6      1457.734          38.000    20578532.281 6  85438562.510 6      1133.793          37.000
C19  24938720.727 8 129862478.032 8     -2467.828          48.000
C27  22955145.070 8 119533465.828 8      1963.672          51.000
E07  27273261.891 5 143321957.978 5     -3125.422          30.000    27273262.297 5 109818125.061 5     -2394.430          31.000
E15  26070035.211 7 136998952.339 7      2564.180          43.000    26070037.164 7 104973246.041 7      1964.755          45.000
E27  23331093.195 8 122605701.704 8        31.297          50.000    23331094.617 8  93944649.975 8        23.933          50.000
> 2020 05 15 08 02  0.0000000  0 11        .000000000000
G12  20192522.203 8 106112403.563 8       807.434          49.000    20192520.664 8  82684991.011 8       629.169          49.000
G17  24346293.234 5 127940632.771 5     -3014.934          32.000    24346292.297 5  99694004.878 5     -2349.299          33.000
G24  20311909.773 8 106739804.403 8      -901.168          51.000    20311911.945 8  83173877.579 8      -702.209          51.000
R02  22629483.852 6 120755288.961 6     -4120.996          39.000    22629495.133 4  93920794.475 4     -3205.219          29.000
R12  20099186.797 8 107366249.594 8     -1313.312          51.000    20099190.258 8  83507082.916 8     -1021.465          49.000
R21  22438298.508 5 120071813.765 5     -2613.293          34.000    22438310.539 4  93389263.035 4     -2032.561          26.000
C19  24952957.531 7 129936607.954 7     -2473.988          47.000
C27  22943867.805 8 119474742.454 8      1951.309          51.000
E07                                                                  27291100.859 5 109889952.914 5     -2393.852          31.000
E15  26055411.188 6 136922108.358 6      2558.656          41.000    26055415.180 7 104914365.655 7      1960.672          46.000
E27  23330926.859 8 122604827.220 8        27.184          50.000    23330928.492 8  93943979.907 8        20.820          50.000
> 2020 05 15 08 02 30.0000000  0 12        .000000000000
G12  20187950.922 8 106088383.322 8       793.238          48.000    20187950.297 8  82666273.954 8       618.108          49.000
G17  24363531.305 5 128031221.223 5     -3024.387          32.000    24363530.875 5  99764592.349 5     -2356.674          31.000
G24  20317094.070 8 106767046.750 8      -915.430          51.000    20317095.969 8  83195105.371 8      -713.322          51.000
G25  21755227.750 6 114324490.841 6      2456.305          36.000    21755226.211 6  89084026.357 6      1914.001          36.000
R02  22652666.039 6 120879006.576 6     -4127.492          38.000    22652680.172 4  94017030.819 4     -3210.266          26.000
R12  20106587.750 8 107405784.533 8     -1323.008          51.000    20106591.359 8  83537832.299 8     -1029.006          48.000
R21  22453009.172 5 120150532.005 5     -2635.242          32.000    22453017.492 4  93450488.266 4     -2049.636          28.000
R22  20562438.195 5 109763637.464 5      1405.332          35.000    20562432.820 6  85371723.542 6      1093.033          37.000
C19  24967232.188 7 130010936.801 7     -2481.793          45.000
C27  22932664.203 8 119416405.984 8      1937.160          50.000
E15  26040821.375 6 136845446.913 6      2551.336          40.000    26040827.836 7 104855625.083 7      1954.977          46.000
E27  23330786.852 8 122604092.303 8        21.262          50.000    23330789.000 8  93943416.776 8        16.300          50.000
> 2020 05 15 08 03  0.0000000  0 12        .000000000000
G12  20183462.188 8 106064795.613 8       778.621          49.000    20183461.570 8  82647893.939 8       606.721          49.000
G24  20322361.141 8 106794723.868 8      -930.211          51.000    20322362.812 8  83216671.946 8      -724.840          51.000
G25  21741226.172 5 114250944.754 5      2445.836          34.000    21741234.914 5  89026717.730 5      1905.840          31.000
R02  22675886.992 6 121002926.536 6     -4134.746          36.000    22675903.398 4  94113415.580 4     -3215.911          27.000
R12  20114044.703 8 107445617.909 8     -1333.113          51.000    20114048.281 8  83568813.791 8     -1036.866          48.000
R21  22467842.281 5 120229909.570 5     -2657.051          31.000
R22  20554609.508 5 109721884.976 5      1377.809          35.000    20554613.656 6  85339249.087 6      1071.623          36.000
C19  24981552.117 7 130085505.921 7     -2490.020          44.000
C27  22921543.680 8 119358502.101 8      1922.480          50.000
E15  26026274.984 6 136769014.274 6      2543.402          39.000    26026284.359 7 104797059.842 7      1948.853          46.000
E21  25944069.719 5 136337008.419 5      1921.039          34.000    25944072.555 5 104466031.360 5      1471.732          34.000
E27  23330681.734 8 122603540.935 8        14.816          49.000    23330684.391 8  93942994.280 8        11.464          50.000
> 2020 05 15 08 03 30.0000000  0 11        .000000000000
G12  20179086.383 8 106041800.429 8       766.277          49.000    20179085.125 8  82629975.620 8       597.099          49.000
G24  20327741.406 8 106822995.845 8      -942.727          51.000    20327742.836 8  83238702.050 8      -734.592          51.000
R02  22699175.211 5 121127206.342 5     -4138.406          31.000    22699192.875 4  94210077.684 4     -3218.754          29.000
R03  21219753.766 6 113590992.518 6     -1484.938          36.000
R12  20121588.078 8 107485912.401 8     -1341.113          51.000    20121591.633 8  83600153.923 8     -1043.088          48.000
R22  20546966.039 5 109681108.802 5      1352.105          33.000    20546991.250 5  85307596.852 5      1051.647          32.000
C19  24995947.812 7 130160471.392 7     -2495.863          43.000
C27  22910537.102 8 119301191.263 8      1909.980          50.000
E15  26011804.273 6 136692972.582 6      2537.898          41.000    26011814.680 7 104738794.144 7      1944.594          45.000
E21  25933135.594 5 136279547.120 5      1919.027          30.000    25933144.031 5 104422033.938 5      1470.322          34.000
E27  23330642.078 8 122603332.971 8        10.914          49.000    23330645.031 8  93942834.933 8         8.411          50.000
> 2020 05 15 08 04  0.0000000  0 12        .000000000000
G12  20174737.406 8 106018946.231 8       768.570          49.000    20174736.328 8  82612167.172 8       598.886          49.000
G24  20333149.023 8 106851411.996 8      -940.586          51.000    20333150.062 8  83260844.497 8      -732.924          51.000
R02  22722443.453 4 121251313.829 4     -4127.348          27.000    22722463.688 5  94306658.075 5     -3210.162          32.000
R03  21228127.148 6 113635847.626 6     -1493.555          36.000
R12  20129131.883 8 107526209.058 8     -1334.098          51.000    20129135.281 7  83631495.737 7     -1037.632          47.000
R21  22497886.578 5 120390656.325 5     -2682.457          31.000    22497888.555 4  93637236.069 4     -2086.359          29.000
R22  20539434.539 6 109640877.035 6      1341.504          39.000    20539447.750 4  85276305.816 4      1043.395          25.000
C19  25010333.812 7 130235383.621 7     -2487.156          44.000
C27  22899558.844 8 119244028.077 8      1911.867          49.000
E15  25997322.922 6 136616872.661 6      2546.500          41.000    25997333.820 7 104680483.856 7      1951.325          45.000
E21                                                                  25922184.688 5 104377896.320 5      1480.334          31.000
E27  23330581.914 8 122603016.922 8        21.488          49.000    23330584.773 8  93942592.771 8        16.417          50.000
> 2020 05 15 08 04 30.0000000  0 13        .000000000000
G12  20170467.273 7 105996506.581 7       735.883          47.000    20170466.742 7  82594681.750 7       573.415          47.000
G17  24432938.734 5 128395970.653 5     -3057.504          33.000
G24  20338636.070 8 106880245.798 8      -973.230          51.000    20338636.633 8  83283312.377 8      -758.361          51.000
G25  21699565.227 5 114031974.477 5      2415.977          34.000    21699576.023 5  88856129.711 5      1882.573          33.000
R03  21236643.055 5 113681441.705 5     -1537.547          32.000
R12  20136728.164 8 107566786.413 8     -1362.387          51.000    20136731.328 7  83663055.888 7     -1059.634          47.000
R21  22513051.586 5 120471895.256 5     -2722.188          30.000    22513054.320 3  93700369.015 3     -2117.263          23.000
R22  20532048.906 6 109601458.305 6      1294.969          40.000    20532055.352 5  85245642.694 5      1007.198          32.000
C19  25024761.586 7 130310511.653 7     -2512.812          44.000
C27  22888662.008 8 119187285.871 8      1879.277          50.000
E15  25982883.555 6 136540990.657 6      2520.656          40.000    25982894.164 7 104622340.522 7      1931.337          46.000
E21  25911243.734 5 136164499.491 5      1909.766          35.000
E27  23330553.258 8 122602866.525 8        -2.898          49.000    23330555.797 8  93942477.534 8        -2.194          50.000
> 2020 05 15 08 05  0.0000000  0 15        .000000000000
G12  20166299.102 7 105974603.644 7       723.969          47.000    20166298.672 7  82577614.525 7       564.131          47.000
G17  24450405.805 5 128487763.052 5     -3063.000          34.000    24450404.984 5 100120333.970 5     -2386.753          32.000
G24  20344225.852 8 106909619.863 8      -985.328          51.000    20344226.078 8  83306201.241 8      -767.788          51.000
G25  21685791.648 5 113959611.769 5      2408.137          35.000    21685806.383 5  88799743.279 5      1876.470          34.000
R03  21245320.523 5 113727896.832 5     -1560.121          33.000
R12  20144400.023 8 107607768.349 8     -1370.039          51.000    20144403.367 7  83694930.715 7     -1065.586          47.000
R21  22528370.789 5 120553831.435 5     -2740.902          31.000
R22  20524840.930 6 109562978.642 6      1269.602          40.000    20524846.844 6  85215714.132 6       987.471          37.000
R23  22946126.078 6 122746299.192 6      4498.137          37.000    22946129.289 4  95469351.877 4      3498.551          26.000
C19  25039253.383 7 130385974.029 7     -2518.328          45.000
C27  22877869.977 8 119131087.544 8      1867.062          50.000
E15  25968509.727 6 136465450.779 6      2515.082          40.000    25968519.672 7 104564459.333 7      1927.141          46.000
E21  25900337.945 6 136107215.853 6      1908.613          36.000
E27  23330579.367 8 122603003.777 8        -6.496          49.000    23330581.648 8  93942582.707 8        -5.013          50.000
E30  24417917.977 5 128317027.655 5     -1956.137          32.000
> 2020 05 15 08 05 30.0000000  0 13        .000000000000
G12  20162205.656 8 105953092.182 8       710.773          48.000    20162204.820 8  82560852.329 8       553.849          48.000
G17  24467912.250 6 128579758.047 6     -3069.098          36.000    24467912.234 5 100192009.232 5     -2391.505          31.000
G24  20349890.750 8 106939389.290 8      -998.586          51.000    20349890.984 8  83329398.179 8      -778.119          51.000
G25  21672071.711 5 113887517.604 5      2399.215          34.000    21672086.461 5  88743566.018 5      1869.509          31.000
R03  21254131.164 6 113775062.726 6     -1583.703          36.000
R12  20152119.828 8 107649007.464 8     -1378.527          51.000    20152123.500 7  83727005.578 7     -1072.191          46.000
R22  20517781.812 6 109525293.284 6      1242.805          36.000    20517785.867 6  85186403.309 6       966.626          37.000
R23  22920901.258 5 122611396.307 5      4495.387          34.000    22920912.016 4  95364427.517 4      3496.415          29.000
C19  25053780.781 7 130461624.578 7     -2524.445          45.000
C27  22867155.125 8 119075291.262 8      1853.465          50.000
C30  25406087.172 6 132296163.904 6      3478.406          36.000
E15  25954174.461 6 136390110.252 6      2508.254          41.000    25954182.805 7 104506730.882 7      1921.900          45.000
E27  23330632.656 8 122603283.571 8       -11.438          50.000    23330634.586 8  93942797.083 8        -8.731          50.000
> 2020 05 15 08 06  0.0000000  0 13        .000000000000
G12  20158186.094 8 105931968.222 8       696.645          49.000    20158185.031 8  82544392.110 8       542.840          49.000
G17  24485455.906 5 128671949.510 5     -3077.547          35.000    24485454.531 5 100263846.580 5     -2398.098          33.000
G24  20355630.039 8 106969549.529 8     -1013.027          51.000    20355630.352 8  83352899.650 8      -789.372          51.000
R03  21263074.711 4 113822932.945 4     -1608.254          28.000    21263067.523 4  88528896.227 4     -1250.858          26.000
R12  20159887.203 8 107690500.042 8     -1388.473          51.000    20159891.234 7  83759277.575 7     -1079.923          45.000
R21  22559320.641 5 120719470.819 5     -2781.941          30.000
R23  22895696.711 6 122476585.978 6      4490.633          36.000    22895711.016 4  95259575.142 4      3492.717          27.000
C19  25068343.055 7 130537457.287 7     -2531.762          44.000
C27  22856517.227 8 119019895.217 8      1838.672          49.000
C30  25386046.648 5 132191811.644 5      3476.465          34.000
E15  25939877.250 7 136314967.389 7      2500.434          42.000    25939883.289 7 104449153.924 7      1915.908          43.000
E27  23330712.273 8 122603702.032 8       -17.336          50.000    23330714.000 8  93943117.718 8       -13.262          50.000
E30  24440274.578 5 128434511.137 5     -1959.699          32.000
> 2020 05 15 08 06 30.0000000  0 14        .000000000000
G12  20154245.742 8 105911260.714 8       682.801          49.000    20154244.531 8  82528256.388 8       532.053          50.000
G17  24503041.828 5 128764364.089 5     -3084.375          35.000    24503040.234 5 100335857.862 5     -2403.412          34.000
G24  20361449.289 8 107000130.590 8     -1027.027          51.000    20361449.984 8  83376729.016 8      -800.281          51.000
R02  22839344.898 6 121875097.763 6     -4172.172          38.000    22839355.109 4  94791775.539 4     -3245.020          27.000
R12  20167707.695 8 107732275.535 8     -1397.840          50.000    20167711.906 7  83791769.605 7     -1087.209          44.000
R21  22574981.188 5 120803244.987 5     -2802.438          31.000    22574985.164 4  93958124.684 4     -2179.677          26.000
R22  20504112.453 6 109452361.955 6      1187.656          37.000    20504113.602 5  85129622.351 5       923.724          34.000
R23  22870516.984 5 122341902.367 5      4487.039          34.000    22870533.594 4  95154821.332 4      3489.922          27.000
C19  25082945.656 7 130613498.638 7     -2538.801          43.000
C27  22845962.047 8 118964930.057 8      1824.371          50.000
C30  25366015.828 5 132087507.849 5      3475.230          35.000
E15  25925623.203 7 136240053.550 7      2492.660          43.000    25925627.180 6 104391752.507 6      1909.886          40.000
E21  25867714.320 6 135935743.784 6      1899.242          36.000
E27  23330823.617 8 122604288.150 8       -22.996          49.000    23330825.461 8  93943566.806 8       -17.620          50.000
> 2020 05 15 08 07  0.0000000  0 16        .000000000000
G02  24465234.453 5 128565670.136 5      2441.215          35.000    24465232.727 5 100181015.922 5      1902.251          33.000
G12  20150402.344 8 105891062.742 8       668.164          48.000    20150400.969 8  82512517.696 8       520.647          48.000
G15  24552432.148 5 129023900.861 5     -3719.660          32.000
G17  24520687.617 5 128857093.054 5     -3093.051          35.000    24520686.453 5 100408114.107 5     -2410.169          35.000
G24  20367366.219 8 107031225.399 8     -1041.656          51.000    20367367.172 8  83400958.710 8      -811.683          51.000
G25  21631253.906 5 113673016.642 5      2368.582          35.000    21631268.805 5  88576433.018 5      1845.661          33.000
R02  22862826.906 6 122000410.789 6     -4177.523          40.000    22862838.711 4  94889241.248 4     -3249.185          29.000
R12  20175598.992 8 107774428.853 8     -1408.035          50.000    20175602.586 7  83824555.521 7     -1095.138          43.000
R22  20497528.828 6 109417214.362 6      1159.547          39.000    20497536.070 6  85102285.338 6       901.873          37.000
R23  22845379.734 5 122207444.918 5      4481.559          32.000
C19  25097605.758 7 130689838.661 7     -2546.297          43.000
C27  22835507.938 8 118910490.051 8      1809.230          51.000
C30  25346012.656 5 131983347.319 5      3473.078          35.000
E15  25911430.086 6 136165464.229 6      2484.133          41.000    25911431.070 5 104334599.805 5      1903.304          35.000
E21  25856902.469 6 135878894.782 6      1895.398          36.000
E27  23330984.555 8 122605135.117 8       -29.250          49.000    23330986.711 8  93944215.765 8       -22.415          50.000
> 2020 05 15 08 07 30.0000000  0 15        .000000000000
G02  24451314.094 6 128492520.514 6      2442.922          37.000
G12  20146627.031 7 105871223.769 7       661.676          47.000    20146625.758 7  82497058.744 7       515.592          47.000
G17  24538364.273 5 128949983.807 5     -3092.688          34.000    24538363.789 5 100480496.401 5     -2409.889          34.000
G24  20373352.289 8 107062683.943 8     -1048.195          51.000    20373353.281 8  83425471.844 8      -816.776          51.000
G25  21617761.766 5 113602112.437 5      2366.309          32.000    21617777.281 5  88521182.979 5      1843.874          32.000
R02  22886325.523 6 122125814.057 6     -4174.898          40.000    22886337.172 5  94986777.111 5     -3247.143          30.000
R03  21290738.867 5 113970991.516 5     -1674.500          32.000
R12  20183532.414 8 107816807.075 8     -1409.777          49.000    20183535.789 7  83857516.376 7     -1096.490          42.000
R21  22606649.219 5 120972697.163 5     -2836.246          31.000
R22  20491088.305 7 109382837.249 7      1139.477          43.000    20491092.781 5  85075547.764 5       886.266          33.000
C19  25112294.398 7 130766325.982 7     -2545.523          45.000
C27  22825126.453 8 118856428.153 8      1802.160          51.000
C30  25326009.578 5 131879183.456 5      3478.652          34.000
E15  25897269.984 6 136091051.279 6      2483.977          39.000    25897267.672 5 104277582.218 5      1903.160          33.000
E27  23331166.641 8 122606092.570 8       -27.277          49.000    23331169.047 8  93944949.378 8       -20.934          50.000
> 2020 05 15 08 08  0.0000000  0 15        .000000000000
G02  24437450.219 6 128419664.690 6      2428.984          36.000    24437450.141 4 100067274.554 4      1892.712          27.000
G12  20142954.734 7 105851925.937 7       639.539          47.000    20142953.523 8  82482021.456 8       498.342          48.000
G17  24556106.062 5 129043205.996 5     -3108.953          30.000    24556105.719 4 100553144.804 4     -2422.567          28.000
G24  20379442.328 8 107094688.636 8     -1070.590          51.000    20379443.430 8  83450410.564 8      -834.226          51.000
G25  21604348.984 5 113531631.168 5      2347.402          30.000    21604365.203 5  88466262.307 5      1829.145          31.000
R02  22909875.844 6 122251488.118 6     -4188.559          38.000    22909885.805 4  95084523.570 4     -3257.771          29.000
R03  21300255.141 4 114021932.246 4     -1706.695          28.000
R12  20191542.430 8 107859595.407 8     -1427.773          48.000    20191545.289 6  83890796.206 6     -1110.490          41.000
R22  20484828.305 7 109349417.746 7      1103.438          44.000    20484826.398 5  85049554.823 5       858.226          32.000
R23  22795199.758 4 121938944.333 4      4471.340          28.000
C19  25127045.945 7 130843138.786 7     -2560.723          45.000
C27  22814852.289 8 118802926.736 8      1779.219          51.000
C30  25306040.664 5 131775199.145 5      3468.227          34.000
E15                                                                  25883173.891 5 104220818.961 5      1890.451          32.000
E27  23331404.516 8 122607342.601 8       -41.324          49.000    23331407.031 8  93945907.194 8       -31.673          50.000
> 2020 05 15 08 08 30.0000000  0 14        .000000000000
G02  24423578.062 5 128346769.511 5      2416.836          35.000    24423579.250 5 100010473.122 5      1883.249          32.000
G12  20139321.484 8 105832832.799 8       619.262          48.000    20139319.789 8  82467143.683 8       482.542          48.000
G24  20385572.320 8 107126902.953 8     -1090.941          51.000    20385573.664 8  83475512.619 8      -850.084          51.000
R02  22933412.656 5 122377087.321 5     -4199.211          35.000    22933423.461 4  95182211.819 4     -3266.059          26.000
R12  20199565.219 7 107902452.285 7     -1443.629          47.000    20199567.977 6  83924129.309 6     -1122.822          40.000
R21  22638773.758 5 121144587.078 5     -2891.973          34.000
R22  20478682.953 7 109316616.147 7      1069.121          42.000    20478682.562 5  85024042.580 5       831.542          34.000
R23  22770114.070 6 121804761.873 6      4459.852          36.000
C19  25141795.523 7 130919941.632 7     -2573.551          46.000
C27  22804621.805 8 118749654.504 8      1758.250          51.000
C30  25286042.695 5 131671063.650 5      3459.953          34.000
E07  27523306.844 5 144635952.922 5     -3138.566          33.000
E15                                                                  25869087.672 5 104164098.187 5      1879.793          32.000
E27  23331634.031 8 122608549.012 8       -53.242          50.000    23331636.570 8  93946831.575 8       -40.733          50.000
> 2020 05 15 08 09  0.0000000  0 15        .000000000000
G02  24409761.781 5 128274167.260 5      2420.559          35.000    24409761.164 5  99953899.935 5      1886.153          30.000
G12  20135789.852 8 105814273.389 8       615.211          49.000    20135787.602 8  82452681.787 8       479.385          49.000
G24  20391804.961 8 107159656.580 8     -1095.336          51.000    20391806.391 8  83501034.926 8      -853.509          51.000
G25  21577642.633 5 113391305.556 5      2331.246          33.000
R02  22957000.133 5 122502941.634 5     -4193.324          35.000    22957011.461 4  95280111.445 4     -3261.471          24.000
R03  21319637.109 5 114125685.583 5     -1750.715          30.000
R12  20207663.695 7 107945712.460 7     -1443.109          47.000    20207666.195 6  83957776.096 6     -1122.418          38.000
R21  22655010.930 5 121231457.686 5     -2902.070          33.000
R22  20472717.922 6 109284769.330 6      1050.988          40.000    20472717.016 5  84999272.789 5       817.432          32.000
R23  22745078.750 6 121670849.486 6      4464.660          40.000
C19  25156605.469 7 130997058.471 7     -2570.332          45.000
C27  22794498.461 8 118696939.716 8      1753.262          51.000
C30  25266079.070 5 131567105.741 5      3468.391          33.000
E15                                                                  25855072.492 6 104107652.040 6      1881.014          37.000
E27  23331917.922 8 122610041.088 8       -49.016          50.000    23331920.438 8  93947974.858 8       -37.557          50.000
> 2020 05 15 08 09 30.0000000  0 13        .000000000000
G02  24395957.906 6 128201628.311 6      2408.730          40.000    24395958.641 6  99897376.131 6      1876.933          37.000
G12  20132315.586 8 105796015.318 8       595.492          49.000    20132313.578 8  82438454.732 8       464.020          49.000
G24  20398096.195 8 107192717.556 8     -1115.262          50.000    20398097.414 8  83526796.711 8      -869.038          50.000
G25  21564362.758 5 113321514.823 5      2315.180          31.000    21564378.742 5  88302519.031 5      1804.033          30.000
R02  22980592.547 5 122628810.831 5     -4204.383          32.000
R12  20215793.414 7 107989139.802 7     -1458.637          46.000    20215796.047 6  83991552.883 6     -1134.495          38.000
R23  22720052.719 6 121536974.871 6      4453.512          41.000    22720066.461 4  94528805.794 4      3463.855          24.000
C19  25171430.953 7 131074256.769 7     -2582.574          45.000
C27  22784438.078 8 118644553.916 8      1732.645          51.000
C30  25246103.711 4 131463089.578 4      3459.234          29.000
E15  25841075.508 5 135795767.413 5      2440.910          33.000    25841082.664 6 104051304.260 6      1870.377          39.000
E21  25803046.023 5 135595914.578 5      1875.508          33.000    25803053.891 5 103898206.169 5      1436.916          33.000
E27  23332211.961 8 122611586.466 8       -60.461          49.000    23332214.688 8  93949158.990 8       -46.369          51.000
> 2020 05 15 08 10  0.0000000  0 13        .000000000000
G02  24382207.273 6 128129369.389 6      2407.590          37.000    24382208.508 6  99841070.510 6      1876.044          37.000
G12  20128939.078 8 105778272.011 8       586.348          50.000    20128937.477 8  82424628.797 8       456.894          50.000
G24  20404486.617 8 107226298.782 8     -1124.500          51.000    20404487.484 8  83552963.897 8      -876.234          51.000
R02  23004226.281 4 122754956.126 4     -4203.688          29.000    23004240.211 4  95476135.735 4     -3269.541          26.000
R12  20223994.797 7 108032951.403 7     -1463.160          45.000    20223997.859 6  84025628.550 6     -1138.013          38.000
R22  20461228.555 5 109223419.270 5       994.051          35.000
R23  22695075.164 6 121403359.712 6      4452.910          41.000    22695088.438 4  94424881.478 4      3463.375          24.000
C19  25186312.023 7 131151745.736 7     -2584.285          45.000
C27  22774481.945 8 118592710.505 8      1722.594          51.000
C30  25226160.250 5 131359245.118 5      3461.891          32.000
E15  25827145.891 5 135722566.547 5      2438.418          32.000    25827155.289 5 103995220.094 5      1867.530          35.000
E21                                                                  25792341.016 5 103855071.883 5      1437.871          31.000
E27  23332556.836 8 122613398.663 8       -61.465          50.000    23332559.875 8  93950547.551 8       -47.070          51.000
> 2020 05 15 08 10 30.0000000  0 13        .000000000000
G02  24368483.930 5 128057256.170 5      2400.676          33.000    24368485.562 5  99784878.432 5      1870.653          32.000
G12  20125634.344 8 105760905.964 8       572.059          49.000    20125632.773 8  82411096.796 8       445.760          49.000
G24  20410950.047 8 107260263.062 8     -1139.121          51.000    20410950.547 8  83579429.553 8      -887.627          51.000
R02  23027873.648 4 122881145.161 4     -4207.809          28.000
R12  20232242.305 7 108077007.681 7     -1473.172          43.000    20232244.742 6  84059894.524 6     -1145.800          36.000
R22  20455726.273 6 109194033.968 6       965.820          41.000
R23  22670121.148 7 121269869.214 7      4446.945          44.000    22670131.453 4  94321050.080 4      3458.738          26.000
C19  25201222.008 7 131229386.901 7     -2590.906          45.000
C27  22764604.477 8 118541275.211 8      1707.188          51.000
C30  25206223.164 5 131255430.737 5      3459.281          30.000
E15  25813262.062 5 135649584.787 5      2428.395          33.000    25813265.148 5 103939296.059 5      1860.891          35.000
E21  25781629.195 5 135483358.580 5      1872.480          35.000    25781636.836 5 103811980.351 5      1434.788          34.000
E27  23332926.367 8 122615340.255 8       -67.371          50.000    23332929.719 8  93952035.252 8       -51.652          51.000
> 2020 05 15 08 11  0.0000000  0 12        .000000000000
G02  24354797.375 5 127985336.370 5      2395.039          35.000    24354799.258 5  99728837.138 5      1866.267          32.000
G12  20122409.680 8 105743961.910 8       558.723          48.000    20122408.508 8  82397893.635 8       435.371          48.000
G24  20417495.023 8 107294655.673 8     -1152.762          51.000    20417495.305 8  83606228.962 8      -898.256          51.000
R02  23051530.391 4 123007382.083 4     -4211.051          29.000
R12  20240544.539 7 108121354.413 7     -1482.195          43.000    20240545.812 6  84094386.512 6     -1152.816          36.000
R22  20450380.312 7 109165497.764 7       938.074          42.000    20450384.680 5  84906516.954 5       729.619          32.000
R23  22645199.328 6 121136553.703 6      4441.629          40.000    22645211.461 4  94217360.269 4      3454.600          27.000
C19  25216169.547 7 131307222.545 7     -2596.793          45.000
C27  22754813.891 8 118490294.452 8      1692.547          50.000
E15                                                                  25799424.898 6 103883568.167 6      1854.968          37.000
E21  25770950.781 6 135427238.655 6      1869.902          36.000    25770952.711 6 103768979.338 6      1432.537          36.000
E27  23333329.195 8 122617456.266 8       -72.629          51.000    23333332.672 8  93953656.592 8       -55.543          51.000
> 2020 05 15 08 11 30.0000000  0 13        .000000000000
G02  24341131.023 5 127913521.148 5      2393.914          35.000    24341132.734 5  99672877.180 5      1865.385          35.000
G12  20119247.766 8 105727347.710 8       550.191          49.000    20119247.109 8  82384947.501 8       428.721          49.000
G24  20424104.016 8 107329384.598 8     -1161.445          51.000    20424104.453 8  83633290.433 8      -905.025          51.000
R03  21370411.008 4 114397468.169 4     -1865.016          29.000
R12  20248883.484 7 108165898.313 7     -1486.031          44.000    20248886.328 6  84129031.798 6     -1155.799          37.000
R21  22737776.977 6 121674352.331 6     -2996.383          36.000
R22  20445176.906 7 109137719.006 7       915.145          44.000    20445179.453 6  84884911.150 6       711.776          37.000
R23  22620292.992 6 121003323.773 6      4441.668          36.000    22620304.523 4  94113737.067 4      3454.634          28.000
C19  25231136.344 7 131385159.080 7     -2597.758          44.000
C27  22745092.883 8 118439678.732 8      1682.871          49.000
E15  25785617.688 6 135504316.772 6      2417.934          40.000    25785617.609 6 103827967.559 6      1852.631          41.000
E21                                                                  25760274.867 5 103725990.449 5      1434.075          33.000
E27  23333747.742 8 122619654.626 8       -72.766          51.000    23333751.000 8  93955341.036 8       -55.779          51.000
> 2020 05 15 08 12  0.0000000  0 13        .000000000000
G02  24327526.766 5 127842033.518 5      2386.844          35.000    24327528.773 5  99617172.594 5      1859.884          33.000
G12  20116190.844 8 105711283.521 8       536.027          49.000    20116190.086 8  82372429.931 8       417.684          49.000
G24  20430818.906 8 107364670.186 8     -1175.750          51.000    20430819.492 8  83660785.668 8      -916.172          51.000
R12  20257300.836 7 108210863.215 7     -1496.020          42.000    20257306.836 6  84164004.496 6     -1163.571          36.000
R21  22754674.867 6 121764827.596 6     -3015.680          36.000
R22  20440156.773 6 109110923.146 6       886.723          41.000    20440162.586 6  84864070.045 6       689.673          40.000
R23  22595444.742 5 120870408.560 5      4435.258          31.000    22595455.875 4  94010358.605 4      3449.648          27.000
C19  25246163.766 7 131463412.591 7     -2604.031          43.000
C27  22735484.367 8 118389648.275 8      1667.465          50.000
C30  25146505.773 5 130944454.833 5      3457.746          31.000
E15  25771882.969 7 135432141.960 7      2409.121          42.000    25771884.578 7 103772664.830 7      1845.902          42.000
E21                                                                  25749647.117 5 103683182.533 5      1431.654          30.000
E27  23334223.758 8 122622155.725 8       -78.656          50.000    23334226.688 8  93957257.447 8       -60.350          51.000
> 2020 05 15 08 12 30.0000000  0 16        .000000000000
G02  24313929.523 6 127770579.246 6      2376.797          40.000    24313931.188 5  99561494.000 5      1852.050          31.000
G12  20113182.039 8 105695471.545 8       518.473          49.000    20113181.172 8  82360108.897 8       404.005          49.000
G24  20437583.055 8 107400215.041 8     -1193.469          51.000    20437583.594 8  83688482.935 8      -929.976          51.000
R02  23122637.828 5 123386836.998 5     -4220.309          32.000    23122650.008 5  95967572.100 5     -3282.459          30.000
R03  21391652.938 4 114511189.929 4     -1915.965          29.000    21391639.820 4  89064221.484 4     -1490.195          29.000
R12  20265740.289 7 108255946.834 7     -1509.262          43.000    20265749.094 5  84199069.515 5     -1173.873          33.000
R21  22771650.234 5 121855681.231 5     -3039.336          35.000    22771648.531 4  94776644.037 4     -2363.928          26.000
R22  20435262.977 5 109084809.602 5       854.344          33.000    20435267.508 6  84843759.552 6       664.496          39.000
R23  22570599.523 5 120737510.028 5      4425.023          33.000    22570611.492 4  93906993.055 4      3441.691          25.000
C19  25261194.680 6 131541685.790 6     -2614.113          41.000
C27  22725932.367 8 118339909.888 8      1648.703          51.000
C30  25126599.148 5 130840831.236 5      3451.211          30.000
E15  25758166.211 7 135360060.522 7      2396.668          42.000    25758168.617 7 103717433.626 7      1836.411          42.000
E21                                                                  25739008.734 5 103640305.935 5      1425.913          35.000
E27  23334700.555 8 122624661.951 8       -87.934          51.000    23334703.406 8  93959177.786 8       -67.384          51.000
E30  24586779.898 5 129204399.716 5     -1986.488          30.000
> 2020 05 15 08 13  0.0000000  0 15        .000000000000
G02  24300365.578 6 127699299.193 6      2361.543          37.000    24300367.180 5  99505951.128 5      1840.169          34.000
G12  20110247.391 8 105680049.474 8       496.328          49.000    20110246.586 8  82348091.697 8       386.752          49.000
G19  22527019.391 5 118380293.314 5     -2539.438          32.000    22527027.227 4  92244408.988 4     -1978.782          29.000
G24  20444422.664 8 107436157.197 8     -1215.828          51.000    20444423.180 8  83716489.790 8      -947.399          51.000
R02  23146365.109 5 123513438.019 5     -4232.938          33.000    23146376.984 4  96066052.526 4     -3292.288          27.000
R12  20274228.891 7 108301289.506 7     -1527.070          45.000
R21  22788725.758 4 121947055.707 4     -3066.051          28.000    22788726.438 4  94847712.104 4     -2384.709          28.000
R22  20430545.695 6 109059661.980 6       818.004          38.000    20430531.023 6  84824168.269 6       636.219          39.000
R23  22545785.523 6 120604773.080 6      4410.387          36.000    22545796.000 4  93803743.262 4      3430.304          26.000
C19  25276254.859 7 131620113.252 7     -2627.969          42.000
C27  22716463.469 8 118290602.254 8      1625.250          51.000
C30  25106708.781 5 130737263.539 5      3440.289          33.000
E15  25744493.164 6 135288212.897 6      2379.793          40.000    25744495.203 7 103662381.532 7      1823.517          43.000
E21                                                                  25728380.648 5 103597510.591 5      1416.865          33.000
E27  23335204.688 8 122627311.518 8      -101.832          51.000    23335207.547 8  93961207.962 8       -78.030          51.000
> 2020 05 15 08 13 30.0000000  0 14        .000000000000
G02  24286909.461 6 127628585.966 6      2361.875          37.000    24286910.844 5  99450850.008 5      1840.428          30.000
G12  20107460.938 8 105665406.746 8       489.625          48.000    20107460.203 8  82336681.773 8       381.526          48.000
G19  22541567.867 5 118456748.625 5     -2548.254          34.000
G24  20451411.969 8 107472886.359 8     -1222.848          51.000    20451412.617 8  83745109.903 8      -952.868          51.000
G25  21460293.008 5 112774598.079 5      2238.875          34.000    21460289.695 5  87876290.029 5      1744.584          34.000
R02  23170172.234 4 123640477.497 4     -4228.133          28.000
R12  20282840.008 7 108347292.682 7     -1529.402          46.000
R22  20426020.422 6 109035594.649 6       796.590          41.000    20426021.289 6  84805449.161 6       619.570          38.000
R23  22521077.461 6 120472598.876 6      4411.527          38.000    22521086.398 4  93700941.086 4      3431.185          24.000
C19  25291419.195 7 131699078.663 7     -2626.645          44.000
C27  22707152.320 8 118242113.159 8      1616.984          51.000
C30  25086904.055 5 130634140.190 5      3444.570          34.000
E15  25730936.547 6 135216990.726 6      2378.133          37.000    25730940.789 7 103607808.802 7      1822.230          43.000
E27  23335810.359 8 122630493.988 8      -100.402          51.000    23335813.195 8  93963646.468 8       -76.956          51.000
> 2020 05 15 08 14  0.0000000  0 13        .000000000000
G02  24273433.680 5 127557771.514 5      2354.109          33.000    24273436.055 5  99395669.886 5      1834.371          31.000
G12  20104695.000 8 105650872.221 8       474.496          49.000    20104694.367 8  82325356.153 8       369.737          48.000
G15  24849681.148 6 130585944.304 6     -3717.469          36.000
G19  22556149.078 5 118533370.011 5     -2564.492          33.000
G24  20458423.188 8 107509730.806 8     -1238.297          51.000    20458423.984 8  83773819.847 8      -964.907          51.000
R12  20291445.844 7 108393263.784 7     -1540.238          46.000    20291481.844 4  84305988.153 4     -1197.963          27.000
R22  20421606.219 7 109012068.423 7       766.734          46.000    20421615.375 5  84787151.075 5       596.346          34.000
R23  22496347.250 6 120340309.038 6      4403.137          39.000    22496356.180 4  93598036.957 4      3424.662          24.000
C19  25306559.305 7 131777914.496 7     -2633.797          46.000
C27  22697870.695 8 118193779.126 8      1600.324          51.000
C30  25067057.305 5 130530798.411 5      3440.406          35.000
E15  25717373.383 6 135145724.996 6      2368.324          38.000    25717377.539 6 103553202.713 6      1814.615          39.000
E27  23336389.742 8 122633538.063 8      -107.250          51.000    23336392.523 8  93965978.929 8       -82.214          51.000
> 2020 05 15 08 14 30.0000000  0 13        .000000000000
G12  20102017.805 8 105636802.908 8       458.152          48.000    20102017.148 8  82314393.042 8       357.002          48.000
G15  24870894.875 5 130697408.934 5     -3719.551          34.000
G19  22570829.930 5 118610512.064 5     -2583.098          34.000
G24  20465524.422 8 107547048.119 8     -1254.910          51.000    20465525.203 8  83802898.263 8      -977.852          51.000
R03  21435676.859 5 114746796.524 5     -2013.191          34.000
R12  20300114.531 7 108439571.048 7     -1552.340          46.000    20300136.852 4  84342004.666 4     -1207.378          25.000
R22  20417367.156 7 108989448.053 7       735.758          45.000    20417377.469 4  84769557.427 4       572.259          29.000
R23  22471663.836 6 120208271.441 6      4393.609          38.000
C19  25321742.094 7 131856972.423 7     -2641.855          45.000
C27  22688687.188 8 118145955.867 8      1582.504          51.000
C30  25047237.672 6 130427594.755 6      3434.668          36.000
E15  25703873.008 6 135074775.261 6      2356.559          37.000    25703870.047 5 103498838.763 5      1805.696          31.000
E27  23337010.734 8 122636801.060 8      -115.520          51.000    23337013.367 8  93968479.126 8       -88.482          51.000
> 2020 05 15 08 15  0.0000000  0 13        .000000000000
G12  20099418.641 8 105623144.080 8       437.160          49.000    20099418.180 8  82303749.818 8       340.644          48.000
G19  22585598.531 5 118688117.904 5     -2606.113          35.000
G24  20472705.297 8 107584783.982 8     -1276.148          51.000    20472706.203 8  83832302.810 8      -994.401          51.000
G25  21422199.125 5 112574399.163 5      2196.441          34.000
R03  21447005.078 4 114807413.690 4     -2043.590          29.000    21446994.672 4  89294671.753 4     -1589.465          28.000
R12  20308835.891 7 108486159.491 7     -1569.234          45.000    20308836.867 4  84378122.220 4     -1220.516          25.000
R22  20413288.500 7 108967679.599 7       699.934          43.000
R23  22447017.938 6 120076435.915 6      4379.801          39.000
C19  25336956.211 7 131936196.204 7     -2654.785          45.000
C27  22679591.531 8 118098591.203 8      1560.012          51.000
C30  25027433.766 5 130324477.610 5      3424.285          32.000
E15  25690424.492 6 135004089.140 6      2340.414          37.000    25690413.969 5 103444649.870 5      1793.256          30.000
E27  23337662.938 8 122640228.544 8      -128.355          51.000    23337665.492 8  93971105.378 8       -98.398          51.000
> 2020 05 15 08 15 30.0000000  0 16        .000000000000
G02  24233221.445 5 127346425.658 5      2337.523          34.000
G12  20096843.281 8 105609610.334 8       437.488          49.000    20096843.008 8  82293204.045 8       340.900          49.000
G15  24913253.188 5 130920008.136 5     -3710.145          33.000
G19  22600400.203 5 118765900.712 5     -2608.398          34.000
G24  20479911.531 8 107622653.009 8     -1276.055          51.000    20479912.406 8  83861811.131 8      -994.331          51.000
G25  21409564.172 5 112508022.500 5      2200.363          33.000    21409569.312 5  87668587.659 5      1714.569          34.000
R03  21458398.336 6 114868451.878 6     -2051.504          38.000    21458395.516 4  89342122.959 4     -1595.617          29.000
R12  20317555.828 7 108532739.503 7     -1564.285          46.000    20317554.977 4  84414354.144 4     -1216.663          25.000
R22  20409316.305 7 108946475.191 7       685.922          43.000    20409338.758 5  84736088.728 5       533.498          32.000
R23  22422356.297 6 119944516.627 6      4387.000          40.000
C19  25352147.734 7 132015301.380 7     -2646.203          44.000
C27  22670529.539 8 118051404.644 8      1558.523          51.000
C30  25007593.102 4 130221167.263 4      3435.703          29.000
E15  25676972.297 6 134933384.134 6      2345.859          37.000    25676964.148 5 103390477.386 5      1797.507          35.000
E27  23338292.188 8 122643535.829 8      -119.750          51.000    23338294.875 8  93973639.522 8       -91.715          51.000
E30  24655038.625 5 129563086.442 5     -1997.656          34.000    24655044.672 5  99275632.239 5     -1530.507          33.000
> 2020 05 15 08 16  0.0000000  0 13        .000000000000
G02  24219959.922 5 127276741.455 5      2329.793          30.000
G12  20094446.141 8 105597012.059 8       423.512          49.000    20094445.742 8  82283387.196 8       330.009          49.000
G24  20487297.375 8 107661466.237 8     -1290.297          51.000    20487298.148 8  83892055.188 8     -1005.426          51.000
G25  21397091.492 5 112442479.137 5      2190.379          34.000    21397097.320 5  87617514.871 5      1706.786          33.000
R03  21470015.859 6 114930667.014 6     -2074.414          37.000    21470015.000 4  89390512.446 4     -1613.436          26.000
R12  20326428.195 7 108580135.038 7     -1573.844          45.000    20326430.305 4  84451200.408 4     -1224.101          29.000
R22  20405605.070 6 108926659.157 6       657.152          39.000    20405613.938 5  84720676.291 5       511.109          30.000
R23  22397834.859 6 119813343.615 6      4379.477          41.000
C19  25367470.531 7 132095088.596 7     -2651.648          45.000
C27  22661656.156 8 118005200.848 8      1542.746          51.000
E15  25663670.156 5 134863473.008 5      2336.613          35.000    25663664.781 6 103336908.983 6      1790.428          39.000
E27  23339052.773 8 122647533.300 8      -125.465          51.000    23339055.633 8  93976702.513 8       -96.088          51.000
E30                                                                  24666517.539 5  99321824.521 5     -1532.480          31.000
> 2020 05 15 08 16 30.0000000  0 11        .000000000000
G02  24206669.617 4 127206907.422 4      2323.363          28.000
G12  20092055.266 8 105584447.533 8       411.059          48.000    20092054.914 8  82273596.656 8       320.305          48.000
G24  20494691.328 8 107700321.872 8     -1303.031          51.000    20494692.195 8  83922332.296 8     -1015.349          51.000
G25  21384606.805 5 112376867.997 5      2180.945          33.000    21384618.094 5  87566389.001 5      1699.423          34.000
R12  20335281.742 7 108627429.920 7     -1581.980          44.000    20335287.086 5  84487985.268 5     -1230.432          33.000
R23  22373282.406 6 119682003.625 6      4373.641          37.000    22373287.523 4  93086002.096 4      3401.714          27.000
C19  25382752.523 7 132174662.326 7     -2655.832          45.000
C27  22652800.758 8 117959088.249 8      1528.488          51.000
E15  25650345.352 6 134793456.273 6      2328.617          38.000    25650343.312 7 103283259.660 7      1784.295          42.000
E27  23339773.211 8 122651319.604 8      -129.750          51.000    23339776.141 8  93979603.699 8       -99.464          51.000
E30                                                                  24677932.977 5  99367808.646 5     -1533.605          30.000
> 2020 05 15 08 17  0.0000000  0 11        .000000000000
G12  20089743.781 8 105572300.214 8       391.148          49.000    20089743.523 8  82264131.212 8       304.791          49.000
G24  20502166.344 8 107739603.449 8     -1323.160          51.000    20502167.312 8  83952941.294 8     -1031.034          51.000
G25  21372181.898 5 112311573.237 5      2164.270          31.000    21372196.328 5  87515509.776 5      1686.429          30.000
R12  20344189.461 7 108675014.223 7     -1597.816          44.000    20344192.008 5  84524995.269 5     -1242.743          31.000
R21  22929254.633 4 122699080.672 4     -3209.703          29.000    22929258.227 4  95432625.923 4     -2496.436          28.000
C19  25398065.844 7 132254400.197 7     -2667.434          43.000
C27  22644036.445 8 117913448.498 8      1506.805          51.000
E15  25637072.320 6 134723719.542 6      2313.109          41.000    25637074.742 7 103229824.948 7      1772.394          46.000
E21  25644186.055 6 134761093.870 6      1826.918          36.000
E27  23340526.547 8 122655278.278 8      -141.605          51.000    23340529.359 8  93982636.957 8      -108.509          51.000
E30                                                                  24689358.586 5  99413816.813 5     -1539.552          35.000
> 2020 05 15 08 17 30.0000000  0 13        .000000000000
G02  24180258.023 4 127068113.273 4      2304.363          28.000
G12  20087545.516 8 105560747.683 8       379.527          48.000    20087544.977 8  82255129.238 8       295.736          48.000
G24  20509756.219 8 107779488.627 8     -1335.281          51.000    20509757.312 8  83984020.629 8     -1040.479          51.000
R12  20353185.805 7 108723068.664 7     -1605.184          46.000    20353190.211 5  84562370.970 5     -1248.476          35.000
R22  20395255.898 5 108871279.056 5       567.980          31.000    20395265.039 6  84677675.985 6       441.775          39.000
R23  22324342.734 6 119420148.216 6      4353.730          36.000    22324348.922 5  92882375.078 5      3386.235          34.000
C19  25413443.461 7 132334476.131 7     -2670.605          42.000
C27  22635397.164 8 117868459.485 8      1493.105          51.000
C30  24928645.422 5 129809998.395 5      3418.910          33.000
E15  25623886.688 6 134654442.885 6      2305.871          40.000    25623893.102 8 103176742.812 8      1766.884          48.000
E21  25633763.422 5 134706316.202 5      1825.527          34.000    25633766.633 5 103216549.461 5      1398.730          33.000
E27  23341346.648 8 122659587.209 8      -145.082          51.000    23341349.203 8  93985938.604 8      -111.239          51.000
E30                                                                  24700830.617 6  99460013.271 6     -1539.633          37.000
> 2020 05 15 08 18  0.0000000  0 15        .000000000000
G12  20085374.008 8 105549337.102 8       363.676          49.000    20085373.375 8  82246237.878 8       283.384          49.000
G15  25019145.352 5 131476500.101 5     -3709.738          32.000
G24  20517374.852 8 107819524.856 8     -1351.285          51.000    20517376.039 8  84015217.659 8     -1052.949          51.000
R03  21517494.898 5 115184875.222 5     -2168.004          30.000
R12  20362183.117 7 108771133.259 7     -1616.898          42.000    20362189.414 5  84599754.479 5     -1257.591          33.000
R21  22965393.766 5 122892386.858 5     -3245.809          32.000    22965394.781 4  95582999.861 4     -2524.515          24.000
R22  20392104.492 6 108854437.626 6       536.656          38.000    20392111.422 6  84664577.221 6       417.399          40.000
R23  22299906.438 6 119289408.726 6      4344.051          39.000    22299908.977 5  92780688.778 5      3378.706          35.000
C19  25428798.945 6 132414439.097 6     -2677.746          41.000
C27  22626796.836 8 117823674.218 8      1475.277          51.000
C30  24908909.570 5 129707244.902 5      3413.914          33.000
E15  25610703.227 6 134585175.790 6      2294.395          37.000    25610713.188 8 103123668.049 8      1758.055          48.000
E21  25623307.789 5 134651390.994 5      1819.441          31.000    25623311.828 5 103174449.363 5      1394.465          32.000
E27  23342147.195 8 122663793.755 8      -152.816          51.000    23342149.516 8  93989161.793 8      -117.072          51.000
E30                                                                  24712262.883 5  99506053.115 5     -1542.752          35.000
> 2020 05 15 08 18 30.0000000  0 13        .000000000000
G02  24154031.742 5 126930301.489 5      2283.598          31.000
G12  20083369.516 8 105538802.980 8       346.348          49.000    20083368.961 8  82238029.476 8       269.881          49.000
G24  20525161.914 8 107860446.839 8     -1369.070          51.000    20525163.383 8  84047104.898 8     -1066.808          51.000
R03  21529735.148 4 115250435.313 4     -2193.418          26.000    21529731.242 4  89639157.407 4     -1705.992          25.000
R12  20371322.797 7 108819955.328 7     -1630.086          45.000    20371326.805 5  84637727.197 5     -1267.848          33.000
R21  22983671.156 5 122990269.124 5     -3267.859          30.000
R22  20389200.266 6 108838932.444 6       504.477          38.000    20389204.055 6  84652517.493 6       392.365          38.000
R23  22275597.570 6 119159379.694 6      4332.340          40.000    22275601.516 5  92679555.113 5      3369.601          34.000
C19  25444272.625 7 132495015.142 7     -2686.418          42.000
C27  22618375.398 8 117779822.560 8      1455.844          51.000
C30  24889285.484 5 129605058.652 5      3406.422          34.000
E15  25597661.914 6 134516655.298 6      2281.461          38.000    25597674.547 7 103071165.399 7      1748.240          45.000
