     3.02           OBSERVATION DATA    M (MIXED)           RINEX VERSION / TYPE
SAVERINEX           SC600               20200513 115930 LCL PGM / RUN BY / DATE
       G = GPS       R = GLONASS       C = COMPASS          COMMENT
       S = SBAS      J = QZSS          E = GALILEO          COMMENT
BEAN                                                        MARKER NAME
1                                                           MARKER NUMBER
GEODETIC                                                    MARKER TYPE
Unige DICCA         GTER                                    OBSERVER / AGENCY
SC60291900056       SC600               2.12(191226)        REC # / TYPE / VERS
                    HEMA45          NONE                    ANT # / TYPE
  4509407.8091   693652.4678  4442337.6214                  APPROX POSITION XYZ
        0.0000        0.0000        0.0000                  ANTENNA: DELTA H/E/N
G    8 C1C L1C D1C S1C C2Y L2Y D2Y S2Y                      SYS / # / OBS TYPES
R    8 C1C L1C D1C S1C C2P L2P D2P S2P                      SYS / # / OBS TYPES
C    4 C1I L1I D1I S1I                                      SYS / # / OBS TYPES
E    8 C1C L1C D1C S1C C7Q L7Q D7Q S7Q                      SYS / # / OBS TYPES
DBHZ                                                        COMMENT
     30.000                                                 INTERVAL
  2020    05    13    09    00    0.0000000     GPS         TIME OF FIRST OBS
  2020    05    13    09    59   30.0000000     GPS         TIME OF LAST OBS
     0                                                      RCV CLOCK OFFS APPL
G L1C  0.00000                                              SYS / PHASE SHIFT
G L2Y  0.00000                                              SYS / PHASE SHIFT
R L1C  0.00000                                              SYS / PHASE SHIFT
R L2P  0.25000                                              SYS / PHASE SHIFT
C L1I  0.00000                                              SYS / PHASE SHIFT
E L1C  0.50000                                              SYS / PHASE SHIFT
E L7Q -0.25000                                              SYS / PHASE SHIFT
 13 R01  1 R06 -4 R07  5 R08  6 R09 -2 R10 -7 R11  0 R16 -1 GLONASS SLOT / FRQ #
    R18 -3 R19  3 R20  2 R21  4 R22 -3                      GLONASS SLOT / FRQ #
 C1C   71.950 C2C   71.950 C2P   71.950                     GLONASS COD/PHS/BIS
    18                                                      LEAP SECONDS
*** Above antenna height is from mark to ANTENNA BOTTOM.    COMMENT
    17     4        0.0000        ANT MEASURE TYPE/HEIGT    COMMENT
    0.0000    0.0000    0.0458    0.0405    0.0000          COMMENT
                    BASE STATION                            COMMENT
                                                            END OF HEADER
> 2020 05 13 09 00  0.0000000  0 12        .000000000000
G02  23403515.711 6 122986309.376 6      1592.973          36.000    23403508.570 4  95833453.138 4      1241.280          29.000
G12  20114764.195 8 105703799.291 8      -503.914          51.000    20114763.023 8  82366588.214 8      -392.660          51.000
G24  21212206.500 8 111470896.580 8     -2242.516          50.000    21212209.281 8  86860444.658 8     -1747.415          50.000
G25  20662590.641 5 108582623.560 5      1425.125          33.000    20662609.164 5  84609897.459 5      1110.487          32.000
G29  23290843.750 5 122394231.933 5      3636.379          30.000    23290839.500 4  95372085.995 4      2833.536          29.000
R01  23055782.328 6 123246362.278 6     -3701.293          40.000    23055786.219 6  95858287.690 6     -2878.786          38.000
R11  19694524.461 5 105241510.425 5       978.469          32.000    19694533.758 4  81854553.151 4       761.031          29.000
R21  20444720.102 8 109403792.675 8      2777.375          51.000    20444724.375 7  85091959.628 7      2160.184          47.000
C29  22569627.414 5 117525957.924 5      -598.824          33.000
E03  25940654.945 8 136319048.745 8     -2286.473          48.000    25940657.930 8 104452243.666 8     -1751.928          51.000
E11  24430204.352 7 128381602.868 7      2048.715          46.000    24430202.680 7  98370309.539 7      1569.830          46.000
E25  23564277.094 8 123831111.449 8       -54.359          51.000    23564280.047 8  94883588.507 8       -41.691          51.000
> 2020 05 13 09 00 30.0000000  0 14        .000000000000
G02  23394445.320 5 122938642.302 5      1585.016          32.000    23394438.500 5  95796309.959 5      1235.080          30.000
G12  20117661.961 8 105719027.178 8      -510.652          51.000    20117660.773 8  82378454.100 8      -397.911          51.000
G24  21225030.789 8 111538285.461 8     -2249.539          51.000    21225033.156 8  86912955.988 8     -1752.888          51.000
G25  20654468.945 5 108539942.541 5      1420.230          34.000    20654479.711 5  84576639.838 5      1106.679          31.000
G29  23270078.781 5 122285108.283 5      3635.707          34.000    23270086.734 5  95287104.338 5      2833.009          33.000
R01  23076561.789 7 123357446.947 7     -3703.711          42.000    23076567.797 6  95944686.814 6     -2880.667          38.000
R10  21220434.242 5 113116854.420 5     -2309.551          31.000
R11  19689051.609 5 105212315.315 5       972.820          34.000    19689053.133 4  81831813.677 4       756.641          29.000
R21  20429197.977 8 109320728.535 8      2760.824          51.000    20429201.242 7  85027354.216 7      2147.308          46.000
C29  22573099.891 6 117544090.614 6      -609.941          41.000
E03  25953717.664 8 136387690.821 8     -2289.262          48.000    25953720.297 8 104504839.527 8     -1754.101          51.000
E11  24418525.617 7 128320232.978 7      2043.352          46.000    24418524.242 7  98323285.869 7      1565.586          47.000
E24  24175400.125 5 127042577.346 5     -1946.047          34.000
E25  23564589.148 8 123832751.331 8       -54.344          51.000    23564592.102 8  94884846.033 8       -41.598          51.000
> 2020 05 13 09 01  0.0000000  0 11        .000000000000
G02  23385458.641 5 122891421.746 5      1565.758          32.000    23385453.758 5  95759518.807 5      1220.056          32.000
G12  20120638.180 8 105734667.618 8      -528.914          51.000    20120636.883 8  82390641.446 8      -412.141          51.000
G24  21237935.891 8 111606099.682 8     -2268.254          51.000    21237936.664 8  86965798.224 8     -1767.471          51.000
G29  23249369.500 5 122176291.671 5      3622.078          35.000    23249375.547 5  95202312.042 5      2822.389          34.000
R01  23097395.609 7 123468816.740 7     -3717.676          43.000    23097402.516 6  96031307.688 6     -2891.529          38.000
R11  19683648.844 5 105183452.177 5       955.562          33.000    19683651.719 5  81809359.933 5       743.215          31.000
R21  20413809.719 8 109238379.219 8      2732.258          51.000    20413811.977 7  84963304.779 7      2125.089          47.000
C29  22576682.039 6 117562778.589 6      -633.070          38.000
E03  25966837.570 8 136456633.469 8     -2303.742          49.000    25966840.469 8 104557665.671 8     -1765.268          51.000
E11  24406919.445 7 128259247.565 7      2025.387          44.000    24406919.805 7  98276556.798 7      1551.944          47.000
E25  23564941.688 8 123834604.906 8       -66.246          51.000    23564944.742 8  94886266.308 8       -50.739          51.000
> 2020 05 13 09 01 30.0000000  0 13        .000000000000
G02  23376546.141 5 122844589.309 5      1556.664          35.000    23376543.688 5  95723026.041 5      1212.985          32.000
G12  20123681.258 8 105750659.525 8      -536.594          51.000    20123680.109 8  82403102.665 8      -418.125          51.000
G24  21250909.492 8 111674275.005 8     -2276.195          51.000    21250909.148 8  87018921.820 8     -1773.659          51.000
G25  20638433.508 5 108455698.668 5      1395.723          30.000    20638437.719 4  84510979.836 4      1087.579          29.000
G29  23228699.555 5 122067676.906 5      3619.609          35.000    23228697.836 5  95117677.108 5      2820.472          34.000
G32  22222919.469 5 116782229.462 5       773.059          35.000
R01  23118270.602 6 123580405.202 6     -3720.672          40.000    23118277.656 6  96118098.646 6     -2893.856          38.000
R11  19678308.922 5 105154908.685 5       948.934          31.000    19678309.766 5  81787159.956 5       738.059          32.000
R21  20398544.148 8 109156686.623 8      2714.484          51.000    20398545.891 7  84899766.127 7      2111.269          47.000
C29  22580367.328 7 117581961.470 7      -645.418          46.000
E03  25980002.633 8 136525814.350 8     -2307.543          48.000    25980006.141 8 104610674.363 8     -1768.144          51.000
E11  24395375.336 7 128198587.762 7      2018.891          43.000    24395377.461 8  98230077.177 8      1547.140          48.000
E25  23565323.477 8 123836611.765 8       -66.977          51.000    23565326.398 8  94887804.028 8       -51.356          51.000
> 2020 05 13 09 02  0.0000000  0 11        .000000000000
G12  20126766.773 8 105766874.101 8      -547.191          51.000    20126765.797 8  82415737.405 8      -426.383          51.000
G24  21263927.203 8 111742682.765 8     -2287.211          51.000    21263926.164 8  87072226.533 8     -1782.245          51.000
G29  23208043.898 6 121959138.023 6      3613.543          36.000    23208038.750 6  95033101.415 6      2815.748          36.000
G32  22218550.688 6 116759278.897 6       753.977          36.000    22218568.312 5  90981316.754 5       587.517          35.000
R01  23139160.172 6 123692077.670 6     -3726.824          40.000    23139168.719 6  96204954.985 6     -2898.641          37.000
R11  19673001.359 5 105126554.803 5       939.242          32.000    19673002.734 5  81765103.572 5       730.522          31.000
R21  20383377.438 8 109075523.962 8      2693.523          51.000    20383378.578 7  84836639.656 7      2094.966          46.000
C29  22584121.406 7 117601511.506 7      -660.758          47.000
E03  25993187.875 7 136595103.530 7     -2314.516          47.000    25993191.922 8 104663766.056 8     -1773.499          51.000
E11  24383869.680 7 128138127.216 7      2008.812          46.000    24383872.969 8  98183750.309 8      1539.172          48.000
E25  23565710.188 8 123838643.904 8       -71.266          51.000    23565712.789 8  94889361.119 8       -54.615          51.000
> 2020 05 13 09 02 30.0000000  0 12        .000000000000
G12  20129981.039 8 105783765.166 8      -561.895          51.000    20129979.906 8  82428899.274 8      -437.840          51.000
G24  21277075.289 8 111811776.169 8     -2302.109          51.000    21277074.422 8  87126065.489 8     -1793.851          51.000
G25  20622659.109 5 108372804.429 5      1371.695          30.000
G29  23187489.484 5 121851132.043 5      3603.953          34.000    23187482.836 5  94948940.994 5      2808.281          35.000
G32  22214356.281 5 116737229.166 5       731.461          30.000
R01  23160151.656 6 123804292.092 6     -3736.969          41.000    23160161.859 6  96292232.826 6     -2906.534          38.000
R11  19667814.312 5 105098842.073 5       924.457          31.000    19667822.680 5  81743565.106 5       719.016          32.000
R21  20368396.242 8 108995357.362 8      2668.262          50.000    20368397.359 7  84774287.872 7      2075.315          46.000
C29  22588032.531 8 117621878.157 8      -680.160          48.000
E03  26006479.148 7 136664953.710 7     -2325.148          45.000    26006483.898 8 104717287.595 8     -1781.556          50.000
E11  24372489.906 8 128078322.080 8      1995.070          48.000    24372492.672 7  98137925.610 7      1528.723          47.000
E25  23566188.266 8 123841155.967 8       -79.262          51.000    23566190.453 8  94891285.943 8       -60.721          51.000
> 2020 05 13 09 03  0.0000000  0 14        .000000000000
G12  20133217.266 8 105800771.479 8      -574.164          51.000    20133215.922 8  82442150.939 8      -447.401          51.000
G19  23999365.094 4 126117514.198 4     -3514.707          29.000
G24  21290247.062 8 111880994.685 8     -2314.754          51.000    21290246.695 8  87180001.939 8     -1803.704          51.000
G25  20614854.398 5 108331777.952 5      1361.359          33.000    20614852.773 5  84414378.142 5      1060.800          34.000
G29  23166928.836 6 121743101.144 6      3595.789          37.000    23166922.406 6  94864761.148 6      2801.917          36.000
G32  22210232.508 5 116715559.396 5       712.094          30.000
R01  23181138.516 7 123916474.466 7     -3744.414          42.000    23181149.078 6  96379485.738 6     -2912.322          37.000
R10  21286177.977 5 113467326.345 5     -2357.941          33.000
R11  19662649.961 4 105071240.070 4       912.309          28.000    19662655.805 5  81722096.880 5       709.570          31.000
R21  20353494.750 8 108915620.436 8      2645.227          48.000    20353496.820 7  84712270.283 7      2057.398          46.000
C29  22591994.188 8 117642505.852 8      -697.219          49.000
E03  26019770.305 7 136734803.206 7     -2333.762          46.000    26019775.734 8 104770808.606 8     -1788.225          49.000
E11  24361128.719 8 128018614.200 8      1983.191          48.000    24361130.484 7  98092175.458 7      1519.489          46.000
E25  23566651.086 8 123843588.125 8       -85.215          51.000    23566652.930 8  94893149.538 8       -65.280          51.000
> 2020 05 13 09 03 30.0000000  0 13        .000000000000
G02  23341650.727 5 122661216.845 5      1502.617          35.000
G12  20136527.164 8 105818164.830 8      -585.230          51.000    20136525.977 8  82455704.189 8      -456.024          51.000
G24  21303494.023 8 111950608.995 8     -2326.074          51.000    21303494.141 8  87234246.821 8     -1812.525          50.000
G25  20607115.477 5 108291117.182 5      1350.340          34.000    20607117.727 5  84382694.459 5      1052.210          33.000
G29  23146415.156 6 121635319.943 6      3589.512          36.000    23146412.234 5  94780775.823 5      2797.019          35.000
R01  23202170.914 6 124028897.157 6     -3750.426          40.000    23202181.219 6  96466925.588 6     -2916.998          36.000
R10  21299469.812 5 113538164.336 5     -2366.844          32.000
R11  19657556.734 5 105044029.891 5       902.508          34.000    19657553.172 4  81700887.435 4       701.951          27.000
R21  20338725.195 8 108836593.331 8      2623.316          48.000    20338729.102 7  84650804.763 7      2040.357          47.000
C29  22596057.547 8 117663663.252 8      -713.039          48.000
E03  26033113.695 8 136804922.132 8     -2340.828          48.000    26033119.125 8 104824536.061 8     -1793.660          50.000
E11  24349837.836 8 127959277.226 8      1972.578          49.000    24349838.008 7  98046709.498 7      1511.429          45.000
E25  23567150.461 8 123846212.569 8       -89.727          51.000    23567152.227 8  94895160.474 8       -68.784          51.000
> 2020 05 13 09 04  0.0000000  0 13        .000000000000
G02  23333115.430 5 122616352.896 5      1489.324          35.000
G12  20139901.836 8 105835898.669 8      -596.320          51.000    20139900.867 8  82469522.757 8      -464.665          51.000
G24  21316807.469 8 112020572.982 8     -2337.418          50.000    21316808.352 8  87288764.196 8     -1821.365          50.000
G25  20599439.500 5 108250776.327 5      1339.367          33.000    20599440.438 5  84351260.035 5      1043.666          33.000
G29  23125941.445 5 121527744.892 5      3583.551          35.000    23125942.172 5  94696951.144 5      2792.374          34.000
R01  23223237.625 6 124141508.723 6     -3756.406          39.000    23223248.258 5  96554512.373 5     -2921.646          34.000
R10  21312811.875 5 113609286.229 5     -2373.258          31.000
R11  19652523.820 5 105017139.213 5       892.168          34.000    19652523.812 5  81679983.358 5       693.905          30.000
R21  20324081.625 8 108758233.253 8      2601.367          50.000    20324086.094 7  84589858.023 7      2023.286          47.000
C29  22600214.008 8 117685304.255 8      -728.906          48.000
E03  26046499.930 8 136875263.001 8     -2347.785          50.000    26046505.164 8 104878433.571 8     -1798.925          50.000
E11  24338609.133 8 127900267.212 8      1962.148          48.000    24338608.000 7  98001494.074 7      1503.566          45.000
E25  23567677.719 8 123848983.627 8       -94.172          51.000    23567679.688 8  94897283.739 8       -72.158          51.000
> 2020 05 13 09 04 30.0000000  0 13        .000000000000
G02  23324669.695 5 122571965.874 5      1474.762          31.000
G12  20143359.430 8 105854068.341 8      -610.078          51.000    20143358.359 8  82483680.929 8      -475.386          51.000
G24  21330205.539 8 112090981.107 8     -2351.520          51.000    21330207.234 8  87343627.670 8     -1832.356          51.000
G25  20591841.852 5 108210851.680 5      1326.301          34.000    20591840.945 5  84320149.925 5      1033.478          34.000
G29  23105526.922 4 121420362.548 4      3573.336          29.000    23105529.164 4  94613363.921 4      2784.427          26.000
R01  23244356.367 6 124254402.860 6     -3764.922          39.000    23244367.812 5  96642318.888 5     -2928.276          31.000
R11  19647572.367 6 104990655.140 6       878.191          36.000    19647568.617 5  81659387.250 5       683.038          31.000
R21  20309582.406 8 108680641.391 8      2576.359          51.000    20309586.531 7  84529508.810 7      2003.838          47.000
C29  22604481.086 7 117707523.227 7      -747.562          46.000
E03  26059946.133 8 136945920.042 8     -2357.664          49.000    26059951.570 8 104932573.344 8     -1806.549          49.000
E11  24327460.828 7 127841681.882 7      1948.324          47.000    24327458.992 7  97956604.077 7      1492.881          45.000
E24  24264938.984 5 127513115.432 5     -1971.387          33.000
E25  23568251.203 8 123851997.652 8      -101.754          51.000    23568253.508 8  94899593.180 8       -77.991          51.000
> 2020 05 13 09 05  0.0000000  0 10        .000000000000
G12  20146880.977 8 105872574.103 8      -623.715          51.000    20146879.633 8  82498100.985 8      -486.012          51.000
G24  21343669.266 8 112161733.622 8     -2365.555          51.000    21343671.742 8  87398759.498 8     -1843.289          51.000
G25  20584304.414 5 108171244.729 5      1313.262          32.000    20584304.852 5  84289287.302 5      1023.318          30.000
R01  23265508.945 6 124367474.233 6     -3773.168          40.000    23265518.602 4  96730263.223 4     -2934.689          26.000
R11  19642672.164 5 104964501.274 5       864.836          35.000    19642675.891 5  81639058.298 5       672.650          33.000
R21  20295208.453 8 108603720.365 8      2551.555          51.000    20295211.984 7  84469681.374 7      1984.546          46.000
C29  22608840.680 7 117730221.254 7      -765.871          47.000
E03  26073432.570 8 137016792.527 8     -2367.332          48.000    26073438.703 8 104986878.202 8     -1814.037          49.000
E11  24316374.656 7 127783423.990 7      1935.293          47.000    24316373.023 7  97911964.963 7      1482.857          46.000
E25  23568852.133 8 123855155.787 8      -109.000          51.000    23568854.680 8  94902013.040 8       -83.528          51.000
> 2020 05 13 09 05 30.0000000  0 12        .000000000000
G12  20150449.094 8 105891324.811 8      -632.699          51.000    20150447.711 8  82512711.926 8      -493.012          51.000
G24  21357181.117 8 112232738.665 8     -2374.570          50.000    21357184.148 8  87454088.089 8     -1850.315          50.000
G25  20576810.266 5 108131867.376 5      1305.746          31.000    20576812.922 5  84258607.152 5      1017.464          31.000
R01  23286677.562 6 124480626.389 6     -3776.832          40.000
R10  21353167.953 5 113824381.002 5     -2402.395          30.000
R11  19637820.938 5 104938560.702 5       856.758          34.000    19637826.641 5  81618892.810 5       666.367          34.000
R21  20280943.258 8 108527381.450 8      2531.234          51.000    20280945.852 7  84410306.713 7      1968.738          45.000
C29  22613274.383 7 117753307.652 7      -779.602          45.000
E03  26086941.953 7 137087787.946 7     -2372.129          47.000    26086948.250 8 105041277.264 8     -1817.647          48.000
E11  24305334.141 7 127725404.565 7      1926.129          47.000    24305332.383 7  97867508.533 7      1475.910          46.000
E24  24287466.438 5 127631496.242 5     -1975.680          33.000
E25  23569463.320 8 123858367.545 8      -111.648          51.000    23569465.969 8  94904473.992 8       -85.573          51.000
> 2020 05 13 09 06  0.0000000  0 12        .000000000000
G02  23299727.875 5 122440905.292 5      1434.812          33.000
G12  20154051.688 8 105910256.515 8      -642.504          51.000    20154050.453 8  82527463.901 8      -500.652          51.000
G24  21370728.852 8 112303932.446 8     -2384.664          49.000    21370732.227 8  87509563.753 8     -1858.180          49.000
G25  20569348.453 5 108092652.569 5      1296.082          32.000    20569351.867 5  84228049.326 5      1009.937          33.000
G29  23044469.312 6 121099498.390 6      3553.266          36.000    23044482.734 6  94363288.447 6      2768.775          36.000
G32  22187843.070 5 116597876.526 5       595.445          35.000    22187845.672 5  90855514.576 5       463.996          34.000
R01  23307848.625 6 124593790.850 6     -3780.973          41.000
R21  20266775.266 8 108451563.676 8      2509.938          51.000    20266776.852 7  84351337.402 7      1952.174          44.000
C29  22617770.180 7 117776719.184 7      -794.098          43.000
E03  26100462.898 8 137158841.607 8     -2377.770          49.000    26100468.289 7 105095720.980 7     -1821.867          47.000
E11  24294327.078 7 127667562.363 7      1916.688          46.000    24294325.648 7  97823187.905 7      1468.780          46.000
E25  23570072.781 8 123861570.256 8      -114.949          51.000    23570075.562 8  94906928.003 8       -88.081          51.000
> 2020 05 13 09 06 30.0000000  0 14        .000000000000
G02  23291618.023 5 122398303.875 5      1419.164          35.000
G12  20157800.359 8 105929955.862 8      -655.746          51.000    20157799.211 8  82542814.036 8      -510.971          51.000
G24  21384424.031 8 112375901.758 8     -2398.254          49.000    21384427.891 8  87565643.738 8     -1868.769          49.000
G25  20562029.312 5 108054189.522 5      1283.152          35.000    20562033.516 6  84198078.167 6       999.862          36.000
G29  23024253.672 6 120993263.822 6      3544.355          40.000    23024264.906 6  94280508.294 6      2761.835          41.000
G32  22184541.875 6 116580548.364 6       574.621          38.000    22184546.844 5  90842011.977 5       447.732          30.000
R01  23329132.820 6 124707560.419 6     -3788.422          39.000
R11  19628328.688 6 104887851.809 6       833.730          36.000    19628329.938 5  81579439.525 5       648.454          34.000
R21  20252816.812 8 108376868.795 8      2484.949          51.000    20252817.828 7  84293241.459 7      1932.738          46.000
C29  22622440.312 6 117801037.038 6      -812.223          41.000
E03  26114107.078 8 137230539.047 8     -2387.039          51.000    26114111.266 7 105150657.982 7     -1829.036          47.000
E11  24283465.867 8 127610486.535 8      1903.352          48.000    24283464.750 7  97779454.498 7      1458.293          46.000
E24  24310052.305 5 127750174.397 5     -1980.398          35.000
E25  23570792.352 8 123865351.433 8      -122.082          51.000    23570795.258 8  94909825.261 8       -93.546          51.000
> 2020 05 13 09 07  0.0000000  0 13        .000000000000
G02  23283554.953 5 122355928.903 5      1404.824          32.000
G12  20161579.305 8 105949814.243 8      -668.527          51.000    20161578.047 8  82558288.093 8      -520.930          51.000
G24  21398150.688 8 112448037.294 8     -2411.121          48.000    21398155.133 8  87621853.244 8     -1878.796          48.000
G25  20554737.930 6 108015870.989 6      1271.441          36.000    20554739.688 5  84168219.594 5       990.727          35.000
G29  23004046.836 7 120887072.373 7      3535.012          42.000    23004054.695 6  94197761.702 6      2754.555          41.000
G32  22181319.156 6 116563621.685 6       553.484          36.000    22181314.422 5  90828776.903 5       431.287          30.000
R01  23350414.094 6 124821312.442 6     -3795.129          38.000    23350409.641 4  97083245.073 4     -2951.767          26.000
R11  19623681.180 6 104863031.950 6       821.055          37.000    19623682.469 5  81560127.446 5       638.598          33.000
R21  20238952.711 8 108302680.800 8      2460.445          50.000    20238953.914 7  84235539.725 7      1913.683          47.000
C29  22627168.469 6 117825657.735 6      -829.836          40.000
E03  26127758.000 8 137302270.494 8     -2395.488          51.000    26127761.133 7 105205621.007 7     -1835.528          47.000
E11  24272635.008 7 127553570.532 7      1890.512          47.000    24272634.211 7  97735843.530 7      1448.673          45.000
E25  23571506.273 8 123869103.188 8      -128.492          51.000    23571509.203 8  94912699.966 8       -98.425          51.000
> 2020 05 13 09 07 30.0000000  0 13        .000000000000
G12  20165419.328 8 105969994.177 8      -679.805          51.000    20165417.969 8  82574012.719 8      -529.715          51.000
G24  21411939.797 8 112520501.003 8     -2422.648          48.000    21411944.555 8  87678318.448 8     -1887.781          48.000
G25  20547504.914 6 107977860.620 6      1260.164          36.000    20547503.844 6  84138601.204 6       981.952          36.000
G29  22983879.531 7 120781089.823 7      3527.504          42.000    22983884.969 7  94115177.883 7      2748.704          42.000
G32  22178203.961 5 116547260.365 5       534.219          35.000    22178205.203 5  90816032.760 5       416.274          33.000
R01  23371722.789 6 124935208.762 6     -3800.336          37.000    23371725.414 4  97171843.975 4     -2955.820          28.000
R10  21407636.273 5 114114742.596 5     -2437.047          30.000
R11  19619094.281 5 104838496.895 5       810.160          33.000    19619093.242 5  81541039.138 5       630.125          32.000
R21  20225214.281 8 108229169.556 8      2437.328          48.000    20225216.844 8  84178364.348 8      1895.700          48.000
C29  22631985.438 5 117850742.245 5      -845.512          35.000
E03  26141445.922 8 137374197.353 8     -2402.605          51.000    26141448.227 7 105260733.730 7     -1840.999          47.000
E11  24261865.547 7 127496979.388 7      1879.242          46.000    24261865.180 7  97692481.524 7      1439.915          44.000
E25  23572245.719 8 123872989.053 8      -133.473          51.000    23572248.516 8  94915677.447 8      -102.328          51.000
> 2020 05 13 09 08  0.0000000  0 12        .000000000000
G12  20169340.180 8 105990598.766 8      -691.738          51.000    20169338.875 8  82590068.241 8      -539.017          51.000
G24  21425811.258 8 112593396.055 8     -2434.914          50.000    21425815.719 8  87735119.771 8     -1897.339          50.000
G25  20540349.250 5 107940264.479 5      1247.508          31.000    20540349.625 5  84109303.871 5       972.078          32.000
G29  22963771.734 7 120675422.147 7      3519.004          43.000    22963775.461 7  94032839.452 7      2742.081          43.000
G32  22175216.047 6 116531568.683 6       514.113          36.000    22175217.055 4  90803807.551 4       400.617          28.000
R01  23393077.422 6 125049350.684 6     -3806.773          36.000    23393082.688 5  97260620.948 5     -2960.824          30.000
R11  19614588.898 5 104814422.704 5       797.812          34.000    19614587.898 5  81522322.347 5       620.521          32.000
R21  20211622.711 8 108156443.831 8      2413.164          48.000    20211626.609 8  84121799.893 8      1876.905          48.000
C29  22636911.344 6 117876392.314 6      -862.570          38.000
E03  26155190.125 8 137446421.549 8     -2410.277          51.000    26155191.656 7 105316074.285 7     -1846.872          46.000
E11  24251178.117 7 127440818.550 7      1866.719          47.000    24251177.781 7  97649449.239 7      1430.445          43.000
E25  23573030.477 8 123877113.042 8      -139.379          51.000    23573033.141 8  94918837.383 8      -106.815          51.000
> 2020 05 13 09 08 30.0000000  0 11        .000000000000
G12  20173338.266 8 106011608.567 8      -703.461          51.000    20173337.117 8  82606439.515 8      -548.151          51.000
G24  21439761.117 8 112666702.091 8     -2446.750          51.000    21439764.641 8  87792241.330 8     -1906.558          51.000
G25  20533268.586 5 107903055.000 5      1236.711          33.000    20533271.234 5  84080308.322 5       963.671          32.000
G29  22943720.914 7 120570052.992 7      3510.797          45.000    22943722.812 7  93950733.619 7      2735.686          45.000
R01  23414473.094 5 125163714.425 5     -3811.996          35.000    23414479.320 5  97349570.462 5     -2964.889          30.000
R11  19610157.805 6 104790746.511 6       785.637          36.000    19610157.109 5  81503909.518 5       611.051          32.000
R21  20198175.438 7 108084487.801 7      2389.293          47.000    20198180.367 8  84065834.069 8      1858.339          48.000
C29  22641943.000 6 117902588.643 6      -878.715          37.000
E03  26168986.477 8 137518922.485 8     -2417.797          50.000    26168987.781 7 105371626.896 7     -1852.556          46.000
E11  24240569.836 8 127385070.963 8      1854.992          48.000    24240568.953 7  97606733.571 7      1421.471          43.000
E25  23573856.992 8 123881456.465 8      -144.746          51.000    23573859.656 8  94922165.458 8      -110.972          51.000
> 2020 05 13 09 09  0.0000000  0 11        .000000000000
G12  20177382.695 8 106032862.071 8      -714.715          51.000    20177381.734 8  82623000.682 8      -556.921          51.000
G24  21453758.922 8 112740258.511 8     -2458.234          51.000    21453761.211 8  87849557.977 8     -1915.507          51.000
G25  20526233.336 6 107866084.011 6      1226.305          38.000    20526236.539 6  84051499.721 6       955.562          38.000
G29  22923697.117 7 120464824.353 7      3503.281          45.000    22923697.305 7  93868737.285 7      2729.830          46.000
R01  23435877.859 4 125278132.515 4     -3817.855          28.000    23435884.562 4  97438562.253 4     -2969.446          29.000
R11  19605776.109 6 104767321.534 6       774.371          38.000    19605772.750 5  81485690.029 5       602.289          32.000
R21  20184842.750 8 108013141.309 8      2365.680          48.000    20184847.820 7  84010342.376 7      1839.973          47.000
C29  22647047.258 6 117929171.051 6      -894.512          39.000
E03  26182804.227 8 137591537.966 8     -2424.656          50.000    26182805.883 7 105427267.275 7     -1857.788          47.000
E11  24230009.719 7 127329577.763 7      1843.059          46.000    24230008.977 7  97564212.833 7      1412.414          44.000
E25  23574694.797 8 123885859.199 8      -150.012          51.000    23574697.508 8  94925538.980 8      -114.968          51.000
> 2020 05 13 09 09 30.0000000  0 10        .000000000000
G12  20181500.789 8 106054503.020 8      -725.969          51.000    20181499.867 8  82639863.754 8      -565.690          51.000
G24  21467831.516 8 112814207.688 8     -2469.621          51.000    21467832.688 8  87907180.670 8     -1924.380          51.000
G25  20519270.156 6 107829490.926 6      1215.484          37.000    20519272.312 6  84022985.621 6       947.131          37.000
G29  22903728.156 7 120359882.380 7      3495.324          44.000    22903726.969 7  93786964.339 7      2723.629          44.000
R11  19601465.844 6 104744289.446 6       763.438          39.000    19601463.422 5  81467775.629 5       593.779          33.000
R21  20171652.297 8 107942554.097 8      2342.223          49.000    20171657.062 7  83955441.227 7      1821.732          47.000
C29  22652254.492 6 117956281.565 6      -910.648          40.000
E03  26196671.000 8 137664410.099 8     -2431.332          51.000    26196673.195 8 105483104.323 8     -1863.008          48.000
E11  24219525.500 7 127274484.492 7      1831.770          46.000    24219524.961 7  97521998.545 7      1403.444          44.000
E25  23575571.219 8 123890465.402 8      -155.031          51.000    23575573.992 8  94929068.400 8      -118.754          51.000
> 2020 05 13 09 10  0.0000000  0 11        .000000000000
G12  20185680.805 8 106076469.204 8      -737.113          51.000    20185679.750 8  82656980.249 8      -574.374          51.000
G24  21481966.844 8 112888487.129 8     -2480.996          51.000    21481967.688 8  87965060.696 8     -1933.244          51.000
G25  20512367.492 6 107793214.733 6      1204.523          40.000    20512368.766 6  83994718.524 6       938.593          39.000
G29  22883803.047 7 120255168.367 7      3487.195          42.000    22883800.586 7  93705369.040 7      2717.298          43.000
R10  21476877.852 5 114483845.514 5     -2481.816          33.000
R11  19597217.156 6 104721591.604 6       751.270          38.000    19597219.227 5  81450121.717 5       584.321          34.000
R21  20158593.148 8 107872667.026 8      2318.277          50.000    20158597.281 7  83901084.630 7      1803.108          47.000
C29  22657549.844 6 117983858.255 6      -926.434          39.000
E03  26210574.789 8 137737475.966 8     -2438.246          51.000    26210577.680 8 105539089.820 8     -1868.278          48.000
E11  24209106.445 7 127219731.733 7      1819.926          47.000    24209105.742 7  97480045.139 7      1394.366          45.000
E25  23576474.758 8 123895214.071 8      -160.172          51.000    23576477.594 8  94932706.987 8      -122.690          51.000
> 2020 05 13 09 10 30.0000000  0 10        .000000000000
G12  20189922.797 8 106098760.906 8      -749.109          51.000    20189921.516 8  82674350.402 8      -583.722          51.000
G24  21496165.047 8 112963097.094 8     -2493.125          51.000    21496165.719 8  88023198.271 8     -1942.698          51.000
G25  20505525.219 6 107757256.922 6      1192.648          38.000    20505525.508 6  83966699.490 6       929.333          36.000
G29  22863922.742 6 120150685.476 6      3478.430          37.000    22863918.422 6  93623953.872 6      2710.468          36.000
R11  19593032.133 6 104699230.320 6       738.934          38.000    19593035.703 5  81432729.618 5       574.726          33.000
R21  20145665.234 8 107803484.311 8      2293.711          51.000    20145668.820 8  83847275.879 8      1783.997          48.000
C29  22662935.461 7 118011901.395 7      -943.156          42.000
E03  26224515.023 8 137810734.714 8     -2445.691          50.000    26224518.883 8 105595223.117 8     -1873.989          49.000
E11  24198753.234 7 127165322.014 7      1807.383          47.000    24198752.516 7  97438354.581 7      1384.872          46.000
E25  23577405.781 8 123900106.563 8      -166.070          51.000    23577408.648 8  94936455.783 8      -127.243          51.000
> 2020 05 13 09 11  0.0000000  0 10        .000000000000
G12  20194237.969 8 106121437.248 8      -759.570          51.000    20194236.633 8  82692020.271 8      -591.873          51.000
G24  21510437.305 8 113038096.827 8     -2503.766          51.000    21510437.516 8  88081639.591 8     -1950.986          51.000
G25  20498753.812 5 107721677.651 5      1181.977          34.000    20498752.641 5  83938975.396 5       921.027          33.000
G32  22159665.969 5 116449830.101 5       396.070          33.000
R11  19588922.023 6 104677268.131 6       728.430          38.000    19588926.195 5  81415647.939 5       566.553          32.000
R21  20132880.484 8 107735070.442 8      2270.438          51.000    20132883.836 8  83794065.106 8      1765.896          48.000
C29  22668421.555 7 118040469.403 7      -958.258          42.000
E03  26238503.070 8 137884244.611 8     -2451.777          49.000    26238507.969 8 105651548.855 8     -1878.545          49.000
E11  24188476.820 7 127111317.113 7      1796.281          47.000    24188476.250 7  97396974.236 7      1376.279          47.000
E25  23578375.688 8 123905203.123 8      -170.535          51.000    23578378.500 8  94940360.936 8      -130.682          51.000
> 2020 05 13 09 11 30.0000000  0 11        .000000000000
G12  20198569.523 8 106144199.642 8      -772.285          51.000    20198568.312 8  82709757.190 8      -601.781          51.000
G24  21524726.180 8 113113186.308 8     -2516.500          50.000    21524726.219 8  88140150.856 8     -1960.909          50.000
G25  20491998.008 6 107686178.701 6      1169.797          36.000    20491996.961 5  83911313.901 5       911.530          35.000
G29  22824261.023 6 119942294.823 6      3461.055          40.000    22824256.758 6  93461534.122 6      2696.929          40.000
G32  22157422.766 5 116438030.614 5       374.980          35.000    22157423.258 5  90730928.042 5       292.190          34.000
R11  19584830.055 5 104655402.582 5       714.812          34.000    19584832.617 5  81398641.440 5       555.965          30.000
R21  20120183.320 8 107667124.002 8      2244.723          51.000    20120186.172 8  83741217.875 8      1745.895          48.000
C29  22673951.422 7 118069265.129 7      -975.656          42.000
E03  26252481.758 8 137957705.029 8     -2459.926          48.000    26252487.031 8 105707836.688 8     -1884.866          48.000
E11  24178220.359 7 127057419.812 7      1782.492          46.000    24178220.305 7  97355676.355 7      1365.875          47.000
E25  23579327.664 8 123910205.222 8      -177.301          51.000    23579330.242 8  94944193.709 8      -135.851          51.000
> 2020 05 13 09 12  0.0000000  0 11        .000000000000
G12  20203040.734 8 106167695.945 8      -794.852          51.000    20203039.742 8  82728065.991 8      -619.365          51.000
G24  21539154.906 8 113189013.489 8     -2539.254          48.000    21539155.625 8  88199236.960 8     -1978.639          48.000
G25  20485382.258 6 107651409.546 6      1147.660          38.000    20485379.250 5  83884220.947 5       894.272          32.000
G29  22804559.125 7 119838751.777 7      3441.152          44.000    22804551.672 7  93380851.373 7      2681.423          43.000
R10  21533139.234 5 114783800.940 5     -2528.520          35.000
R11  19580880.078 6 104634295.572 6       691.238          37.000    19580880.844 5  81382224.862 5       537.633          30.000
R21  20107697.461 8 107600309.380 8      2208.848          51.000    20107700.156 8  83689250.995 8      1717.996          48.000
C29  22679648.836 7 118098931.183 7     -1002.777          43.000
E03  26266574.078 7 138031763.531 7     -2478.094          46.000    26266578.609 7 105764582.801 7     -1898.781          47.000
E11  24168108.438 7 127004281.106 7      1759.367          47.000    24168108.258 7  97314959.692 7      1348.030          47.000
E25  23580385.297 8 123915762.404 8      -193.848          51.000    23580387.586 8  94948451.810 8      -148.566          51.000
> 2020 05 13 09 12 30.0000000  0 11        .000000000000
G12  20207510.391 8 106191183.796 8      -786.773          51.000    20207509.391 8  82746368.204 8      -613.070          51.000
G24  21553582.367 7 113264835.575 7     -2531.289          47.000    21553584.203 7  88258319.098 7     -1972.433          46.000
G25  20478764.352 6 107616628.512 6      1155.547          39.000    20478763.719 6  83857118.816 6       900.429          38.000
G29  22784839.406 7 119735118.134 7      3451.926          47.000    22784833.117 7  93300097.978 7      2689.815          46.000
R11  19576932.008 6 104613193.689 6       699.383          39.000    19576931.492 5  81365812.244 5       543.967          32.000
R21  20095282.414 8 107533873.959 8      2204.105          51.000    20095284.555 7  83637579.017 7      1714.304          46.000
C29  22685371.703 6 118128731.161 6      -999.641          41.000
E03  26280638.820 7 138105676.215 7     -2465.344          47.000    26280641.867 7 105821217.174 7     -1888.958          47.000
E11  24157999.719 7 126951160.637 7      1766.051          46.000    24157999.570 8  97274256.981 8      1353.339          48.000
E24  24446843.008 6 128469016.396 6     -2004.316          36.000
E25  23581407.305 8 123921132.973 8      -180.008          51.000    23581409.516 8  94952566.921 8      -137.925          51.000
> 2020 05 13 09 13  0.0000000  0 10        .000000000000
G12  20212102.242 8 106215313.461 8      -824.668          51.000    20212100.820 8  82765170.529 8      -642.598          51.000
G24  21568133.000 8 113341301.861 8     -2569.355          48.000    21568135.508 8  88317903.222 8     -2002.095          48.000
G25  20472267.805 6 107582487.044 6      1117.562          36.000    20472271.055 6  83830515.069 6       870.831          36.000
G29  22765226.344 7 119632047.002 7      3416.773          47.000    22765220.836 7  93219782.865 7      2662.421          47.000
R11  19573108.344 6 104592760.402 6       660.176          38.000    19573108.125 5  81349919.722 5       513.473          33.000
R21  20083062.125 8 107468483.804 8      2152.457          49.000    20083064.562 7  83586720.027 7      1674.133          46.000
C29  22691243.727 6 118159309.103 6     -1041.523          41.000
E03  26294799.969 8 138180092.403 8     -2498.598          48.000    26294802.156 7 105878237.364 7     -1914.519          47.000
E11  24148018.156 7 126898710.856 7      1727.465          44.000    24148018.891 8  97234068.255 8      1323.639          48.000
E25  23582517.648 8 123926968.223 8      -211.969          51.000    23582520.000 8  94957038.092 8      -162.394          51.000
> 2020 05 13 09 13 30.0000000  0 10        .000000000000
G12  20216760.719 8 106239793.261 8      -815.051          51.000    20216758.805 8  82784245.694 8      -635.105          51.000
G24  21582751.477 8 113418121.727 8     -2559.770          48.000    21582753.984 8  88377762.826 8     -1994.626          49.000
G25  20465836.711 5 107548694.505 5      1127.965          30.000    20465837.992 4  83804183.295 4       878.940          25.000
G29  22745664.719 7 119529250.048 7      3428.605          45.000    22745660.117 7  93139681.393 7      2671.641          45.000
R11  19569353.906 6 104572701.476 6       668.953          36.000    19569355.133 5  81334318.336 5       520.294          34.000
R21  20070982.320 8 107403845.783 8      2148.918          49.000    20070985.586 7  83536446.043 7      1671.381          46.000
C29  22697209.898 6 118190375.827 6     -1036.844          39.000
E03  26309001.570 8 138254719.380 8     -2484.324          49.000    26309004.031 8 105935419.028 8     -1903.552          49.000
E11  24138109.836 7 126846642.705 7      1736.062          47.000    24138110.891 8  97194171.909 8      1330.146          48.000
E25  23583661.203 8 123932977.620 8      -196.371          51.000    23583663.688 8  94961642.692 8      -150.523          51.000
> 2020 05 13 09 14  0.0000000  0 11        .000000000000
G12  20221457.289 8 106264473.900 8      -829.469          51.000    20221455.297 8  82803477.366 8      -646.339          51.000
G24  21597408.672 8 113495144.335 8     -2574.215          49.000    21597410.867 8  88437780.399 8     -2005.885          49.000
G25  20459444.359 6 107515104.441 6      1112.898          36.000    20459441.938 5  83778007.762 5       867.187          35.000
G29  22726126.594 7 119426580.842 7      3416.418          44.000    22726123.484 7  93059679.468 7      2662.147          43.000
R10  21590200.125 5 115087974.025 5     -2552.871          31.000
R11  19565641.758 6 104552867.080 6       653.512          37.000    19565644.109 5  81318891.622 5       508.290          34.000
R21  20059015.484 8 107339811.111 8      2120.910          49.000    20059019.008 7  83486641.332 7      1649.597          46.000
C29  22703241.422 6 118221782.860 6     -1055.883          37.000
E03  26323214.594 8 138329406.623 8     -2494.043          48.000    26323217.969 8 105992646.854 8     -1910.972          50.000
E11  24128246.406 7 126794808.929 7      1720.434          46.000    24128247.219 7  97154455.121 7      1318.224          47.000
E25  23584809.703 8 123939012.672 8      -205.062          51.000    23584812.289 8  94966266.950 8      -157.126          51.000
> 2020 05 13 09 14 30.0000000  0 12        .000000000000
G02  23172440.883 5 121771996.321 5      1190.840          30.000
G12  20226215.641 8 106289479.096 8      -837.934          51.000    20226213.781 8  82822961.934 8      -652.938          51.000
G24  21612127.875 8 113572493.115 8     -2582.758          50.000    21612130.008 8  88498052.112 8     -2012.542          50.000
G25  20453115.016 6 107481837.645 6      1104.383          36.000    20453112.750 6  83752085.618 6       860.561          36.000
G29  22706635.812 7 119324165.954 7      3410.191          42.000    22706634.773 6  92979875.669 6      2657.292          41.000
R10  21604583.078 5 115164635.791 5     -2558.172          34.000
R11  19561994.914 5 104533384.880 5       645.047          30.000    19561999.172 5  81303738.834 5       501.700          35.000
R21  20047185.711 8 107276509.357 8      2098.902          49.000    20047189.750 8  83437406.651 8      1632.480          48.000
C29  22709361.336 5 118253652.323 5     -1068.840          35.000
E03  26337462.016 7 138404276.663 7     -2497.559          47.000    26337466.430 8 106050014.768 8     -1913.789          50.000
E11  24118451.242 7 126743335.407 7      1710.816          46.000    24118452.266 7  97115014.406 7      1310.957          47.000
E25  23585986.805 8 123945197.943 8      -207.590          51.000    23585989.492 8  94971006.312 8      -159.107          51.000
> 2020 05 13 09 15  0.0000000  0 11        .000000000000
G12  20230997.211 8 106314606.261 8      -853.570          51.000    20230995.555 8  82842541.542 8      -665.120          51.000
G24  21626870.594 8 113649965.943 8     -2598.312          49.000    21626872.195 8  88558420.519 8     -2024.662          49.000
G25  20446808.344 5 107448702.090 5      1088.387          33.000    20446808.773 5  83726260.445 5       848.100          32.000
G29  22687155.359 7 119221805.925 7      3397.078          42.000    22687156.609 7  92900114.587 7      2647.071          43.000
G32  22145204.102 5 116373828.650 5       233.926          35.000
R10  21618964.750 5 115241260.689 5     -2571.688          31.000
R21  20035455.023 8 107213738.200 8      2069.207          49.000    20035459.734 8  83388584.630 8      1609.380          49.000
C29  22715532.367 5 118285783.400 5     -1089.203          33.000
E03  26351705.242 7 138479126.019 7     -2508.645          46.000    26351710.258 8 106107366.852 8     -1922.187          49.000
E11  24108686.727 7 126692022.118 7      1693.637          46.000    24108688.023 7  97075696.479 7      1297.689          46.000
E25  23587154.172 8 123951332.120 8      -217.629          51.000    23587156.953 8  94975706.523 8      -166.805          51.000
> 2020 05 13 09 15 30.0000000  0  9        .000000000000
G12  20235941.742 8 106340589.835 8      -864.957          51.000    20235940.297 8  82862788.474 8      -673.992          51.000
G24  21641776.148 8 113728295.957 8     -2609.938          48.000    21641777.945 8  88619456.879 8     -2033.718          48.000
G29  22667827.102 7 119120238.239 7      3387.805          45.000    22667829.336 7  92820970.910 7      2639.848          45.000
R10  21633512.711 6 115318751.987 6     -2580.582          37.000
R11  19554926.445 5 104495627.902 5       615.203          34.000    19554933.461 5  81274381.830 5       478.494          34.000
R21  20023964.125 8 107152248.620 8      2043.977          49.000    20023969.023 8  83340759.374 8      1589.760          49.000
E03  26366084.125 7 138554687.797 7     -2515.270          45.000    26366089.016 8 106165264.832 8     -1927.198          49.000
E11  24099092.648 7 126641605.521 7      1681.188          46.000    24099093.211 7  97037065.607 7      1288.192          44.000
E25  23588451.641 8 123958150.382 8      -223.195          51.000    23588454.547 8  94980930.902 8      -171.026          51.000
> 2020 05 13 09 16  0.0000000  0  9        .000000000000
G02  23152460.742 5 121667015.458 5      1134.691          34.000
G12  20240875.352 8 106366516.373 8      -881.336          51.000    20240874.000 8  82882990.962 8      -686.755          51.000
G24  21656670.883 8 113806569.438 8     -2626.301          49.000    21656673.586 8  88680449.180 8     -2046.468          49.000
G29  22648477.148 7 119018552.289 7      3373.527          47.000    22648479.547 7  92741735.113 7      2628.723          47.000
R11  19551472.086 6 104477162.508 6       597.828          36.000    19551479.234 5  81260019.813 5       464.980          34.000
R21  20012540.055 8 107091114.207 8      2013.469          51.000    20012544.555 8  83293210.380 8      1566.031          49.000
E03  26380424.906 7 138630047.405 7     -2526.746          47.000    26380429.430 8 106223007.888 8     -1936.003          49.000
E11  24089495.578 7 126591174.287 7      1662.992          45.000    24089494.820 7  96998423.525 7      1274.154          43.000
E25  23589705.648 8 123964740.225 8      -234.035          51.000    23589708.609 8  94985980.252 8      -179.302          51.000
> 2020 05 13 09 16 30.0000000  0 12        .000000000000
G02  23145993.047 6 121633013.303 6      1128.152          37.000
G12  20245912.078 8 106392984.815 8      -884.457          51.000    20245910.617 8  82903615.719 8      -689.187          51.000
G24  21671669.328 8 113885385.522 8     -2629.352          50.000    21671672.453 8  88741864.313 8     -2048.845          50.000
G29  22629219.547 8 118917350.444 8      3372.113          49.000    22629221.984 8  92662876.530 8      2627.624          49.000
G32  22141711.875 5 116355480.289 5       176.500          34.000
R10  21662619.023 5 115473991.571 5     -2595.234          32.000
R11  19548124.852 6 104459279.430 6       593.445          36.000    19548128.164 5  81246110.807 5       461.572          33.000
R21  20001297.492 8 107030948.620 8      1996.336          51.000    20001301.070 8  83246414.926 8      1552.706          48.000
C29  22734787.062 5 118385988.610 5     -1134.387          31.000
E03  26394841.453 8 138705802.903 8     -2524.895          48.000    26394845.469 8 106281054.270 8     -1934.630          50.000
E11  24080010.477 7 126541329.994 7      1658.762          46.000    24080009.289 7  96960231.181 7      1270.972          43.000
E25  23591030.430 8 123971701.943 8      -231.426          51.000    23591033.430 8  94991314.550 8      -177.281          51.000
> 2020 05 13 09 17  0.0000000  0 12        .000000000000
G02  23139580.781 6 121599312.091 6      1111.930          38.000    23139580.281 5  94752727.311 5       866.430          33.000
G12  20250978.961 8 106419611.646 8      -896.879          51.000    20250977.445 8  82924363.897 8      -698.864          51.000
G24  21686698.133 8 113964359.358 8     -2641.734          51.000    21686701.320 8  88803402.348 8     -2058.497          51.000
G25  20422446.516 5 107320669.266 5      1044.496          35.000    20422445.664 5  83626492.887 5       813.896          35.000
G29  22609981.602 8 118816251.552 8      3361.500          50.000    22609983.953 8  92584098.195 8      2619.351          50.000
R10  21677232.812 5 115551895.837 5     -2604.895          32.000
R11  19544814.773 6 104441590.246 6       579.922          36.000    19544818.938 5  81232352.568 5       451.050          34.000
R21  19990163.508 8 106971364.358 8      1969.652          51.000    19990166.211 7  83200071.650 7      1531.952          47.000
C29  22741342.078 6 118420163.642 6     -1150.426          36.000
E03  26409260.148 8 138781569.296 8     -2532.512          48.000    26409263.539 8 106339109.013 8     -1940.544          49.000
E11  24070564.695 7 126491691.001 7      1644.352          46.000    24070563.305 7  96922196.140 7      1259.922          43.000
E25  23592353.164 8 123978652.608 8      -238.277          51.000    23592356.117 8  94996640.380 8      -182.567          51.000
> 2020 05 13 09 17 30.0000000  0 10        .000000000000
G12  20256148.453 8 106446777.698 8      -917.047          51.000    20256147.055 8  82945532.250 8      -714.582          51.000
G24  21701829.336 8 114043871.244 8     -2661.875          51.000    21701832.516 8  88865359.614 8     -2074.188          51.000
G25  20416530.969 6 107289588.318 6      1024.219          36.000    20416535.570 6  83602273.912 6       798.086          36.000
G29  22590836.312 8 118715639.654 8      3343.051          51.000    22590837.977 8  92505699.341 8      2604.975          51.000
R11  19541613.898 6 104424484.063 6       557.473          37.000    19541616.773 5  81219047.758 5       433.593          33.000
R21  19979210.914 8 106912752.358 8      1934.887          51.000    19979212.906 7  83154484.579 7      1504.912          46.000
C29  22748027.297 5 118455010.672 5     -1175.270          33.000
E03  26423752.883 7 138857726.027 7     -2547.711          47.000    26423755.648 8 106397462.862 8     -1952.097          48.000
E11  24061230.656 7 126442639.948 7      1622.512          45.000    24061228.883 7  96884611.598 7      1243.316          44.000
E25  23593746.367 8 123985973.745 8      -252.867          51.000    23593749.242 8  95002250.080 8      -193.761          51.000
> 2020 05 13 09 18  0.0000000  0 11        .000000000000
G12  20261348.789 8 106474105.591 8      -913.738          51.000    20261347.609 8  82966826.712 8      -712.004          51.000
G24  21716991.031 8 114123543.971 8     -2658.543          51.000    21716994.328 8  88927442.215 8     -2071.595          51.000
G25  20410647.523 5 107258677.219 5      1027.879          30.000    20410652.172 4  83578187.275 4       800.942          29.000
G29  22571712.633 8 118615140.819 8      3347.984          51.000    22571712.781 8  92427388.612 8      2608.819          51.000
R10  21706661.375 5 115708714.168 5     -2616.871          35.000
R11  19538451.312 6 104407580.290 6       559.789          37.000    19538452.016 5  81205900.368 5       435.388          34.000
R21  19968368.711 8 106854732.397 8      1924.090          51.000    19968370.539 7  83109357.986 7      1496.514          46.000
C29  22754776.688 6 118490156.467 6     -1176.512          41.000
E03  26438247.453 7 138933895.411 7     -2539.223          46.000    26438250.156 8 106455826.402 8     -1945.635          49.000
E11  24051937.047 7 126393802.514 7      1624.375          45.000    24051935.828 7  96847190.731 7      1244.660          44.000
E25  23595138.586 8 123993289.844 8      -243.766          51.000    23595141.375 8  95007855.911 8      -186.781          51.000
> 2020 05 13 09 18 30.0000000  0 11        .000000000000
G12  20266612.023 8 106501764.059 8      -911.328          51.000    20266611.023 8  82988378.763 8      -710.126          51.000
G24  21732215.328 8 114203545.940 8     -2655.883          51.000    21732218.305 8  88989781.374 8     -2069.519          51.000
G25  20404827.633 5 107228092.181 5      1028.453          32.000    20404832.859 5  83554381.933 5       801.386          32.000
G29  22552643.070 8 118514926.222 8      3351.652          51.000    22552641.586 8  92349299.369 8      2611.680          51.000
G32  22138601.508 5 116339101.218 5       113.824          32.000
R11  19535358.766 6 104391052.205 6       560.832          40.000    19535359.219 5  81193045.168 5       436.200          34.000
R21  19957669.539 8 106797479.382 8      1912.062          50.000    19957671.812 7  83064827.896 7      1487.160          47.000
C29  22761614.609 6 118525767.150 6     -1178.766          39.000
E03  26452775.523 7 139010244.518 7     -2531.773          44.000    26452779.203 8 106514327.671 8     -1939.999          50.000
E11  24042716.609 7 126345349.232 7      1624.531          45.000    24042716.438 7  96810064.198 7      1244.819          45.000
E25  23596562.023 8 124000770.141 8      -236.109          51.000    23596564.797 8  95013587.561 8      -180.840          51.000
> 2020 05 13 09 19  0.0000000  0 12        .000000000000
G02  23114868.984 6 121469478.742 6      1056.363          36.000
G12  20271951.672 8 106529824.383 8      -935.680          51.000    20271950.852 8  83010243.953 8      -729.098          51.000
G24  21747515.648 8 114283947.637 8     -2680.281          51.000    21747517.898 8  89052432.014 8     -2088.534          51.000
G29  22533641.445 8 118415070.274 8      3328.812          51.000    22533639.156 8  92271489.595 8      2593.883          51.000
G32  22138108.984 5 116336518.312 5        80.555          34.000    22138120.883 5  90651898.378 5        62.770          33.000
R10  21736250.914 5 115866439.691 5     -2634.055          33.000
R11  19532351.273 6 104374974.080 6       534.688          41.000    19532351.141 5  81180539.970 5       415.871          34.000
R21  19947127.617 8 106741069.154 8      1872.668          49.000    19947130.484 8  83020953.271 8      1456.520          48.000
C29  22768554.836 6 118561912.831 6     -1207.543          37.000
E03  26467350.961 7 139086843.605 7     -2551.012          42.000    26467355.641 8 106573020.452 8     -1954.701          50.000
E11  24033583.109 7 126297353.472 7      1598.688          44.000    24033583.828 7  96773288.238 7      1225.091          45.000
E25  23598030.430 8 124008486.955 8      -254.668          51.000    23598033.273 8  95019500.439 8      -195.180          51.000
> 2020 05 13 09 19 30.0000000  0 10        .000000000000
G12  20277333.227 8 106558105.142 8      -940.582          51.000    20277332.469 8  83032280.911 8      -732.921          51.000
G24  21762857.047 8 114364566.904 8     -2685.141          51.000    21762858.734 8  89115252.199 8     -2092.320          51.000
G29  22514673.367 8 118315394.527 8      3325.199          50.000    22514671.289 8  92193820.205 8      2591.067          49.000
G32  22137714.391 5 116334437.020 5        67.090          33.000
R11  19529392.703 6 104359163.837 6       528.371          37.000    19529393.859 5  81168243.123 5       410.952          34.000
R21  19936709.148 8 106685320.190 8      1853.102          50.000    19936712.281 8  82977592.958 8      1441.301          48.000
C29  22775564.484 6 118598413.225 6     -1216.941          38.000
E03  26481939.578 7 139163510.059 7     -2550.926          43.000    26481944.586 8 106631764.830 8     -1954.549          49.000
E11  24024502.820 7 126249636.048 7      1591.418          46.000    24024503.594 7  96736725.560 7      1219.386          45.000
E25  23599509.445 8 124016259.871 8      -254.434          51.000    23599512.359 8  95025456.304 8      -194.950          51.000
> 2020 05 13 09 20  0.0000000  0 12        .000000000000
G02  23103029.836 6 121407251.683 6      1024.094          37.000
G12  20282799.742 8 106586832.283 8      -959.328          51.000    20282798.820 8  83054665.687 8      -747.528          51.000
G24  21778282.172 8 114445629.488 8     -2703.758          48.000    21778283.859 8  89178417.808 8     -2106.824          48.000
G29  22495782.461 8 118216127.872 8      3307.875          50.000    22495781.359 8  92116469.557 8      2577.565          50.000
G32  22137449.273 5 116333080.631 5        39.895          33.000
