     3.02           OBSERVATION DATA    M (MIXED)           RINEX VERSION / TYPE
SAVERINEX           SC600               20200501 125930 LCL PGM / RUN BY / DATE
       G = GPS       R = GLONASS       C = COMPASS          COMMENT
       S = SBAS      J = QZSS          E = GALILEO          COMMENT
BEAN                                                        MARKER NAME
1                                                           MARKER NUMBER
GEODETIC                                                    MARKER TYPE
Unige DICCA         GTER                                    OBSERVER / AGENCY
SC60291900056       SC600               2.12(191226)        REC # / TYPE / VERS
                    HEMA45          NONE                    ANT # / TYPE
  4509407.8091   693652.4678  4442337.6214                  APPROX POSITION XYZ
        0.0000        0.0000        0.0000                  ANTENNA: DELTA H/E/N
G    8 C1C L1C D1C S1C C2Y L2Y D2Y S2Y                      SYS / # / OBS TYPES
R    8 C1C L1C D1C S1C C2P L2P D2P S2P                      SYS / # / OBS TYPES
C    4 C1I L1I D1I S1I                                      SYS / # / OBS TYPES
E    8 C1C L1C D1C S1C C7Q L7Q D7Q S7Q                      SYS / # / OBS TYPES
DBHZ                                                        COMMENT
     30.000                                                 INTERVAL
  2020    05    01    10    00    0.0000000     GPS         TIME OF FIRST OBS
  2020    05    01    10    59   30.0000000     GPS         TIME OF LAST OBS
     0                                                      RCV CLOCK OFFS APPL
G L1C  0.00000                                              SYS / PHASE SHIFT
G L2Y  0.00000                                              SYS / PHASE SHIFT
R L1C  0.00000                                              SYS / PHASE SHIFT
R L2P  0.25000                                              SYS / PHASE SHIFT
C L1I  0.00000                                              SYS / PHASE SHIFT
E L1C  0.50000                                              SYS / PHASE SHIFT
E L7Q -0.25000                                              SYS / PHASE SHIFT
 13 R02 -4 R03  5 R04  6 R05  1 R10 -5 R12 -1 R13 -2 R14 -7 GLONASS SLOT / FRQ #
    R15  0 R17  4 R18 -3 R22 -3 R23  3                      GLONASS SLOT / FRQ #
 C1C   71.950 C2C   71.950 C2P   71.950                     GLONASS COD/PHS/BIS
    18                                                      LEAP SECONDS
*** Above antenna height is from mark to ANTENNA BOTTOM.    COMMENT
    17     4        0.0000        ANT MEASURE TYPE/HEIGT    COMMENT
    0.0000    0.0000    0.0458    0.0405    0.0000          COMMENT
                    BASE STATION                            COMMENT
                                                            END OF HEADER
> 2020 05 01 10 00  0.0000000  0 16        .000000000000
G02  23223367.547 5 122039616.705 5      1291.965          32.000
G12  20195211.102 8 106126545.171 8      -765.414          51.000    20195210.203 8  82696004.018 8      -596.430          51.000
G24  21499225.547 8 112979176.104 8     -2491.574          51.000    21499226.500 8  88035727.372 8     -1941.489          50.000
G25  20527079.000 6 107870524.796 6      1228.551          36.000    20527081.234 5  84054961.332 5       957.309          35.000
G29  22878337.398 7 120226434.064 7      3487.902          45.000    22878331.570 7  93682958.548 7      2717.846          45.000
G32  22154181.930 5 116421023.531 5       390.570          32.000
R05  23093944.109 7 123450358.549 7     -3691.293          47.000    23093945.008 6  96016951.551 6     -2871.009          40.000
R15  19547873.102 6 104457856.524 6       521.992          38.000    19547868.430 4  81245027.845 4       405.997          28.000
R17  19934472.070 8 106673396.685 8      2034.992          50.000    19934473.344 7  82968200.448 7      1582.772          44.000
C27  22253984.148 8 115882386.257 8       -48.777          51.000
C28  25192993.461 5 131186518.535 5     -2692.656          31.000
C30  23255332.180 7 121096606.923 7      2814.676          46.000
E01  23678366.586 7 124430636.281 7       266.891          47.000    23678367.609 8  95342967.351 8       204.528          48.000
E04  26081494.969 8 137059156.409 8     -2129.762          50.000    26081498.219 8 105019382.321 8     -1631.800          49.000
E21                                                                  25350008.977 6 102074022.763 6     -1320.520          39.000
E26  24294563.562 8 127668876.512 8      2244.090          51.000    24294567.680 8  97824196.932 8      1719.491          51.000
> 2020 05 01 10 00 30.0000000  0 15        .000000000000
G12  20199639.133 8 106149814.625 8      -778.930          51.000    20199638.289 8  82714136.047 8      -606.961          51.000
G24  21513507.578 8 113054229.383 8     -2505.051          49.000    21513508.258 8  88094210.418 8     -1951.988          49.000
G25  20520121.039 6 107833957.698 6      1215.949          39.000    20520123.820 6  84026467.554 6       947.493          40.000
G29  22858477.945 7 120122068.365 7      3477.031          43.000    22858472.812 7  93601634.680 7      2709.378          43.000
R05  23114709.445 8 123561360.053 8     -3701.742          48.000    23114711.789 6  96103285.977 6     -2879.136          41.000
R14  21348411.672 5 113799063.319 5     -2429.047          31.000
R15  19545003.727 5 104442520.033 5       507.609          35.000    19544997.508 4  81233087.429 4       394.807          28.000
R17  19923160.117 8 106612864.737 8      2007.582          51.000    19923161.898 7  82921120.056 7      1561.453          46.000
C27  22254340.734 8 115884242.720 8       -68.184          50.000
C28  25208558.336 5 131267559.166 5     -2703.395          32.000
C30  23239170.648 7 121012450.558 7      2802.582          47.000
E01  23676884.312 7 124422848.291 7       259.191          45.000    23676885.898 7  95336999.912 7       198.718          47.000
E04  26093704.672 8 137123320.820 8     -2140.883          49.000    26093708.219 8 105068547.256 8     -1640.465          49.000
E21                                                                  25359885.281 6 102113786.029 6     -1324.878          38.000
E26  24281807.617 8 127601843.593 8      2231.762          50.000    24281812.305 8  97772834.034 8      1710.054          51.000
> 2020 05 01 10 01  0.0000000  0 16        .000000000000
G12  20204128.719 8 106173407.206 8      -792.812          51.000    20204127.844 8  82732519.869 8      -617.776          51.000
G24  21527851.680 8 113129611.253 8     -2519.250          48.000    21527852.742 8  88152949.516 8     -1963.052          48.000
G25  20513223.477 6 107797707.817 6      1202.098          39.000    20513225.422 6  83998220.899 6       936.699          38.000
G29  22838663.445 6 120017937.032 6      3466.301          40.000    22838657.562 6  93520493.436 6      2701.017          40.000
R05  23135516.414 8 123672584.200 8     -3712.242          48.000    23135519.883 7  96189793.560 7     -2887.303          42.000
R14  21362131.305 5 113872179.574 5     -2441.395          31.000
R15  19542197.320 5 104427526.612 5       492.848          35.000
R17  19911986.047 8 106553067.279 8      1979.930          51.000    19911987.664 7  82874610.907 7      1539.945          46.000
R24  21098867.320 4 112825146.908 4     -2161.008          27.000
C27  22254793.242 8 115886598.314 8       -87.887          50.000
C28  25224170.734 5 131348851.466 5     -2715.309          34.000
C30  23223063.070 8 120928572.870 8      2790.145          49.000
E01  23675428.992 7 124415202.350 7       251.449          45.000    23675431.133 7  95331141.334 7       192.654          47.000
E04  26105962.086 8 137187734.374 8     -2152.324          50.000    26105965.344 8 105117903.048 8     -1649.180          49.000
E21                                                                  25369775.727 6 102153616.259 6     -1329.565          36.000
E26  24269105.367 8 127535095.228 8      2219.102          50.000    24269110.859 8  97721689.165 8      1700.351          51.000
> 2020 05 01 10 01 30.0000000  0 15        .000000000000
G12  20208695.023 8 106197402.478 8      -807.723          51.000    20208693.844 8  82751217.466 8      -629.394          51.000
G24  21542273.352 8 113205400.465 8     -2534.148          48.000    21542274.891 8  88212006.007 8     -1974.661          48.000
G25  20506400.648 6 107761855.753 6      1187.578          36.000    20506400.430 5  83970284.258 5       925.383          33.000
G29  22818893.422 5 119914103.992 5      3453.695          33.000    22818898.867 5  93439575.329 5      2691.191          34.000
R05  23156379.281 8 123784108.314 8     -3723.691          48.000    23156383.609 7  96276534.487 7     -2896.204          43.000
R14  21375878.742 5 113945586.738 5     -2453.262          31.000    21375899.398 4  88624333.509 4     -1908.092          25.000
R15  19539469.938 6 104412959.444 6       476.961          38.000
R17  19900964.906 8 106494089.105 8      1951.051          51.000    19900966.695 7  82828739.019 7      1517.487          47.000
C27  22255356.805 8 115889532.510 8      -108.574          49.000
C28  25239845.758 6 131430473.005 6     -2727.363          36.000
C30  23207025.172 8 120845055.480 8      2776.676          50.000
E01  23674016.164 7 124407779.153 7       242.539          46.000    23674018.602 7  95325453.430 7       185.898          47.000
E04  26118282.352 8 137252475.713 8     -2164.582          51.000    26118284.734 8 105167510.019 8     -1658.558          49.000
E21  25379701.148 5 133371251.971 5     -1742.570          35.000    25379699.062 6 102193575.090 6     -1335.114          36.000
E26  24256472.984 8 127468713.694 8      2205.453          49.000    24256478.492 8  97670825.361 8      1689.956          49.000
> 2020 05 01 10 02  0.0000000  0 14        .000000000000
G12  20213321.492 8 106221713.835 8      -814.375          51.000    20213319.797 8  82770161.366 8      -634.578          51.000
G24  21556756.211 8 113281510.308 8     -2541.062          49.000    21556758.312 8  88271312.348 8     -1980.049          49.000
G25  20499637.422 6 107726316.110 6      1180.684          37.000    20499635.797 5  83942591.074 5       920.016          35.000
R05  23177280.734 8 123895840.497 8     -3726.684          48.000    23177286.266 7  96363437.237 7     -2898.532          44.000
R14  21389693.977 5 114019240.844 5     -2458.406          34.000    21389704.969 4  88681558.036 4     -1912.094          29.000
R15  19536806.031 6 104398732.224 6       469.836          38.000
R17  19890080.703 8 106435845.212 8      1930.465          51.000    19890082.641 7  82783438.252 7      1501.473          46.000
C27  22256014.992 8 115892960.036 8      -121.266          48.000
C28  25255567.164 6 131512336.675 6     -2731.434          38.000
C30  23191041.000 8 120761815.379 8      2771.285          51.000
E01  23672629.812 7 124400493.164 7       241.660          47.000    23672632.031 7  95319870.675 7       185.222          47.000
E04  26130648.422 8 137317457.360 8     -2168.922          51.000    26130650.070 8 105217301.117 8     -1661.883          50.000
E21                                                                  25389640.297 6 102233596.795 6     -1334.228          36.000
E26  24243894.641 8 127402614.953 8      2199.770          49.000    24243899.352 8  97620178.289 8      1685.490          48.000
> 2020 05 01 10 02 30.0000000  0 14        .000000000000
G12  20218007.836 8 106246340.427 8      -826.797          51.000    20218005.875 8  82789350.919 8      -644.257          51.000
G24  21571300.133 8 113357939.316 8     -2553.629          49.000    21571302.672 8  88330867.403 8     -1989.841          49.000
G25  20492933.750 6 107691089.144 6      1168.430          37.000    20492931.844 5  83915141.408 5       910.462          34.000
G29  22779521.344 6 119707197.029 6      3440.461          40.000    22779524.867 6  93278326.066 6      2680.879          40.000
R05  23198220.617 8 124007776.518 8     -3735.164          48.000    23198227.375 7  96450498.534 7     -2905.128          44.000
R15  19534206.891 6 104384846.341 6       456.297          38.000    19534203.609 4  81188221.295 4       354.895          27.000
R17  19879334.578 8 106378338.292 8      1903.938          51.000    19879336.414 7  82738710.674 7      1480.843          47.000
C27  22256767.242 7 115896880.540 7      -139.500          47.000
C28  25271334.703 6 131594440.429 6     -2741.074          39.000
C30  23175110.336 8 120678854.578 8      2760.074          51.000
E01  23671269.898 7 124393344.671 7       235.496          47.000    23671271.727 8  95314393.264 8       180.394          48.000
E04  26143059.602 8 137382677.500 8     -2178.488          50.000    26143060.992 8 105267274.957 8     -1669.246          50.000
E21  25399594.867 5 133475771.804 5     -1745.789          35.000    25399596.594 5 102273681.434 5     -1337.434          34.000
E26  24231370.562 8 127336800.860 8      2188.418          49.000    24231374.055 8  97569749.331 8      1676.921          48.000
> 2020 05 01 10 03  0.0000000  0 14        .000000000000
G12  20222759.727 8 106271311.668 8      -837.387          51.000    20222757.938 8  82808809.030 8      -652.509          51.000
G24  21585910.492 8 113434716.893 8     -2564.219          49.000    21585913.141 8  88390694.054 8     -1998.093          49.000
G25  20486295.664 5 107656204.818 5      1157.516          34.000    20486295.750 5  83887958.748 5       901.966          35.000
G29  22759907.492 7 119604120.204 7      3432.109          44.000    22759909.875 7  93198006.490 7      2674.371          44.000
R05  23219204.031 8 124119942.238 8     -3741.957          48.000    23219211.461 7  96537738.473 7     -2910.414          44.000
R15  19531677.898 6 104371333.476 6       445.180          38.000    19531680.125 5  81177723.278 5       346.248          30.000
R17  19868731.859 8 106321601.081 8      1879.070          51.000    19868734.211 7  82694581.784 7      1461.499          47.000
C27  22257620.477 8 115901323.364 8      -156.062          48.000
C28  25287153.453 6 131676811.825 6     -2749.277          38.000
C30  23159238.766 8 120596204.627 8      2750.520          51.000
E01  23669941.891 7 124386363.767 7       230.586          47.000    23669943.383 8  95309044.252 8       176.668          48.000
E04  26155520.867 8 137448164.274 8     -2186.617          48.000    26155522.516 8 105317453.111 8     -1675.439          50.000
E21  25409572.461 5 133528197.870 5     -1748.801          35.000
E26  24218906.414 8 127271303.027 8      2178.672          48.000    24218909.461 8  97519562.717 8      1669.390          48.000
> 2020 05 01 10 03 30.0000000  0 13        .000000000000
G12  20227576.633 8 106296624.466 8      -848.844          51.000    20227575.109 8  82828533.282 8      -661.437          51.000
G24  21600586.383 8 113511839.362 8     -2575.777          48.000    21600588.992 7  88450789.453 7     -2007.102          47.000
G29  22740344.789 7 119501311.306 7      3423.016          46.000    22740345.047 7  93117895.688 7      2667.288          46.000
R05  23240229.359 7 124232330.545 7     -3749.316          46.000    23240236.664 7  96625151.558 7     -2916.135          42.000
R15  19529218.945 6 104358192.276 6       432.551          41.000    19529222.367 5  81167502.329 5       336.428          31.000
R17  19858272.922 8 106265634.144 8      1853.359          50.000    19858275.680 7  82651051.953 7      1441.502          46.000
C27  22258573.680 8 115906285.875 8      -173.469          48.000
C28  25303022.594 6 131759446.477 6     -2758.461          38.000
C30  23143426.086 8 120513865.247 8      2740.113          50.000
E01  23668645.055 7 124379548.351 7       225.070          47.000    23668646.547 8  95303822.048 8       172.465          48.000
E04  26168031.977 7 137513913.584 7     -2195.324          47.000    26168034.266 8 105367832.427 8     -1682.099          50.000
E21  25419567.398 5 133580733.786 5     -1752.672          35.000
E26  24206502.414 8 127206120.953 8      2168.207          49.000    24206505.891 8  97469618.036 8      1661.288          49.000
> 2020 05 01 10 04  0.0000000  0 13        .000000000000
G12  20232456.438 8 106322268.041 8      -859.551          51.000    20232455.188 8  82848515.275 8      -669.780          51.000
G24  21615325.992 8 113589295.367 8     -2586.652          49.000    21615328.328 8  88511144.758 8     -2015.576          49.000
G29  22720831.281 7 119398762.753 7      3414.652          46.000    22720829.367 7  93037987.755 7      2660.768          46.000
R05  23261292.945 7 124344927.256 7     -3755.898          44.000    23261299.938 6  96712726.741 6     -2921.254          41.000
R14  21445467.016 5 114316438.023 5     -2494.371          34.000    21445474.070 4  88912766.533 4     -1940.069          28.000
R15  19526828.133 7 104345414.331 7       420.680          42.000    19526830.477 5  81157563.903 5       327.192          32.000
R17  19847956.422 8 106210429.901 8      1828.141          50.000    19847959.609 7  82608115.307 7      1421.887          47.000
C27  22259624.859 8 115911758.111 8      -190.066          49.000
C28  25318940.195 6 131842332.743 6     -2766.230          37.000
C30  23127671.516 8 120431828.833 8      2730.266          50.000
E01  23667377.664 7 124372889.079 7       220.180          46.000    23667379.406 8  95298719.475 8       168.712          49.000
E04  26180591.211 8 137579914.020 8     -2203.383          49.000    26180593.844 8 105418404.139 8     -1688.261          50.000
E26  24194157.461 8 127141246.708 8      2158.137          51.000    24194161.555 8  97419909.211 8      1653.619          50.000
> 2020 05 01 10 04 30.0000000  0 13        .000000000000
G12  20237399.875 8 106348246.216 8      -872.066          51.000    20237398.812 8  82868757.985 8      -679.532          51.000
G24  21630129.781 8 113667088.775 8     -2599.320          49.000    21630131.836 8  88571762.990 8     -2025.444          49.000
G25  20466765.719 6 107553578.701 6      1122.949          37.000    20466756.492 5  83807945.642 5       875.025          32.000
G29  22701368.148 7 119296481.285 7      3404.402          46.000    22701364.781 7  92958287.924 7      2652.781          45.000
R05  23282394.531 7 124457732.079 7     -3763.977          43.000    23282401.391 6  96800463.779 6     -2927.537          38.000
R15  19524505.883 6 104333005.387 6       407.094          41.000    19524510.578 5  81147912.486 5       316.625          33.000
R17  19837783.953 8 106155995.528 8      1800.930          51.000    19837787.031 7  82565777.472 7      1400.723          46.000
C27  22260774.922 8 115917744.268 8      -208.586          49.000
C28  25334906.375 6 131925473.037 6     -2776.094          36.000
C30  23111976.383 8 120350101.767 8      2718.457          49.000
E01  23666140.625 7 124366390.755 7       213.457          46.000    23666142.781 8  95293740.213 8       163.576          48.000
E04  26193199.281 8 137646168.319 8     -2213.070          50.000    26193201.500 8 105469170.390 8     -1695.771          50.000
E26  24181872.750 8 127076686.630 8      2146.273          51.000    24181876.961 8  97370441.097 8      1644.511          51.000
> 2020 05 01 10 05  0.0000000  0 17        .000000000000
G02  23154074.883 5 121675484.738 5      1141.961          31.000
G12  20242416.055 8 106374606.950 8      -881.410          51.000    20242415.062 8  82889298.798 8      -686.813          51.000
G24  21645006.695 8 113745266.698 8     -2608.625          49.000    21645009.094 8  88632680.832 8     -2032.698          49.000
G25  20460393.930 6 107520086.808 6      1113.961          36.000    20460390.641 5  83781863.203 5       868.025          35.000
G29  22681964.797 7 119194517.529 7      3397.270          46.000    22681961.102 7  92878835.671 7      2647.226          47.000
G32  22137881.109 6 116335342.749 6       187.441          37.000
R05  23303544.047 7 124570789.935 7     -3768.898          44.000    23303550.109 6  96888397.596 6     -2931.365          38.000
R15  19522261.781 6 104321015.669 6       396.539          40.000    19522266.031 5  81138587.145 5       308.422          32.000
R17  19827765.148 8 106102382.274 8      1777.141          51.000    19827767.508 7  82524078.299 7      1382.224          47.000
R18  22492729.086 6 120067734.633 6      4484.703          37.000    22492741.562 5  93386033.516 5      3488.102          32.000
R24  21200008.148 4 113365962.603 4     -2342.059          29.000
C27  22262032.344 8 115924291.564 8      -223.879          49.000
C28  25350930.039 5 132008912.933 5     -2782.539          34.000
C30  23096350.188 8 120268733.656 8      2709.980          48.000
E01  23664943.477 7 124360101.656 7       209.754          47.000    23664945.891 8  95288921.266 8       160.816          48.000
E04  26205864.688 8 137712722.809 8     -2219.742          51.000    26205866.508 8 105520166.616 8     -1700.856          51.000
E26  24169657.430 8 127012490.565 8      2137.488          51.000    24169661.625 8  97321251.889 8      1637.813          51.000
> 2020 05 01 10 05 30.0000000  0 17        .000000000000
G02  23147608.883 6 121641506.739 6      1122.371          38.000
G12  20247483.352 8 106401236.203 8      -896.191          51.000    20247482.305 8  82910048.860 8      -698.331          51.000
G24  21659935.109 8 113823715.074 8     -2623.520          50.000    21659937.852 8  88693809.404 8     -2044.301          50.000
G25  20454071.648 5 107486871.987 5      1098.867          35.000    20454075.195 5  83755977.775 5       856.257          34.000
G29  22662600.750 8 119092761.416 8      3384.320          48.000    22662597.555 8  92799545.221 8      2637.136          48.000
G32  22136872.102 5 116330042.240 5       163.617          35.000
R05  23324719.727 7 124683981.660 7     -3779.379          45.000    23324724.367 6  96976435.497 6     -2939.523          37.000
R14  21487836.539 4 114542286.602 4     -2523.855          29.000    21487844.758 4  89088480.111 4     -1963.008          28.000
R15  19520074.891 6 104309332.033 6       379.992          40.000    19520079.750 5  81129499.820 5       295.546          34.000
R17  19817878.656 8 106049477.931 8      1747.504          51.000    19817881.117 7  82482930.519 7      1359.170          47.000
R18  22467549.414 6 119933318.833 6      4473.930          40.000    22467563.898 4  93281487.934 4      3479.723          27.000
C27  22263375.953 8 115931288.129 8      -244.734          49.000
C28  25366989.812 5 132092538.870 5     -2794.516          35.000
C30  23080771.398 7 120187614.956 7      2695.781          47.000
E01  23663765.117 7 124353909.566 7       200.582          47.000    23663767.695 8  95284176.665 8       153.836          48.000
E04  26218565.484 8 137779463.192 8     -2231.879          51.000    26218567.070 8 105571305.271 8     -1710.078          51.000
E26  24157489.938 8 126948547.727 8      2123.113          51.000    24157494.500 8  97272256.759 8      1626.819          51.000
> 2020 05 01 10 06  0.0000000  0 16        .000000000000
G02  23141232.797 5 121608001.885 5      1110.551          34.000
G12  20252619.664 8 106428227.813 8      -904.984          51.000    20252618.555 8  82931081.285 8      -705.183          51.000
G24  21674932.617 8 113902526.334 8     -2632.352          51.000    21674935.711 8  88755220.754 8     -2051.183          51.000
G25  20447819.508 5 107454019.019 5      1090.539          32.000    20447821.758 4  83730377.994 4       849.762          25.000
G29  22643294.461 8 118991309.144 8      3377.602          48.000    22643292.344 8  92720491.556 8      2631.897          48.000
R05  23345938.297 7 124797398.805 7     -3783.500          44.000    23345941.672 6  97064648.746 6     -2942.725          37.000
R14  21502051.992 5 114618025.809 5     -2531.227          34.000
R15  19517964.102 7 104298051.601 7       369.926          42.000    19517969.883 5  81120726.135 5       287.720          33.000
R17  19808143.266 8 105997380.876 8      1723.898          51.000    19808145.852 8  82442410.620 8      1340.810          48.000
R18  22442415.867 6 119799149.113 6      4469.141          41.000
C27  22264823.930 8 115938827.121 8      -259.629          49.000
C28  25383102.469 5 132176442.328 5     -2800.812          32.000
C30  23065259.305 8 120106841.172 8      2687.383          48.000
E01  23662623.336 8 124347909.119 8       197.590          48.000    23662626.070 8  95279578.929 8       151.412          48.000
E04  26231319.086 8 137846482.011 8     -2237.871          51.000    26231320.719 8 105622657.307 8     -1714.649          51.000
E26  24145388.586 8 126884954.315 8      2114.727          51.000    24145393.062 8  97223529.351 8      1620.378          51.000
> 2020 05 01 10 06 30.0000000  0 15        .000000000000
G12  20257817.188 8 106455540.669 8      -914.598          51.000    20257816.055 8  82952364.032 8      -712.670          51.000
G24  21689991.414 8 113981660.197 8     -2642.012          50.000    21689994.938 8  88816883.470 8     -2058.710          50.000
G29  22624038.508 7 118890122.509 7      3369.637          47.000    22624038.234 7  92641644.854 7      2625.691          47.000
R05  23367190.023 6 124910995.694 6     -3788.316          41.000    23367193.297 6  97153001.799 6     -2946.471          37.000
R14  21516321.609 5 114694094.784 5     -2538.766          33.000
R15  19515921.109 6 104287134.544 6       358.977          40.000    19515926.383 5  81112235.072 5       279.204          32.000
R17  19798551.234 8 105946052.376 8      1699.340          51.000    19798554.320 8  82402488.492 8      1321.712          48.000
R18  22417321.328 6 119665188.396 6      4463.000          41.000
R24  21240028.406 4 113579972.406 4     -2410.695          28.000
C27  22266367.930 8 115946867.999 8      -275.227          49.000
C28  25399260.359 5 132260581.225 5     -2807.133          31.000
C30  23049806.859 8 120026374.124 8      2678.312          50.000
E01  23661510.375 7 124342060.216 7       193.594          47.000    23661513.188 8  95275097.312 8       148.356          49.000
E04  26244117.359 8 137913737.079 8     -2244.430          50.000    26244119.609 8 105674190.385 8     -1719.848          51.000
E26  24133346.055 8 126821671.618 8      2105.449          51.000    24133350.477 8  97175040.024 8      1613.224          50.000
> 2020 05 01 10 07  0.0000000  0 14        .000000000000
G12  20263079.594 8 106483194.519 8      -928.133          51.000    20263078.508 8  82973912.488 8      -723.220          51.000
G24  21705115.070 8 114061135.411 8     -2655.535          50.000    21705119.102 8  88878812.172 8     -2069.248          50.000
G29  22604837.578 8 118789224.253 8      3357.656          48.000    22604839.195 8  92563022.836 8      2616.356          48.000
R05  23388478.484 6 125024788.639 6     -3796.906          38.000    23388482.180 6  97241507.332 6     -2953.152          37.000
R14  21530642.164 5 114770442.292 5     -2550.340          35.000    21530649.594 4  89265917.529 4     -1983.601          29.000
R15  19513950.398 7 104276602.728 7       344.004          42.000    19513954.047 5  81104043.668 5       267.559          33.000
R17  19789107.000 8 105895515.543 8      1670.711          50.000    19789110.531 8  82363182.083 8      1299.442          49.000
R18  22392270.773 7 119531461.650 7      4452.832          42.000    22392271.867 5  92968909.897 5      3463.317          30.000
C27  22268012.336 8 115955430.531 8      -294.785          50.000
C30  23034417.742 8 119946235.955 8      2665.195          51.000
E01  23660430.117 8 124336383.528 8       185.551          48.000    23660433.008 8  95270747.636 8       142.265          49.000
E04  26256963.828 8 137981247.034 8     -2255.266          49.000    26256966.961 8 105725918.745 8     -1728.043          51.000
E21  25490119.461 5 133951479.217 5     -1779.094          33.000    25490113.953 5 102638126.174 5     -1362.705          34.000
E26  24121366.539 8 126758721.764 8      2092.035          49.000    24121371.312 8  97126805.729 8      1603.048          50.000
> 2020 05 01 10 07 30.0000000  0 15        .000000000000
G12  20268425.062 8 106511285.298 8      -943.211          51.000    20268424.156 8  82995801.403 8      -734.967          51.000
G24  21720322.055 8 114141047.627 8     -2670.555          51.000    21720326.297 8  88941081.385 8     -2080.952          51.000
G25  20429472.734 5 107357642.015 5      1050.500          34.000    20429468.953 5  83655277.028 5       818.574          34.000
G29  22585710.922 8 118688713.422 8      3344.242          49.000    22585713.383 8  92484702.712 8      2605.903          49.000
R05  23409820.836 5 125138871.817 5     -3807.461          31.000    23409825.555 6  97330238.668 6     -2961.359          37.000
R14  21545035.656 5 114847166.463 5     -2563.254          35.000    21545035.078 4  89325569.438 4     -1993.639          27.000
R15  19512070.312 7 104266556.053 7       327.453          42.000    19512072.656 5  81096229.541 5       254.686          35.000
R17  19779829.141 7 105845871.397 7      1640.430          47.000    19779833.305 8  82324569.947 8      1275.887          48.000
R18  22367283.234 6 119398071.715 6      4440.973          40.000    22367284.531 5  92865162.194 5      3454.087          31.000
C27  22269775.305 8 115964610.487 8      -315.777          49.000
C30  23019110.547 8 119866524.789 8      2650.371          51.000
E01  23659401.305 8 124330976.394 8       176.105          48.000    23659404.164 8  95266604.509 8       134.965          50.000
E04  26269876.883 8 138049107.134 8     -2267.426          50.000    26269880.648 8 105777915.410 8     -1737.354          51.000
E21  25500301.953 5 134004985.057 5     -1786.098          34.000    25500291.469 5 102679113.546 5     -1368.544          35.000
E26  24109468.617 8 126696203.533 8      2077.086          48.000    24109474.586 8  97078902.209 8      1591.527          51.000
> 2020 05 01 10 08  0.0000000  0 16        .000000000000
G02  23116602.531 6 121478565.612 6      1054.449          37.000
G12  20273803.500 8 106539549.729 8      -942.699          51.000    20273802.789 8  83017825.642 8      -734.571          51.000
G24  21735562.117 8 114221132.994 8     -2670.039          51.000    21735565.828 8  89003485.534 8     -2080.553          51.000
G25  20423464.641 5 107326049.763 5      1050.172          31.000    20423467.180 5  83630663.818 5       818.319          31.000
G29  22566608.914 8 118588329.902 8      3346.324          51.000    22566611.273 8  92406481.800 8      2607.525          51.000
G32  22133578.758 5 116312716.339 5        73.527          34.000    22133599.109 5  90633388.134 5        57.294          32.000
R05  23431156.602 5 125253006.510 5     -3801.508          31.000    23431176.086 6  97419003.454 6     -2956.728          36.000
R15  19510232.117 7 104256728.937 7       326.391          44.000    19510233.156 5  81088586.214 5       253.859          34.000
R17  19770668.242 7 105796854.810 7      1625.859          47.000    19770673.227 7  82286445.886 7      1264.557          46.000
R18  22342309.062 6 119264756.104 6      4445.543          37.000    22342309.844 5  92761472.273 5      3457.645          33.000
C27  22271606.938 8 115974147.166 8      -321.508          50.000
C30  23003835.562 8 119786982.322 8      2650.875          51.000
E01  23658373.859 8 124325576.504 8       182.277          49.000    23658376.664 8  95262466.917 8       139.679          51.000
E04  26282806.789 8 138117052.946 8     -2263.887          51.000    26282810.320 8 105829977.764 8     -1734.648          51.000
E21                                                                  25510464.641 6 102720062.449 6     -1362.453          38.000
E26  24097603.445 8 126633856.099 8      2077.801          48.000    24097610.258 8  97031129.523 8      1592.069          51.000
> 2020 05 01 10 08 30.0000000  0 15        .000000000000
G12  20279253.055 8 106568187.825 8      -960.285          51.000    20279252.242 8  83040141.033 8      -748.277          51.000
G24  21750872.984 8 114301590.130 8     -2687.527          51.000    21750875.648 8  89066179.372 8     -2094.177          51.000
G25  20417530.766 5 107294848.028 5      1034.668          32.000    20417536.055 5  83606381.589 5       806.238          30.000
G29  22547569.797 8 118488276.113 8      3330.203          51.000    22547571.281 8  92328517.832 8      2594.963          51.000
G32  22133254.828 5 116311024.859 5        46.453          34.000    22133256.914 4  90631973.275 4        36.203          29.000
R05  23452546.492 5 125367326.183 5     -3813.512          33.000    23452563.180 5  97507918.787 5     -2966.065          34.000
R14  21573921.852 5 115001136.163 5     -2576.176          32.000    21573929.414 4  89445363.386 4     -2003.701          25.000
R15  19508472.992 7 104247326.025 7       306.973          45.000    19508471.898 5  81081272.874 5       238.757          35.000
R17  19761663.555 8 105748671.404 8      1592.781          49.000    19761668.914 7  82248969.921 7      1238.830          45.000
C27  22273544.953 8 115984238.505 8      -345.109          49.000
C30  22988631.172 8 119707808.844 8      2633.492          51.000
E01  23657385.977 8 124320384.383 8       170.180          50.000    23657388.641 8  95258488.527 8       130.379          50.000
E04  26295790.891 8 138185282.952 8     -2278.547          51.000    26295793.805 8 105882257.860 8     -1745.888          51.000
E21  25520663.617 6 134111990.948 6     -1788.199          37.000    25520665.492 6 102761126.377 6     -1370.319          39.000
E26  24085809.930 8 126571881.408 8      2060.164          50.000    24085816.914 8  96983642.410 8      1578.588          51.000
> 2020 05 01 10 09  0.0000000  0 16        .000000000000
G02  23104809.578 5 121416583.584 5      1016.891          35.000
G12  20284766.062 8 106597158.974 8      -971.398          51.000    20284764.961 8  83062715.948 8      -756.934          51.000
G24  21766246.844 8 114382379.121 8     -2698.691          50.000    21766248.523 8  89129131.804 8     -2102.876          50.000
G25  20411664.484 5 107264015.665 5      1021.395          32.000    20411669.938 5  83582376.133 5       795.889          31.000
G29  22528586.273 8 118388514.594 8      3320.309          51.000    22528586.703 8  92250781.605 8      2587.253          51.000
G32  22133046.320 6 116309935.925 6        25.301          36.000
R05  23473967.328 5 125481819.406 5     -3818.863          33.000    23473981.352 4  97596969.055 4     -2970.230          28.000
R14  21588446.320 5 115078556.144 5     -2585.164          34.000
R15  19506785.375 7 104238308.654 7       294.094          44.000    19506783.914 6  81074259.386 6       228.743          37.000
R17  19752808.133 8 105701283.505 8      1566.094          51.000    19752812.844 7  82212112.732 7      1218.076          43.000
C27  22275581.695 8 115994844.902 8      -362.309          48.000
C30  22973490.484 8 119628967.237 8      2622.219          51.000
E01  23656430.250 8 124315360.946 8       164.398          50.000    23656432.484 8  95254639.398 8       126.069          50.000
E04  26308821.047 8 138253755.884 8     -2286.633          51.000    26308823.266 8 105934724.108 8     -1752.074          51.000
E21  25530884.617 6 134165693.638 6     -1792.184          36.000    25530884.719 6 102802275.202 6     -1372.995          37.000
E26  24074080.398 8 126510241.697 8      2048.863          51.000    24074087.094 8  96936411.991 8      1569.887          51.000
> 2020 05 01 10 09 30.0000000  0 15        .000000000000
G12  20290343.445 8 106626468.283 8      -982.918          51.000    20290342.203 8  83085554.353 8      -765.910          51.000
G24  21781684.219 8 114463504.403 8     -2709.988          48.000    21781685.672 8  89192346.290 8     -2111.682          48.000
G25  20405866.203 5 107233550.167 5      1010.262          31.000    20405869.102 5  83558620.167 5       787.214          32.000
G29  22509659.562 8 118289053.736 8      3310.027          51.000    22509659.141 8  92173279.676 8      2579.242          51.000
G32  22132953.273 5 116309454.907 5         5.699          34.000
R05  23495417.008 5 125596479.396 5     -3825.742          33.000
R14  21603023.242 4 115156269.421 4     -2595.188          27.000    21603038.031 4  89566008.483 4     -2018.476          26.000
R15  19505171.062 7 104229683.906 7       280.543          44.000    19505169.945 6  81067551.275 6       218.200          37.000
R17  19744103.305 8 105654699.102 8      1539.109          51.000    19744107.188 7  82175880.476 7      1197.085          45.000
C27  22277718.375 7 116005971.719 7      -379.773          47.000
C30  22958415.047 8 119550465.188 8      2610.781          51.000
E01  23655507.797 8 124310512.331 8       158.461          51.000    23655509.219 8  95250924.240 8       121.361          50.000
E04  26321897.836 8 138322475.819 8     -2295.051          50.000    26321899.930 8 105987379.620 8     -1758.480          51.000
E21                                                                  25541124.562 5 102843513.616 5     -1376.117          35.000
E26  24062416.445 8 126448944.592 8      2037.281          51.000    24062422.719 8  96889444.101 8      1561.013          51.000
> 2020 05 01 10 10  0.0000000  0 15        .000000000000
G02  23093353.539 5 121356392.565 5       989.488          33.000
G12  20295964.531 8 106656007.502 8      -989.703          51.000    20295963.406 8  83108571.912 8      -771.197          51.000
G24  21797164.055 7 114544856.869 7     -2716.730          45.000    21797166.148 7  89255737.837 7     -2116.933          45.000
G25  20400112.555 5 107203279.969 5      1002.586          32.000    20400118.984 5  83535048.949 5       781.230          32.000
G29  22490769.531 8 118189788.195 8      3304.383          51.000    22490768.094 8  92095929.937 8      2574.844          51.000
R14  21617631.617 6 115234086.059 6     -2599.871          37.000    21617635.828 5  89626541.126 5     -2022.125          34.000
R15  19503609.992 7 104221344.018 7       271.969          44.000    19503610.172 6  81061064.686 6       211.531          38.000
R17  19735528.711 8 105608810.750 8      1516.816          51.000    19735532.008 7  82140189.572 7      1179.749          47.000
C27  22279934.477 7 116017511.831 7      -392.824          46.000
C28  25513668.398 5 132856352.603 5     -2860.695          30.000
C30  22943384.445 8 119472198.084 8      2603.703          51.000
E01  23654598.109 8 124305731.381 8       156.996          51.000    23654598.812 8  95247260.920 8       120.299          50.000
E04  26335000.523 8 138391333.441 8     -2298.738          50.000    26335003.078 8 106040140.620 8     -1761.380          51.000
E21  25551373.922 6 134273357.453 6     -1795.949          38.000    25551369.406 6 102884759.262 6     -1376.138          36.000
E26  24050797.727 8 126387884.277 8      2030.164          51.000    24050803.711 8  96842657.657 8      1555.544          51.000
> 2020 05 01 10 10 30.0000000  0 14        .000000000000
G12  20301663.625 8 106685956.778 8     -1003.453          51.000    20301662.641 8  83131908.992 8      -781.912          51.000
G24  21812721.094 7 114626616.512 7     -2730.488          44.000    21812724.484 7  89319446.630 7     -2127.653          44.000
G25  20394443.516 5 107173503.547 5       988.133          33.000
G29  22471951.305 8 118090900.646 8      3291.629          51.000    22471949.383 8  92018874.747 8      2564.906          51.000
R14  21632303.250 5 115312305.809 5     -2611.211          34.000    21632303.812 4  89687378.756 4     -2030.933          25.000
R15  19502136.961 7 104213473.572 7       256.172          44.000    19502138.055 6  81054943.248 6       199.245          39.000
R17  19727118.906 8 105563804.484 8      1487.148          51.000    19727121.688 8  82105184.706 8      1156.671          48.000
C27  22282264.172 7 116029643.860 7      -412.727          45.000
C28  25530192.734 5 132942393.497 5     -2870.578          31.000
C30  22928433.398 8 119394346.892 8      2589.676          50.000
E01  23653735.656 8 124301199.159 8       148.641          51.000    23653736.078 8  95243788.181 8       113.825          50.000
E04  26348163.633 8 138460507.742 8     -2309.453          50.000    26348166.516 8 106093144.285 8     -1769.545          51.000
E21                                                                  25561650.703 5 102926150.694 5     -1381.202          34.000
E26  24039258.562 8 126327243.220 8      2015.980          51.000    24039264.016 8  96796192.471 8      1544.694          50.000
> 2020 05 01 10 11  0.0000000  0 13        .000000000000
G12  20307433.445 8 106716277.327 8     -1034.707          51.000    20307432.594 8  83155535.386 8      -806.265          51.000
G24  21828349.039 7 114708743.725 7     -2761.637          46.000    21828352.812 7  89383441.835 7     -2151.925          46.000
G25  20388849.695 6 107144077.963 6       956.875          37.000    20388841.461 6  83488908.005 6       745.614          36.000
G29  22453198.328 8 117992355.596 8      3261.219          51.000    22453197.367 8  91942086.432 8      2541.212          51.000
R14  21647032.984 6 115390839.196 6     -2641.039          36.000    21647038.875 5  89748451.327 5     -2054.145          34.000
R15  19500744.359 7 104206035.637 7       222.473          44.000    19500746.539 6  81049158.153 6       173.034          39.000
R17  19718866.859 8 105519643.854 8      1439.750          51.000    19718869.391 8  82070837.539 8      1119.806          49.000
C27  22284700.180 7 116042329.649 7      -449.844          44.000
C28  25546768.438 5 133028707.742 5     -2899.859          31.000
C30  22913555.547 8 119316875.929 8      2558.250          51.000
E01  23652913.359 8 124296878.065 8       122.512          51.000    23652913.883 8  95240477.214 8        93.807          51.000
E04  26361379.734 8 138529958.952 8     -2337.695          49.000    26361382.766 8 106146360.111 8     -1791.257          51.000
E26  24027792.180 8 126266985.145 8      1984.262          51.000    24027796.000 8  96750020.750 8      1520.354          48.000
> 2020 05 01 10 11 30.0000000  0 14        .000000000000
G12  20313247.422 8 106746829.569 8     -1020.180          51.000    20313246.719 8  83179342.330 8      -794.942          51.000
G24  21844021.180 8 114791098.729 8     -2746.973          48.000    21844024.719 8  89447614.506 8     -2140.501          48.000
G29  22434484.500 8 117894016.062 8      3276.484          50.000    22434484.961 8  91865458.252 8      2553.105          50.000
R14  21661794.680 5 115469544.991 5     -2624.219          35.000    21661807.703 5  89809666.735 5     -2041.065          32.000
R15  19499406.422 7 104198889.937 7       235.352          44.000    19499409.664 6  81043600.376 6       183.051          39.000
R17  19710746.258 8 105476189.246 8      1438.781          51.000    19710748.898 8  82037039.513 8      1119.052          49.000
R24  21381461.367 5 114336296.920 5     -2623.637          33.000
C27  22287216.211 7 116055430.890 7      -441.668          43.000
C28  25563369.258 5 133115155.392 5     -2881.879          31.000
C30  22898724.953 8 119239649.362 8      2572.125          51.000
E01  23652104.820 8 124292629.466 8       142.492          51.000    23652105.609 8  95237221.797 8       109.146          51.000
E04  26374621.945 8 138599546.309 8     -2319.805          50.000    26374625.055 8 106199680.236 8     -1777.471          51.000
E21  25582266.758 5 134435719.284 5     -1804.328          33.000
E26  24016372.570 8 126206972.825 8      1998.352          51.000    24016374.914 8  96704037.343 8      1531.195          48.000
> 2020 05 01 10 12  0.0000000  0 14        .000000000000
G12  20319131.609 8 106777750.501 8     -1036.199          51.000    20319130.844 8  83203436.560 8      -807.428          51.000
G24  21859762.836 8 114873817.645 8     -2762.695          51.000    21859766.047 8  89512070.756 8     -2152.753          51.000
G29  22415836.586 8 117796021.857 8      3261.457          50.000    22415837.547 8  91789099.137 8      2541.395          50.000
R14  21676618.695 5 115548561.851 5     -2638.246          33.000
R15  19498149.359 7 104192177.711 7       217.078          44.000    19498152.984 6  81038379.742 6       168.839          40.000
R17  19702784.109 8 105433582.336 8      1406.789          51.000    19702786.570 8  82003900.794 8      1094.166          48.000
R24  21396264.648 5 114415465.436 5     -2649.648          32.000
C27  22289838.109 7 116069083.223 7      -463.684          45.000
C28  25580021.688 5 133201870.692 5     -2894.785          31.000
C30  22883967.812 8 119162805.205 8      2555.773          50.000
E01  23651336.180 8 124288591.123 8       131.859          51.000    23651337.398 8  95234127.470 8       101.047          51.000
E04  26387916.000 8 138669405.385 8     -2332.434          50.000    26387918.766 8 106253208.574 8     -1787.144          51.000
E21  25592605.266 5 134490053.015 5     -1813.176          34.000
E26  24005026.047 8 126147345.369 8      1981.820          50.000    24005027.531 8  96658348.834 8      1518.556          49.000
> 2020 05 01 10 12 30.0000000  0 12        .000000000000
G12  20325075.508 8 106808985.469 8     -1046.977          51.000    20325074.656 8  83227775.487 8      -815.826          51.000
G24  21875563.477 8 114956845.658 8     -2773.406          51.000    21875565.539 8  89576767.905 8     -2161.096          51.000
G29  22397245.227 8 117698322.087 8      3251.203          51.000    22397245.109 8  91712969.482 8      2533.408          51.000
R15  19496964.625 7 104185845.684 7       204.141          46.000    19496968.562 7  81033454.840 7       158.773          42.000
R17  19694970.633 8 105391770.779 8      1379.742          51.000    19694973.086 8  81971380.709 8      1073.133          49.000
R24  21411188.117 5 114495254.966 5     -2670.379          30.000
C27  22292555.375 7 116083233.165 7      -480.637          45.000
C28  25596714.734 4 133288798.908 4     -2902.715          29.000
C30  22869274.234 8 119086292.524 8      2544.305          50.000
E01  23650597.461 8 124284710.066 8       126.059          51.000    23650599.109 8  95231153.671 8        96.623          51.000
E04  26401251.008 8 138739481.112 8     -2340.070          49.000    26401253.367 8 106306902.924 8     -1793.014          51.000
E26  23993742.141 7 126088051.072 7      1970.195          47.000    23993744.555 8  96612915.616 8      1509.687          50.000
> 2020 05 01 10 13  0.0000000  0 14        .000000000000
G12  20331086.422 8 106840572.779 8     -1057.344          51.000    20331085.578 8  83252388.975 8      -823.904          51.000
G24  21891429.984 8 115040220.685 8     -2783.578          51.000    21891430.844 8  89641735.431 8     -2169.022          51.000
G25  20367048.234 5 107029562.242 5       932.188          34.000    20367051.461 5  83399676.001 5       726.383          35.000
G29  22378717.867 8 117600957.891 8      3241.434          51.000    22378716.711 8  91637101.359 8      2525.795          51.000
R14  21706436.438 5 115707520.057 5     -2655.703          31.000
R15  19495859.055 7 104179934.874 7       191.570          47.000    19495863.180 7  81028857.537 7       148.999          42.000
R17  19687313.828 8 105350795.943 8      1353.379          51.000    19687316.000 8  81939511.396 8      1052.628          48.000
R18  22095200.258 5 117945686.283 5      4352.770          30.000    22095213.648 6  91735574.138 6      3385.490          38.000
C27  22295375.547 7 116097918.642 7      -496.887          46.000
C28  25613455.453 5 133375976.375 5     -2908.797          31.000
C30  22854652.227 8 119010151.752 8      2533.266          50.000
E01  23649896.211 8 124281025.534 8       120.996          51.000    23649898.078 8  95228330.453 8        92.684          51.000
E04  26414634.062 8 138809810.521 8     -2347.082          49.000    26414636.234 8 106360791.663 8     -1798.431          51.000
E26  23982529.047 8 126029130.578 8      1959.242          48.000    23982532.695 8  96567768.768 8      1501.121          50.000
> 2020 05 01 10 13 30.0000000  0 13        .000000000000
G12  20337154.156 8 106872459.180 8     -1067.301          51.000    20337153.602 8  83277235.509 8      -831.663          51.000
G24  21907351.711 8 115123887.999 8     -2793.105          51.000    21907351.766 8  89706930.710 8     -2176.446          51.000
G29  22360244.656 8 117503878.218 8      3231.898          51.000    22360243.695 8  91561454.933 8      2518.362          51.000
R14  21721396.625 5 115787348.791 5     -2664.156          34.000
R15  19494822.641 7 104174392.954 7       179.156          47.000    19494826.297 7  81024547.155 7       139.344          42.000
R17  19679803.547 8 105310606.156 8      1327.160          51.000    19679805.555 8  81908252.681 8      1032.236          48.000
C27  22298288.273 7 116113086.983 7      -513.094          45.000
C28  25630234.094 5 133463354.010 5     -2914.914          31.000
C30  22840092.195 8 118934332.593 8      2522.465          50.000
E01  23649222.555 8 124277485.362 8       116.156          51.000    23649224.516 8  95225617.837 8        89.024          51.000
E04  26428054.930 8 138880339.258 8     -2353.777          49.000    26428057.375 8 106414833.134 8     -1803.502          51.000
E21  25623755.141 5 134653789.195 5     -1822.742          34.000
E26  23971377.500 8 125970533.029 8      1948.465          48.000    23971382.234 8  96522869.304 8      1492.962          51.000
> 2020 05 01 10 14  0.0000000  0 14        .000000000000
G12  20343280.133 8 106904651.853 8     -1078.176          51.000    20343279.883 8  83302320.699 8      -840.137          51.000
G24  21923329.891 8 115207855.108 8     -2803.797          49.000    21923330.086 8  89772359.606 8     -2184.777          49.000
G25  20356539.695 5 106974323.313 5       909.441          34.000    20356538.594 5  83356624.172 5       708.659          34.000
G29  22341827.398 8 117407093.179 8      3221.305          51.000    22341827.062 8  91486038.064 8      2510.111          51.000
R15  19493856.789 7 104169229.062 7       165.875          47.000    19493859.742 7  81020530.811 7       129.014          43.000
R17  19672441.594 8 105271210.923 8      1299.918          50.000    19672443.875 8  81877611.951 8      1011.047          48.000
R18  22046398.766 5 117685159.199 5      4333.812          31.000    22046391.203 5  91532881.456 5      3370.749          35.000
C27  22301295.086 7 116128745.150 7      -530.066          47.000
C28  25647051.820 5 133550927.631 5     -2922.816          31.000
C30  22825595.781 8 118858844.562 8      2510.797          51.000
E01  23648577.875 8 124274097.599 8       110.453          51.000    23648580.086 8  95223022.007 8        84.639          51.000
E04  26441515.297 8 138951073.229 8     -2361.129          50.000    26441517.898 8 106469031.865 8     -1809.207          51.000
E21  25634176.586 6 134708507.026 6     -1826.535          37.000
E26  23960289.539 8 125912267.649 8      1936.887          49.000    23960295.141 8  96478224.418 8      1484.003          51.000
> 2020 05 01 10 14 30.0000000  0 14        .000000000000
G12  20349468.438 8 106937171.922 8     -1088.965          51.000    20349468.211 8  83327660.992 8      -848.544          51.000
G24  21939368.156 7 115292141.584 7     -2814.289          45.000    21939369.758 7  89838037.386 7     -2192.956          45.000
G25  20351382.203 5 106947225.500 5       897.465          33.000    20351379.117 5  83335509.097 5       699.323          33.000
G29  22323470.594 8 117310626.904 8      3210.574          51.000    22323470.594 8  91410869.563 8      2501.746          51.000
R15  19492965.992 8 104164466.803 8       152.523          48.000    19492968.484 7  81016826.827 7       118.629          43.000
R17  19665232.312 8 105232634.202 8      1272.691          49.000    19665234.742 7  81847607.830 7       989.871          47.000
R18  22022070.227 4 117555305.218 4      4323.391          27.000    22022065.242 6  91431882.326 6      3362.646          38.000
R24  21472037.406 5 114820597.832 5     -2752.094          31.000
C27  22304400.242 7 116144914.175 7      -547.148          47.000
C28  25663912.648 5 133638721.669 5     -2929.418          32.000
C30  22811167.266 8 118783711.101 8      2498.988          51.000
E01  23647966.469 8 124270884.437 8       104.578          51.000    23647968.852 8  95220559.968 8        80.164          51.000
E04  26455019.094 8 139022032.496 8     -2368.621          51.000    26455021.492 8 106523403.212 8     -1814.867          51.000
E26  23949269.812 8 125854357.979 8      1924.820          51.000    23949276.070 8  96433852.119 8      1474.796          51.000
> 2020 05 01 10 15  0.0000000  0 17        .000000000000
G02  23041510.500 5 121083946.649 5       826.949          31.000
G06  23471487.648 6 123343513.915 6      -434.820          37.000
G12  20355722.094 8 106970035.263 8     -1101.352          51.000    20355721.719 8  83353268.783 8      -858.199          51.000
G24  21955470.188 7 115376763.657 7     -2826.535          46.000    21955473.227 7  89903976.661 7     -2202.495          46.000
G29  22305177.727 8 117214498.208 8      3198.336          50.000    22305178.023 8  91335964.108 8      2492.210          50.000
R14  21766609.391 5 116028276.335 5     -2692.633          35.000    21766633.367 4  90244299.009 4     -2094.273          25.000
R15  19492153.516 8 104160124.279 8       137.492          48.000    19492156.008 7  81013449.313 7       106.941          44.000
R17  19658179.383 8 105194894.850 8      1243.785          50.000    19658182.031 7  81818255.005 7       967.391          46.000
R18  21997786.969 5 117425759.310 5      4313.074          34.000    21997797.898 6  91331133.934 6      3354.622          39.000
R24  21487544.430 4 114903509.925 4     -2774.215          29.000
C27  22307606.484 7 116161609.976 7      -565.539          47.000
C28  25680818.477 5 133726750.867 5     -2937.977          32.000
C30  22796810.648 8 118708950.749 8      2485.504          51.000
E01  23647391.562 8 124267863.056 8        97.270          51.000    23647393.938 8  95218244.896 8        74.474          51.000
E04  26468568.773 8 139093232.053 8     -2377.492          51.000    26468570.734 8 106577958.664 8     -1821.721          51.000
E21  25655077.266 5 134818345.383 5     -1835.773          34.000
E26  23938321.758 8 125796822.515 8      1911.328          51.000    23938327.625 8  96389766.525 8      1464.518          51.000
> 2020 05 01 10 15 30.0000000  0 16        .000000000000
G02  23036818.562 6 121059281.583 6       816.211          36.000
G06  23474011.484 6 123356765.000 6      -449.195          37.000    23474015.766 6  96122160.890 6      -350.022          38.000
G12  20362024.891 8 107003156.351 8     -1107.219          51.000    20362024.445 8  83379077.424 8      -862.768          51.000
G24  21971620.648 8 115461635.276 8     -2832.133          49.000    21971623.695 8  89970110.301 8     -2206.860          49.000
G29  22286933.133 8 117118624.473 8      3192.555          49.000    22286933.820 8  91261257.320 8      2487.705          49.000
R14  21781773.953 6 116109103.559 6     -2696.387          36.000
R15  19491403.070 7 104156116.442 7       129.066          46.000    19491405.898 7  81010332.100 7       100.382          44.000
R17  19651267.258 8 105157908.065 8      1221.426          50.000    19651269.914 7  81789487.520 7       949.998          45.000
R18  21973558.375 6 117296439.095 6      4307.773          37.000    21973574.148 6  91230551.607 6      3350.490          38.000
C27  22310897.516 7 116178747.786 7      -577.492          47.000
C28  25697752.688 5 133814929.057 5     -2940.039          33.000
C30  22782510.141 8 118634481.153 8      2478.512          51.000
E01  23646837.039 8 124264948.934 8        96.441          51.000    23646839.383 8  95216011.983 8        73.909          51.000
E04  26482147.477 8 139164585.127 8     -2379.836          51.000    26482149.039 8 106632631.753 8     -1823.553          51.000
E21  25665546.758 5 134873363.936 5     -1834.320          34.000
E26  23927429.078 8 125739577.946 8      1904.434          51.000    23927434.312 8  96345903.819 8      1459.175          51.000
> 2020 05 01 10 16  0.0000000  0 18        .000000000000
G02  23032231.867 5 121035183.913 5       791.918          33.000
G06  23476660.992 6 123370688.571 6      -476.668          39.000    23476666.094 6  96133010.392 6      -371.430          38.000
G12  20368404.461 8 107036680.783 8     -1125.707          51.000    20368404.031 8  83405200.351 8      -877.174          51.000
G24  21987846.789 8 115546901.144 8     -2850.172          51.000    21987849.875 8  90036551.137 8     -2220.916          51.000
G25  20336308.516 5 106868037.042 5       858.652          35.000    20336314.211 6  83273796.971 6       669.083          36.000
G29  22268765.352 8 117023153.804 8      3174.188          48.000    22268765.992 8  91186864.606 8      2473.393          48.000
R14  21797003.602 5 116190281.009 5     -2712.883          33.000    21797011.812 4  90370264.088 4     -2110.029          26.000
R15  19490743.102 7 104152593.278 7       107.828          47.000    19490746.602 7  81007591.845 7        83.866          45.000
R17  19644523.672 8 105121823.829 8      1186.242          51.000    19644526.352 7  81761422.051 7       922.633          45.000
R18  21949404.938 6 117167505.618 6      4289.570          37.000    21949424.688 5  91130269.961 5      3336.326          33.000
R24  21518886.977 5 115071158.757 5     -2817.820          31.000
C27  22314300.828 7 116196471.471 7      -602.059          45.000
C28  25714742.727 5 133903398.836 5     -2955.223          31.000
C30  22768293.734 8 118560448.753 8      2459.023          51.000
E01  23646330.758 8 124262288.351 8        83.004          51.000    23646333.156 8  95213973.351 8        63.612          51.000
E04  26495782.109 8 139236235.809 8     -2394.840          48.000    26495783.945 8 106687532.886 8     -1834.947          51.000
E21  25676055.562 6 134928598.118 6     -1845.684          37.000    25676076.289 6 103386884.231 6     -1414.315          37.000
E26  23916619.672 8 125682771.808 8      1884.688          51.000    23916624.641 8  96302377.072 8      1444.138          51.000
> 2020 05 01 10 16 30.0000000  0 18        .000000000000
G02  23027724.805 5 121011508.736 5       775.582          31.000
G06  23479409.508 6 123385132.950 6      -497.086          39.000    23479414.805 6  96144265.785 6      -387.337          39.000
G12  20374831.742 8 107070456.089 8     -1137.020          51.000    20374831.141 8  83431518.773 8      -885.989          51.000
G24  22004118.953 8 115632408.218 8     -2861.355          51.000    22004122.297 8  90103179.953 8     -2229.628          51.000
G25  20331411.430 6 106842277.284 6       846.691          36.000    20331414.133 6  83253733.658 6       659.756          36.000
G29  22250646.102 8 116927937.275 8      3162.590          48.000    22250646.000 8  91112669.974 8      2464.359          48.000
R14  21812269.594 5 116271655.300 5     -2722.699          35.000
R15  19490145.578 8 104149402.201 8        93.691          48.000    19490149.719 7  81005109.884 7        72.871          45.000
