     3.02           OBSERVATION DATA    M (MIXED)           RINEX VERSION / TYPE
SAVERINEX           SC600               20200506 045930 LCL PGM / RUN BY / DATE
       G = GPS       R = GLONASS       C = COMPASS          COMMENT
       S = SBAS      J = QZSS          E = GALILEO          COMMENT
BEAN                                                        MARKER NAME
1                                                           MARKER NUMBER
GEODETIC                                                    MARKER TYPE
Unige DICCA         GTER                                    OBSERVER / AGENCY
SC60291900056       SC600               2.12(191226)        REC # / TYPE / VERS
                    HEMA45          NONE                    ANT # / TYPE
  4509407.8091   693652.4678  4442337.6214                  APPROX POSITION XYZ
        0.0000        0.0000        0.0000                  ANTENNA: DELTA H/E/N
G    8 C1C L1C D1C S1C C2Y L2Y D2Y S2Y                      SYS / # / OBS TYPES
R    8 C1C L1C D1C S1C C2P L2P D2P S2P                      SYS / # / OBS TYPES
C    8 C1I L1I D1I S1I C7I L7I D7I S7I                      SYS / # / OBS TYPES
E    8 C1C L1C D1C S1C C7Q L7Q D7Q S7Q                      SYS / # / OBS TYPES
DBHZ                                                        COMMENT
     30.000                                                 INTERVAL
  2020    05    06    02    00    0.0000000     GPS         TIME OF FIRST OBS
  2020    05    06    02    59   30.0000000     GPS         TIME OF LAST OBS
     0                                                      RCV CLOCK OFFS APPL
G L1C  0.00000                                              SYS / PHASE SHIFT
G L2Y  0.00000                                              SYS / PHASE SHIFT
R L1C  0.00000                                              SYS / PHASE SHIFT
R L2P  0.25000                                              SYS / PHASE SHIFT
C L1I  0.00000                                              SYS / PHASE SHIFT
C L7I  0.00000                                              SYS / PHASE SHIFT
E L1C  0.50000                                              SYS / PHASE SHIFT
E L7Q -0.25000                                              SYS / PHASE SHIFT
 14 R03  5 R04  6 R05  1 R06 -4 R09 -2 R10 -5 R14 -7 R15  0 GLONASS SLOT / FRQ #
    R16 -1 R18 -3 R19  3 R20  2 R21  4 R22 -3               GLONASS SLOT / FRQ #
 C1C   71.950 C2C   71.950 C2P   71.950                     GLONASS COD/PHS/BIS
    18                                                      LEAP SECONDS
*** Above antenna height is from mark to ANTENNA BOTTOM.    COMMENT
    17     4        0.0000        ANT MEASURE TYPE/HEIGT    COMMENT
    0.0000    0.0000    0.0458    0.0405    0.0000          COMMENT
                    BASE STATION                            COMMENT
                                                            END OF HEADER
> 2020 05 06 02 00  0.0000000  0 15        .000000000000
G02  22671683.648 5 119140509.500 5     -1294.719          35.000    22671683.617 5  92836747.851 5     -1008.869          32.000
G06  23101547.766 6 121399427.151 6     -3184.961          40.000    23101584.516 5  94596963.707 5     -2481.785          34.000
G07  20779936.867 8 109199298.033 8       -65.289          50.000    20779936.523 8  85090345.361 8       -50.875          50.000
G09  21694931.578 5 114007717.747 5     -2131.352          35.000    21694934.055 5  88837172.931 5     -1660.790          35.000
G30  21184073.898 8 111323068.008 8      2115.281          50.000    21184074.531 8  86745263.512 8      1648.271          51.000
R06  19408775.062 6 103568947.500 6       365.371          41.000
R09  23111649.977 6 123414912.588 6      4491.285          38.000    23111646.305 4  95989370.724 4      3493.222          29.000
R15  21484558.445 5 114806902.658 5     -2900.465          31.000
R16  19640407.547 7 104915529.925 7      1301.652          45.000    19640412.922 7  81600979.328 7      1012.393          47.000
C05                                                                  39782794.664 6 160188823.871 6        -8.844          40.000
C20  22258344.727 8 115905034.439 8     -1084.922          51.000
E05  25163603.438 5 132235630.631 5      1784.605          34.000
E09  21584611.320 8 113427888.806 8      -232.270          51.000    21584613.141 8  86912282.863 8      -177.934          51.000
E31  24907858.703 8 130891685.932 8      1507.551          51.000    24907860.477 8 100293653.595 8      1155.091          50.000
E36  26525151.797 8 139390605.427 8     -2761.957          48.000    26525157.812 7 106805793.560 7     -2116.371          45.000
> 2020 05 06 02 00 30.0000000  0 13        .000000000000
G02  22679124.633 6 119179610.169 6     -1310.973          39.000    22679124.086 6  92867215.851 6     -1021.537          37.000
G06  23119756.180 6 121495109.895 6     -3193.438          38.000    23119792.297 6  94671521.686 6     -2488.399          36.000
G07  20780357.938 8 109201512.579 8       -81.938          49.000    20780358.188 8  85092070.985 8       -63.847          49.000
G09  21707119.664 5 114071768.162 5     -2138.578          33.000    21707122.531 5  88887082.405 5     -1666.421          34.000
G30  21172041.305 7 111259838.244 7      2100.285          47.000    21172042.484 7  86695993.588 7      1636.586          47.000
R06  19406763.055 7 103558209.576 7       350.902          42.000
R09  23086431.375 6 123280246.524 6      4486.758          37.000    23086427.047 4  95884630.495 4      3489.701          28.000
R16  19633176.047 7 104876900.242 7      1273.980          45.000    19633180.727 7  81570934.009 7       990.874          47.000
C05  39782863.938 5 207159811.386 5       -11.766          34.000    39782863.000 6 160189098.815 6        -9.306          40.000
C20  22264627.352 8 115937751.569 8     -1096.043          50.000
E09  21585956.508 8 113434957.898 8      -238.832          51.000    21585958.117 8  86917699.451 8      -183.010          51.000
E31  24899292.453 8 130846670.744 8      1493.723          51.000    24899294.055 8 100259161.432 8      1144.565          50.000
E36  26540936.664 8 139473554.871 8     -2767.645          48.000    26540941.078 7 106869352.199 7     -2120.791          44.000
> 2020 05 06 02 01  0.0000000  0 14        .000000000000
G02  22686649.938 6 119219152.207 6     -1325.344          40.000    22686649.336 6  92898027.800 6     -1032.738          38.000
G06  23138006.453 6 121591011.909 6     -3200.266          36.000    23138039.758 5  94746250.540 5     -2493.710          32.000
G07  20780865.625 8 109204182.250 8       -96.461          49.000    20780866.492 8  85094151.246 8       -75.164          49.000
G09  21719343.633 6 114136003.655 6     -2144.383          37.000    21719345.258 6  88937135.988 6     -1670.942          36.000
G30  21160084.930 7 111197015.698 7      2087.234          45.000    21160088.164 7  86647040.943 7      1626.413          45.000
R05  22089209.992 5 118079468.368 5     -2824.020          31.000
R06  19404823.719 7 103547859.877 7       338.742          42.000
R09  23061230.883 5 123145682.287 5      4484.008          33.000    23061227.328 4  95779969.481 4      3487.565          28.000
R16  19626092.430 7 104839058.436 7      1248.328          46.000    19626096.867 7  81541501.487 7       970.925          47.000
C05  39782927.789 5 207160144.424 5       -10.719          35.000    39782926.820 6 160189355.550 6        -8.325          40.000
C20  22270965.938 8 115970758.509 8     -1104.984          51.000
E09  21587330.750 8 113442179.975 8      -243.215          51.000    21587332.242 8  86923233.245 8      -186.374          51.000
E31  24890796.883 8 130802026.098 8      1482.031          51.000    24890797.992 8 100224953.208 8      1135.606          50.000
E36  26556745.250 8 139556628.732 8     -2771.082          48.000    26556748.062 7 106933006.144 7     -2123.333          44.000
> 2020 05 06 02 01 30.0000000  0 15        .000000000000
G02  22694261.211 7 119259145.149 7     -1343.012          43.000    22694259.852 6  92929191.108 6     -1046.500          38.000
G06  23156300.555 6 121687141.415 6     -3210.922          37.000    23156331.414 5  94821156.449 5     -2502.026          31.000
G07  20781462.312 8 109207318.139 8      -114.605          49.000    20781463.289 8  85096594.783 8       -89.303          49.000
G09  21731604.359 6 114200434.521 6     -2153.320          37.000    21731605.367 5  88987341.889 5     -1677.912          35.000
G30  21148209.844 8 111134612.801 8      2070.793          49.000    21148213.492 8  86598415.285 8      1613.605          48.000
R05  22105074.062 5 118164316.222 5     -2834.918          31.000    22105082.555 4  91905597.780 4     -2204.939          29.000
R06  19402959.594 7 103537911.423 7       322.445          43.000
R09  23036054.797 5 123011234.880 5      4476.941          35.000    23036050.148 4  95675393.357 4      3482.066          29.000
R15  21533898.227 5 115070589.320 5     -2959.387          34.000
R16  19619158.398 7 104802016.829 7      1218.902          46.000    19619163.055 7  81512691.368 7       948.035          46.000
C05  39782989.188 5 207160464.152 5       -12.730          35.000    39782988.242 6 160189602.789 6       -10.061          40.000
C20  22277362.586 8 116004066.588 8     -1117.613          51.000
E09  21588736.250 8 113449566.553 8      -251.441          51.000    21588737.656 8  86928893.083 8      -192.657          51.000
E31  24882374.078 8 130757764.491 8      1466.496          51.000    24882375.555 8 100191038.512 8      1123.664          50.000
E36  26572579.148 8 139639836.168 8     -2778.164          48.000    26572581.438 7 106996762.458 7     -2128.798          45.000
> 2020 05 06 02 02  0.0000000  0 14        .000000000000
G02  22701959.969 7 119299599.348 7     -1359.453          43.000    22701957.711 6  92960713.862 6     -1059.314          37.000
G06  23174640.320 6 121783507.435 6     -3219.762          36.000    23174633.250 5  94896258.302 5     -2508.902          35.000
G07  20782150.008 8 109210931.745 8      -131.797          48.000    20782151.008 8  85099410.589 8      -102.699          48.000
G09  21743904.703 5 114265072.388 5     -2161.305          35.000    21743905.773 5  89037709.059 5     -1684.130          34.000
G30  21136418.250 8 111072642.957 8      2054.992          51.000    21136420.805 8  86550127.107 8      1601.293          51.000
R06  19401172.930 7 103528377.920 7       307.395          43.000
R09  23010903.859 5 122876920.418 5      4471.809          32.000    23010898.586 5  95570926.621 5      3478.079          30.000
R15  21550554.359 5 115159544.132 5     -2979.660          34.000    21550563.242 4  89568626.516 4     -2317.513          28.000
R16  19612375.805 7 104765795.569 7      1190.469          46.000    19612380.078 7  81484517.615 7       925.920          45.000
C05  39783050.508 5 207160783.598 5       -14.434          34.000    39783049.586 6 160189849.791 6       -10.865          40.000
C20  22283819.562 8 116037688.007 8     -1129.398          51.000
E09  21590175.477 8 113457130.004 8      -258.496          51.000    21590176.773 8  86934688.451 8      -198.044          51.000
E31  24874026.898 8 130713899.253 8      1452.160          51.000    24874028.562 8 100157427.505 8      1112.694          50.000
E36  26588440.406 8 139723187.210 8     -2784.152          48.000    26588442.734 7 107060628.828 7     -2133.410          45.000
> 2020 05 06 02 02 30.0000000  0 14        .000000000000
G02  22709751.930 7 119340544.355 7     -1372.172          44.000    22709749.023 6  92992619.084 6     -1069.225          37.000
G06  23193031.469 6 121880138.148 6     -3224.785          36.000    23193020.719 6  94971554.924 6     -2512.817          36.000
G07  20782934.531 8 109215053.230 8      -145.156          49.000    20782935.391 8  85102622.131 8      -113.109          49.000
G09  21756250.438 6 114329947.680 6     -2165.867          36.000    21756252.062 6  89088261.262 6     -1687.686          36.000
G30  21124715.406 8 111011138.594 8      2043.203          51.000    21124716.570 8  86502201.633 8      1592.109          51.000
R06  19399469.898 7 103519292.351 7       296.141          42.000
R09  22985784.914 5 122742805.208 5      4468.250          30.000    22985778.352 4  95466590.857 4      3475.312          27.000
R15  21567320.141 5 115249147.253 5     -2996.273          33.000    21567326.156 4  89638305.845 4     -2330.438          25.000
R16  19605753.719 7 104730415.914 7      1165.863          47.000    19605757.336 7  81457001.638 7       906.783          44.000
C05  39783117.781 5 207161133.738 5       -11.723          34.000    39783116.805 6 160190120.542 6        -8.868          40.000
C20  22290342.680 8 116071653.823 8     -1137.266          51.000
E09  21591654.445 8 113464901.755 8      -261.844          51.000    21591655.523 8  86940643.429 8      -200.610          51.000
E31  24865761.375 8 130670462.808 8      1441.410          51.000    24865762.805 8 100124145.044 8      1104.436          50.000
E36  26604334.453 8 139806710.892 8     -2786.320          49.000    26604336.898 7 107124627.488 7     -2134.925          45.000
> 2020 05 06 02 03  0.0000000  0 13        .000000000000
G02  22717629.352 7 119381938.184 7     -1386.816          45.000    22717626.031 6  93024874.009 6     -1080.636          38.000
G06  23211464.508 5 121976990.145 5     -3231.715          32.000    23211449.719 5  95047023.991 5     -2518.228          30.000
G07  20783807.961 8 109219641.387 8      -160.234          49.000    20783808.508 8  85106197.322 8      -124.858          49.000
G09  21768633.508 6 114395019.342 6     -2171.402          39.000    21768635.625 6  89138966.493 6     -1692.005          39.000
G30  21113093.336 8 110950060.610 8      2029.203          51.000    21113093.523 8  86454608.423 8      1581.200          51.000
R06  19397843.773 7 103510615.271 7       282.914          44.000
R09  22960689.977 5 122608790.175 5      4465.953          32.000    22960681.938 4  95362356.978 4      3473.525          29.000
R16  19599281.461 7 104695844.581 7      1139.391          47.000    19599284.969 7  81430114.578 7       886.193          43.000
C05  39783183.359 5 207161475.617 5       -11.012          34.000    39783182.305 6 160190384.102 6        -8.156          40.000
C20  22296924.273 8 116105924.261 8     -1146.910          51.000
E09  21593165.477 8 113472841.739 8      -267.039          51.000    21593166.250 8  86946727.309 8      -204.611          51.000
E31  24857569.703 8 130627415.959 8      1428.797          51.000    24857571.602 8 100091161.104 8      1094.798          51.000
E36  26620253.117 8 139890364.801 8     -2790.199          48.000    26620255.609 7 107188725.950 7     -2137.927          45.000
> 2020 05 06 02 03 30.0000000  0 14        .000000000000
G02  22725588.031 7 119423759.186 7     -1401.473          43.000    22725584.125 6  93057461.814 6     -1092.057          40.000
G06  23229934.984 4 122074130.554 4     -3239.531          29.000
G07  20784766.406 8 109224676.539 8      -175.488          50.000    20784766.273 8  85110120.824 8      -136.744          50.000
G09  21781050.094 6 114460266.978 6     -2178.051          38.000    21781052.602 6  89189808.849 6     -1697.179          38.000
G30  21101548.219 8 110889390.459 8      2015.273          51.000    21101548.070 8  86407332.996 8      1570.343          51.000
R06  19396290.625 7 103502327.430 7       269.203          44.000
R09  22935605.219 5 122474860.562 5      4461.203          33.000    22935607.273 4  95258224.253 4      3469.831          29.000
R16  19592956.875 7 104662061.092 7      1112.645          46.000    19592960.922 7  81403838.574 7       865.393          44.000
C05  39783243.367 5 207161787.629 5       -10.301          34.000    39783242.227 6 160190625.403 6        -7.908          40.000
C20  22303560.766 8 116140479.815 8     -1156.852          51.000
E05  25092700.406 5 131863030.840 5      1763.832          33.000
E09  21594704.742 8 113480930.393 8      -272.348          51.000    21594705.305 8  86952925.103 8      -208.676          51.000
E31  24849448.766 8 130584740.088 8      1416.113          51.000    24849451.188 8 100058461.421 8      1085.044          51.000
E36  26636192.328 7 139974127.026 7     -2794.125          47.000    26636194.727 7 107252907.400 7     -2140.923          46.000
> 2020 05 06 02 04  0.0000000  0 14        .000000000000
G02  22733635.430 6 119466048.391 6     -1418.059          41.000    22733630.688 6  93090414.453 6     -1104.981          40.000
G06  23248450.273 5 122171428.087 5     -3247.984          35.000    23248445.867 5  95198544.182 5     -2530.897          35.000
G07  20785817.945 8 109230200.221 8      -193.129          51.000    20785816.922 8  85114424.999 8      -150.490          51.000
G09  21793508.344 6 114525732.642 6     -2187.117          36.000    21793510.602 6  89240821.015 6     -1704.250          36.000
G30  21090088.547 8 110829172.012 8      1998.977          50.000    21090088.703 8  86360409.531 8      1557.644          50.000
R05  22185152.062 5 118592353.850 5     -2875.465          33.000
R06  19394818.992 7 103494473.744 7       253.797          44.000
R09  22910562.023 6 122341121.816 6      4454.367          37.000    22910560.477 4  95154205.258 4      3464.508          29.000
R16  19586788.789 7 104629111.288 7      1083.598          45.000    19586792.570 7  81378210.975 7       842.798          44.000
C05  39783305.922 5 207162113.060 5       -11.559          35.000    39783304.656 6 160190877.066 6        -9.288          40.000
C20  22310259.641 8 116175363.027 8     -1169.086          51.000
E09  21596280.438 8 113489210.674 8      -280.109          51.000    21596281.016 8  86959269.736 8      -214.662          51.000
E31  24841406.781 8 130542479.067 8      1400.918          51.000    24841409.609 8 100026079.611 8      1073.404          51.000
E36  26652159.844 7 140058038.180 7     -2800.477          43.000    26652162.305 7 107317202.948 7     -2145.763          46.000
> 2020 05 06 02 04 30.0000000  0 14        .000000000000
G02  22741768.484 6 119508791.995 6     -1432.730          40.000    22741764.578 6  93123721.130 6     -1116.416          40.000
G06  23267006.695 5 122268939.545 5     -3254.023          35.000    23266999.914 6  95274527.141 6     -2535.606          36.000
G07  20786959.969 8 109236199.844 8      -208.289          51.000    20786958.430 8  85119100.047 8      -162.303          51.000
G09  21806005.617 6 114591403.574 6     -2192.375          38.000    21806006.375 6  89291993.149 6     -1708.344          38.000
G30  21078712.797 8 110769394.518 8      1984.816          51.000    21078713.516 8  86313829.678 8      1546.610          51.000
R06  19393426.484 7 103487043.144 7       240.320          45.000
R09  22885544.938 5 122207536.212 5      4449.883          35.000    22885543.055 5  95050305.426 5      3461.023          30.000
R16  19580774.484 7 104596984.330 7      1056.789          45.000    19580778.031 7  81353223.335 7       821.947          44.000
C05  39783368.695 5 207162440.207 5       -11.320          35.000    39783367.422 6 160191130.019 6        -8.735          40.000
C20  22317019.258 8 116210562.161 8     -1178.945          51.000
E04  26433514.172 5 138909053.372 5     -2075.891          33.000    26433511.898 5 106436794.143 5     -1590.103          34.000
E09  21597890.383 8 113497670.932 8      -285.359          51.000    21597891.125 8  86965752.261 8      -218.649          51.000
E31  24833441.570 8 130500622.117 8      1388.180          51.000    24833444.859 8  99994007.403 8      1063.586          51.000
E36  26668153.188 7 140142084.244 7     -2804.234          42.000    26668156.031 7 107381601.847 7     -2148.570          47.000
> 2020 05 06 02 05  0.0000000  0 14        .000000000000
G02  22749989.086 6 119551994.899 6     -1447.504          41.000    22749986.867 6  93157385.696 6     -1127.925          41.000
G06  23285593.219 5 122366619.544 5     -3261.906          34.000    23285597.461 5  95350624.636 5     -2541.742          35.000
G07  20788193.633 8 109242681.104 8      -223.730          51.000    20788191.445 8  85124150.393 8      -174.335          51.000
G09  21818542.852 6 114657285.733 6     -2199.602          36.000    21818541.180 6  89343329.959 6     -1713.978          36.000
G30  21067422.797 8 110710065.678 8      1970.473          51.000    21067424.070 8  86267599.433 8      1535.433          51.000
R06  19392114.930 7 103480043.976 7       226.645          45.000
R09  22860558.719 6 122074114.309 6      4445.090          36.000    22860555.781 4  94946532.850 4      3457.292          28.000
R16  19574915.727 7 104565687.598 7      1029.637          46.000    19574919.203 7  81328881.440 7       800.829          44.000
C05  39783433.023 5 207162775.615 5       -10.617          35.000    39783431.852 6 160191389.396 6        -8.458          40.000
C20  22323840.734 8 116246083.900 8     -1189.137          51.000
E04  26445377.570 5 138971394.879 5     -2079.074          34.000    26445370.773 5 106484553.350 5     -1592.814          33.000
E09  21599535.844 8 113506317.967 8      -291.062          51.000    21599536.773 8  86972377.906 8      -223.022          51.000
E31  24825554.766 8 130459176.950 8      1374.930          51.000    24825558.531 8  99962250.709 8      1053.485          51.000
E36  26684173.180 7 140226269.653 7     -2808.359          43.000    26684176.859 8 107446107.514 8     -2151.788          48.000
> 2020 05 06 02 05 30.0000000  0 14        .000000000000
G02  22758293.664 7 119595636.637 7     -1462.348          43.000    22758292.531 6  93191392.225 6     -1139.492          39.000
G06  23304230.008 5 122464554.717 5     -3267.855          32.000    23304236.898 5  95426954.096 5     -2546.381          32.000
G07  20789515.172 8 109249624.635 8      -239.754          51.000    20789512.555 8  85129560.945 8      -186.821          51.000
G09  21831116.508 6 114723359.626 6     -2206.324          38.000    21831114.805 6  89394816.019 6     -1719.214          38.000
G30  21056215.266 8 110651167.895 8      1955.559          51.000    21056216.875 8  86221705.080 8      1523.812          51.000
R06  19390880.734 7 103473458.678 7       212.055          45.000
R09  22835599.492 5 121940840.440 5      4439.543          34.000    22835595.930 5  94842855.423 5      3452.981          30.000
R16  19569209.258 7 104535203.419 7      1002.016          47.000    19569212.109 7  81305171.505 7       779.345          44.000
C05  39783495.492 5 207163100.700 5       -11.477          34.000    39783494.250 6 160191640.755 6        -8.545          40.000
C20  22330720.539 8 116281909.754 8     -1199.750          51.000
E04                                                                  26457244.352 5 106532361.824 5     -1595.263          30.000
E09  21601213.336 8 113515133.295 8      -297.168          51.000    21601214.383 8  86979132.493 8      -227.742          51.000
E31  24817742.789 8 130418125.883 8      1361.301          51.000    24817746.734 8  99930796.001 8      1043.030          51.000
E36  26700215.289 6 140310573.433 6     -2812.477          41.000    26700220.555 8 107510703.931 8     -2155.128          48.000
> 2020 05 06 02 06  0.0000000  0 13        .000000000000
G02  22766683.227 7 119639723.724 7     -1475.828          43.000    22766681.414 5  93225745.789 5     -1149.993          35.000
G07  20790925.930 8 109257038.054 8      -253.902          51.000    20790923.398 8  85135337.666 8      -197.843          51.000
G09  21843728.391 6 114789633.318 6     -2211.320          36.000    21843727.836 6  89446457.844 6     -1723.110          37.000
G30  21045091.797 8 110592710.975 8      1942.352          51.000    21045093.273 8  86176154.258 8      1513.521          51.000
R06  19389726.109 7 103467296.880 7       199.586          46.000
R09  22810670.477 5 121807727.398 5      4435.508          31.000    22810668.539 5  94739323.118 5      3449.842          32.000
R16  19563656.883 8 104505541.857 8       976.094          48.000    19563659.172 7  81282101.403 7       759.184          44.000
C05  39783557.562 5 207163424.056 5        -9.230          34.000    39783556.391 6 160191890.828 6        -7.633          40.000
C20  22337660.672 8 116318048.440 8     -1208.746          51.000
E04  26469139.898 5 139096267.791 5     -2083.680          34.000
E09  21602924.625 8 113524125.851 8      -301.754          51.000    21602925.734 8  86986022.882 8      -231.160          51.000
E31  24810007.688 8 130377478.743 8      1349.223          51.000    24810011.492 8  99899650.780 8      1033.817          51.000
E36  26716280.906 6 140395002.173 6     -2815.297          38.000    26716287.781 8 107575396.149 8     -2157.190          48.000
> 2020 05 06 02 06 30.0000000  0 14        .000000000000
G02  22775153.828 6 119684239.493 6     -1494.223          41.000    22775149.273 6  93260433.358 6     -1164.326          37.000
G06  23341632.484 5 122661130.460 5     -3284.820          32.000    23341635.359 5  95580094.242 5     -2559.597          32.000
G07  20792423.172 8 109264905.976 8      -273.031          51.000    20792420.438 8  85141468.519 8      -212.752          51.000
G09  21856375.266 6 114856091.348 6     -2222.055          37.000    21856375.367 6  89498243.301 6     -1731.471          38.000
G30  21034049.430 8 110534681.205 8      1924.117          51.000    21034050.602 8  86130936.261 8      1499.312          51.000
R06  19388648.492 7 103461544.687 7       181.766          46.000
R09  22785770.602 5 121674763.799 5      4426.781          31.000    22785769.156 5  94635906.994 5      3443.049          32.000
R16  19558255.867 8 104476688.483 8       945.102          48.000    19558258.117 7  81259659.914 7       735.079          44.000
C05  39783616.531 5 207163730.972 5       -12.934          35.000    39783615.281 6 160192128.145 6       -10.007          40.000
C20  22344658.016 8 116354485.361 8     -1222.723          51.000
E04  26481045.703 5 139158834.720 5     -2089.734          34.000    26481038.805 5 106628169.290 5     -1601.566          33.000
E09  21604666.836 8 113533280.995 8      -311.008          51.000    21604668.109 8  86993037.852 8      -238.299          51.000
E31  24802346.836 8 130337221.721 8      1332.223          51.000    24802350.875 8  99868804.500 8      1020.797          51.000
E36  26732368.523 6 140479538.969 6     -2822.668          40.000    26732374.812 7 107640171.165 7     -2162.946          47.000
> 2020 05 06 02 07  0.0000000  0 13        .000000000000
G02  22783709.914 6 119729205.898 6     -1506.719          40.000    22783704.453 6  93295472.101 6     -1174.070          38.000
G06  23360390.312 5 122759678.690 5     -3289.211          35.000    23360393.656 6  95656892.853 6     -2563.025          36.000
G07  20794010.977 8 109273250.913 8      -286.254          51.000    20794008.203 8  85147971.073 8      -223.055          51.000
G09  21869061.367 6 114922756.317 6     -2225.836          36.000    21869060.156 6  89550190.092 6     -1734.412          36.000
G30  21023092.891 8 110477103.241 8      1911.555          51.000    21023093.578 8  86086070.295 8      1489.523          51.000
R06  19387652.125 7 103456227.427 7       169.789          46.000
R16  19553010.688 8 104448668.313 8       920.062          49.000    19553012.555 7  81237866.461 7       715.601          44.000
C05  39783676.727 5 207164044.834 5       -10.598          34.000    39783675.578 6 160192370.839 6        -8.364          40.000
C20  22351717.258 8 116391243.932 8     -1230.777          51.000
E04                                                                  26492963.508 5 106676184.778 5     -1601.548          32.000
E09  21606444.516 8 113542622.534 8      -314.492          51.000    21606446.000 8  87000195.647 8      -241.019          51.000
E31  24794765.008 8 130297379.445 8      1321.109          51.000    24794769.289 8  99838276.011 8      1012.267          51.000
E36  26748481.703 6 140564205.283 6     -2824.426          41.000    26748485.414 7 107705045.388 7     -2164.173          44.000
> 2020 05 06 02 07 30.0000000  0 13        .000000000000
G02  22792355.367 6 119774640.470 6     -1520.496          41.000    22792351.219 6  93330875.692 6     -1184.802          41.000
G06  23379189.359 5 122858465.289 5     -3295.023          33.000    23379193.828 5  95733886.182 5     -2567.554          34.000
G07  20795693.156 8 109282091.877 8      -301.293          51.000    20795690.789 8  85154860.150 8      -234.771          51.000
G09  21881785.414 5 114989575.874 5     -2232.062          34.000
G30  21012226.086 8 110419997.746 8      1897.316          51.000    21012226.500 8  86041572.466 8      1478.425          51.000
R06  19386741.219 7 103451366.727 7       156.188          46.000
R16  19547925.305 8 104421502.391 8       893.066          48.000    19547926.922 7  81216737.417 7       694.607          45.000
C05  39783742.023 5 207164383.983 5       -10.414          34.000    39783740.930 6 160192633.853 6        -7.887          40.000
C20  22358841.797 8 116428343.669 8     -1240.668          51.000
E04  26504914.594 5 139284265.337 5     -2092.715          34.000    26504911.539 5 106724289.887 5     -1603.545          33.000
E09  21608261.445 8 113552170.297 8      -319.930          51.000    21608263.102 8  87007511.456 8      -245.159          51.000
E31  24787266.195 8 130257972.532 8      1308.066          51.000    24787270.359 8  99808081.115 8      1002.297          51.000
E36  26764622.969 6 140649018.548 6     -2827.633          40.000    26764623.141 7 107770032.183 7     -2166.759          43.000
> 2020 05 06 02 08  0.0000000  0 14        .000000000000
G02  22801066.117 7 119820414.716 7     -1533.473          45.000    22801063.156 7  93366543.933 7     -1194.914          42.000
G06  23398007.461 5 122957358.637 5     -3299.898          32.000    23398013.508 5  95810941.226 5     -2571.349          32.000
G07  20797445.297 8 109291301.072 8      -315.070          51.000    20797443.383 8  85162036.154 8      -245.509          51.000
G30  21001425.117 8 110363239.211 8      1884.160          51.000    21001425.609 8  85997345.023 8      1468.177          51.000
R06  19385891.797 7 103446834.792 7       143.719          46.000
R09  22711260.836 5 121276855.536 5      4413.539          30.000    22711264.555 6  94326458.063 6      3432.756          37.000
R15  21758463.383 5 116270597.131 5     -3190.422          33.000
R16  19542975.422 7 104395062.902 7       867.289          47.000    19542977.555 7  81196173.410 7       674.558          45.000
C05                                                                  39783787.227 6 160192820.289 6        -6.476          40.000
C20  22366007.781 8 116465659.290 8     -1249.387          51.000
E04  26516859.219 5 139347035.923 5     -2093.660          33.000    26516860.867 5 106772387.560 5     -1604.787          35.000
E09  21610093.562 8 113561798.051 8      -324.203          51.000    21610095.336 8  87014888.560 8      -248.451          51.000
E31  24779826.594 8 130218875.530 8      1296.082          51.000    24779830.344 8  99778123.668 8       993.117          51.000
E36  26780766.750 6 140733850.144 6     -2830.008          40.000    26780764.305 7 107835032.987 7     -2168.400          43.000
> 2020 05 06 02 08 30.0000000  0 14        .000000000000
G02  22809875.227 7 119866703.821 7     -1553.195          45.000    22809872.852 7  93402613.394 7     -1210.279          42.000
G07  20799301.086 8 109301055.047 8      -335.785          50.000    20799299.438 8  85169636.638 8      -261.651          50.000
G09  21907335.586 5 115123812.186 5     -2248.160          32.000    21907338.828 5  89706880.158 5     -1751.813          32.000
G30  20990724.008 8 110307005.718 8      1864.074          51.000    20990724.688 8  85953526.710 8      1452.525          51.000
R06  19385137.859 7 103442813.073 7       123.898          45.000
R09  22686496.023 5 121144604.136 5      4402.680          33.000    22686497.883 6  94223595.797 6      3424.306          37.000
R15  21776436.266 5 116366638.457 5     -3212.590          32.000
R16  19538195.438 7 104369530.771 7       834.441          46.000    19538198.016 7  81176315.086 7       649.007          45.000
C05  39783849.297 5 207164942.596 5       -13.301          35.000    39783848.219 6 160193065.808 6       -10.264          40.000
C20  22373249.047 8 116503366.257 8     -1264.973          51.000
E04  26528837.234 5 139409974.995 5     -2102.461          35.000    26528841.773 5 106820613.391 5     -1610.755          33.000
E09  21611974.594 8 113571683.029 8      -335.355          51.000    21611976.555 8  87022462.754 8      -256.949          51.000
E31  24772479.758 8 130180266.448 8      1277.293          51.000    24772483.484 8  99748540.088 8       978.678          51.000
E36  26796945.516 6 140818874.791 6     -2839.070          39.000    26796943.047 7 107900181.740 7     -2175.137          44.000
> 2020 05 06 02 09  0.0000000  0 12        .000000000000
G02  22818778.031 7 119913485.376 7     -1564.141          45.000    22818776.047 7  93439066.592 7     -1218.808          43.000
G07  20801256.430 8 109311332.439 8      -347.867          50.000    20801255.391 8  85177644.997 8      -271.065          50.000
G30  20980119.219 8 110251277.719 8      1852.609          51.000    20980120.039 8  85910102.290 8      1443.592          51.000
R06  19384475.875 7 103439281.593 7       113.098          47.000
R09  22661777.062 5 121012594.598 5      4399.668          33.000    22661776.641 6  94120921.710 6      3421.961          37.000
R16  19533580.969 7 104344885.727 7       810.234          45.000    19533584.516 7  81157146.716 7       630.182          45.000
C05                                                                  39783920.016 6 160193354.610 6        -7.748          40.000
C20  22380561.594 8 116541444.249 8     -1272.070          51.000
E04  26540843.945 5 139473060.600 5     -2101.770          35.000
E09  21613900.656 8 113581804.861 8      -337.941          51.000    21613902.859 8  87030218.450 8      -258.945          51.000
E31  24765222.055 8 130142125.734 8      1266.961          51.000    24765225.820 8  99719315.385 8       970.767          51.000
E36  26813155.531 6 140904069.783 6     -2839.133          40.000    26813155.352 7 107965461.067 7     -2175.493          44.000
> 2020 05 06 02 09 30.0000000  0 14        .000000000000
G02  22827744.922 7 119960605.540 7     -1577.695          45.000    22827743.258 7  93475783.610 7     -1229.373          43.000
G06  23454725.680 5 123255407.211 5     -3319.562          32.000
G07  20803282.391 8 109321980.377 8      -362.371          50.000    20803281.938 8  85185942.072 8      -282.367          50.000
G09  21933051.445 6 115258956.215 6     -2256.906          38.000    21933053.781 6  89812183.349 6     -1758.625          39.000
G30  20969581.961 8 110195904.404 8      1838.578          51.000    20969582.977 8  85866954.247 8      1432.658          51.000
R06  19383877.219 7 103436087.379 7        99.629          47.000
R09  22637073.938 6 120880676.418 6      4394.738          37.000    22637073.023 6  94018318.673 6      3418.133          38.000
R16  19529104.102 7 104320974.087 7       783.527          46.000    19529108.336 7  81138548.760 7       609.407          45.000
C05  39783974.609 5 207165595.078 5        -9.000          35.000    39783973.578 6 160193570.356 6        -6.959          40.000
C20  22387916.508 8 116579742.871 8     -1281.562          51.000
E04  26552849.344 5 139536164.277 5     -2104.039          32.000
E09  21615842.953 8 113592012.013 8      -342.957          51.000    21615845.297 8  87038039.512 8      -262.806          51.000
E31  24758024.711 8 130104302.547 8      1254.184          51.000    24758027.977 8  99690333.994 8       960.935          51.000
E36  26829370.008 7 140989281.335 7     -2841.953          42.000    26829371.711 7 108030753.002 7     -2177.597          44.000
> 2020 05 06 02 10  0.0000000  0 15        .000000000000
G02  22836792.305 7 120008149.575 7     -1592.691          44.000    22836790.562 7  93512830.884 7     -1241.058          43.000
G06  23473697.000 5 123355111.902 5     -3326.074          32.000    23473695.281 5  96120873.339 5     -2591.746          30.000
G07  20805395.398 8 109333085.068 8      -378.488          49.000    20805395.102 8  85194595.054 8      -294.926          49.000
G09  21945955.172 5 115326764.360 5     -2263.871          33.000    21945957.875 5  89865020.897 5     -1764.058          32.000
G30  20959128.945 8 110140974.055 8      1822.859          51.000    20959130.227 8  85824151.371 8      1420.410          51.000
R06  19383358.922 7 103433320.405 7        84.387          47.000
R09  22612404.266 6 120748941.987 6      4387.410          37.000    22612403.211 6  93915858.549 6      3412.430          38.000
R16  19524781.805 7 104297885.622 7       755.309          47.000    19524786.055 7  81120591.043 7       587.462          45.000
C05  39784026.680 5 207165866.097 5       -10.004          35.000    39784025.602 6 160193779.930 6        -7.579          40.000
C20  22395330.094 8 116618348.668 8     -1292.645          51.000
E04  26564869.883 5 139599327.976 5     -2107.402          33.000
E05  24963322.336 5 131183144.096 5      1723.250          34.000
E09  21617818.164 8 113602392.009 8      -349.652          51.000    21617820.570 8  87045993.004 8      -267.924          51.000
E31  24750904.602 8 130066885.184 8      1239.730          51.000    24750907.164 8  99661663.548 8       949.977          51.000
E36  26845604.914 7 141074594.467 7     -2846.203          43.000    26845607.938 7 108096122.779 7     -2181.040          44.000
> 2020 05 06 02 10 30.0000000  0 14        .000000000000
G02  22845931.734 6 120056180.586 6     -1607.793          41.000    22845930.406 6  93550257.638 6     -1252.829          40.000
G06  23492710.438 5 123455038.213 5     -3334.312          33.000    23492717.219 5  96198737.887 5     -2598.163          34.000
G07  20807607.727 8 109344710.381 8      -395.039          50.000    20807607.266 8  85203653.724 8      -307.826          50.000
G09  21958906.922 6 115394824.934 6     -2271.738          38.000    21958909.188 6  89918055.040 6     -1770.186          37.000
G30  20948772.828 8 110086552.607 8      1806.793          51.000    20948774.336 8  85781745.056 8      1407.891          51.000
R05  22398718.266 5 119734007.851 5     -2980.520          33.000
R06  19382933.250 7 103431048.057 7        68.676          47.000
R09  22587781.594 6 120617460.910 6      4379.754          38.000    22587780.555 6  93813595.472 6      3406.472          37.000
R16  19520626.250 8 104275686.631 8       726.430          48.000    19520630.398 7  81103325.197 7       565.001          44.000
C05  39784089.594 5 207166194.498 5       -10.480          34.000    39784088.469 6 160194033.121 6        -8.403          40.000
C20  22402814.977 8 116657326.062 8     -1304.227          51.000
E09  21619838.641 8 113613010.039 8      -356.730          51.000    21619841.227 8  87054128.887 8      -273.339          51.000
E31  24743874.406 8 130029939.551 8      1224.754          51.000    24743876.398 8  99633354.571 8       938.460          50.000
E36  26861871.602 7 141160072.038 7     -2850.754          43.000    26861875.422 7 108161618.537 7     -2184.413          43.000
> 2020 05 06 02 11  0.0000000  0 15        .000000000000
G02  22855145.406 7 120104602.967 7     -1621.441          42.000    22855144.758 6  93587989.362 6     -1263.458          41.000
G06  23511753.102 4 123555084.243 4     -3339.352          29.000    23511760.203 4  96276701.245 4     -2602.089          27.000
G07  20809901.367 8 109356762.592 8      -409.668          49.000    20809900.719 8  85213045.059 8      -319.222          49.000
G09  21971888.766 5 115463043.708 5     -2277.277          35.000    21971889.844 5  89971212.555 5     -1774.502          35.000
G30  20938496.258 8 110032547.850 8      1792.410          51.000    20938497.633 8  85739663.415 8      1396.683          51.000
R06  19382582.469 7 103429176.435 7        54.898          47.000
R09  22563189.219 6 120486142.322 6      4373.695          38.000    22563188.898 6  93711458.781 6      3401.763          37.000
R16  19516620.141 8 104254283.271 8       699.336          49.000    19516623.445 7  81086678.151 7       543.931          43.000
R22  22704784.203 5 121199673.988 5     -2198.328          35.000
C05  39784145.617 5 207166485.924 5        -9.730          35.000    39784144.430 6 160194258.452 6        -7.603          40.000
C20  22410353.883 8 116696582.680 8     -1314.066          51.000
E05  24943699.531 5 131080024.433 5      1716.281          32.000
E09  21621886.797 8 113623773.129 8      -362.012          51.000    21621889.484 8  87062375.918 8      -277.374          51.000
E31  24736916.055 8 129993373.352 8      1211.688          51.000    24736917.930 8  99605336.352 8       928.439          50.000
E36  26878151.250 7 141245618.652 7     -2853.383          44.000    26878155.461 6 108227167.198 6     -2186.277          40.000
> 2020 05 06 02 11 30.0000000  0 13        .000000000000
G02  22864446.266 7 120153482.120 7     -1635.871          42.000    22864445.906 7  93626077.009 7     -1274.705          42.000
G07  20812288.852 8 109369307.994 8      -425.172          51.000    20812287.828 8  85222820.701 8      -331.303          51.000
G09  21984912.898 5 115531496.554 5     -2284.973          31.000    21984915.141 5  90024545.415 5     -1780.495          31.000
G30  20928312.062 8 109979027.982 8      1777.012          51.000    20928313.109 8  85697959.614 8      1384.684          51.000
R06  19382319.750 7 103427775.294 7        39.949          47.000
R09  22538639.758 5 120355058.122 5      4366.590          35.000    22538641.469 6  93609504.410 6      3396.237          36.000
R16  19512775.531 8 104233744.396 8       671.441          49.000    19512778.172 7  81070703.524 7       522.232          42.000
R22  22717200.273 5 121265954.921 5     -2218.531          33.000
C05  39784207.594 5 207166809.047 5        -9.941          35.000    39784206.289 6 160194507.552 6        -7.956          40.000
C20  22417959.141 8 116736185.258 8     -1324.684          51.000
E09  21623975.617 8 113634748.799 8      -368.168          51.000    21623978.094 8  87070785.843 8      -282.082          51.000
E31  24730042.789 8 129957254.849 8      1197.691          51.000    24730044.297 8  99577661.183 8       917.688          49.000
E36  26894455.953 7 141331299.478 7     -2857.090          45.000    26894459.930 6 108292818.685 6     -2188.896          37.000
> 2020 05 06 02 12  0.0000000  0 12        .000000000000
G02  22873824.062 7 120202763.578 7     -1647.676          43.000    22873822.945 7  93664478.132 7     -1283.903          42.000
G07  20814760.102 8 109382293.228 8      -438.402          51.000    20814758.609 8  85232939.055 8      -341.612          51.000
G30  20918210.109 8 109925941.375 8      1764.074          51.000    20918211.008 8  85656593.427 8      1374.603          51.000
R06  19382135.555 8 103426792.408 8        27.676          48.000
R09  22514125.102 5 120224158.388 5      4362.277          33.000    22514128.031 5  93507693.479 5      3392.882          34.000
R16  19509083.008 8 104214017.053 8       645.859          49.000    19509084.516 7  81055360.061 7       502.335          42.000
R22  22729627.797 4 121332238.657 4     -2237.027          29.000
C05  39784265.305 5 207167109.769 5        -8.168          35.000    39784264.039 6 160194740.066 6        -6.120          40.000
C20  22425620.969 8 116776081.709 8     -1333.078          51.000
E09  21626094.977 8 113645884.728 8      -372.016          51.000    21626097.203 8  87079318.581 8      -285.090          51.000
E31  24723244.734 8 129921532.398 8      1185.938          51.000    24723245.727 8  99550289.460 8       908.690          49.000
E36  26910775.367 7 141417059.748 7     -2858.188          44.000    26910778.391 5 108358531.102 5     -2189.971          33.000
> 2020 05 06 02 12 30.0000000  0 12        .000000000000
G02  22883280.742 7 120252457.867 7     -1662.645          43.000    22883278.773 7  93703200.930 7     -1295.567          43.000
G07  20817317.133 8 109395729.784 8      -454.926          51.000    20817315.672 8  85243409.116 8      -354.485          51.000
G30  20908193.203 8 109873301.741 8      1747.688          51.000    20908194.039 8  85615575.528 8      1361.834          51.000
R05  22465971.078 5 120093499.994 5     -3010.824          31.000
R06  19382032.531 8 103426241.795 8        11.816          48.000
R09  22489648.047 5 120093460.172 5      4354.059          34.000    22489652.469 5  93406039.339 5      3386.490          32.000
R16  19505544.641 7 104195114.901 7       616.898          47.000    19505545.945 7  81040658.430 7       479.810          43.000
C05  39784321.445 5 207167401.767 5        -9.516          35.000    39784320.117 6 160194965.840 6        -6.987          40.000
C20  22433341.492 8 116816284.711 8     -1344.684          51.000
E09  21628247.125 8 113657193.977 8      -379.383          51.000    21628249.211 8  87087984.108 8      -290.726          51.000
E31  24716524.617 8 129886219.686 8      1170.711          51.000    24716525.523 8  99523231.684 8       897.044          49.000
E36  26927111.719 7 141502910.128 7     -2862.621          44.000    26927113.508 5 108424312.568 5     -2193.551          32.000
> 2020 05 06 02 13  0.0000000  0 12        .000000000000
G02  22892811.352 7 120302539.777 7     -1679.969          44.000    22892809.312 7  93742225.773 7     -1309.067          43.000
G06  23588258.219 5 123957133.448 5     -3364.082          33.000
G07  20819955.414 8 109409593.363 8      -473.434          51.000    20819953.844 8  85254211.913 8      -368.909          51.000
G30  20898257.047 8 109821086.603 8      1729.262          51.000    20898257.992 8  85574888.385 8      1347.477          51.000
R06  19382006.141 7 103426101.390 7        -6.324          47.000
R09  22465204.836 5 119962943.315 5      4344.102          30.000    22465212.609 5  93304526.310 5      3378.749          30.000
R16  19502156.141 7 104177014.398 7       585.809          47.000    19502157.477 7  81026580.289 7       455.629          44.000
C05  39784371.422 5 207167661.827 5       -12.535          35.000    39784370.148 6 160195166.968 6        -9.388          40.000
C20  22441115.906 8 116856771.148 8     -1358.410          51.000
E09  21630427.750 8 113668653.403 8      -388.672          51.000    21630429.664 8  87096764.700 8      -297.811          51.000
E31  24709878.234 8 129851294.274 8      1153.520          51.000    24709879.484 8  99496470.660 8       883.863          50.000
E36  26943460.422 7 141588825.168 7     -2869.250          44.000    26943462.273 5 108490143.535 5     -2198.277          33.000
> 2020 05 06 02 13 30.0000000  0 12        .000000000000
G02  22902425.609 7 120353061.588 7     -1688.254          46.000    22902424.125 7  93781593.426 7     -1315.523          44.000
G06  23607462.992 5 124058053.633 5     -3363.730          34.000    23607462.891 5  96668608.516 5     -2621.086          33.000
G07  20822685.070 8 109423937.336 8      -483.047          51.000    20822683.172 8  85265389.039 8      -376.400          51.000
G30  20888411.898 8 109769351.202 8      1719.594          51.000    20888413.117 8  85534575.088 8      1339.943          51.000
R06  19382066.922 7 103426427.179 7       -15.625          47.000
R16  19498928.227 7 104159771.395 7       563.574          45.000    19498929.805 7  81013169.065 7       438.336          45.000
R22  22767869.719 4 121536324.607 4     -2295.305          29.000    22767867.234 4  94528320.451 4     -1785.237          28.000
C05  39784425.523 5 207167943.869 5        -6.730          35.000    39784424.281 6 160195385.051 6        -5.002          40.000
C20  22448955.453 8 116897594.848 8     -1363.324          51.000
E09  21632647.359 8 113680317.614 8      -389.117          51.000    21632649.023 8  87105702.216 8      -298.128          51.000
E31  24703316.203 8 129816811.304 8      1145.172          51.000    24703318.125 8  99470048.671 8       877.448          51.000
E36  26959831.445 7 141674857.044 7     -2866.527          43.000    26959834.273 6 108556064.065 6     -2196.613          36.000
> 2020 05 06 02 14  0.0000000  0 13        .000000000000
G02  22912117.336 7 120403991.359 7     -1704.785          45.000    22912116.508 7  93821278.968 7     -1328.401          44.000
G06  23626699.391 5 124159129.139 5     -3371.578          31.000    23626696.164 5  96747368.596 5     -2627.204          32.000
G07  20825500.297 8 109438731.269 8      -501.020          51.000    20825498.500 8  85276916.783 8      -390.405          51.000
G09  22050547.758 5 115876410.446 5     -2314.879          33.000
G30  20878652.500 8 109718067.065 8      1701.637          51.000    20878653.859 8  85494613.414 8      1325.951          51.000
R05  22516865.344 5 120365520.078 5     -3034.703          31.000    22516858.836 4  93617631.356 4     -2360.322          27.000
R06  19382209.789 8 103427190.580 8       -33.203          48.000
R16  19495854.938 7 104143355.874 7       533.133          44.000    19495857.172 7  81000401.415 7       414.659          46.000
C05  39784478.234 5 207168217.703 5        -9.086          35.000    39784477.055 6 160195597.587 6        -7.177          40.000
C20  22456854.125 8 116938726.683 8     -1376.543          51.000
E09  21634900.430 8 113692157.475 8      -398.031          51.000    21634901.648 8  87114774.317 8      -304.925          51.000
E31  24696833.211 8 129782742.344 8      1128.336          51.000    24696835.578 8  99443943.897 8       864.578          51.000
E36  26976218.773 7 141760974.233 7     -2872.363          42.000    26976222.594 6 108622049.889 6     -2200.755          38.000
> 2020 05 06 02 14 30.0000000  0 10        .000000000000
G02  22921888.508 7 120455337.523 7     -1721.602          46.000    22921887.211 7  93861288.966 7     -1341.508          45.000
G07  20828402.922 8 109453984.120 8      -519.145          51.000    20828401.117 8  85288802.126 8      -404.528          51.000
G30  20868981.141 8 109667245.098 8      1683.324          51.000    20868982.594 8  85455011.888 8      1311.684          51.000
R06  19382437.133 8 103428403.091 8       -51.133          48.000
R16  19492938.516 7 104127779.099 7       502.195          44.000    19492941.523 7  80988286.125 7       390.596          46.000
C05                                                                  39784530.391 6 160195812.345 6        -9.518          40.000
C20  22464814.188 8 116980176.649 8     -1390.000          51.000
E09  21637188.867 8 113704183.308 8      -407.121          51.000    21637189.609 8  87123988.923 8      -311.962          51.000
E31  24690430.906 8 129749098.283 8      1111.309          50.000    24690433.305 8  99418164.688 8       851.495          51.000
E36  26992623.930 6 141847184.653 6     -2878.609          39.000    26992628.305 6 108688107.197 6     -2205.619          39.000
> 2020 05 06 02 15  0.0000000  0 13        .000000000000
G02  22931742.594 7 120507120.227 7     -1730.625          46.000    22931740.625 7  93901639.101 7     -1348.539          45.000
G06  23665256.789 5 124361781.202 5     -3380.992          35.000    23665257.125 5  96905266.010 5     -2634.539          35.000
G07  20831396.906 8 109469717.201 8      -529.859          51.000    20831394.930 8  85301061.671 8      -412.877          51.000
G09  22077058.070 5 116015697.863 5     -2326.715          31.000
G30  20859402.305 8 109616908.561 8      1672.355          51.000    20859403.695 8  85415788.640 8      1303.134          51.000
R06  19382753.070 8 103430088.424 8       -61.406          48.000
R09  22367880.094 5 119443232.554 5      4318.297          32.000
R16  19490183.461 7 104113063.698 7       478.789          45.000    19490186.805 7  80976840.810 7       372.391          46.000
C05  39784589.688 5 207168798.122 5        -8.371          35.000    39784588.508 6 160196046.384 6        -6.138          40.000
C20  22472839.938 8 117021966.908 8     -1396.035          51.000
E09  21639516.930 8 113716417.780 8      -408.664          51.000    21639517.297 8  87133363.392 8      -313.126          51.000
E31  24684113.859 8 129715902.440 8      1101.652          50.000    24684116.727 8  99392728.911 8       844.129          51.000
E36  27009050.578 6 141933508.540 6     -2876.898          37.000    27009054.828 6 108754251.430 6     -2204.146          39.000
> 2020 05 06 02 15 30.0000000  0 13        .000000000000
G02  22941666.984 7 120559272.559 7     -1745.508          47.000    22941664.430 7  93942277.239 7     -1360.136          45.000
G06  23684575.523 6 124463314.011 6     -3387.273          37.000    23684577.086 6  96984382.425 6     -2639.437          36.000
G07  20834469.766 8 109485864.842 8      -545.988          51.000    20834467.875 8  85313644.255 8      -425.445          51.000
G09  22090363.344 5 116085645.998 5     -2333.477          33.000    22090360.680 5  90456343.008 5     -1818.290          32.000
G30  20849903.898 8 109566993.463 8      1655.934          51.000    20849904.914 8  85376893.778 8      1290.338          51.000
R06  19383145.445 8 103432181.954 8       -77.562          48.000
R09  22343647.320 5 119313840.496 5      4309.020          31.000
R16  19487577.656 7 104099144.124 7       449.797          46.000    19487581.180 7  80966014.472 7       349.842          46.000
C05  39784640.250 5 207169061.508 5        -8.316          35.000    39784639.047 6 160196250.073 6        -6.911          40.000
C20  22480918.734 8 117064033.216 8     -1407.648          51.000
E09  21641872.516 8 113728796.337 8      -415.824          51.000    21641872.547 8  87142848.246 8      -318.592          51.000
E31  24677869.656 8 129683090.763 8      1086.500          48.000    24677873.523 8  99367587.512 8       832.564          51.000
E36  27025485.125 5 142019878.877 5     -2880.656          35.000    27025489.305 6 108820431.302 6     -2207.082          39.000
> 2020 05 06 02 16  0.0000000  0 12        .000000000000
G02  22951674.484 7 120611863.661 7     -1758.777          46.000    22951671.891 7  93983257.337 7     -1370.476          45.000
G06  23703930.250 6 124565028.920 6     -3391.648          36.000    23703932.375 5  97063640.812 5     -2642.840          35.000
G07  20837634.977 8 109502497.668 8      -560.832          51.000    20837633.195 8  85326604.901 8      -437.009          51.000
G30  20840499.461 8 109517572.220 8      1640.711          51.000    20840500.297 8  85338383.739 8      1278.476          51.000
R06  19383628.180 8 103434757.651 8       -92.309          48.000
R09  22319464.664 5 119184721.062 5      4301.285          33.000
R16  19485134.602 7 104086093.389 7       422.055          47.000    19485138.211 7  80955863.917 7       328.265          45.000
C05  39784696.898 5 207169356.639 5        -8.590          35.000    39784695.695 6 160196478.300 6        -6.814          40.000
C20  22489064.297 8 117106446.406 8     -1418.023          51.000
E09  21644269.250 8 113741390.776 8      -421.727          51.000    21644269.195 8  87152498.535 8      -323.189          51.000
E31  24671712.273 8 129650735.687 8      1072.484          48.000    24671716.453 8  99342795.956 8       821.780          51.000
E36  27041941.211 6 142106365.211 6     -2883.020          36.000    27041945.328 6 108886700.075 6     -2209.169          39.000
> 2020 05 06 02 16 30.0000000  0 13        .000000000000
G02  22961752.477 7 120664827.642 7     -1770.066          45.000    22961750.812 7  94024527.963 7     -1379.273          45.000
G06  23723306.969 5 124666858.503 5     -3394.121          35.000    23723308.734 5  97142988.591 5     -2644.764          31.000
G07  20840879.805 8 109519550.012 8      -573.812          51.000    20840878.211 8  85339892.459 8      -447.127          51.000
G30  20831176.867 8 109468581.410 8      1627.469          51.000    20831177.891 8  85300209.104 8      1268.157          51.000
R06  19384189.352 8 103437751.578 8      -105.195          49.000
R09  22295320.883 6 119055808.622 6      4295.250          37.000    22295318.305 4  92598916.827 4      3340.750          29.000
R16  19482842.039 7 104073846.160 7       396.535          47.000    19482845.164 7  80946338.304 7       308.416          45.000
C05  39784747.570 5 207169619.872 5        -6.547          35.000    39784746.242 6 160196681.857 6        -5.355          40.000
C20  22497263.930 8 117149142.889 8     -1426.363          51.000
E05  24837044.109 5 130519556.276 5      1682.461          33.000
E09  21646694.844 8 113754137.175 8      -425.852          51.000    21646695.008 8  87162265.250 8      -326.329          51.000
E31  24665629.680 7 129618773.848 7      1060.250          47.000    24665634.211 8  99318305.700 8       812.438          51.000
E36  27058407.828 6 142192901.181 6     -2883.949          36.000    27058410.750 6 108953006.852 6     -2209.555          38.000
> 2020 05 06 02 17  0.0000000  0 15        .000000000000
G02  22971899.383 7 120718150.799 7     -1790.645          47.000    22971898.094 7  94066078.478 7     -1395.307          45.000
G06  23742702.508 5 124768747.965 5     -3406.051          34.000    23742700.562 5  97222403.985 5     -2654.062          32.000
G07  20844202.320 8 109537010.255 8      -596.012          51.000    20844200.812 8  85353497.829 8      -464.428          51.000
G09  22130505.211 5 116296589.662 5     -2356.961          32.000    22130499.695 5  90620695.876 5     -1836.593          33.000
G30  20821934.344 8 109420010.970 8      1604.797          51.000    20821935.562 8  85262362.018 8      1250.491          51.000
R05  22619844.531 4 120916031.048 4     -3086.469          29.000
R06  19384827.125 8 103441153.588 8      -127.484          50.000
R09  22271215.781 6 118927095.803 6      4279.527          36.000    22271217.531 5  92498806.928 5      3328.524          30.000
R16  19480697.891 8 104062391.674 8       361.355          48.000    19480700.945 7  80937429.284 7       281.054          45.000
C05  39784790.008 5 207169841.407 5       -14.094          35.000    39784788.609 6 160196852.370 6       -10.557          41.000
C20  22505516.070 8 117192111.810 8     -1443.973          51.000
E05  24827446.562 5 130469114.033 5      1671.895          30.000
E09  21649147.266 8 113767024.916 8      -439.102          51.000    21649147.750 8  87172140.255 8      -336.422          51.000
E31  24659620.227 8 129587195.054 8      1039.102          49.000    24659625.133 8  99294108.974 8       796.246          51.000
E36  27074883.844 5 142279473.788 5     -2893.582          34.000    27074884.023 6 109019341.724 6     -2217.112          39.000
> 2020 05 06 02 17 30.0000000  0 14        .000000000000
G02  22982140.273 8 120771965.424 8     -1797.012          49.000    22982138.609 7  94108011.927 7     -1400.269          44.000
G06  23762141.922 5 124870898.121 5     -3403.324          33.000    23762138.062 5  97302010.840 5     -2651.932          32.000
G07  20847627.625 8 109555011.266 8      -604.043          51.000    20847626.508 8  85367524.591 8      -470.683          51.000
G30  20812797.320 8 109371995.626 8      1596.281          51.000    20812798.547 8  85224947.478 8      1243.856          51.000
