     3.02           OBSERVATION DATA    M (MIXED)           RINEX VERSION / TYPE
SAVERINEX           SC600               20200509 145931 LCL PGM / RUN BY / DATE
       G = GPS       R = GLONASS       C = COMPASS          COMMENT
       S = SBAS      J = QZSS          E = GALILEO          COMMENT
BEAN                                                        MARKER NAME
1                                                           MARKER NUMBER
GEODETIC                                                    MARKER TYPE
Unige DICCA         GTER                                    OBSERVER / AGENCY
SC60291900056       SC600               2.12(191226)        REC # / TYPE / VERS
                    HEMA45          NONE                    ANT # / TYPE
  4509407.8091   693652.4678  4442337.6214                  APPROX POSITION XYZ
        0.0000        0.0000        0.0000                  ANTENNA: DELTA H/E/N
G    8 C1C L1C D1C S1C C2Y L2Y D2Y S2Y                      SYS / # / OBS TYPES
R    8 C1C L1C D1C S1C C2P L2P D2P S2P                      SYS / # / OBS TYPES
C    8 C1I L1I D1I S1I C7I L7I D7I S7I                      SYS / # / OBS TYPES
E    8 C1C L1C D1C S1C C7Q L7Q D7Q S7Q                      SYS / # / OBS TYPES
DBHZ                                                        COMMENT
     30.000                                                 INTERVAL
  2020    05    09    12    00    0.0000000     GPS         TIME OF FIRST OBS
  2020    05    09    12    59   30.0000000     GPS         TIME OF LAST OBS
     0                                                      RCV CLOCK OFFS APPL
G L1C  0.00000                                              SYS / PHASE SHIFT
G L2Y  0.00000                                              SYS / PHASE SHIFT
R L1C  0.00000                                              SYS / PHASE SHIFT
R L2P  0.25000                                              SYS / PHASE SHIFT
C L1I  0.00000                                              SYS / PHASE SHIFT
C L7I  0.00000                                              SYS / PHASE SHIFT
E L1C  0.50000                                              SYS / PHASE SHIFT
E L7Q -0.25000                                              SYS / PHASE SHIFT
 13 R02 -4 R03  5 R04  6 R05  1 R10 -5 R13 -2 R14 -7 R15  0 GLONASS SLOT / FRQ #
    R16 -1 R17  4 R18 -3 R19  3 R20  2                      GLONASS SLOT / FRQ #
 C1C   71.950 C2C   71.950 C2P   71.950                     GLONASS COD/PHS/BIS
    18                                                      LEAP SECONDS
*** Above antenna height is from mark to ANTENNA BOTTOM.    COMMENT
    17     4        0.0000        ANT MEASURE TYPE/HEIGT    COMMENT
    0.0000    0.0000    0.0458    0.0405    0.0000          COMMENT
                    BASE STATION                            COMMENT
                                                            END OF HEADER
> 2020 05 09 12 00  0.0000000  0 14        .000000000000
G14  24431993.750 5 128390978.477 5     -2587.305          32.000
G18  22190193.125 7 116610319.436 7      3150.168          47.000    22190196.938 7  90865157.898 7      2454.676          47.000
G21  22076745.180 8 116014114.193 8      2704.344          51.000    22076744.414 7  90400549.311 7      2107.281          45.000
G25  21442813.852 7 112682741.391 7     -2207.105          46.000    21442816.836 7  87804735.459 7     -1719.825          46.000
G29  20349507.328 8 106937391.753 8      -830.434          51.000    20349507.250 8  83327833.783 8      -647.091          51.000
R15  22418097.734 8 119795486.617 8     -3783.992          48.000    22418101.195 7  93174263.499 7     -2943.111          45.000
R16  19262453.203 7 102896572.229 7      -791.574          47.000    19262453.656 7  80030667.879 7      -615.669          44.000
R18  19443110.992 8 103788745.558 8     -1558.602          49.000    19443114.320 8  80724569.612 8     -1212.246          48.000
R19  19986420.820 6 106913872.455 6      2350.051          39.000    19986423.328 7  83155245.102 7      1827.820          43.000
C27  21668134.711 8 112831651.736 8      -931.699          51.000
C28  25130982.391 5 130863594.860 5     -2986.266          34.000
C30  22612900.586 8 117751406.124 8      2044.434          51.000
E15  23571269.148 8 123867875.023 8      1573.891          51.000    23571272.234 8  94911763.398 8      1205.986          51.000
E30  22892952.406 8 120303266.711 8     -1443.570          51.000    22892955.602 8  92180422.707 8     -1106.088          51.000
> 2020 05 09 12 00 30.0000000  0 13        .000000000000
G18  22172234.734 7 116515947.082 7      3151.293          47.000    22172238.578 7  90791621.002 7      2455.553          47.000
G21  22061335.219 8 115933132.295 8      2704.363          51.000    22061334.414 7  90337446.573 7      2107.299          46.000
G25  21455435.711 7 112749070.666 7     -2204.965          45.000    21455438.656 7  87856420.593 7     -1718.154          46.000
G29  20354279.648 8 106962470.006 8      -831.445          51.000    20354279.453 8  83347375.279 8      -647.879          51.000
R15  22439363.523 8 119909122.842 8     -3781.621          48.000    22439367.125 7  93262647.154 7     -2941.264          46.000
R16  19266954.922 7 102920619.383 7      -801.535          46.000    19266955.367 7  80049371.220 7      -623.416          44.000
R18  19451921.977 8 103835779.379 8     -1566.961          48.000    19451925.125 7  80761151.479 7     -1218.747          47.000
R19  19973292.750 6 106843648.450 6      2341.680          39.000    19973295.633 7  83100626.454 7      1821.309          43.000
C27  21673532.305 8 112859757.950 8      -932.055          51.000
C28  25148189.430 5 130953190.990 5     -2977.035          34.000
C30  22601147.250 8 117690200.854 8      2045.676          51.000
E15  23562312.594 8 123820808.598 8      1573.832          51.000    23562315.555 8  94875699.527 8      1205.929          51.000
E30  22901212.336 8 120346671.957 8     -1440.145          51.000    22901215.805 8  92213681.256 8     -1103.496          51.000
> 2020 05 09 12 01  0.0000000  0 13        .000000000000
G18  22154330.727 8 116421859.667 8      3127.727          48.000    22154333.945 7  90718306.147 7      2437.190          47.000
G21  22045986.617 8 115852474.749 8      2679.355          50.000    22045985.789 7  90274596.578 7      2087.809          46.000
G25  21468107.312 7 112815659.918 7     -2227.621          46.000    21468109.602 7  87908308.289 7     -1735.809          46.000
G29  20359118.984 8 106987900.170 8      -857.336          51.000    20359118.570 8  83367190.990 8      -668.054          51.000
R15  22460676.359 7 120023012.507 7     -3804.266          46.000    22460680.828 7  93351227.915 7     -2958.876          47.000
R16  19271573.938 7 102945292.647 7      -836.734          47.000    19271574.227 7  80068561.556 7      -650.793          44.000
R18  19460841.266 8 103883390.988 8     -1600.551          48.000    19460844.469 8  80798182.724 8     -1244.873          48.000
R19  19960272.242 6 106773997.597 6      2308.352          41.000    19960275.609 7  83046453.576 7      1795.385          45.000
C27  21678993.664 8 112888197.025 8      -957.266          51.000
C28  25165403.633 5 131042826.875 5     -2992.125          33.000
C30  22589447.992 8 117629276.743 8      2022.297          51.000
E15  23553418.250 8 123774069.738 8      1548.723          51.000    23553420.938 8  94839886.648 8      1186.714          51.000
E30  22909514.672 8 120390301.392 8     -1461.809          51.000    22909518.484 8  92247111.598 8     -1120.099          51.000
> 2020 05 09 12 01 30.0000000  0 14        .000000000000
G12  23926781.172 5 125736088.498 5     -3120.590          32.000
G18  22136507.164 8 116328194.926 8      3116.148          48.000    22136509.758 7  90645320.665 7      2428.168          47.000
G21  22030725.141 8 115772278.713 8      2666.410          48.000    22030724.938 7  90212106.174 7      2077.722          46.000
G25  21480854.117 7 112882643.622 7     -2238.555          46.000    21480856.031 7  87960503.343 7     -1744.328          46.000
G29  20364050.641 8 107013816.152 8      -870.977          51.000    20364050.281 8  83387385.278 8      -678.683          51.000
R15  22482061.719 7 120137290.798 7     -3814.785          47.000    22482067.000 7  93440110.982 7     -2967.055          46.000
R16  19276335.734 7 102970729.888 7      -859.648          46.000    19276336.359 7  80088346.060 7      -668.615          43.000
R18  19469893.969 8 103931714.968 8     -1621.680          48.000    19469897.219 7  80835768.028 7     -1261.306          46.000
R19  19947385.703 7 106705058.742 7      2287.363          42.000    19947388.703 7  82992834.465 7      1779.060          45.000
C27  21684544.273 8 112917101.435 8      -970.262          51.000
C28  25182649.961 4 131132634.956 4     -2995.484          29.000
C30  22577827.859 8 117568768.171 8      2011.012          51.000
E15  23544612.117 8 123727794.137 8      1535.746          51.000    23544614.305 8  94804428.724 8      1176.726          51.000
E30  22917885.469 8 120434290.116 8     -1471.328          51.000    22917889.234 8  92280817.255 8     -1127.387          51.000
> 2020 05 09 12 02  0.0000000  0 13        .000000000000
G14  24491357.664 6 128703004.835 6     -2615.094          37.000
G18  22118767.469 8 116234969.637 8      3101.359          49.000    22118769.250 7  90572677.628 7      2416.644          47.000
G21  22015554.102 7 115692560.387 7      2650.570          46.000    22015554.945 7  90149987.997 7      2065.379          46.000
G25  21493678.547 7 112950035.270 7     -2251.766          46.000    21493680.156 7  88013016.291 7     -1754.626          46.000
G29  20369077.141 8 107040230.624 8      -887.602          51.000    20369076.836 8  83407967.984 8      -691.638          51.000
R15  22503522.273 8 120251969.876 8     -3828.078          48.000    22503527.375 7  93529305.802 7     -2977.394          43.000
R16  19281243.297 7 102996945.550 7      -885.621          46.000    19281244.062 7  80108736.008 7      -688.816          42.000
R18  19479082.148 8 103980762.341 8     -1645.652          48.000    19479085.180 7  80873915.974 7     -1279.952          46.000
R19  19934635.266 6 106636847.340 6      2262.742          41.000    19934637.312 7  82939781.179 7      1759.911          43.000
C27  21690186.922 8 112946483.841 8      -986.172          51.000
C30  22566289.609 8 117508689.656 8      1996.637          49.000
E15  23535896.773 8 123681996.408 8      1519.812          51.000    23535898.758 8  94769336.967 8      1164.606          51.000
E30  22926327.320 8 120478652.209 8     -1483.660          51.000    22926331.156 8  92314808.991 8     -1136.863          51.000
> 2020 05 09 12 02 30.0000000  0 14        .000000000000
G14  24506268.656 5 128781368.884 5     -2611.734          35.000
G18  22101063.906 8 116141933.706 8      3098.621          50.000    22101064.789 8  90500182.128 8      2414.513          48.000
G21  22000426.875 8 115613069.092 8      2646.434          48.000    22000428.211 7  90088046.741 7      2062.156          46.000
G25  21506532.102 7 113017581.625 7     -2253.625          45.000    21506533.680 7  88065649.779 7     -1756.074          45.000
G29  20374150.062 8 107066889.175 8      -892.168          51.000    20374149.727 8  83428740.875 8      -695.196          51.000
R15  22525009.586 8 120366790.651 8     -3829.133          49.000    22525012.523 6  93618610.756 6     -2978.217          40.000
R16  19286248.508 7 103023683.114 7      -899.285          46.000    19286249.164 6  80129531.863 6      -699.447          41.000
R17  22842798.734 6 122236433.462 6     -4036.086          36.000    22842799.016 4  95072782.271 4     -3139.178          29.000
R18  19488357.320 7 104030273.489 7     -1657.477          47.000    19488360.617 7  80912424.649 7     -1289.148          45.000
R19  19921972.156 6 106569107.925 6      2250.883          39.000    19921973.594 7  82887095.012 7      1750.690          43.000
C27  21695873.039 8 112976092.520 8      -990.238          51.000
C30  22554786.602 8 117448791.319 8      1994.145          50.000
E15  23527224.227 8 123636424.455 8      1515.766          51.000    23527226.773 8  94734418.232 8      1161.449          51.000
E30  22934792.211 8 120523135.043 8     -1484.332          51.000    22934795.719 8  92348893.220 8     -1137.333          51.000
> 2020 05 09 12 03  0.0000000  0 13        .000000000000
G18  22083389.602 8 116049052.099 8      3097.027          49.000    22083389.688 7  90427806.890 7      2413.268          47.000
G21  21985336.766 8 115533769.152 8      2643.562          50.000    21985337.875 7  90026254.614 7      2059.922          45.000
G25  21519407.828 7 113085244.271 7     -2253.816          46.000    21519409.664 7  88118373.901 7     -1756.221          46.000
G29  20379262.094 8 107093753.329 8      -895.512          51.000    20379261.859 8  83449673.974 8      -697.801          51.000
R15  22546515.711 8 120481712.539 8     -3828.875          50.000    22546515.898 6  93707994.272 6     -2978.020          39.000
R16  19291344.156 7 103050904.291 7      -911.875          46.000    19291345.102 7  80150703.851 7      -709.236          42.000
R17  22865415.875 5 122357470.456 5     -4029.547          35.000    22865417.297 4  95166922.124 4     -3134.092          26.000
R18  19497711.750 8 104080207.327 8     -1668.023          48.000    19497714.469 7  80951262.079 7     -1297.352          44.000
R19  19909389.688 6 106501803.292 6      2239.539          40.000    19909391.422 7  82834747.002 7      1741.867          44.000
C27  21701595.133 8 113005888.751 8      -992.887          51.000
C30  22543311.797 8 117389036.341 8      1992.762          50.000
E15  23518587.953 8 123591041.127 8      1513.047          51.000    23518591.289 8  94699644.010 8      1159.303          51.000
E30  22943273.070 8 120567700.843 8     -1483.512          51.000    22943275.586 8  92383041.028 8     -1136.744          51.000
> 2020 05 09 12 03 30.0000000  0 14        .000000000000
G14  24536161.781 6 128938405.401 6     -2626.527          36.000
G18  22065804.070 8 115956639.770 8      3071.508          48.000    22065803.953 7  90355797.311 7      2393.383          47.000
G21  21970343.102 8 115454975.112 8      2616.980          51.000    21970343.828 7  89964856.694 7      2039.206          45.000
G25  21532365.070 7 113153334.962 7     -2277.781          45.000    21532367.086 7  88171431.606 7     -1774.894          45.000
G29  20384472.523 8 107121134.081 8      -922.336          51.000    20384472.391 8  83471009.627 8      -718.703          51.000
R15  22568100.055 8 120597050.889 8     -3852.570          51.000    22568099.641 6  93797701.747 6     -2996.447          40.000
R16  19296589.594 7 103078926.913 7      -948.617          44.000    19296591.234 7  80172499.189 7      -737.816          42.000
R17  22888078.625 5 122478747.049 5     -4047.445          35.000    22888080.289 4  95261243.366 4     -3148.013          24.000
R18  19507204.031 7 104130877.649 7     -1702.438          47.000    19507206.867 7  80990672.337 7     -1324.118          44.000
R19  19896948.062 6 106435252.715 6      2204.695          40.000    19896950.812 7  82782985.495 7      1714.766          45.000
C27  21707412.391 8 113036180.741 8     -1019.055          51.000
C30  22531923.758 8 117329734.785 8      1968.125          50.000
E15  23510047.477 8 123546159.342 8      1486.699          51.000    23510051.484 8  94665254.065 8      1139.189          51.000
E30  22951829.156 8 120612662.000 8     -1506.180          51.000    22951831.273 8  92417491.761 8     -1154.092          51.000
> 2020 05 09 12 04  0.0000000  0 13        .000000000000
G18  22048289.875 7 115864605.552 7      3062.645          47.000    22048290.086 7  90284082.356 7      2386.476          47.000
G21  21955428.203 8 115376595.129 8      2606.660          51.000    21955428.555 7  89903781.423 7      2031.164          46.000
G25  21545385.445 7 113221759.436 7     -2285.312          44.000    21545388.352 7  88224749.356 7     -1780.766          43.000
G29  20389763.180 8 107148936.154 8      -932.777          51.000    20389762.875 8  83492673.580 8      -726.839          51.000
R15  22589744.414 8 120712708.075 8     -3859.641          51.000    22589744.258 6  93887657.258 6     -3001.946          41.000
R16  19301967.281 7 103107655.680 7      -968.277          42.000    19301969.594 7  80194843.801 7      -753.105          43.000
R17  22910767.492 5 122600164.808 5     -4048.547          35.000
R18  19516816.172 8 104182186.602 8     -1719.848          49.000    19516818.609 7  81030579.297 7     -1337.659          43.000
R19  19884630.211 6 106369362.440 6      2186.543          40.000    19884633.578 7  82731737.489 7      1700.645          46.000
C27  21713306.547 8 113066874.161 8     -1028.805          50.000
C30  22520605.039 8 117270794.189 8      1959.656          51.000
E15  23501584.781 8 123501685.798 8      1476.594          51.000    23501589.250 8  94631176.931 8      1131.434          51.000
E30  22960442.516 8 120657924.701 8     -1512.805          51.000    22960444.750 8  92452173.525 8     -1159.123          51.000
> 2020 05 09 12 04 30.0000000  0 13        .000000000000
G18  22030837.320 8 115772893.819 8      3051.004          49.000    22030837.969 7  90212618.708 7      2377.409          47.000
G21  21940581.438 8 115298573.396 8      2594.055          51.000    21940581.258 7  89842985.312 7      2021.341          45.000
G25  21558458.469 7 113290458.792 7     -2295.129          44.000    21558461.508 7  88278281.286 7     -1788.415          44.000
G29  20395122.688 8 107177100.129 8      -945.488          51.000    20395122.086 8  83514619.534 8      -736.744          51.000
R15  22611436.898 8 120828622.716 8     -3868.707          49.000    22611437.117 7  93977813.027 7     -3008.997          42.000
R16  19307465.453 6 103137031.543 6      -990.699          41.000    19307469.266 7  80217691.705 7      -770.547          44.000
R17  22933471.719 5 122721661.299 5     -4051.828          34.000
R18  19526536.227 8 104234071.653 8     -1739.914          48.000    19526538.453 7  81070934.353 7     -1353.266          43.000
R19  19872425.375 6 106304073.927 6      2165.727          41.000    19872428.523 7  82680957.529 7      1684.454          46.000
C27  21719266.250 8 113097910.005 8     -1040.805          50.000
C30  22509344.578 8 117212157.378 8      1948.812          51.000
E15  23493188.898 8 123457562.811 8      1464.340          51.000    23493193.633 8  94597368.420 8      1122.009          51.000
E30  22969102.148 8 120703430.686 8     -1521.492          51.000    22969104.492 8  92487041.730 8     -1165.831          51.000
> 2020 05 09 12 05  0.0000000  0 13        .000000000000
G18  22013451.836 8 115681531.822 8      3040.070          50.000    22013452.562 7  90141427.581 7      2368.886          45.000
G21  21925807.820 8 115220935.954 8      2581.965          51.000    21925807.031 7  89782488.667 7      2011.924          46.000
G25  21571588.562 7 113359457.026 7     -2304.453          45.000    21571590.969 7  88332046.109 7     -1795.678          45.000
G29  20400555.391 8 107205649.200 8      -957.625          51.000    20400554.883 8  83536865.565 8      -746.201          51.000
R15  22633181.562 7 120944817.570 7     -3877.375          47.000    22633182.148 7  94068186.721 7     -3015.736          43.000
R16  19313090.219 7 103167079.612 7     -1012.410          44.000    19313094.547 7  80241062.446 7      -787.427          43.000
R17  22956195.016 5 122843258.387 5     -4054.324          32.000
R18  19536368.461 8 104286555.026 8     -1758.949          48.000    19536369.656 7  81111754.748 7     -1368.072          42.000
R19  19860338.633 7 106239413.483 7      2145.312          42.000    19860340.766 7  82630666.054 7      1668.576          46.000
C27  21725296.461 8 113129311.302 8     -1052.328          50.000
C30  22498146.883 8 117153849.253 8      1938.633          51.000
E15  23484864.586 8 123413815.564 8      1452.395          51.000    23484869.242 8  94563847.819 8      1112.874          51.000
E30  22977812.648 8 120749204.631 8     -1529.848          51.000    22977815.445 8  92522115.249 8     -1172.254          51.000
> 2020 05 09 12 05 30.0000000  0 13        .000000000000
G18  21996133.359 8 115590520.841 8      3027.863          50.000    21996133.555 7  90070509.955 7      2359.374          44.000
G21  21911107.453 8 115143683.658 8      2568.812          51.000    21911106.234 7  89722292.147 7      2001.675          46.000
G25  21584775.234 7 113428752.212 7     -2314.789          45.000    21584776.680 7  88386042.322 7     -1803.732          45.000
G29  20406060.836 8 107234580.618 8      -970.531          51.000    20406060.477 8  83559409.518 8      -756.261          51.000
R15  22654976.953 7 121061288.890 7     -3886.863          46.000    22654979.211 7  94158775.465 7     -3023.119          44.000
R16  19318841.000 7 103197798.596 7     -1034.992          45.000    19318844.961 7  80264954.987 7      -804.997          43.000
R17  22978936.250 5 122964951.924 5     -4058.059          31.000
R18  19546311.688 8 104339632.266 8     -1779.000          48.000    19546313.883 7  81153037.070 7     -1383.664          43.000
R19  19848369.281 7 106175381.446 7      2124.113          42.000    19848370.719 7  82580863.374 7      1652.088          46.000
C27  21731396.359 8 113161075.372 8     -1064.711          51.000
C30  22487012.039 8 117095868.979 8      1927.336          51.000
E15  23476611.477 8 123370443.211 8      1439.656          51.000    23476615.750 8  94530614.465 8      1103.122          51.000
E30  22986574.031 8 120795245.121 8     -1538.918          51.000    22986576.852 8  92557392.977 8     -1179.120          51.000
> 2020 05 09 12 06  0.0000000  0 13        .000000000000
G18  21978884.039 8 115499873.442 8      3003.730          50.000    21978883.633 7  89999875.655 7      2340.569          44.000
G21  21896482.477 8 115066828.580 8      2543.438          51.000    21896481.430 7  89662405.123 7      1981.899          46.000
G25  21598020.156 7 113498353.692 7     -2336.934          45.000    21598020.945 7  88440277.221 7     -1820.987          45.000
G29  20411640.570 8 107263902.769 8      -995.719          51.000    20411640.094 8  83582257.943 8      -775.885          51.000
G31  21134108.703 5 111060501.801 5        83.691          35.000    21134108.578 5  86540636.998 5        65.208          34.000
R15  22676825.336 7 121178044.744 7     -3908.414          46.000    22676829.141 7  94249585.496 7     -3039.881          43.000
R16  19324719.328 7 103229198.495 7     -1069.984          47.000    19324722.836 7  80289377.108 7      -832.210          43.000
R18  19556367.344 7 104393310.605 7     -1811.211          47.000    19556369.664 6  81194786.892 6     -1408.720          41.000
R19  19836519.219 7 106111988.906 7      2090.336          43.000    19836520.352 7  82531558.082 7      1625.817          46.000
C27  21737567.414 8 113193210.728 8     -1088.938          51.000
C30  22475942.172 8 117038226.926 8      1904.055          50.000
E15  23468431.430 8 123327456.220 8      1414.691          51.000    23468435.000 8  94497676.377 8      1084.005          51.000
E30  22995388.195 8 120841562.162 8     -1560.238          51.000    22995390.648 8  92592882.629 8     -1195.465          51.000
> 2020 05 09 12 06 30.0000000  0 13        .000000000000
G18  21961727.031 8 115409712.806 8      3009.867          50.000    21961726.195 7  89929620.634 7      2345.354          44.000
G21  21881956.148 8 114990493.221 8      2548.578          50.000    21881955.586 7  89602923.044 7      1985.905          45.000
G25  21611345.641 7 113568381.463 7     -2328.727          43.000    21611347.391 7  88494844.272 7     -1814.595          43.000
G29  20417317.461 8 107293735.262 8      -990.125          51.000    20417316.828 8  83605504.033 8      -771.526          51.000
G31  21133644.109 6 111058057.363 6        82.172          37.000    21133643.000 6  86538732.245 6        64.027          36.000
R15  22698749.867 7 121295205.523 7     -3899.031          47.000    22698754.383 7  94340710.425 7     -3032.586          42.000
R16  19330748.359 7 103261402.040 7     -1073.820          47.000    19330751.188 7  80314424.272 7      -835.197          43.000
R18  19566557.914 7 104447709.005 7     -1812.340          46.000    19566560.188 7  81237096.726 7     -1409.598          42.000
R19  19824811.156 7 106049359.575 7      2087.711          42.000    19824812.672 7  82482846.437 7      1623.778          45.000
C27  21743832.859 8 113225835.529 8     -1083.004          51.000
C30  22464960.594 8 116981043.066 8      1911.082          50.000
E15  23460347.219 8 123284975.627 8      1420.266          51.000    23460350.281 8  94465126.338 8      1088.279          51.000
E30  23004277.953 8 120888276.255 8     -1551.043          51.000    23004280.156 8  92628676.515 8     -1188.509          51.000
> 2020 05 09 12 07  0.0000000  0 13        .000000000000
G18  21944600.789 8 115319714.956 8      2991.965          49.000    21944599.617 7  89859492.475 7      2331.404          45.000
G21  21867466.773 8 114914353.292 8      2529.605          49.000    21867466.578 7  89543593.239 7      1971.121          46.000
G25  21624690.234 7 113638508.336 7     -2344.457          43.000    21624692.484 7  88549488.575 7     -1826.853          43.000
G29  20423029.195 8 107323750.228 8     -1008.699          51.000    20423028.375 8  83628892.323 8      -785.999          51.000
G31  21133252.352 5 111056002.623 5        57.008          31.000    21133251.938 5  86537131.177 5        44.419          30.000
R15  22720687.992 7 121412436.754 7     -3914.215          47.000    22720692.594 7  94431890.176 7     -3044.392          42.000
R16  19336865.625 7 103294077.487 7     -1102.332          47.000    19336868.031 7  80339838.476 7      -857.369          43.000
R18  19576820.617 7 104502492.923 7     -1837.875          46.000    19576823.539 7  81279706.444 7     -1429.461          42.000
R19  19813183.484 6 105987162.621 6      2060.820          41.000    19813185.547 7  82434471.059 7      1602.860          44.000
C27  21750129.703 8 113258624.824 8     -1100.852          51.000
C30  22454004.938 8 116923994.305 8      1894.086          50.000
E15  23452297.492 8 123242675.430 8      1401.844          51.000    23452299.859 8  94432714.522 8      1074.170          51.000
E30  23013180.922 8 120935060.856 8     -1565.812          51.000    23013182.781 8  92664524.419 8     -1199.772          51.000
> 2020 05 09 12 07 30.0000000  0 13        .000000000000
G18  21927550.375 8 115230115.639 8      2981.777          49.000    21927549.031 7  89789674.889 7      2323.463          45.000
G21  21853059.188 8 114838643.678 8      2518.273          48.000    21853059.117 7  89484598.758 7      1962.294          45.000
G25  21638098.227 7 113708966.874 7     -2352.398          44.000    21638100.539 7  88604391.311 7     -1833.038          44.000
G29  20428819.625 8 107354179.044 8     -1019.496          51.000    20428818.703 8  83652603.108 8      -794.413          51.000
G31  21132979.273 5 111054571.262 5        38.930          33.000    21132978.898 5  86536015.797 5        30.332          33.000
R15  22742682.930 7 121529973.270 7     -3921.270          45.000    22742687.688 7  94523307.385 7     -3049.879          42.000
R16  19343115.508 7 103327461.233 7     -1122.688          46.000    19343117.680 7  80365803.589 7      -873.201          43.000
R18  19587199.477 7 104557896.165 7     -1855.297          45.000    19587202.320 7  81322797.846 7     -1443.009          42.000
R19  19801681.203 6 105925636.515 6      2041.344          40.000    19801683.805 7  82386617.437 7      1587.712          45.000
C27  21756502.031 8 113291808.297 8     -1110.887          51.000
C30  22443119.297 8 116867312.173 8      1885.020          49.000
E15  23444326.953 8 123200789.300 8      1390.996          51.000    23444328.289 8  94400619.976 8      1065.822          51.000
E30  23022141.570 8 120982149.089 8     -1572.996          51.000    23022143.297 8  92700604.993 8     -1205.292          51.000
> 2020 05 09 12 08  0.0000000  0 14        .000000000000
G18  21910528.539 8 115140666.296 8      2967.375          49.000    21910527.523 7  89719974.164 7      2312.240          46.000
G21  21838686.078 8 114763115.152 8      2502.887          48.000    21838686.289 7  89425745.389 7      1950.301          45.000
G25  21651521.625 7 113779505.302 7     -2364.465          46.000    21651523.656 7  88659356.286 7     -1842.440          46.000
G29  20434640.820 8 107384769.414 8     -1034.156          51.000    20434639.859 8  83676439.764 8      -805.836          51.000
G31  21132776.883 5 111053492.166 5        17.820          33.000    21132776.117 5  86535185.562 5        13.880          33.000
R15  22764685.742 6 121647557.530 6     -3932.266          41.000    22764691.102 6  94614761.734 6     -3058.432          41.000
R16  19349450.008 7 103361298.156 7     -1147.500          45.000    19349451.992 7  80392121.203 7      -892.500          44.000
R18  19597645.883 7 104613660.140 7     -1876.777          46.000    19597648.852 6  81366169.847 6     -1459.716          41.000
R19  19790256.906 6 105864526.605 6      2018.109          40.000    19790260.047 7  82339087.552 7      1569.641          45.000
C27  21762902.461 8 113325135.694 8     -1124.965          51.000
C28  25407922.242 5 132305625.612 5     -3022.805          31.000
C30  22432256.844 8 116810748.277 8      1871.848          51.000
E15  23436387.375 8 123159066.486 8      1376.297          51.000    23436387.812 8  94368650.569 8      1054.577          51.000
E30  23031112.008 8 121029289.718 8     -1583.895          51.000    23031113.922 8  92736725.719 8     -1213.666          51.000
> 2020 05 09 12 08 30.0000000  0 14        .000000000000
G18  21893621.648 8 115051820.776 8      2957.008          49.000    21893621.617 7  89650743.929 7      2304.162          46.000
G21  21824433.734 7 114688221.010 7      2491.547          47.000    21824434.289 7  89367386.350 7      1941.468          45.000
G25  21665046.180 7 113850574.248 7     -2372.121          47.000    21665047.594 7  88714734.664 7     -1848.406          47.000
G29  20440578.406 8 107415971.374 8     -1044.594          51.000    20440577.453 8  83700752.972 8      -813.969          51.000
G31  21132732.344 6 111053257.167 6         -.102          37.000    21132731.336 6  86535002.486 6         -.079          37.000
R15  22786780.648 5 121765645.978 5     -3938.934          34.000    22786789.188 6  94706608.258 6     -3063.618          41.000
R16  19355955.391 7 103396047.188 7     -1167.730          45.000    19355957.594 7  80419148.219 7      -908.235          45.000
R18  19608245.570 7 104670240.597 7     -1893.930          45.000    19608248.367 6  81410176.853 6     -1473.056          40.000
R19  19778996.820 6 105804293.420 6      1998.938          41.000    19779000.078 7  82292239.533 7      1554.729          44.000
C27  21769415.953 8 113359052.862 8     -1134.770          51.000
C28  25425339.062 5 132396328.274 5     -3022.797          30.000
C30  22421503.695 8 116754750.209 8      1862.840          51.000
E15  23428564.672 8 123117958.725 8      1365.672          51.000    23428564.953 8  94337152.464 8      1046.430          51.000
E30  23040177.906 8 121076934.053 8     -1590.895          51.000    23040180.492 8  92773232.394 8     -1218.997          51.000
> 2020 05 09 12 09  0.0000000  0 14        .000000000000
G18  21876772.398 8 114963276.872 8      2945.211          51.000    21876773.047 7  89581748.705 7      2294.973          47.000
G21  21810244.641 7 114613658.513 7      2478.637          47.000    21810245.516 7  89309285.734 7      1931.408          47.000
G25  21678613.117 7 113921868.324 7     -2381.355          45.000    21678614.898 7  88770288.457 7     -1855.602          45.000
G29  20446574.008 8 107447478.740 8     -1056.496          51.000    20446573.195 8  83725304.166 8      -823.244          51.000
G31  21132786.617 6 111053540.960 6       -19.082          36.000    21132785.773 6  86535223.675 6       -14.872          36.000
R15  22808914.227 6 121883926.369 6     -3947.246          36.000    22808924.016 6  94798604.138 6     -3070.080          40.000
R16  19362573.375 7 103431397.953 7     -1189.547          46.000    19362575.578 7  80446643.264 7      -925.203          44.000
R18  19618939.711 7 104727324.675 7     -1912.293          45.000    19618941.734 6  81454575.587 6     -1487.342          39.000
R19  19767842.922 6 105744627.683 6      1978.117          40.000    19767845.742 7  82245832.843 7      1538.536          43.000
C27  21775984.359 8 113393256.384 8     -1146.078          51.000
C28  25442755.797 4 132487105.648 4     -3023.816          28.000
C30  22410801.117 8 116699016.434 8      1852.234          51.000
E15  23420801.500 8 123077161.732 8      1353.488          51.000    23420802.023 8  94305892.454 8      1037.118          51.000
E30  23049281.672 8 121124777.184 8     -1599.215          51.000    23049284.641 8  92809891.422 8     -1225.387          51.000
> 2020 05 09 12 09 30.0000000  0 13        .000000000000
G18  21860034.992 8 114875320.279 8      2934.438          51.000    21860035.891 7  89513211.139 7      2286.575          47.000
G21  21796173.234 8 114539712.984 8      2466.848          48.000    21796174.305 7  89251665.838 7      1922.219          47.000
G25  21692275.961 7 113993670.103 7     -2389.723          42.000    21692278.516 7  88826237.864 7     -1862.122          42.000
G29  20452681.266 8 107479573.243 8     -1067.281          51.000    20452680.641 8  83750312.870 8      -831.648          51.000
G31  21132993.219 5 111054627.392 5       -37.488          35.000    21132992.078 6  86536070.208 6       -29.212          36.000
R15  22831140.508 7 122002684.737 7     -3953.941          42.000    22831148.531 6  94890971.694 6     -3075.291          38.000
R16  19369357.992 7 103467638.160 7     -1210.406          46.000    19369359.875 7  80474830.110 7      -941.424          44.000
R18  19629781.195 7 104785196.630 7     -1929.582          42.000    19629782.781 6  81499587.074 6     -1500.786          39.000
R19  19756849.453 6 105685818.675 6      1958.273          40.000    19756851.258 7  82200092.507 7      1523.102          43.000
C27  21782661.570 8 113428025.529 8     -1156.227          51.000
C30  22400202.672 8 116643828.016 8      1842.730          51.000
E15  23413151.422 8 123036959.135 8      1342.410          51.000    23413152.469 8  94275087.863 8      1028.621          51.000
E30  23058477.211 8 121173102.313 8     -1606.629          51.000    23058480.367 8  92846919.789 8     -1231.059          51.000
> 2020 05 09 12 10  0.0000000  0 13        .000000000000
G18  21843315.961 8 114787460.810 8      2921.012          50.000    21843317.016 8  89444749.255 8      2276.116          48.000
G21  21782126.266 8 114465893.143 8      2452.551          49.000    21782126.906 8  89194143.886 8      1911.079          48.000
G25  21705941.609 7 114065485.992 7     -2399.844          43.000    21705945.258 7  88882198.321 7     -1870.005          43.000
G29  20458806.359 8 107511760.704 8     -1080.414          51.000    20458805.656 8  83775394.001 8      -841.881          51.000
G31  21133259.453 6 111056023.921 6       -57.789          39.000    21133258.406 6  86537158.413 6       -45.030          38.000
R15  22853362.391 7 122121417.429 7     -3963.406          45.000    22853368.031 5  94983319.214 5     -3082.652          35.000
R16  19376214.875 7 103504267.044 7     -1233.508          46.000    19376216.930 7  80503319.224 7      -959.395          45.000
R18  19640675.766 6 104843352.935 6     -1949.324          41.000    19640677.875 6  81544819.774 6     -1516.141          38.000
R19  19745922.656 6 105627365.822 6      1936.371          40.000    19745923.969 7  82154629.186 7      1506.069          44.000
C27  21789353.031 8 113462870.523 8     -1168.645          51.000
C30  22389615.062 8 116588697.010 8      1830.805          51.000
E15  23405520.469 8 122996858.503 8      1329.031          51.000    23405522.195 8  94244361.408 8      1018.298          51.000
E30  23067671.000 8 121221416.568 8     -1616.344          51.000    23067674.383 8  92883939.799 8     -1238.452          51.000
> 2020 05 09 12 10 30.0000000  0 13        .000000000000
G18  21826674.805 8 114700011.616 8      2908.551          50.000    21826675.906 8  89376607.057 8      2266.403          48.000
G21  21768162.789 8 114392511.551 8      2439.203          50.000    21768162.695 7  89136963.450 7      1900.681          47.000
G25  21719669.453 7 114137626.167 7     -2409.645          42.000    21719672.984 7  88938411.470 7     -1877.645          42.000
G29  20465008.039 8 107544350.631 8     -1092.516          51.000    20465007.094 8  83800788.756 8      -851.311          51.000
G31  21133643.781 6 111058041.274 6       -76.832          37.000    21133643.039 6  86538730.385 6       -59.869          36.000
R15  22875637.984 7 122240437.904 7     -3971.668          46.000    22875638.227 5  95075890.481 5     -3089.081          31.000
R16  19383203.266 7 103541599.736 7     -1255.637          45.000    19383205.570 7  80532355.746 7      -976.606          43.000
R18  19651681.750 6 104902106.007 6     -1967.746          41.000    19651684.180 6  81590516.580 6     -1530.472          38.000
R19  19735121.539 6 105569586.470 6      1915.363          41.000    19735123.000 7  82109689.706 7      1489.727          45.000
C27  21796117.992 8 113498097.898 8     -1180.086          51.000
C30  22379097.656 8 116533931.748 8      1819.949          51.000
E15  23397968.016 8 122957170.977 8      1316.418          51.000    23397970.625 8  94213951.492 8      1008.753          51.000
E30  23076921.750 8 121270030.586 8     -1625.082          51.000    23076925.266 8  92921189.467 8     -1245.166          51.000
> 2020 05 09 12 11  0.0000000  0 14        .000000000000
G18  21810101.086 8 114612916.991 8      2912.012          49.000    21810102.328 8  89308741.126 8      2269.100          48.000
G21  21754271.766 8 114319512.069 8      2441.652          50.000    21754271.141 7  89080080.786 7      1902.586          46.000
G25  21733447.977 7 114210031.804 7     -2403.211          44.000    21733450.977 7  88994831.391 7     -1872.632          45.000
G29  20471274.891 8 107577283.381 8     -1088.703          51.000    20471273.977 8  83826450.658 8      -848.340          51.000
G31  21134134.844 6 111060621.391 6       -79.039          36.000    21134134.531 6  86540740.928 6       -61.586          36.000
R15  22897955.234 7 122359684.935 7     -3963.633          46.000    22897952.898 5  95168638.002 5     -3082.832          35.000
R16  19390312.305 7 103579576.976 7     -1261.625          45.000    19390314.789 7  80561893.613 7      -981.267          44.000
R18  19662788.211 6 104961393.378 6     -1970.164          41.000    19662791.852 6  81636629.016 6     -1532.347          38.000
R19  19724435.289 6 105512422.427 6      1910.180          40.000    19724437.055 7  82065228.807 7      1485.698          45.000
C27  21802945.062 8 113533648.509 8     -1175.797          51.000
C28  25512544.734 5 132850510.797 5     -3014.199          30.000
C30  22368639.281 8 116479474.912 8      1824.707          50.000
E15  23390483.172 8 122917838.671 8      1319.855          51.000    23390486.516 8  94183813.770 8      1011.354          51.000
E30  23086218.703 8 121318885.996 8     -1617.852          51.000    23086221.867 8  92958624.117 8     -1239.650          51.000
> 2020 05 09 12 11 30.0000000  0 15        .000000000000
G18  21793574.562 8 114526070.027 8      2882.348          50.000    21793575.984 7  89241068.177 7      2245.985          47.000
G21  21740432.891 8 114246787.149 8      2411.129          51.000    21740432.047 7  89023412.066 7      1878.805          45.000
G25  21747256.234 7 114282592.700 7     -2429.719          44.000    21747258.391 7  89051372.302 7     -1893.287          44.000
G26  22398861.906 5 117706792.024 5      2749.180          34.000
G29  20477585.938 8 107610447.948 8     -1117.766          51.000    20477585.289 8  83852293.190 8      -870.986          51.000
G31  21134711.945 5 111063655.012 5      -117.152          33.000    21134712.672 5  86543104.786 5       -91.291          32.000
R15  22920293.281 7 122479044.641 7     -3989.047          47.000    22920291.492 6  95261473.203 6     -3102.595          38.000
R16  19397521.000 7 103618087.258 7     -1301.133          45.000    19397524.156 7  80591846.025 7     -1011.995          44.000
R18  19673973.328 6 105021100.788 6     -2005.598          41.000    19673977.039 6  81683068.080 6     -1559.909          37.000
R19  19713842.727 6 105455762.625 6      1871.336          40.000    19713845.109 7  82021160.113 7      1455.484          45.000
C27  21809813.141 8 113569412.529 8     -1203.996          51.000
C28  25529981.227 5 132941292.947 5     -3032.453          32.000
C30  22358219.547 8 116425218.447 8      1796.840          50.000
E15  23383045.062 8 122878752.564 8      1290.355          51.000    23383048.992 8  94153864.703 8       988.690          51.000
E30  23095540.883 8 121367873.275 8     -1643.605          51.000    23095543.727 8  92996159.818 8     -1259.353          51.000
> 2020 05 09 12 12  0.0000000  0 16        .000000000000
G18  21777154.266 8 114439781.215 8      2870.984          48.000    21777155.680 7  89173830.138 7      2237.131          47.000
G21  21726705.227 8 114174646.407 8      2398.906          51.000    21726704.406 7  88967198.557 7      1869.281          45.000
G25  21761152.148 7 114355616.193 7     -2437.691          43.000    21761153.805 7  89108273.692 7     -1899.500          43.000
G26  22383183.578 5 117624388.968 5      2744.984          33.000
G29  20483999.422 8 107644151.121 8     -1128.406          51.000    20483998.953 8  83878555.414 8      -879.275          51.000
G31  21135434.047 6 111067454.911 6      -135.691          36.000    21135433.734 5  86546061.836 5      -105.731          34.000
R15  22942710.211 7 122598827.951 7     -3995.852          47.000    22942709.336 6  95354637.900 6     -3107.888          39.000
R16  19404888.602 7 103657443.470 7     -1321.855          46.000    19404891.930 7  80622456.396 7     -1028.110          44.000
R17  23275824.664 5 124553656.256 5     -4086.891          32.000
R18  19685295.258 7 105081537.736 7     -2022.684          43.000    19685299.453 6  81730074.650 6     -1573.198          37.000
R19  19703404.102 7 105399921.957 7      1851.875          42.000    19703406.180 7  81977728.472 7      1440.347          44.000
C27  21816780.672 8 113605693.743 8     -1214.039          51.000
C28  25547457.578 5 133032297.829 5     -3033.941          33.000
C30  22347897.617 8 116371467.958 8      1787.148          51.000
E15  23375712.500 8 122840221.043 8      1279.168          51.000    23375716.562 8  94124340.562 8       980.154          51.000
E30  23104946.695 8 121417300.332 8     -1650.805          51.000    23104949.656 8  93034032.477 8     -1264.971          51.000
> 2020 05 09 12 12 30.0000000  0 15        .000000000000
G18  21760801.570 8 114353848.841 8      2858.117          48.000    21760802.859 7  89106869.860 7      2227.104          46.000
G21  21713050.188 8 114102887.650 8      2385.219          51.000    21713049.258 7  88911282.699 7      1858.615          45.000
G25  21775097.102 7 114428897.437 7     -2447.176          45.000    21775098.875 7  89165375.934 7     -1906.890          45.000
G26  22367529.930 5 117542129.334 5      2739.266          33.000    22367524.648 5  91591275.645 5      2134.499          32.000
G29  20490476.227 8 107678187.154 8     -1140.402          50.000    20490475.695 8  83905077.003 8      -888.625          50.000
G31  21136262.414 6 111071806.894 6      -154.527          37.000    21136258.852 5  86549452.989 5      -120.405          35.000
R15  22965166.055 7 122718824.971 7     -4003.555          45.000    22965165.945 6  95447968.814 6     -3113.879          39.000
R16  19412375.562 7 103697437.576 7     -1344.055          47.000    19412378.883 7  80653562.902 7     -1045.379          44.000
R18  19696714.422 7 105142493.804 7     -2040.844          42.000    19696717.820 6  81777484.905 6     -1587.323          36.000
R19  19693080.070 7 105344693.288 7      1830.488          42.000    19693081.711 7  81934772.888 7      1423.716          44.000
C27  21823808.352 8 113642288.423 8     -1225.230          51.000
C28  25564938.094 5 133123321.689 5     -3034.152          32.000
C30  22337634.359 8 116318021.521 8      1776.281          51.000
E15  23368446.734 8 122802040.259 8      1266.520          51.000    23368450.648 8  94095085.186 8       970.441          51.000
E30  23114397.359 8 121466962.953 8     -1659.695          51.000    23114400.359 8  93072085.610 8     -1271.712          51.000
> 2020 05 09 12 13  0.0000000  0 16        .000000000000
G18  21744522.195 7 114268302.352 7      2845.188          46.000    21744523.531 7  89040210.298 7      2217.032          46.000
G21  21699472.938 8 114031539.636 8      2371.426          49.000    21699472.117 7  88855686.876 7      1847.864          45.000
G25  21789096.258 7 114502462.668 7     -2457.070          44.000    21789098.047 7  89222699.504 7     -1914.600          44.000
G26  22351912.828 5 117460084.713 5      2732.984          31.000
G29  20497021.266 8 107712581.577 8     -1152.422          51.000    20497020.680 8  83931877.857 8      -897.991          51.000
G31  21137202.070 5 111076745.041 5      -174.207          35.000    21137194.938 5  86553299.279 5      -135.752          35.000
R15  22987665.016 6 122839060.631 6     -4011.980          41.000    22987666.508 6  95541485.345 6     -3120.435          38.000
R16  19419987.320 7 103738096.402 7     -1366.469          47.000    19419990.586 7  80685186.401 7     -1062.812          45.000
R17  23321666.125 4 124798941.377 4     -4090.207          29.000
R18  19708235.312 7 105203992.876 7     -2059.074          44.000    19708238.156 6  81825317.502 6     -1601.505          37.000
R19  19682876.062 7 105290105.101 7      1808.824          43.000    19682876.727 7  81892315.440 7      1406.866          44.000
C27  21830901.281 8 113679221.898 8     -1236.762          51.000
C28  25582426.188 5 133214390.103 5     -3036.559          32.000
C30  22327434.484 8 116264906.214 8      1764.980          51.000
E15  23361252.859 8 122764237.510 8      1253.809          51.000    23361256.906 8  94066119.488 8       960.687          51.000
E30  23123898.109 8 121516888.014 8     -1668.578          51.000    23123901.070 8  93110339.837 8     -1278.518          51.000
> 2020 05 09 12 13 30.0000000  0 14        .000000000000
G18  21728318.977 8 114183154.250 8      2832.020          48.000    21728320.164 7  88973861.194 7      2206.772          45.000
G21  21685975.555 8 113960614.047 8      2357.457          49.000    21685975.188 7  88800420.176 7      1836.980          45.000
G25  21803151.273 7 114576321.355 7     -2466.445          44.000    21803152.648 7  89280251.688 7     -1921.905          44.000
G29  20503636.211 8 107747343.480 8     -1164.477          51.000    20503635.656 8  83958965.039 8      -907.384          51.000
G31  21138253.562 5 111082275.309 5      -194.301          33.000    21138247.047 5  86557608.586 5      -151.403          32.000
R15  23010208.844 6 122959542.682 6     -4019.840          37.000    23010213.305 6  95635193.506 6     -3126.545          37.000
R16  19427725.438 7 103779430.176 7     -1388.562          47.000    19427728.359 7  80717334.871 7     -1079.993          43.000
R18  19719859.383 7 105266042.142 7     -2077.027          42.000    19719862.781 6  81873578.002 6     -1615.466          37.000
R19  19672793.617 7 105236168.163 7      1787.508          42.000    19672793.648 7  81850364.517 7      1390.284          45.000
C27  21838060.992 8 113716502.653 8     -1248.070          51.000
C28  25599924.977 5 133305511.499 5     -3038.012          30.000
C30  22317299.773 8 116212132.305 8      1753.789          51.000
E15  23354133.078 8 122726823.202 8      1241.137          51.000    23354137.281 8  94037451.410 8       951.013          51.000
E30  23133450.688 8 121567085.314 8     -1677.305          51.000    23133452.992 8  93148802.681 8     -1285.181          51.000
> 2020 05 09 12 14  0.0000000  0 14        .000000000000
G18  21712187.523 8 114098382.804 8      2817.938          48.000    21712188.305 7  88907805.556 7      2195.795          46.000
G21  21672554.492 8 113890088.743 8      2342.492          49.000    21672554.391 7  88745465.414 7      1825.319          45.000
G25  21817257.344 7 114650448.521 7     -2477.004          44.000    21817258.969 7  89338013.094 7     -1930.133          44.000
G29  20510316.125 8 107782446.968 8     -1177.551          50.000    20510315.617 8  83986318.390 8      -917.572          51.000
G31  21139413.039 5 111088369.377 5      -214.301          34.000    21139410.820 5  86562352.862 5      -166.978          33.000
R15  23032795.320 6 123080244.193 6     -4029.160          37.000    23032801.531 6  95729072.355 6     -3133.794          37.000
R16  19435584.969 7 103821413.742 7     -1412.055          46.000    19435588.148 7  80749988.734 7     -1098.265          44.000
R18  19731580.945 7 105328613.616 7     -2096.051          44.000    19731585.281 6  81922244.734 6     -1630.262          36.000
R19  19662828.031 7 105182858.641 7      1764.789          42.000    19662828.297 7  81808901.567 7      1372.614          45.000
C27  21845282.234 8 113754105.261 8     -1260.406          51.000
C28  25617428.688 5 133396660.603 5     -3040.391          31.000
C30  22307225.977 8 116159676.184 8      1741.656          51.000
E15  23347082.867 8 122689773.465 8      1227.316          51.000    23347086.797 8  94009062.658 8       940.429          51.000
E30  23143050.328 8 121617530.580 8     -1687.180          51.000    23143052.016 8  93187455.542 8     -1292.747          51.000
> 2020 05 09 12 14 30.0000000  0 14        .000000000000
G18  21696130.922 8 114014005.735 8      2806.637          49.000    21696131.969 7  88842057.190 7      2186.990          46.000
G21  21659213.367 8 113819980.714 8      2330.762          50.000    21659212.953 7  88690835.798 7      1816.178          45.000
G25  21831417.133 7 114724858.622 7     -2484.270          43.000    21831419.039 7  89395994.957 7     -1935.797          43.000
G29  20517063.648 8 107817905.728 8     -1187.035          51.000    20517063.070 8  84013948.592 8      -924.962          51.000
G31  21140685.000 5 111095054.655 5      -231.969          34.000    21140681.125 5  86567562.231 5      -180.746          34.000
R15  23055427.766 6 123201178.494 6     -4034.184          41.000    23055433.625 5  95823132.139 5     -3137.704          35.000
R16  19443568.719 7 103864061.676 7     -1431.914          45.000    19443572.617 7  80783159.306 7     -1113.711          43.000
R18  19743402.594 6 105391719.609 6     -2111.688          41.000    19743405.453 5  81971327.106 5     -1642.424          35.000
R19  19652982.102 6 105130192.899 6      1745.652          40.000    19652983.406 7  81767939.327 7      1357.730          45.000
C27  21852567.609 8 113792043.351 8     -1269.383          51.000
C28  25634940.633 5 133487851.291 5     -3039.898          31.000
C30  22297216.414 8 116107553.250 8      1732.629          51.000
E15  23340105.133 8 122653103.773 8      1216.789          51.000    23340108.180 8  93980965.114 8       932.360          51.000
E30  23152699.766 8 121668238.878 8     -1693.898          51.000    23152701.641 8  93226309.938 8     -1297.916          51.000
> 2020 05 09 12 15  0.0000000  0 14        .000000000000
G18  21680150.000 8 113930025.396 8      2793.945          50.000    21680151.336 7  88776617.949 7      2177.100          46.000
G21  21645952.266 8 113750291.395 8      2317.301          50.000    21645951.125 7  88636532.476 7      1805.689          46.000
G25  21845630.320 7 114799551.087 7     -2493.027          42.000    21845631.664 7  89454196.848 7     -1942.619          43.000
G29  20523878.641 8 107853718.456 8     -1198.293          51.000    20523877.891 8  84041854.604 8      -933.735          51.000
G31  21142067.445 5 111102324.958 5      -250.758          34.000    21142070.344 5  86573227.395 5      -195.393          33.000
R15  23078103.875 7 123322343.080 7     -4041.348          43.000    23078108.406 5  95917371.057 5     -3143.276          34.000
R16  19451676.750 7 103907373.785 7     -1453.449          44.000    19451680.914 7  80816846.501 7     -1130.461          43.000
R18  19755323.688 7 105455356.799 7     -2128.617          42.000    19755327.984 5  82020822.739 5     -1655.591          35.000
R19  19643256.562 6 105078171.830 6      1724.633          41.000    19643258.750 7  81727478.490 7      1341.381          45.000
C27  21859917.617 8 113830315.613 8     -1280.090          51.000
C28  25652459.664 4 133579089.107 4     -3041.230          29.000
C30  22287271.117 8 116055763.875 8      1722.066          51.000
E15  23333199.711 8 122616814.515 8      1204.586          51.000    23333201.930 8  93953159.077 8       923.003          51.000
E30  23162399.062 8 121719210.151 8     -1702.152          51.000    23162401.164 8  93265365.829 8     -1304.193          51.000
> 2020 05 09 12 15 30.0000000  0 13        .000000000000
G18  21664246.312 8 113846448.457 8      2781.062          51.000    21664247.023 7  88711493.082 7      2167.065          45.000
G21  21632771.922 8 113681027.066 8      2303.641          50.000    21632770.508 7  88582560.330 7      1795.048          46.000
G25  21859898.078 7 114874529.394 7     -2502.129          43.000    21859899.734 7  89512621.493 7     -1949.711          43.000
G29  20530761.523 8 107889887.675 8     -1209.793          51.000    20530760.891 8  84070038.419 8      -942.696          51.000
G31  21143563.477 5 111110184.312 5      -269.844          35.000    21143569.250 6  86579351.557 6      -210.274          36.000
R15  23100822.938 7 123443739.751 7     -4048.648          42.000    23100826.305 5  96011790.423 5     -3148.955          32.000
R16  19459909.828 7 103951353.959 7     -1475.363          45.000    19459914.305 7  80851053.263 7     -1147.505          44.000
R18  19767344.742 6 105519526.386 6     -2145.695          39.000    19767349.328 5  82070732.420 5     -1668.874          35.000
R19  19633653.133 7 105026800.004 7      1703.707          42.000    19633655.227 7  81687522.633 7      1325.109          45.000
C27  21867332.133 8 113868924.772 8     -1290.645          51.000
C30  22277390.625 8 116004312.608 8      1711.363          51.000
E15  23326367.398 8 122580910.186 8      1192.473          51.000    23326369.477 8  93925647.989 8       913.683          51.000
E30  23172149.242 8 121770448.482 8     -1710.312          51.000    23172151.078 8  93304626.366 8     -1310.535          51.000
> 2020 05 09 12 16  0.0000000  0 13        .000000000000
G18  21648436.305 8 113763363.203 8      2768.664          51.000    21648435.945 7  88646751.371 7      2157.401          44.000
G21  21619688.602 8 113612275.101 8      2290.570          48.000    21619687.672 7  88528987.404 7      1784.860          46.000
G25  21874236.453 6 114949878.718 6     -2510.262          41.000    21874238.680 6  89571335.209 6     -1956.051          41.000
G29  20537728.406 8 107926498.450 8     -1220.359          51.000    20537727.953 8  84098566.304 8      -950.929          51.000
G31  21145188.406 6 111118718.577 6      -288.117          36.000    21145194.734 6  86586001.579 6      -224.510          36.000
R15  23123600.141 6 123565453.496 6     -4054.953          36.000    23123603.695 5  96106456.508 5     -3153.862          30.000
R16  19468284.367 7 103996088.925 7     -1496.246          46.000    19468288.883 7  80885847.090 7     -1163.747          45.000
R18  19779481.070 7 105584312.092 7     -2162.156          42.000    19779485.188 5  82121121.319 5     -1681.680          34.000
R19  19624187.758 6 104976165.904 6      1682.984          41.000    19624189.820 7  81648140.626 7      1308.991          45.000
C27  21874826.977 8 113907954.452 8     -1300.695          51.000
C30  22267591.117 8 115953284.869 8      1701.176          51.000
E15  23319624.828 8 122545476.952 8      1180.828          51.000    23319626.875 8  93898497.862 8       904.856          51.000
E30  23181966.812 8 121822039.603 8     -1718.008          51.000    23181968.102 8  93344157.215 8     -1316.408          51.000
> 2020 05 09 12 16 30.0000000  0 12        .000000000000
G18  21632676.773 8 113680544.419 8      2754.137          51.000    21632675.328 7  88582217.318 7      2146.084          44.000
G21  21606659.336 7 113543809.956 7      2275.281          47.000    21606659.391 7  88475637.956 7      1772.949          45.000
G25  21888602.133 6 115025370.720 6     -2520.957          39.000    21888603.859 6  89630160.112 6     -1964.382          39.000
G29  20544735.727 8 107963321.799 8     -1232.902          51.000    20544735.102 8  84127259.819 8      -960.703          51.000
G31  21146898.273 6 111127699.887 6      -309.191          37.000    21146902.227 6  86593000.055 6      -240.925          37.000
R16  19476756.750 7 104041346.654 7     -1519.297          45.000    19476761.102 7  80921047.548 7     -1181.672          45.000
R18  19791689.375 6 105649479.564 6     -2180.551          41.000    19791691.242 5  82171807.016 5     -1695.987          35.000
R19  19614816.930 6 104926038.253 6      1660.402          41.000    19614818.852 7  81609152.468 7      1291.421          45.000
C27  21882359.227 8 113947177.665 8     -1312.598          51.000
C30  22257829.914 8 115902455.346 8      1689.027          51.000
E15  23312928.500 8 122510287.446 8      1166.941          51.000    23312930.539 8  93871534.484 8       894.147          51.000
E30  23191808.250 8 121873755.741 8     -1727.945          51.000    23191809.289 8  93383783.841 8     -1324.004          51.000
> 2020 05 09 12 17  0.0000000  0 13        .000000000000
G18  21616977.820 8 113598045.212 8      2738.969          51.000    21616975.547 7  88517932.299 7      2134.264          43.000
G21  21593694.891 7 113475683.941 7      2259.477          47.000    21593695.438 7  88422552.772 7      1760.634          45.000
G25  21903004.219 6 115101055.285 6     -2531.668          38.000    21903006.562 6  89689135.084 6     -1972.728          38.000
G29  20551792.742 8 108000406.500 8     -1246.203          51.000    20551791.969 8  84156156.986 8      -971.067          51.000
G31  21148702.977 6 111137178.814 6      -329.758          38.000    21148705.117 6  86600386.263 6      -256.951          37.000
R15  23169220.031 6 123809308.554 6     -4072.414          36.000    23169220.016 5  96296111.189 5     -3167.439          33.000
R16  19485336.375 7 104087177.875 7     -1543.027          44.000    19485340.805 7  80956694.041 7     -1200.132          45.000
R18  19803977.219 6 105715076.709 6     -2199.215          40.000    19803982.070 6  82222827.172 6     -1710.500          37.000
R19  19605550.039 6 104876469.215 6      1637.023          40.000    19605552.477 7  81570598.777 7      1273.240          46.000
