     3.02           OBSERVATION DATA    M (MIXED)           RINEX VERSION / TYPE
SAVERINEX           SC600               20200506 005931 LCL PGM / RUN BY / DATE
       G = GPS       R = GLONASS       C = COMPASS          COMMENT
       S = SBAS      J = QZSS          E = GALILEO          COMMENT
BEAN                                                        MARKER NAME
1                                                           MARKER NUMBER
GEODETIC                                                    MARKER TYPE
Unige DICCA         GTER                                    OBSERVER / AGENCY
SC60291900056       SC600               2.12(191226)        REC # / TYPE / VERS
                    HEMA45          NONE                    ANT # / TYPE
  4509407.8091   693652.4678  4442337.6214                  APPROX POSITION XYZ
        0.0000        0.0000        0.0000                  ANTENNA: DELTA H/E/N
G    8 C1C L1C D1C S1C C2Y L2Y D2Y S2Y                      SYS / # / OBS TYPES
R    8 C1C L1C D1C S1C C2P L2P D2P S2P                      SYS / # / OBS TYPES
C    4 C1I L1I D1I S1I                                      SYS / # / OBS TYPES
E    8 C1C L1C D1C S1C C7Q L7Q D7Q S7Q                      SYS / # / OBS TYPES
DBHZ                                                        COMMENT
     30.000                                                 INTERVAL
  2020    05    05    22    00    0.0000000     GPS         TIME OF FIRST OBS
  2020    05    05    22    59   30.0000000     GPS         TIME OF LAST OBS
     0                                                      RCV CLOCK OFFS APPL
G L1C  0.00000                                              SYS / PHASE SHIFT
G L2Y  0.00000                                              SYS / PHASE SHIFT
R L1C  0.00000                                              SYS / PHASE SHIFT
R L2P  0.25000                                              SYS / PHASE SHIFT
C L1I  0.00000                                              SYS / PHASE SHIFT
E L1C  0.50000                                              SYS / PHASE SHIFT
E L7Q -0.25000                                              SYS / PHASE SHIFT
 12 R02 -4 R03  5 R04  6 R05  1 R10 -5 R12 -1 R13 -2 R14 -7 GLONASS SLOT / FRQ #
    R15  0 R17  4 R18 -3 R19  3                             GLONASS SLOT / FRQ #
 C1C   71.950 C2C   71.950 C2P   71.950                     GLONASS COD/PHS/BIS
    18                                                      LEAP SECONDS
*** Above antenna height is from mark to ANTENNA BOTTOM.    COMMENT
    17     4        0.0000        ANT MEASURE TYPE/HEIGT    COMMENT
    0.0000    0.0000    0.0458    0.0405    0.0000          COMMENT
                    BASE STATION                            COMMENT
                                                            END OF HEADER
> 2020 05 05 22 00  0.0000000  0 18        .000000000000
G01  21819769.398 8 114663657.494 8     -2673.453          50.000    21819772.297 8  89348309.285 8     -2083.210          50.000
G03  20443558.281 8 107431634.695 8      -691.312          51.000    20443559.328 8  83712971.319 8      -538.685          51.000
G04  20804800.055 8 109329968.865 8      1813.648          50.000    20804802.156 8  85192239.733 8      1413.233          49.000
G09  23029325.750 6 121019932.632 6      3378.535          39.000    23029321.852 6  94301234.760 6      2632.628          39.000
G19  22275267.805 6 117057312.471 6       959.066          36.000
G22  21778807.633 7 114448465.105 7     -1841.500          42.000    21778804.125 6  89180633.347 6     -1434.932          39.000
R04  19473419.164 7 104279282.920 7     -1013.848          42.000    19473420.555 6  81106124.290 6      -788.548          39.000
R05  20812706.625 6 111255760.362 6      2350.793          37.000    20812705.000 4  86532315.942 4      1828.398          28.000
R18  23133389.430 6 123487580.552 6     -4468.648          36.000    23133395.516 6  96045917.770 6     -3475.615          37.000
R19  19786325.992 6 105843503.018 6     -2294.637          40.000    19786328.391 7  82322727.924 7     -1784.717          45.000
C20  24740434.797 5 128829885.693 5      2447.477          34.000
C27  24226644.867 7 126154481.519 7     -3245.465          45.000
C30  22362072.992 7 116445214.896 7      -880.477          47.000
E04  23526831.039 8 123634428.586 8       665.945          51.000    23526833.641 8  94732850.188 8       510.222          51.000
E09  24750484.344 8 130064778.620 8      2585.914          48.000    24750485.703 6  99659955.623 6      1981.244          41.000
E11  22738605.914 7 119492181.762 7       437.672          44.000    22738605.922 7  91558931.375 7       335.413          43.000
E12  22993769.047 8 120833068.020 8     -2306.652          51.000    22993769.852 8  92586381.565 8     -1767.450          51.000
E19  25478107.711 5 133888359.152 5     -2050.062          35.000    25478109.398 5 102589811.745 5     -1570.459          32.000
> 2020 05 05 22 00 30.0000000  0 20        .000000000000
G01  21835073.586 8 114744082.353 8     -2687.391          49.000    21835076.930 8  89410977.983 8     -2094.071          49.000
G03  20447543.352 8 107452576.296 8      -704.047          51.000    20447544.336 8  83729289.458 8      -548.608          51.000
G04  20794501.484 8 109275849.015 8      1795.062          50.000    20794503.570 8  85150068.465 8      1398.750          48.000
G09  23010068.688 7 120918752.469 7      3368.008          42.000    23010065.672 6  94222393.165 6      2624.425          41.000
G19  22269854.102 5 117028872.321 5       936.254          35.000
G22  21789347.812 7 114503855.907 7     -1850.418          42.000    21789345.445 6  89223795.024 6     -1441.884          39.000
R03  22381525.273 5 119810022.259 5     -3419.754          30.000
R04  19479148.766 6 104309962.448 6     -1030.742          40.000    19479150.047 6  81129986.121 6      -801.691          38.000
R05  20799558.648 7 111185478.670 7      2335.508          42.000    20799559.828 5  86477652.466 5      1816.503          31.000
R18  23158526.375 6 123621765.781 6     -4476.387          37.000    23158532.320 6  96150284.071 6     -3481.634          37.000
R19  19799270.141 6 105912744.531 6     -2320.547          39.000    19799272.406 7  82376582.440 7     -1804.870          44.000
C20  24726364.852 5 128756585.902 5      2439.219          30.000
C25  25652544.164 5 133579520.188 5      1293.188          35.000
C27  24245369.703 7 126251983.010 7     -3253.801          46.000
C30  22367202.281 7 116471928.651 7      -899.559          46.000
E04  23523068.188 8 123614652.538 8       653.242          51.000    23523070.422 8  94717697.126 8       500.524          51.000
E09  24735745.359 8 129987322.173 8      2578.605          48.000    24735745.969 6  99600605.920 6      1975.913          41.000
E11  22736152.375 7 119479288.486 7       422.559          45.000    22736152.219 7  91549052.111 7       323.788          43.000
E12  23006972.617 8 120902450.782 8     -2318.066          51.000    23006973.250 8  92639544.948 8     -1776.280          51.000
E19  25489833.039 5 133949975.495 5     -2057.676          35.000    25489835.547 5 102637004.275 5     -1576.526          32.000
> 2020 05 05 22 01  0.0000000  0 19        .000000000000
G01  21850451.391 7 114824895.471 7     -2701.547          47.000    21850455.414 7  89473949.228 7     -2105.105          47.000
G03  20451595.430 8 107473870.275 8      -717.070          51.000    20451596.484 8  83745882.161 8      -558.756          51.000
G04  20784304.609 8 109222262.333 8      1775.910          51.000    20784306.047 8  85108312.635 8      1383.826          49.000
G09  22990865.523 7 120817855.447 7      3356.922          42.000    22990863.719 6  94143772.184 6      2615.786          41.000
G17  22052826.172 6 115888403.568 6      -334.074          38.000
G22  21799935.586 6 114559495.942 6     -1860.277          40.000    21799933.688 6  89267150.866 6     -1449.573          40.000
R04  19484967.820 6 104341124.056 6     -1048.086          37.000    19484969.477 6  81154222.967 6      -815.175          39.000
R05  20786493.922 7 111115637.165 7      2319.391          44.000    20786497.148 5  86423331.308 5      1803.970          30.000
R18  23183703.344 6 123756160.349 6     -4484.348          37.000    23183708.805 6  96254813.236 6     -3487.823          37.000
R19  19812353.922 6 105982736.469 6     -2346.980          38.000    19812356.742 7  82431020.583 7     -1825.429          42.000
C20  24712331.477 5 128683487.697 5      2432.699          31.000
C25  25645133.531 5 133540940.656 5      1277.410          30.000
C27  24264137.352 7 126349708.334 7     -3262.641          45.000
C30  22372436.836 7 116499188.377 7      -919.238          47.000
E04  23519372.680 8 123595230.222 8       640.055          51.000    23519374.188 8  94702815.091 8       490.470          51.000
E09  24721043.578 7 129910061.944 7      2570.613          47.000    24721044.445 7  99541406.588 7      1969.780          42.000
E11  22733780.227 7 119466822.677 7       406.715          45.000    22733779.352 7  91539500.390 7       311.746          43.000
E12  23020236.422 8 120972151.910 8     -2330.016          50.000    23020237.000 8  92692952.258 8     -1785.382          51.000
E19  25501597.508 5 134011797.418 5     -2065.000          35.000
> 2020 05 05 22 01 30.0000000  0 18        .000000000000
G01  21865900.055 8 114906079.285 8     -2711.004          48.000    21865904.008 8  89537209.386 8     -2112.471          48.000
G03  20455711.352 8 107495499.800 8      -725.297          51.000    20455712.484 8  83762736.343 8      -565.166          51.000
G04  20774206.305 8 109169193.477 8      1761.621          51.000    20774207.305 8  85066960.292 8      1372.692          50.000
G09  22971713.633 7 120717227.024 7      3350.961          42.000    22971713.609 7  94065360.504 7      2611.141          42.000
G17  22054780.188 6 115898681.997 6      -351.191          36.000
G22  21810567.633 6 114615368.177 6     -1864.855          39.000    21810565.656 6  89310687.715 6     -1453.131          39.000
R04  19490872.930 6 104372749.387 6     -1060.648          39.000    19490875.555 6  81178820.421 6      -824.952          37.000
R05  20773508.406 6 111046219.647 6      2308.023          39.000
R18  23208916.406 5 123890744.418 5     -4487.617          35.000    23208920.648 5  96359489.749 5     -3490.369          35.000
R19  19825574.320 6 106053459.575 6     -2368.355          37.000    19825577.648 7  82486027.421 7     -1842.054          42.000
C20  24698329.562 5 128610575.233 5      2428.613          35.000
C27  24282944.133 7 126447639.074 7     -3266.371          44.000
C30  22377773.625 8 116526977.162 8      -933.801          48.000
E04  23515741.242 8 123576144.911 8       631.766          51.000    23515742.109 8  94688191.287 8       484.086          51.000
E09  24706375.906 7 129832982.256 7      2567.457          47.000    24706377.609 7  99482345.580 7      1967.230          44.000
E11  22731486.242 7 119454768.817 7       396.020          45.000    22731485.070 7  91530264.326 7       303.435          44.000
E12  23033557.602 8 121042154.063 8     -2337.090          49.000    23033557.891 8  92746590.240 8     -1790.811          51.000
E19  25513397.438 5 134073807.267 5     -2068.973          35.000
> 2020 05 05 22 02  0.0000000  0 20        .000000000000
G01  21881402.266 8 114987542.891 8     -2721.273          49.000    21881406.133 8  89600687.549 8     -2120.470          49.000
G03  20459873.961 8 107517374.802 8      -734.453          51.000    20459875.109 8  83779781.792 8      -572.301          51.000
G04  20764189.320 8 109116553.841 8      1746.293          49.000    20764190.273 8  85025942.396 8      1360.748          49.000
G09  22952596.680 7 120616779.423 7      3344.043          43.000    22952598.977 7  93987089.710 7      2605.751          43.000
G17  22056833.375 5 115909469.112 5      -368.781          34.000
G22  21821226.836 6 114671382.558 6     -1871.121          38.000    21821224.703 6  89354335.240 6     -1458.016          38.000
R03  22439084.984 5 120118140.615 5     -3426.926          30.000
R04  19496848.031 6 104404744.823 6     -1073.711          39.000    19496850.352 6  81203705.709 6      -835.109          36.000
R05  20760584.438 6 110977135.099 6      2296.199          36.000    20760602.570 5  86315684.903 5      1785.933          30.000
R18  23234147.555 5 124025423.468 5     -4491.539          33.000    23234150.641 6  96464240.141 6     -3493.419          36.000
R19  19838914.383 6 106124820.243 6     -2390.402          37.000    19838917.773 7  82541530.167 7     -1859.202          42.000
C20  24684344.641 6 128537760.084 6      2424.309          39.000
C25  25630554.227 5 133465002.482 5      1253.574          32.000
C27  24301772.234 7 126545684.347 7     -3271.406          42.000
C30  22383195.094 8 116555205.525 8      -949.348          49.000
E04  23512156.633 8 123557306.650 8       622.703          51.000    23512157.172 8  94673756.796 8       477.142          51.000
E09  24691725.484 7 129755994.096 7      2563.664          47.000    24691728.078 7  99423354.679 7      1964.294          46.000
E11  22729253.688 7 119443038.110 7       384.660          45.000    22729252.500 7  91521275.857 7       294.689          45.000
E12  23046918.953 8 121112366.684 8     -2345.000          48.000    23046918.797 8  92800389.516 8     -1796.833          51.000
E19  25525215.328 5 134135914.109 5     -2072.922          35.000
> 2020 05 05 22 02 30.0000000  0 21        .000000000000
G01  21896954.977 8 115069271.789 8     -2726.484          50.000    21896958.477 8  89664372.415 8     -2124.533          50.000
G03  20464080.641 8 107539481.568 8      -738.391          51.000    20464081.766 8  83797007.848 8      -575.369          51.000
G04  20754251.375 8 109064331.146 8      1736.074          48.000    20754252.312 8  84985249.389 8      1352.785          48.000
G09  22933512.836 7 120516501.348 7      3342.012          43.000    22933517.062 7  93908950.979 7      2604.165          44.000
G17  22058979.828 5 115920711.603 5      -382.070          35.000
G22  21831910.688 6 114727525.176 6     -1870.766          39.000    21831908.336 6  89398082.722 6     -1457.742          38.000
G31  23322753.766 5 122561913.931 5      -570.371          31.000    23322749.211 5  95502753.108 5      -444.445          31.000
R03  22458274.141 5 120220875.945 5     -3422.020          31.000    22458282.930 4  93505187.084 4     -2661.580          24.000
R04  19502888.820 6 104437094.987 6     -1081.922          37.000    19502891.820 5  81228867.027 5      -841.492          35.000
R05  20747721.070 6 110908370.623 6      2289.211          39.000    20747735.125 6  86262201.402 6      1780.497          36.000
R18  23259393.133 5 124160180.352 5     -4490.676          35.000    23259395.148 5  96569051.014 5     -3492.751          35.000
R19  19852371.188 6 106196803.050 6     -2407.238          41.000    19852373.203 7  82597516.823 7     -1872.296          42.000
C20  24670374.781 7 128465029.322 7      2425.387          42.000
C25  25623353.062 5 133427527.144 5      1246.168          35.000
C27  24320618.602 6 126643828.805 6     -3270.750          40.000
C30  22388698.805 8 116583859.527 8      -959.895          51.000
E04  23508616.398 8 123538701.898 8       618.648          51.000    23508616.211 8  94659501.238 8       474.020          51.000
E09  24677090.172 7 129679084.835 7      2564.613          47.000    24677093.273 7  99364424.240 7      1965.054          47.000
E11  22727080.648 7 119431618.189 7       378.066          45.000    22727079.367 7  91512525.528 7       289.654          45.000
E12  23060316.414 7 121182775.558 7     -2347.965          45.000    23060316.844 8  92854339.224 8     -1799.042          51.000
E19  25537049.039 5 134198103.705 5     -2071.977          34.000
> 2020 05 05 22 03  0.0000000  0 21        .000000000000
G01  21912580.609 8 115151384.207 8     -2745.414          50.000    21912583.406 8  89728356.113 8     -2139.284          50.000
G03  20468354.086 8 107561939.168 8      -756.465          51.000    20468355.281 8  83814507.278 8      -589.453          51.000
G04  20744415.695 7 109012645.981 7      1711.855          47.000    20744416.750 7  84944975.232 7      1333.913          47.000
G09  22914485.031 6 120416514.135 6      3326.102          41.000    22914490.469 6  93831038.868 6      2591.767          41.000
G17  22061247.891 6 115932607.859 6      -408.793          38.000
G22  21842641.266 5 114783915.337 5     -1885.652          34.000    21842639.078 5  89442023.166 5     -1469.343          35.000
G31  23326091.617 5 122579455.195 5      -598.512          31.000    23326094.812 4  95516441.309 4      -466.348          26.000
R03  22477488.383 6 120323717.145 6     -3431.883          38.000
R04  19509018.000 6 104469919.870 6     -1104.266          36.000    19509020.773 5  81254397.435 5      -858.876          34.000
R05  20734940.562 6 110840048.260 6      2268.207          37.000    20734950.328 6  86209061.750 6      1764.161          37.000
R18  23284674.664 5 124295133.251 5     -4503.707          33.000    23284676.297 5  96674014.421 5     -3502.883          33.000
R19  19865967.172 7 106269526.859 7     -2438.480          42.000    19865967.320 7  82654079.792 7     -1896.596          43.000
C20  24656443.039 6 128392501.711 6      2412.008          40.000
C25  25616241.297 6 133390503.409 6      1224.574          36.000
C27  24339505.906 6 126742188.727 6     -3284.000          36.000
C30  22394306.523 8 116613056.891 8      -984.156          50.000
E04  23505143.344 8 123520449.841 8       600.555          51.000    23505141.914 8  94645515.903 8       460.171          51.000
E09  24662492.930 7 129602374.588 7      2551.703          46.000    24662496.344 7  99305646.294 7      1955.228          47.000
E11  22724989.812 7 119420629.486 7       357.180          46.000    22724988.438 7  91504105.613 7       273.659          46.000
E12  23073773.156 7 121253499.342 7     -2364.617          45.000    23073774.602 8  92908530.242 8     -1811.859          51.000
E19  25548921.344 5 134260487.178 5     -2084.793          34.000
> 2020 05 05 22 03 30.0000000  0 20        .000000000000
G01  21928279.117 8 115233879.804 8     -2755.398          49.000    21928280.609 8  89792638.380 8     -2147.061          50.000
G03  20472694.508 8 107584748.146 8      -765.289          51.000    20472695.711 8  83832280.522 8      -596.326          51.000
G04  20734682.555 7 108961500.306 7      1696.703          47.000    20734684.102 7  84905121.450 7      1322.106          47.000
G09  22895513.953 6 120316820.657 6      3319.270          39.000    22895519.352 6  93753355.620 6      2586.444          39.000
G17  22063631.328 5 115945118.156 5      -426.773          34.000
G22  21853418.562 4 114840488.668 4     -1890.906          28.000    21853416.523 5  89486087.902 5     -1473.430          30.000
G31  23329553.602 5 122597636.294 5      -616.578          33.000    23329560.492 5  95530623.928 5      -480.450          34.000
R03  22496722.344 6 120426663.296 6     -3432.578          38.000    22496727.477 4  93665235.563 4     -2669.783          28.000
R04  19515235.383 6 104503218.236 6     -1116.758          38.000    19515239.664 5  81280296.208 5      -868.589          34.000
R05  20722241.758 6 110772169.711 6      2256.125          37.000    20722248.789 5  86156267.254 5      1754.767          35.000
R19  19879701.125 7 106342990.392 7     -2460.320          42.000    19879700.711 7  82711218.087 7     -1913.586          44.000
C20  24642550.031 6 128320178.488 6      2408.309          38.000
C25  25609217.953 6 133353933.820 6      1212.164          38.000
C27  24358432.836 4 126840763.005 4     -3288.863          29.000
C30  22400018.188 8 116642797.769 8      -999.559          50.000
E04  23501737.336 8 123502551.162 8       591.539          51.000    23501735.383 8  94631801.325 8       453.266          51.000
E09  24647933.914 7 129525864.982 7      2547.801          47.000    24647937.719 8  99247022.082 8      1952.244          48.000
E11  22722981.359 7 119410073.757 7       345.594          46.000    22722979.977 7  91496017.473 7       264.662          46.000
E12  23087290.719 7 121324538.141 7     -2372.355          47.000    23087292.297 8  92962962.599 8     -1817.770          51.000
E19  25560832.234 6 134323078.202 6     -2088.926          36.000
> 2020 05 05 22 04  0.0000000  0 19        .000000000000
G01  21944041.750 7 115316714.341 7     -2766.973          47.000    21944041.773 7  89857184.758 7     -2156.083          47.000
G03  20477093.586 8 107607865.145 8      -775.891          51.000    20477094.867 8  83850293.774 8      -604.590          51.000
G04  20725044.180 7 108910852.059 7      1679.828          46.000    20725046.164 7  84865655.309 7      1308.957          46.000
G09  22876591.203 6 120217379.820 6      3310.242          38.000    22876595.242 6  93675869.217 6      2579.409          38.000
G17  22066118.031 5 115958232.220 5      -445.328          34.000
G31  23333130.734 5 122616438.986 5      -636.836          33.000    23333136.180 5  95545275.422 5      -496.239          32.000
R03  22515965.125 5 120529668.996 5     -3434.688          32.000    22515970.188 4  93745351.093 4     -2671.427          26.000
R04  19521533.797 6 104536944.590 6     -1131.523          36.000    19521538.227 5  81306527.776 5      -880.074          34.000
R05  20709618.633 5 110704691.299 5      2242.949          34.000    20709623.641 5  86103784.016 5      1744.513          35.000
R19  19893564.469 7 106417147.553 7     -2483.844          43.000    19893564.156 7  82768895.883 7     -1931.878          45.000
C20  24628689.297 6 128248017.380 6      2402.918          36.000
C25  25602274.914 5 133317777.605 5      1197.848          33.000
C27  24377394.805 4 126939489.927 4     -3294.535          29.000
C30  22405825.547 8 116673038.823 8     -1016.551          49.000
E04  23498389.891 8 123484962.538 8       580.961          51.000    23498388.609 8  94618324.357 8       445.143          51.000
E09  24633404.836 8 129449513.707 8      2542.238          48.000    24633409.031 8  99188519.177 8      1947.994          49.000
E11  22721047.219 7 119399908.946 7       331.914          47.000    22721045.930 7  91488228.843 7       254.372          47.000
E12  23100860.312 7 121395848.043 7     -2381.707          47.000    23100861.758 8  93017602.656 8     -1824.953          50.000
E19  25572773.219 6 134385825.624 6     -2094.172          37.000
> 2020 05 05 22 04 30.0000000  0 18        .000000000000
G01  21959867.070 7 115399879.036 7     -2777.664          45.000    21959866.250 7  89921988.403 7     -2164.417          45.000
G03  20481549.695 8 107631282.214 8      -785.625          51.000    20481551.203 8  83868540.851 8      -612.175          51.000
G04  20715499.578 8 108860694.765 8      1663.734          48.000    20715501.289 8  84826571.709 8      1296.416          48.000
G09  22857715.477 6 120118185.830 6      3302.367          39.000    22857716.812 6  93598575.212 6      2573.273          40.000
G31  23336822.203 6 122635835.283 6      -656.141          37.000    23336825.000 5  95560389.366 5      -511.272          35.000
R03  22535215.836 5 120632725.045 5     -3435.797          35.000    22535222.852 4  93825520.868 4     -2672.280          25.000
R04  19527910.141 6 104571089.038 6     -1145.215          37.000    19527915.508 5  81333084.622 5      -890.720          33.000
R05  20697080.438 5 110637758.995 5      2229.816          35.000    20697076.812 6  86051585.329 6      1734.299          36.000
R19  19907555.188 7 106491988.073 7     -2506.035          42.000    19907555.430 7  82827105.158 7     -1949.141          45.000
C20  24614860.914 5 128176011.403 5      2397.734          33.000
C25  25595410.375 5 133282029.083 5      1185.094          32.000
C27  24396402.703 4 127038434.895 4     -3299.270          29.000
C30  22411727.055 8 116703771.860 8     -1032.629          50.000
E04  23495099.906 8 123467676.150 8       571.211          51.000    23495099.328 8  94605078.966 8       437.663          51.000
E09  24618904.312 7 129373313.884 7      2537.383          47.000    24618908.758 8  99130132.315 8      1944.219          49.000
E11  22719186.297 7 119390128.355 7       319.512          47.000    22719184.758 7  91480734.624 7       244.782          47.000
E12  23114479.961 7 121467420.595 7     -2390.293          46.000    23114481.242 8  93072443.954 8     -1831.514          49.000
E19  25584742.086 6 134448720.896 6     -2098.844          36.000
> 2020 05 05 22 05  0.0000000  0 17        .000000000000
G01  21975751.242 7 115483350.681 7     -2787.445          47.000    21975750.656 7  89987031.216 7     -2172.035          47.000
G03  20486058.648 8 107654977.005 8      -794.629          51.000    20486060.203 8  83887004.338 8      -619.191          51.000
G04  20706044.680 8 108811007.473 8      1648.207          50.000    20706045.758 8  84787854.321 8      1284.317          49.000
G09  22838883.203 6 120019218.691 6      3295.020          40.000    22838881.547 6  93521458.021 6      2567.551          40.000
G11  24687932.148 5 129735958.311 5     -4060.848          32.000
G31  23340622.195 6 122655803.348 6      -675.391          36.000    23340624.766 6  95575949.201 6      -526.275          36.000
R03  22554472.633 6 120735807.015 6     -3436.910          38.000    22554479.125 4  93905694.821 4     -2673.146          26.000
R04  19534361.211 6 104605627.355 6     -1157.730          37.000    19534362.180 5  81359947.668 5      -900.463          31.000
R05  20684596.852 6 110571044.614 6      2217.582          38.000    20684595.133 5  85999696.453 5      1724.792          34.000
R19  19921668.461 6 106567487.348 6     -2527.879          41.000    19921669.492 7  82885826.782 7     -1966.128          45.000
C25  25588621.445 4 133246667.926 4      1172.848          28.000
C30  22417718.977 8 116734974.333 8     -1048.121          50.000
E04  23491863.305 8 123450669.777 8       562.113          51.000    23491862.586 8  94592048.109 8       430.674          51.000
E09  24604428.672 7 129297244.243 7      2533.270          47.000    24604432.750 8  99071845.190 8      1941.092          49.000
E11  22717394.547 8 119380710.898 8       307.797          48.000    22717392.406 7  91473518.658 7       235.755          47.000
E12  23128145.219 7 121539232.897 7     -2397.938          45.000    23128146.023 7  93127468.944 7     -1837.342          47.000
E19  25596734.523 5 134511746.810 5     -2102.699          32.000
> 2020 05 05 22 05 30.0000000  0 16        .000000000000
G01  21991703.102 8 115567176.631 8     -2799.941          50.000    21991703.250 8  90052350.122 8     -2181.769          50.000
G03  20490629.648 8 107678997.731 8      -805.930          51.000    20490631.219 8  83905721.799 8      -627.997          51.000
G04  20696688.617 8 108761839.678 8      1630.465          50.000    20696689.242 8  84749541.755 8      1270.492          49.000
G09  22820103.602 6 119920528.905 6      3284.984          40.000    22820101.516 6  93444556.947 6      2559.734          40.000
G22  21896921.797 6 115069096.146 6     -1918.336          36.000    21896905.734 5  89664183.782 5     -1494.813          34.000
G31  23344539.523 5 122676391.417 5      -696.246          32.000    23344542.914 5  95591991.768 5      -542.539          31.000
R03  22573743.203 6 120838963.004 6     -3439.449          39.000    22573748.070 4  93985927.289 4     -2675.124          27.000
R04  19540893.469 6 104640607.184 6     -1173.262          39.000    19540893.789 5  81387154.249 5      -912.534          33.000
R05  20672187.469 6 110504751.218 6      2203.180          40.000    20672188.453 5  85948135.033 5      1713.587          31.000
R19  19935913.625 6 106643692.372 6     -2551.594          41.000    19935915.320 7  82945097.326 7     -1984.573          44.000
C20  24587279.016 5 128032397.326 5      2386.895          32.000
C30  22423810.094 8 116766693.602 8     -1065.629          50.000
E04  23488689.031 8 123433991.701 8       550.582          51.000    23488688.242 8  94579268.802 8       421.839          51.000
E09  24589987.383 8 129221353.997 8      2526.711          48.000    24589990.336 8  99013695.536 8      1936.060          49.000
E11  22715681.234 8 119371705.986 8       293.672          48.000    22715678.820 7  91466618.815 7       224.851          47.000
E12  23141865.109 7 121611332.669 7     -2408.082          44.000    23141865.203 7  93182714.198 7     -1845.175          47.000
> 2020 05 05 22 06  0.0000000  0 19        .000000000000
G01  22007712.156 8 115651302.857 8     -2809.629          50.000    22007713.406 8  90117902.981 8     -2189.321          50.000
G03  20495252.562 8 107703291.282 8      -814.773          51.000    20495254.086 8  83924651.829 8      -634.888          51.000
G04  20687421.609 8 108713139.650 8      1615.000          51.000    20687421.852 8  84711593.694 8      1258.442          49.000
G09  22801366.750 6 119822065.610 6      3277.836          40.000    22801366.984 6  93367832.342 6      2554.161          40.000
G22  21907888.430 5 115126701.275 5     -1923.535          35.000    21907867.352 5  89709070.954 5     -1498.859          35.000
G31  23348565.125 5 122697545.860 5      -715.227          33.000    23348570.469 5  95608475.746 5      -557.316          34.000
R03  22593017.117 6 120942137.691 6     -3439.980          40.000    22593020.000 4  94066159.330 4     -2675.537          26.000
R04  19547498.125 6 104675972.802 6     -1185.660          38.000    19547497.406 5  81414660.828 5      -922.183          30.000
R05  20659851.219 6 110438825.815 6      2190.832          39.000    20659855.406 5  85896859.819 5      1703.984          32.000
R18  23436962.320 5 125108095.286 5     -4527.910          30.000
R19  19950280.727 6 106720546.865 6     -2573.117          41.000    19950282.086 7  83004873.033 7     -2001.313          43.000
C20  24573542.984 6 127960837.491 6      2382.969          37.000
C25  25575287.414 5 133177196.488 5      1144.785          31.000
C27  24453553.750 5 127336025.698 5     -3314.160          31.000
C30  22429990.289 8 116798876.599 8     -1080.984          50.000
E04  23485567.133 8 123417588.875 8       541.637          51.000    23485567.094 8  94566700.415 8       415.050          51.000
E09  24575570.367 8 129145591.058 8      2522.848          48.000    24575572.055 8  98955643.444 8      1933.088          49.000
E11  22714036.484 8 119363061.830 8       281.781          48.000    22714034.125 8  91459995.364 8       215.901          48.000
E12  23155629.852 7 121683666.241 7     -2415.539          45.000    23155629.734 8  93238138.590 8     -1850.781          49.000
> 2020 05 05 22 06 30.0000000  0 17        .000000000000
G01  22023784.047 8 115735760.335 8     -2819.742          49.000    22023786.250 8  90183713.988 8     -2197.205          49.000
G03  20499933.461 8 107727889.570 8      -824.031          51.000    20499934.711 8  83943819.320 8      -642.102          51.000
G04  20678250.156 8 108664940.568 8      1599.250          51.000    20678249.773 8  84674035.965 8      1246.169          49.000
G09  22782679.391 7 119723862.938 7      3270.035          42.000    22782681.906 7  93291310.799 7      2548.079          42.000
G17  22080155.461 5 116031993.987 5      -537.258          30.000
G31  23352705.180 5 122719298.977 5      -733.969          35.000    23352709.617 6  95625426.276 6      -571.924          36.000
R03  22612300.453 6 121045362.119 6     -3440.453          41.000    22612302.930 4  94146442.982 4     -2675.908          28.000
R04  19554182.086 5 104711755.072 5     -1198.695          34.000    19554179.547 5  81442491.464 5      -932.319          31.000
R05  20647591.500 6 110373301.458 6      2178.176          36.000    20647599.430 5  85845896.518 5      1694.137          34.000
R19  19964775.555 7 106798081.384 7     -2594.523          42.000    19964775.695 7  83065177.677 7     -2017.963          44.000
C20  24559836.242 6 127889440.258 6      2378.477          37.000
C27  24472667.953 5 127435534.248 5     -3318.727          32.000
C30  22436265.680 8 116831554.495 8     -1096.539          51.000
E04  23482504.031 8 123401493.281 8       532.504          51.000    23482504.789 8  94554367.447 8       407.981          51.000
E09  24561183.719 7 129069988.418 7      2518.410          47.000    24561184.695 8  98897714.187 8      1929.673          49.000
E11  22712466.516 8 119354811.514 8       269.461          48.000    22712464.164 8  91453673.694 8       206.581          48.000
E12  23169445.562 7 121756264.977 7     -2423.312          47.000    23169445.633 8  93293766.196 8     -1856.884          51.000
> 2020 05 05 22 07  0.0000000  0 19        .000000000000
G01  22039928.211 7 115820598.956 7     -2827.219          47.000    22039931.164 7  90249822.007 7     -2203.028          47.000
G03  20504682.016 8 107752843.370 8      -830.680          51.000    20504683.078 8  83963263.827 8      -647.283          51.000
G04  20669183.664 8 108617294.526 8      1586.004          51.000    20669183.266 8  84636909.195 8      1235.850          48.000
G09  22764051.938 7 119625973.928 7      3264.766          44.000    22764055.195 7  93215033.659 7      2543.973          44.000
G17  22083302.109 5 116048483.493 5      -552.684          32.000
G22  21929935.898 5 115242599.289 5     -1932.328          35.000
G31  23356969.219 5 122741701.044 5      -750.652          35.000    23356970.539 6  95642882.411 6      -584.924          36.000
R03  22631602.383 6 121148686.557 6     -3438.688          40.000    22631606.234 4  94226806.476 4     -2674.532          29.000
R04  19560950.227 5 104748004.158 5     -1208.328          34.000    19560951.250 4  81470685.401 4      -939.805          28.000
R18  23487918.859 5 125380141.938 5     -4532.016          31.000    23487913.188 4  97517850.632 4     -3524.895          27.000
R19  19979406.359 7 106876345.036 7     -2613.797          42.000    19979406.406 7  83126049.434 7     -2032.950          45.000
C20  24546168.656 6 127818256.714 6      2376.184          39.000
C27  24491815.656 5 127535249.390 5     -3320.062          33.000
C30  22442645.766 8 116864777.182 8     -1109.480          51.000
E04  23479509.352 8 123385755.812 8       525.703          51.000    23479510.328 8  94542308.869 8       402.850          51.000
E09  24546837.125 7 128994597.880 7      2516.641          46.000    24546838.203 8  98839947.457 8      1928.332          50.000
E11  22710981.172 8 119347007.084 8       259.719          48.000    22710978.891 8  91447693.681 8       198.892          48.000
E12  23183321.469 8 121829179.184 8     -2428.785          48.000    23183321.836 8  93349635.516 8     -1860.883          51.000
E19  25644997.648 5 134765377.994 5     -2118.414          35.000
> 2020 05 05 22 07 30.0000000  0 19        .000000000000
G01  22056114.102 7 115905659.621 7     -2842.848          47.000    22056117.961 7  90316103.097 7     -2215.203          47.000
G03  20509468.094 8 107777994.647 8      -845.738          51.000    20509469.305 8  83982862.211 8      -659.017          51.000
G04  20660192.070 8 108570044.742 8      1564.289          51.000    20660192.125 8  84600091.220 8      1218.930          48.000
G09  22745454.633 7 119528242.747 7      3250.953          45.000    22745457.695 7  93138879.527 7      2533.210          45.000
G22  21940996.852 5 115300750.603 5     -1944.281          34.000    21940980.281 5  89844655.996 5     -1515.024          34.000
G31  23361326.008 5 122764594.591 5      -774.891          34.000    23361325.828 5  95660721.578 5      -603.805          34.000
R03  22650892.055 6 121251949.073 6     -3445.176          38.000    22650897.852 4  94307121.797 4     -2679.578          29.000
R04  19567775.977 6 104784557.700 6     -1227.598          39.000
R05  20623314.422 6 110243460.231 6      2150.434          36.000    20623303.906 4  85744868.276 4      1672.562          28.000
R18  23513414.203 5 125516257.082 5     -4542.125          31.000    23513411.430 4  97623698.972 4     -3532.761          25.000
R19  19994142.875 7 106955174.928 7     -2641.191          42.000    19994143.570 7  83187361.580 7     -2054.260          46.000
C20  24532509.727 6 127747130.963 6      2366.102          39.000
C27  24510971.922 5 127635012.719 5     -3329.820          32.000
C30  22449100.273 8 116898387.552 8     -1130.809          50.000
E04  23476552.758 8 123370218.466 8       510.668          51.000    23476553.695 8  94530403.641 8       391.216          51.000
E09  24532500.867 7 128919262.436 7      2506.266          46.000    24532502.586 8  98782222.954 8      1920.346          50.000
E11  22709550.883 8 119339491.626 8       241.555          48.000    22709548.289 7  91441935.080 7       185.069          47.000
E12  23197227.000 8 121902250.208 8     -2442.355          48.000    23197227.703 8  93405625.004 8     -1871.361          51.000
E19  25657120.273 5 134829076.337 5     -2128.457          33.000
> 2020 05 05 22 08  0.0000000  0 15        .000000000000
G01  22072389.773 8 115991190.394 8     -2852.426          49.000    22072393.297 8  90382750.478 8     -2222.669          49.000
G03  20514339.047 8 107803592.161 8      -854.379          51.000    20514340.391 8  84002808.312 8      -665.750          51.000
G04  20651323.625 8 108523441.337 8      1548.926          51.000    20651323.703 8  84563776.891 8      1206.955          48.000
G09  22726935.133 7 119430920.427 7      3243.625          46.000    22726937.961 7  93063043.995 7      2527.500          46.000
R03  22670217.461 6 121355402.001 6     -3445.004          36.000    22670223.484 4  94387585.132 4     -2679.447          29.000
R04  19574706.719 6 104821667.392 6     -1239.664          37.000    19574707.062 4  81527957.975 4      -964.177          29.000
R05  20611295.852 6 110179230.205 6      2138.133          40.000    20611290.055 5  85694892.652 5      1662.992          30.000
R19  20009031.562 6 107034821.897 6     -2662.254          41.000    20009033.609 7  83249309.187 7     -2070.642          45.000
C20  24518906.312 6 127676310.330 6      2361.754          37.000
C27  24530183.812 5 127735069.077 5     -3334.312          32.000
C30  22455676.344 8 116932631.613 8     -1145.738          50.000
E04  23473681.633 8 123355130.074 8       501.789          51.000    23473682.922 8  94518842.416 8       384.485          51.000
E09  24518222.609 7 128844231.912 7      2502.348          46.000    24518225.023 8  98724732.065 8      1917.290          49.000
E11  22708223.148 8 119332515.104 8       229.930          49.000    22708220.078 8  91436589.449 8       176.099          48.000
E12  23211209.055 7 121975726.266 7     -2449.641          46.000    23211210.336 8  93461924.862 8     -1876.964          51.000
> 2020 05 05 22 08 30.0000000  0 17        .000000000000
G01  22088695.555 8 116076874.363 8     -2861.059          50.000    22088697.719 8  90449517.171 8     -2229.396          50.000
G03  20519234.867 8 107829319.965 8      -862.098          51.000    20519236.141 8  84022855.946 8      -671.764          51.000
G04  20642517.930 8 108477169.513 8      1534.594          50.000    20642518.391 8  84527720.968 8      1195.790          48.000
G09  22708433.594 7 119333693.272 7      3237.086          45.000    22708436.492 7  92987282.582 7      2522.405          46.000
G17  22093310.172 5 116101126.921 5      -610.062          35.000
G31  23370401.766 5 122812279.547 5      -810.969          34.000    23370400.047 5  95697882.170 5      -631.915          33.000
R03  22689518.773 6 121458721.979 6     -3443.992          37.000    22689523.680 5  94467945.113 5     -2678.664          30.000
R04  19581680.555 6 104859009.716 6     -1250.945          37.000    19581683.539 4  81557002.145 4      -972.954          27.000
R05  20599320.719 6 110115226.925 6      2127.387          39.000    20599319.969 5  85645112.410 5      1654.634          31.000
R19  20024012.695 6 107114962.206 6     -2681.934          41.000    20024015.477 7  83311640.510 7     -2085.948          44.000
C20  24505301.328 6 127605482.319 6      2358.633          39.000
C27  24549392.273 5 127835103.535 5     -3336.746          31.000
C30  22462313.812 8 116967195.760 8     -1159.762          50.000
E04  23470835.992 8 123340174.733 8       493.969          51.000    23470837.758 8  94507383.144 8       378.531          51.000
E09  24503942.586 7 128769191.327 7      2499.215          46.000    24503945.148 8  98667233.417 8      1915.034          48.000
E11  22706938.016 8 119325762.769 8       219.156          49.000    22706934.930 8  91431415.595 8       167.952          48.000
E12  23225207.148 7 122049290.802 7     -2455.828          44.000    23225209.375 8  93518292.527 8     -1881.738          51.000
> 2020 05 05 22 09  0.0000000  0 18        .000000000000
G01  22105092.305 8 116163036.453 8     -2876.742          51.000    22105093.602 8  90516656.404 8     -2241.620          51.000
G03  20524217.570 8 107855503.921 8      -877.305          51.000    20524218.906 8  84043259.036 8      -683.614          51.000
G04  20633837.719 8 108431556.421 8      1512.574          50.000    20633838.633 8  84492178.349 8      1178.629          48.000
G09  22690012.016 7 119236889.406 7      3222.805          45.000    22690015.211 7  92911850.990 7      2511.276          45.000
G17  22096880.555 6 116119889.238 6      -634.094          39.000
G31  23375122.562 5 122837086.617 5      -836.441          35.000    23375120.195 5  95717212.342 5      -651.773          34.000
R03  22708858.148 5 121562240.001 5     -3450.820          33.000    22708860.953 4  94548459.148 4     -2683.968          27.000
R04  19588759.711 5 104896915.287 5     -1269.738          33.000
R05  20587446.625 5 110051782.656 5      2108.500          33.000    20587448.922 4  85595782.697 4      1639.935          26.000
R19  20039147.742 6 107195925.379 6     -2709.168          40.000    20039150.562 7  83374611.889 7     -2107.128          43.000
C20  24491758.703 6 127534970.595 6      2348.320          39.000
C27  24568659.281 5 127935437.392 5     -3346.859          33.000
C30  22469074.633 8 117002402.420 8     -1181.184          50.000
E04  23468077.844 8 123325678.371 8       478.723          51.000    23468079.672 8  94496275.554 8       366.769          51.000
E09  24489723.094 7 128694467.591 7      2488.590          47.000    24489725.055 8  98609977.546 8      1906.869          48.000
E11  22705757.672 8 119319561.714 8       200.785          49.000    22705755.039 8  91426664.134 8       153.896          49.000
E12  23239283.664 7 122123269.151 7     -2469.703          43.000    23239287.148 8  93574977.275 8     -1892.418          51.000
E19  25693694.820 5 135021275.329 5     -2143.957          34.000
> 2020 05 05 22 09 30.0000000  0 18        .000000000000
G01  22121525.969 8 116249392.823 8     -2891.805          51.000    22121526.758 8  90583947.036 8     -2253.354          51.000
G03  20529233.258 8 107881861.190 8      -891.484          51.000    20529234.586 8  84063797.170 8      -694.663          51.000
G04  20625229.656 8 108386320.452 8      1491.484          50.000    20625230.758 8  84456929.538 8      1162.196          49.000
G09  22671617.305 7 119140228.184 7      3209.781          45.000    22671620.492 7  92836530.525 7      2501.128          45.000
G17  22100533.992 6 116139084.163 6      -657.637          36.000
R03  22728178.750 4 121665666.602 4     -3456.637          29.000    22728181.570 4  94628905.116 4     -2688.498          26.000
R04  19595887.508 6 104935094.396 6     -1287.441          37.000    19595896.562 5  81616179.069 5     -1001.343          30.000
R05  20575627.109 5 109988610.203 5      2091.141          32.000    20575630.562 4  85546636.506 4      1626.449          29.000
R19  20054382.055 6 107277420.821 6     -2735.770          40.000    20054384.875 7  83437997.224 7     -2127.821          42.000
C20  24478223.828 6 127464495.661 6      2338.570          39.000
C25  25531135.430 5 132947313.109 5      1038.906          34.000
C27  24587930.312 5 128035788.604 5     -3355.418          33.000
C30  22475905.031 8 117037970.745 8     -1201.594          51.000
E04  23465353.156 8 123311358.174 8       464.344          51.000    23465354.953 8  94485302.931 8       355.802          51.000
E09  24475510.328 7 128619778.821 7      2479.020          47.000    24475512.031 8  98552748.487 8      1899.505          49.000
E11  22704628.625 8 119313630.277 8       183.203          49.000    22704626.430 8  91422119.257 8       140.460          49.000
E12  23253385.734 7 122197377.891 7     -2482.535          45.000    23253389.477 8  93631761.916 8     -1902.196          50.000
E19  25705925.859 5 135085551.122 5     -2152.297          33.000
> 2020 05 05 22 10  0.0000000  0 16        .000000000000
G01  22138038.227 8 116336163.212 8     -2895.438          51.000    22138038.984 8  90651560.302 8     -2256.185          51.000
G03  20534323.914 8 107908612.513 8      -894.422          51.000    20534325.094 8  84084642.362 8      -696.949          51.000
G04  20616735.391 8 108341683.468 8      1481.727          49.000    20616736.883 8  84422147.486 8      1154.592          49.000
G09  22653292.711 7 119043932.451 7      3207.609          46.000    22653294.680 7  92761494.901 7      2499.436          46.000
G17  22104311.523 6 116158932.065 6      -668.715          36.000
R04  19603110.227 6 104973770.207 6     -1293.512          38.000    19603111.023 4  81646260.244 4     -1006.068          26.000
R05  20563902.148 5 109925934.966 5      2084.852          35.000    20563906.859 4  85497889.144 4      1621.551          29.000
R19  20069757.750 6 107359671.418 6     -2750.340          40.000    20069760.383 7  83501969.860 7     -2139.153          42.000
C20  24464738.500 6 127394276.930 6      2339.965          39.000
C25  25525163.039 5 132916215.402 5      1031.383          33.000
C27  24607245.805 5 128136374.167 5     -3353.066          33.000
C30  22482847.281 8 117074118.839 8     -1210.762          51.000
E04  23462703.867 8 123297434.860 8       461.312          51.000    23462705.836 8  94474634.424 8       353.497          51.000
E09  24461346.344 7 128545346.771 7      2480.645          47.000    24461348.586 8  98495716.170 8      1900.637          50.000
E11  22703593.375 8 119308190.261 8       176.766          49.000    22703591.227 8  91417950.949 8       135.438          49.000
E12  23267555.320 7 122271837.161 7     -2484.062          47.000    23267558.336 8  93688815.105 8     -1903.325          50.000
> 2020 05 05 22 10 30.0000000  0 14        .000000000000
G01  22154582.852 8 116423106.704 8     -2910.316          50.000    22154584.359 8  90719308.482 8     -2267.779          50.000
G03  20539443.875 8 107935517.969 8      -908.773          51.000    20539445.188 8  84105607.652 8      -708.135          51.000
G04  20608309.734 8 108297406.743 8      1460.516          49.000    20608311.438 8  84387646.158 8      1138.064          50.000
G09  22634993.227 8 118947764.575 8      3193.984          48.000    22634993.008 8  92686558.920 8      2488.822          48.000
R04  19610379.141 5 105012696.672 5     -1311.297          35.000    19610380.180 5  81676538.352 5     -1019.898          32.000
R19  20085228.367 6 107442430.245 6     -2776.602          39.000    20085230.750 7  83566337.815 7     -2159.579          44.000
C20  24451257.906 6 127324077.319 6      2330.422          39.000
C25  25519244.438 5 132885404.869 5      1013.148          31.000
C27  24626560.695 5 128236954.632 5     -3361.938          31.000
C30  22489855.227 8 117110608.438 8     -1231.359          51.000
E04  23460084.664 8 123283668.609 8       446.730          51.000    23460086.312 8  94464086.272 8       342.270          51.000
E09  24447185.758 7 128470932.518 7      2470.562          46.000    24447188.750 8  98438697.490 8      1893.106          50.000
E11  22702606.250 8 119303002.943 8       159.047          49.000    22702604.266 8  91413976.255 8       121.855          50.000
E12  23281746.102 8 122346406.453 8     -2496.988          48.000    23281748.031 8  93745952.573 8     -1913.244          50.000
> 2020 05 05 22 11  0.0000000  0 15        .000000000000
G01  22171213.180 7 116510505.944 7     -2914.250          46.000    22171216.266 7  90787411.808 7     -2270.841          46.000
G03  20544647.078 8 107962861.111 8      -911.703          51.000    20544648.516 8  84126914.001 8      -710.418          51.000
G04  20600006.977 8 108253775.020 8      1450.414          49.000    20600008.469 8  84353647.389 8      1130.190          49.000
G09  22616772.695 8 118852010.236 8      3191.664          50.000    22616770.930 8  92611945.187 8      2487.011          50.000
R03  22786210.211 5 121976368.819 5     -3449.961          34.000    22786210.609 5  94870497.175 5     -2683.303          32.000
R04  19617746.516 4 105052161.215 4     -1318.191          27.000    19617755.938 5  81707233.082 5     -1025.260          33.000
R19  20100847.914 6 107525983.743 6     -2791.734          39.000    20100850.242 7  83631323.876 7     -2171.349          45.000
C20  24437835.633 6 127254178.527 6      2331.801          38.000
C25  25513433.703 5 132855164.254 5      1005.477          35.000
C27  24645928.047 5 128337815.382 5     -3360.168          30.000
C30  22496982.070 8 117147719.911 8     -1240.598          50.000
E04  23457549.219 8 123270342.963 8       443.688          51.000    23457550.352 8  94453875.712 8       339.941          51.000
E09  24433082.758 7 128396820.622 7      2472.094          45.000    24433086.258 8  98381910.476 8      1894.289          49.000
E11  22701721.367 8 119298352.991 8       152.734          49.000    22701719.648 8  91410413.293 8       117.018          50.000
E12  23296011.469 8 122421368.697 8     -2498.445          49.000    23296012.617 8  93803391.129 8     -1914.363          51.000
> 2020 05 05 22 11 30.0000000  0 16        .000000000000
G01  22187887.094 7 116598135.010 7     -2924.867          46.000    22187891.844 7  90855694.229 7     -2279.117          46.000
G03  20549890.672 8 107990417.029 8      -922.078          51.000    20549892.211 8  84148386.151 8      -718.502          51.000
G04  20591784.242 8 108210564.462 8      1433.309          49.000    20591785.734 8  84319976.834 8      1116.867          49.000
G09  22598588.234 8 118756446.770 8      3182.059          51.000    22598586.555 8  92537480.191 8      2479.529          51.000
G17  22116237.578 5 116221625.272 5      -722.133          33.000
R03  22805550.984 6 122079933.218 6     -3451.496          36.000    22805557.336 5  94951047.230 5     -2684.500          33.000
R05  20529134.586 6 109739969.770 6      2046.684          38.000    20529142.648 4  85353351.883 4      1591.865          28.000
R19  20116572.828 6 107610100.469 6     -2813.070          38.000    20116575.320 7  83696748.013 7     -2187.944          47.000
C20  24424427.547 6 127184358.490 6      2326.156          36.000
C25  25507692.930 6 132825272.483 6       990.195          37.000
C27  24665305.352 5 128438717.548 5     -3363.527          30.000
C30  22504185.070 8 117185229.752 8     -1256.867          51.000
E04  23455054.398 8 123257233.040 8       433.383          51.000    23455055.469 8  94443830.444 8       332.085          51.000
E09  24418994.836 7 128322787.195 7      2466.457          46.000    24418998.289 8  98325183.574 8      1889.916          49.000
E11  22700896.211 8 119294016.612 8       139.453          50.000    22700894.531 8  91407090.620 8       106.755          51.000
E12  23310308.570 8 122496498.382 8     -2507.117          48.000    23310309.211 8  93860958.005 8     -1921.014          51.000
> 2020 05 05 22 12  0.0000000  0 16        .000000000000
G01  22204628.977 7 116686116.708 7     -2937.285          47.000    22204634.352 7  90924251.428 7     -2288.794          47.000
G03  20555198.195 8 108018309.518 8      -934.039          51.000    20555200.109 8  84170120.546 8      -727.826          51.000
G04  20583665.609 8 108167900.007 8      1414.398          51.000    20583667.000 8  84286731.830 8      1102.129          50.000
G09  22580463.664 8 118661200.091 8      3170.848          51.000    22580463.133 8  92463262.035 8      2470.790          51.000
G17  22120426.508 5 116243645.813 5      -742.262          33.000
R03  22824908.852 5 122183566.769 5     -3454.242          35.000    22824916.875 5  95031651.044 5     -2686.636          31.000
R05  20517706.984 6 109678847.775 6      2031.316          40.000    20517713.500 5  85305812.604 5      1579.913          34.000
R19  20132426.430 6 107694903.995 6     -2836.871          40.000    20132429.102 8  83762706.352 8     -2206.455          48.000
C20  24411056.508 6 127114740.531 6      2318.590          36.000
C25  25502043.398 5 132795854.174 5       973.664          32.000
C27  24684716.688 5 128539793.276 5     -3370.625          30.000
C30  22511488.133 8 117223259.961 8     -1275.102          51.000
E04  23452624.078 8 123244462.578 8       421.340          51.000    23452625.102 8  94434045.295 8       322.842          51.000
E09  24404945.664 8 128248956.951 8      2458.793          48.000    24404948.977 8  98268612.374 8      1884.007          49.000
E11  22700154.602 8 119290118.733 8       124.023          50.000    22700152.914 8  91404103.922 8        94.956          51.000
E12  23324660.719 7 122571918.636 7     -2517.578          46.000    23324661.094 8  93918747.552 8     -1929.086          51.000
> 2020 05 05 22 12 30.0000000  0 17        .000000000000
G01  22221433.422 8 116774424.394 8     -2952.680          48.000    22221438.281 8  90993062.624 8     -2300.789          48.000
G03  20560564.898 8 108046512.919 8      -948.926          51.000    20560567.148 8  84192097.216 8      -739.423          51.000
G04  20575646.141 8 108125757.073 8      1392.301          50.000    20575647.039 8  84253893.206 8      1084.913          49.000
G09  22562394.453 8 118566246.768 8      3156.523          50.000    22562395.375 8  92389272.467 8      2459.629          50.000
G17  22124726.922 5 116266233.559 5      -766.297          34.000
R03  22844277.703 5 122287242.179 5     -3460.418          33.000    22844283.414 5  95112287.447 5     -2691.439          32.000
R04  19640263.727 5 105172758.997 5     -1364.539          34.000    19640270.750 5  81801040.281 5     -1061.308          30.000
R05  20506352.328 6 109618141.795 6      2012.910          39.000    20506354.078 4  85258596.844 4      1565.594          29.000
R19  20148403.039 6 107780365.379 6     -2863.473          41.000    20148405.742 8  83829176.339 8     -2227.145          48.000
C20  24397720.094 6 127045299.889 6      2307.828          37.000
C25  25496479.273 5 132766860.889 5       954.633          31.000
C27  24704156.969 5 128641011.376 5     -3379.863          31.000
C30  22518886.312 8 117261784.496 8     -1296.043          51.000
E04  23450253.719 8 123232005.968 8       406.438          51.000    23450254.297 8  94424500.619 8       311.408          51.000
E09  24390930.500 8 128175305.207 8      2448.383          50.000    24390933.922 8  98212177.964 8      1876.135          50.000
E11  22699491.812 8 119286634.742 8       105.785          51.000    22699490.188 8  91401434.382 8        80.990          51.000
E12  23339062.195 7 122647603.152 7     -2530.836          44.000    23339063.461 8  93976739.613 8     -1939.215          51.000
> 2020 05 05 22 13  0.0000000  0 16        .000000000000
G01  22238298.648 8 116863050.637 8     -2958.953          48.000    22238303.000 8  91062122.044 8     -2305.678          48.000
G03  20565989.641 8 108075020.850 8      -954.938          51.000    20565992.023 8  84214311.184 8      -744.107          51.000
G04  20567724.516 8 108084130.338 8      1379.402          50.000    20567725.453 8  84221456.824 8      1074.862          49.000
G09  22544379.969 8 118471582.449 8      3151.230          51.000    22544382.172 8  92315508.086 8      2455.504          51.000
R03  22863652.773 5 122390951.662 5     -3456.672          32.000    22863656.227 4  95192950.435 4     -2688.523          29.000
R04  19647928.281 5 105213763.016 5     -1373.105          32.000    19647925.594 5  81832932.198 5     -1067.971          30.000
R05  20495070.555 5 109557846.048 5      2003.824          35.000
R19  20164500.086 6 107866476.006 6     -2880.793          40.000    20164503.281 7  83896151.285 7     -2240.617          47.000
C20  24384417.422 6 126976030.856 6      2306.684          38.000
C25  25491001.094 5 132738337.873 5       943.781          31.000
C27  24723623.734 5 128742364.665 5     -3379.871          34.000
C30  22526378.164 8 117300796.340 8     -1308.055          51.000
E04  23447941.883 8 123219856.819 8       400.387          51.000    23447942.156 8  94415191.527 8       306.847          51.000
E09  24376948.336 8 128101826.558 8      2446.949          51.000    24376951.852 8  98155876.195 8      1874.980          49.000
E11  22698906.625 8 119283559.371 8        96.223          50.000    22698905.117 8  91399077.923 8        73.831          51.000
E12  23353512.578 7 122723544.953 7     -2535.211          44.000    23353514.875 8  94034928.819 8     -1942.450          50.000
> 2020 05 05 22 13 30.0000000  0 16        .000000000000
G01  22255209.422 8 116951915.491 8     -2970.184          49.000    22255213.492 8  91131367.405 8     -2314.426          48.000
G03  20571457.469 8 108103754.332 8      -965.641          51.000    20571459.883 8  84236700.910 8      -752.447          51.000
G04  20559886.688 8 108042942.027 8      1361.629          50.000    20559887.859 8  84189362.056 8      1061.010          50.000
G09  22526405.680 8 118377130.543 8      3140.914          49.000    22526408.867 8  92241909.226 8      2447.466          49.000
G22  22076796.242 5 116014341.563 5     -2022.594          32.000
R03  22883017.711 5 122494614.240 5     -3458.508          34.000    22883020.227 4  95273576.818 4     -2689.951          28.000
R04  19655641.062 5 105255080.931 5     -1386.305          35.000    19655644.031 5  81865068.462 5     -1078.231          32.000
R05  20483847.438 5 109497913.941 5      1989.254          33.000
R19  20180703.281 6 107953152.828 6     -2902.582          41.000    20180706.297 7  83963566.581 7     -2257.564          46.000
C20  24371133.414 6 126906856.000 6      2300.250          38.000
C27  24743101.250 6 128843773.289 6     -3384.984          36.000
C30  22533948.734 8 117340216.549 8     -1324.781          51.000
E04  23445673.445 8 123207936.156 8       389.566          51.000    23445673.797 8  94406057.522 8       298.487          51.000
E09  24362984.070 8 128028443.046 8      2440.516          51.000    24362987.531 8  98099647.310 8      1870.095          48.000
E11  22698384.211 8 119280814.757 8        81.914          50.000    22698382.852 8  91396974.913 8        62.855          51.000
E12  23367997.609 7 122799664.470 7     -2544.199          45.000    23367999.945 8  94093254.177 8     -1949.457          49.000
> 2020 05 05 22 14  0.0000000  0 16        .000000000000
G01  22272199.953 8 117041199.105 8     -2978.352          50.000    22272203.914 8  91200939.046 8     -2320.793          50.000
G03  20577002.867 8 108132894.558 8      -973.332          51.000    20577005.023 8  84259407.592 8      -758.441          51.000
