     3.02           OBSERVATION DATA    M (MIXED)           RINEX VERSION / TYPE
SAVERINEX           SC600               20200506 095930 LCL PGM / RUN BY / DATE
       G = GPS       R = GLONASS       C = COMPASS          COMMENT
       S = SBAS      J = QZSS          E = GALILEO          COMMENT
BEAN                                                        MARKER NAME
1                                                           MARKER NUMBER
GEODETIC                                                    MARKER TYPE
Unige DICCA         GTER                                    OBSERVER / AGENCY
SC60291900056       SC600               2.12(191226)        REC # / TYPE / VERS
                    HEMA45          NONE                    ANT # / TYPE
  4509407.8091   693652.4678  4442337.6214                  APPROX POSITION XYZ
        0.0000        0.0000        0.0000                  ANTENNA: DELTA H/E/N
G    8 C1C L1C D1C S1C C2Y L2Y D2Y S2Y                      SYS / # / OBS TYPES
R    8 C1C L1C D1C S1C C2P L2P D2P S2P                      SYS / # / OBS TYPES
C    4 C1I L1I D1I S1I                                      SYS / # / OBS TYPES
E    8 C1C L1C D1C S1C C7Q L7Q D7Q S7Q                      SYS / # / OBS TYPES
DBHZ                                                        COMMENT
     30.000                                                 INTERVAL
  2020    05    06    07    00    0.0000000     GPS         TIME OF FIRST OBS
  2020    05    06    07    59   30.0000000     GPS         TIME OF LAST OBS
     0                                                      RCV CLOCK OFFS APPL
G L1C  0.00000                                              SYS / PHASE SHIFT
G L2Y  0.00000                                              SYS / PHASE SHIFT
R L1C  0.00000                                              SYS / PHASE SHIFT
R L2P  0.25000                                              SYS / PHASE SHIFT
C L1I  0.00000                                              SYS / PHASE SHIFT
E L1C  0.50000                                              SYS / PHASE SHIFT
E L7Q -0.25000                                              SYS / PHASE SHIFT
 13 R01  1 R02 -4 R06 -4 R07  5 R08  6 R09 -2 R10 -7 R11  0 GLONASS SLOT / FRQ #
    R12 -1 R19  3 R20  2 R21  4 R22 -3                      GLONASS SLOT / FRQ #
 C1C   71.950 C2C   71.950 C2P   71.950                     GLONASS COD/PHS/BIS
    18                                                      LEAP SECONDS
*** Above antenna height is from mark to ANTENNA BOTTOM.    COMMENT
    17     4        0.0000        ANT MEASURE TYPE/HEIGT    COMMENT
    0.0000    0.0000    0.0458    0.0405    0.0000          COMMENT
                    BASE STATION                            COMMENT
                                                            END OF HEADER
> 2020 05 06 07 00  0.0000000  0 16        .000000000000
G12  22585919.312 8 118689801.599 8      3286.871          49.000    22585917.469 8  92485546.473 8      2561.198          49.000
G13  21953979.984 7 115368921.171 7     -2951.676          47.000    21953982.242 7  89897850.423 7     -2300.007          47.000
G15  20890755.641 8 109781652.578 8     -1886.602          51.000    20890754.273 8  85544132.416 8     -1470.079          51.000
G17  22392253.703 5 117672086.738 5       -95.980          35.000    22392236.719 5  91692489.516 5       -74.796          35.000
G19  22075636.055 6 116008234.037 6      1892.676          38.000    22075635.711 6  90396040.254 6      1474.809          36.000
R01  19935201.500 6 106565095.640 6     -1255.230          41.000    19935206.078 6  82883962.729 6      -976.290          38.000
R08  21572623.500 7 115520425.678 7     -3990.738          43.000    21572631.352 6  89849217.497 6     -3103.911          40.000
R10  20715447.242 5 110424951.228 5     -2368.484          32.000
R11  19880714.094 5 106236504.740 5      1014.715          31.000
R12  23019368.961 6 122965216.410 6      3037.426          36.000
C21  23374634.164 5 121717903.371 5      -625.719          35.000
C29  25377128.500 6 132145365.312 6      3093.133          40.000
E02  25444838.680 7 133713529.808 7      2040.332          47.000    25444841.250 8 102455831.912 8      1563.365          49.000
E03  23863733.234 8 125404767.438 8      -774.176          51.000    23863734.750 8  96089374.410 8      -593.191          51.000
E05  26093003.570 7 137119628.806 7     -2921.672          47.000    26093012.938 7 105065701.016 7     -2238.705          47.000
E25  23428922.469 8 123119831.373 8      -126.715          51.000    23428924.539 8  94338567.579 8       -97.078          51.000
> 2020 05 06 07 00 30.0000000  0 15        .000000000000
G12  22567153.578 8 118591186.032 8      3285.125          48.000    22567151.492 8  92408703.190 8      2559.838          48.000
G13  21970834.008 8 115457491.699 8     -2955.219          49.000    21970836.484 7  89966866.433 7     -2302.768          46.000
G15  20901544.820 8 109838351.460 8     -1895.480          49.000    20901543.273 8  85588313.335 8     -1476.998          49.000
G17  22392830.828 6 117675116.043 6      -108.219          37.000    22392813.773 6  91694849.765 6       -84.332          37.000
G19  22064854.133 5 115951581.005 5      1881.934          35.000    22064855.484 6  90351895.075 6      1466.448          36.000
R01  19942292.867 7 106603001.762 7     -1274.230          43.000    19942297.344 6  82913445.256 6      -991.068          39.000
R08  21594989.281 7 115640182.633 7     -3995.461          42.000    21594994.000 6  89942361.736 6     -3107.584          40.000
R10  20728767.992 5 110496031.346 5     -2368.730          32.000
R11  19875027.141 5 106206084.911 5      1010.621          33.000    19875029.289 4  82604772.649 4       786.039          25.000
C21  23378260.703 4 121736783.888 4      -633.961          27.000
C29  25359287.391 6 132052462.558 6      3098.289          41.000
E02  25433181.094 7 133652267.120 7      2041.723          46.000    25433183.547 8 102408890.388 8      1564.476          50.000
E03  23868164.086 8 125428053.480 8      -780.410          51.000    23868166.594 8  96107216.955 8      -597.974          51.000
E05  26109672.758 8 137207217.875 8     -2919.727          48.000    26109681.312 7 105132814.714 7     -2237.175          44.000
E25  23429641.961 8 123123612.530 8      -127.562          51.000    23429644.359 8  94341464.821 8       -97.728          51.000
> 2020 05 06 07 01  0.0000000  0 14        .000000000000
G12  22548426.742 8 118492776.528 8      3275.824          49.000    22548425.688 8  92332020.482 8      2552.593          49.000
G13  21987739.055 8 115546326.703 8     -2966.523          51.000    21987741.062 7  90036088.473 7     -2311.577          45.000
G15  20912413.633 8 109895470.211 8     -1911.785          49.000    20912412.469 8  85632821.386 8     -1489.706          49.000
G19  22054162.320 6 115895396.804 6      1863.977          39.000    22054164.203 5  90308115.250 5      1452.449          34.000
R01  19949519.742 7 106641632.214 7     -1300.520          44.000    19949524.336 6  82943491.131 6     -1011.515          39.000
R08  21617410.461 6 115760235.200 6     -4007.758          41.000    21617412.727 6  90035735.922 6     -3117.148          41.000
R10  20742116.070 5 110567197.334 5     -2374.613          31.000
R12  22985224.336 5 122782844.042 5      3032.406          34.000    22985228.062 5  95497804.419 5      2358.538          32.000
C22  24593022.633 5 128062318.805 5     -3043.172          31.000
C29  25341446.984 6 131959562.835 6      3095.578          38.000
E02  25421543.812 7 133591113.030 7      2035.672          46.000    25421546.320 8 102362032.081 8      1559.804          50.000
E03  23872658.672 8 125451674.942 8      -793.980          51.000    23872662.469 8  96125316.486 8      -608.378          51.000
E05  26126358.688 8 137294896.338 8     -2925.062          49.000    26126368.031 6 105199996.960 6     -2241.264          40.000
E25  23430394.375 8 123127566.806 8      -135.629          51.000    23430397.070 8  94344494.713 8      -103.870          51.000
> 2020 05 06 07 01 30.0000000  0 15        .000000000000
G12  22529758.422 8 118394673.706 8      3265.074          50.000    22529758.148 8  92255576.723 8      2544.214          50.000
G13  22004713.086 8 115635522.794 8     -2979.152          51.000    22004714.203 7  90105591.858 7     -2321.420          44.000
G15  20923381.156 8 109953105.580 8     -1929.613          51.000    20923380.117 8  85677732.015 8     -1503.595          51.000
G19  22043579.258 6 115839782.027 6      1844.344          37.000    22043580.508 6  90264779.020 6      1437.142          36.000
R01  19956900.492 7 106681085.402 7     -1328.723          45.000    19956904.617 6  82974176.962 6     -1033.451          39.000
R08  21639904.633 6 115880679.283 6     -4021.164          40.000    21639905.578 7  90129414.660 7     -3127.572          42.000
R11  19863817.852 5 106146209.449 5       983.973          31.000    19863822.562 4  82558179.684 4       765.312          26.000
R12  22968215.875 5 122691963.978 5      3026.176          34.000    22968215.766 5  95427119.860 5      2353.683          31.000
C21  23385775.219 5 121775903.251 5      -669.645          31.000
C22  24610583.422 6 128153745.508 6     -3050.719          37.000
C29  25323625.336 5 131866766.129 5      3091.926          35.000
E02  25409945.695 7 133530166.022 7      2028.227          46.000    25409948.828 8 102315332.423 8      1554.200          50.000
E03  23877236.070 8 125475729.859 8      -808.840          51.000    23877240.633 8  96143748.162 8      -619.724          51.000
E05  26143079.609 8 137382761.064 8     -2931.727          48.000    26143095.000 6 105267322.002 6     -2246.310          39.000
E25  23431198.391 8 123131791.823 8      -145.234          51.000    23431201.141 8  94347732.076 8      -111.283          51.000
> 2020 05 06 07 02  0.0000000  0 16        .000000000000
G12  22511145.867 8 118296863.502 8      3250.844          50.000    22511145.398 8  92179361.003 8      2533.125          50.000
G13  22021752.484 8 115725062.722 8     -2994.938          51.000    22021752.859 7  90175363.175 7     -2333.721          43.000
G15  20934444.164 8 110011240.649 8     -1950.742          51.000    20934443.188 8  85723032.045 8     -1520.062          51.000
G19  22033101.609 5 115784723.766 5      1821.441          35.000    22033102.609 6  90221876.557 6      1419.308          36.000
R01  19964431.594 7 106721343.842 7     -1360.047          44.000    19964435.273 6  83005489.066 6     -1057.814          38.000
R08  21662466.461 6 116001494.893 6     -4037.863          39.000    21662467.953 6  90223382.393 6     -3140.557          41.000
R11  19858329.812 4 106116868.248 4       967.141          26.000
R12  22951230.516 5 122601350.119 5      3015.496          34.000    22951234.070 5  95356617.175 5      2345.386          30.000
C21  23389689.570 5 121796260.535 5      -691.473          33.000
C22  24628182.719 6 128245370.824 6     -3062.062          41.000
C29  25305818.969 5 131774059.746 5      3084.562          32.000
E02  25398384.164 7 133469410.822 7      2017.453          45.000    25398388.148 8 102268779.740 8      1545.844          50.000
E03  23881893.070 8 125500202.631 8      -827.320          51.000    23881897.891 8  96162500.005 8      -633.885          51.000
E05  26159832.266 7 137470795.207 7     -2941.953          47.000    26159850.414 6 105334776.837 6     -2254.125          38.000
E24  24007555.320 5 126160554.293 5     -2245.012          34.000
E25  23432051.039 8 123136271.513 8      -157.980          51.000    23432053.477 8  94351164.561 8      -121.080          51.000
> 2020 05 06 07 02 30.0000000  0 16        .000000000000
G12  22492591.727 8 118199360.457 8      3247.172          51.000    22492590.492 8  92103384.637 8      2530.264          51.000
G13  22038859.031 8 115814958.140 8     -3000.238          51.000    22038859.055 7  90245411.500 7     -2337.848          42.000
G15  20945604.492 8 110069887.032 8     -1961.355          51.000    20945603.734 8  85768730.492 8     -1528.329          51.000
G17  22396160.422 5 117692617.798 5      -183.855          34.000    22396155.234 5  91708510.803 5      -143.264          34.000
G19  22022733.766 6 115730237.752 6      1808.758          36.000    22022735.305 6  90179419.874 6      1409.419          37.000
R01  19972115.961 7 106762419.275 7     -1380.609          46.000    19972118.656 6  83037436.609 6     -1073.807          38.000
R08  21685099.125 6 116122691.598 6     -4044.059          40.000    21685100.961 6  90317646.511 6     -3145.379          37.000
R12  22934283.844 5 122510852.172 5      3015.574          34.000    22934289.109 5  95286229.405 5      2345.450          31.000
C21  23393704.727 5 121817143.828 5      -701.781          33.000
C22  24645821.867 7 128337205.344 7     -3062.512          44.000
C29  25288034.633 5 131681459.266 5      3086.570          35.000
E02  25386861.641 7 133408860.661 7      2017.156          44.000    25386866.523 8 102222384.180 8      1545.571          50.000
E03  23886632.203 8 125525106.100 8      -835.094          51.000    23886636.531 8  96181581.882 8      -639.850          51.000
E05  26176618.680 7 137559010.441 7     -2941.324          46.000    26176635.734 6 105402370.397 6     -2253.664          40.000
E24  24020357.875 5 126227823.430 5     -2241.766          35.000    24020370.555 5  96720036.755 5     -1717.803          35.000
E25  23432954.383 8 123141018.331 8      -160.566          51.000    23432956.453 8  94354801.736 8      -123.043          51.000
> 2020 05 06 07 03  0.0000000  0 17        .000000000000
G12  22474073.156 8 118102044.423 8      3234.430          50.000    22474071.938 8  92027554.013 8      2520.338          50.000
G13  22056009.242 8 115905085.345 8     -3014.418          50.000    22056009.422 7  90315640.469 7     -2348.900          42.000
G15  20956838.727 8 110128921.108 8     -1980.637          51.000    20956838.211 8  85814731.048 8     -1543.353          51.000
G17  22397256.055 5 117698369.167 5      -206.258          33.000    22397262.406 5  91712992.132 5      -160.726          32.000
G19  22012451.555 6 115676204.009 6      1787.176          36.000    22012453.227 5  90137315.672 5      1392.605          33.000
R01  19979929.516 7 106804185.757 7     -1410.250          45.000    19979931.523 6  83069921.616 6     -1096.864          38.000
R08  21707779.359 6 116244140.595 6     -4058.859          41.000    21707779.328 5  90412106.798 5     -3156.897          34.000
R11  19847540.523 5 106059254.398 5       944.836          33.000
R12  22917350.625 4 122420373.019 4      3006.910          29.000    22917356.742 5  95215867.407 5      2338.708          31.000
C21  23397795.656 5 121838431.501 5      -723.340          34.000
C22  24663477.023 7 128429125.723 7     -3071.715          46.000
C29  25270250.023 6 131588845.945 6      3080.738          37.000
E02  25375354.797 6 133348393.673 6      2007.797          41.000    25375360.648 8 102176052.343 8      1538.394          49.000
E03  23891430.102 8 125550317.949 8      -851.871          51.000    23891433.469 8  96200900.040 8      -652.747          51.000
E05  26193415.633 7 137647283.249 7     -2949.625          45.000    26193429.992 6 105470008.024 6     -2260.138          41.000
E24  24033158.086 6 126295097.465 6     -2247.336          36.000    24033159.305 5  96771573.109 5     -1722.275          33.000
E25  23433885.195 8 123145909.448 8      -171.738          51.000    23433886.930 8  94358549.474 8      -131.595          51.000
> 2020 05 06 07 03 30.0000000  0 14        .000000000000
G12  22455636.695 8 118005160.752 8      3227.992          49.000    22455636.414 8  91952060.275 8      2515.322          49.000
G13  22073249.914 8 115995686.516 8     -3022.043          51.000    22073250.297 6  90386238.746 6     -2354.839          41.000
G15  20968192.766 8 110188585.346 8     -1993.441          51.000    20968192.672 8  85861222.640 8     -1553.331          51.000
G19  22002301.125 5 115622869.038 5      1771.691          34.000    22002303.609 5  90095755.903 5      1380.533          35.000
R01  19987917.664 7 106846889.512 7     -1433.188          45.000    19987920.906 6  83103135.609 6     -1114.701          40.000
R08  21730553.008 7 116366086.940 7     -4067.164          44.000    21730550.367 5  90506953.828 5     -3163.353          34.000
R11  19842280.180 5 106031097.129 5       935.434          34.000
C21  23402011.141 4 121860364.203 4      -736.160          29.000
C22  24681193.922 7 128521371.336 7     -3074.668          47.000
C29  25252510.406 6 131496464.329 6      3081.129          41.000
E02  25363910.148 7 133288253.990 7      2004.926          42.000    25363916.656 8 102129971.234 8      1536.269          49.000
E03  23896332.836 8 125576081.841 8      -862.215          51.000    23896335.523 8  96220641.182 8      -660.682          51.000
E05  26210270.312 7 137735856.140 7     -2951.766          45.000    26210280.414 6 105537875.592 6     -2261.695          41.000
E25  23434889.914 8 123151188.193 8      -176.703          51.000    23434891.391 8  94362594.211 8      -135.399          51.000
> 2020 05 06 07 04  0.0000000  0 16        .000000000000
G12  22437226.352 8 117908413.902 8      3218.715          49.000    22437227.062 8  91876673.103 8      2508.089          49.000
G13  22090524.203 8 116086462.860 8     -3032.723          51.000    22090524.453 6  90456973.488 6     -2363.164          41.000
G15  20979609.586 8 110248580.870 8     -2009.305          51.000    20979610.039 8  85907972.385 8     -1565.692          51.000
G17  22399794.086 6 117711721.419 6      -240.160          37.000
G19  21992229.039 5 115569938.224 5      1753.406          34.000    21992230.664 5  90054511.042 5      1366.288          35.000
R01  19996023.938 7 106890226.238 7     -1458.918          45.000    19996028.781 6  83136841.960 6     -1134.714          40.000
R08  21753361.734 7 116488222.950 7     -4078.188          43.000    21753358.922 6  90601948.424 6     -3171.927          37.000
R12  22883634.242 4 122240273.105 4      3000.324          26.000    22883633.531 4  95075759.734 4      2333.586          25.000
C21  23406293.438 5 121882646.682 5      -752.855          32.000
C22  24698915.250 7 128613645.120 7     -3080.109          46.000
C29  25234758.930 7 131404022.360 7      3078.402          43.000
E02  25352471.492 7 133228144.300 7      1999.246          44.000    25352477.969 8 102083913.160 8      1531.917          48.000
E03  23901284.102 8 125602100.129 8      -875.406          51.000    23901286.148 8  96240577.246 8      -670.772          51.000
E05  26227125.672 7 137824430.294 7     -2956.375          45.000    26227131.664 6 105605744.118 6     -2265.206          41.000
E24  24058813.461 5 126429920.222 5     -2248.711          32.000
E25  23435911.422 8 123156556.494 8      -184.238          51.000    23435913.109 8  94366707.590 8      -141.191          51.000
> 2020 05 06 07 04 30.0000000  0 16        .000000000000
G12  22418887.938 8 117812044.911 8      3208.395          50.000    22418889.133 8  91801580.387 8      2500.048          50.000
G13  22107876.984 8 116177651.905 8     -3044.270          50.000    22107876.938 6  90528029.837 6     -2372.158          41.000
G15  20991134.680 8 110309145.908 8     -2025.891          51.000    20991135.578 8  85955165.903 8     -1578.616          51.000
G17  22401225.281 5 117719253.633 5      -259.488          35.000    22401253.859 5  91729387.930 5      -202.208          34.000
G19  21982279.984 5 115517653.339 5      1733.891          31.000    21982281.359 4  90013769.446 4      1351.068          28.000
R01  20004294.445 7 106934437.669 7     -1485.891          46.000    20004299.969 6  83171228.614 6     -1155.696          40.000
R08  21776249.883 6 116610788.702 6     -4090.199          39.000    21776248.625 6  90697277.293 6     -3181.269          39.000
R11  19831922.523 4 105975780.226 4       909.820          28.000
R12  22866812.008 5 122150372.780 5      2993.004          30.000
C21  23410685.281 5 121905515.681 5      -769.934          34.000
C22  24716686.328 7 128706182.053 7     -3086.668          45.000
C29  25217041.805 7 131311759.919 7      3074.621          45.000
E02  25341085.047 7 133168304.310 7      1992.453          45.000    25341090.297 7 102038061.730 7      1526.658          47.000
E03  23906329.484 8 125628612.055 8      -889.586          51.000    23906330.953 8  96260891.555 8      -681.613          51.000
E05  26244026.555 7 137913243.780 7     -2961.977          43.000    26244029.695 6 105673795.990 6     -2269.632          40.000
E25  23436995.438 8 123162253.216 8      -193.074          51.000    23436997.297 8  94371072.610 8      -147.958          51.000
> 2020 05 06 07 05  0.0000000  0 14        .000000000000
G12  22400600.180 8 117715941.498 8      3198.289          51.000    22400600.594 8  91726694.610 8      2492.173          51.000
G13  22125285.891 8 116269137.972 8     -3055.020          48.000    22125285.477 6  90599317.629 6     -2380.535          41.000
G15  21002746.211 8 110370164.573 8     -2042.293          51.000    21002747.062 8  86002712.899 8     -1591.397          51.000
G19  21972432.461 5 115465902.583 5      1715.734          32.000    21972432.938 3  89973444.198 3      1336.927          23.000
R01  20012707.148 8 106979405.909 8     -1512.348          48.000    20012712.719 6  83206203.876 6     -1176.270          40.000
R08  21799193.289 5 116733664.204 5     -4101.676          33.000    21799195.867 6  90792847.142 6     -3190.189          39.000
R12  22850026.016 5 122060742.872 5      2985.852          32.000
C21  23415166.328 5 121928857.306 5      -786.449          35.000
C22  24734485.242 7 128798866.905 7     -3092.699          44.000
C29  25199337.305 7 131219566.706 7      3071.125          45.000
E02  25329728.539 7 133108620.240 7      1986.047          46.000    25329732.453 7 101992329.782 7      1521.809          47.000
E03  23911446.930 8 125655503.414 8      -903.504          51.000    23911448.508 8  96281496.610 8      -692.304          51.000
E05  26260950.828 7 138002181.299 7     -2967.449          42.000    26260952.148 6 105741942.885 6     -2273.580          39.000
E25  23438120.336 8 123168163.753 8      -201.219          51.000    23438121.992 8  94375601.441 8      -154.234          51.000
> 2020 05 06 07 05 30.0000000  0 16        .000000000000
G12  22382369.766 8 117620140.092 8      3188.020          50.000    22382368.969 8  91652044.186 8      2484.171          50.000
G13  22142757.391 7 116360954.180 7     -3066.277          47.000    22142756.875 7  90670862.754 7     -2389.307          42.000
G15  21014450.391 8 110431670.203 8     -2058.645          51.000    21014450.867 8  86050639.330 8     -1604.142          51.000
G17  22404406.188 4 117735948.221 4      -297.242          29.000    22404413.398 4  91742327.144 4      -231.617          29.000
G19  21962693.203 5 115414724.173 5      1695.809          34.000
R01  20021267.914 8 107025164.352 8     -1538.832          48.000    20021272.922 6  83241793.765 6     -1196.872          39.000
R08  21822197.750 5 116856880.281 5     -4113.621          32.000    21822206.117 6  90888681.973 6     -3199.480          38.000
R10  20864005.922 5 111216907.588 5     -2435.977          34.000
R12  22833270.711 4 121971232.474 4      2978.730          29.000    22833297.625 4  94866554.165 4      2316.775          24.000
C21  23419742.734 5 121952705.295 5      -804.180          34.000
C22  24752318.617 7 128891731.687 7     -3099.004          44.000
C29  25181652.734 7 131127479.659 7      3067.469          46.000
E02  25318407.898 7 133049126.929 7      1979.535          43.000    25318411.227 7 101946744.008 7      1516.811          47.000
E03  23916643.023 8 125682808.586 8      -917.375          51.000    23916644.906 8  96302418.736 8      -702.918          51.000
E05  26277904.727 6 138091275.976 6     -2972.914          39.000    26277904.320 5 105810210.191 5     -2278.067          35.000
E25  23439292.133 8 123174322.154 8      -209.801          51.000    23439293.852 8  94380320.214 8      -160.747          51.000
> 2020 05 06 07 06  0.0000000  0 16        .000000000000
G12  22364188.031 8 117524596.470 8      3181.172          48.000    22364186.930 8  91577594.619 8      2478.835          48.000
G13  22160283.508 8 116453053.409 8     -3073.781          49.000    22160282.727 7  90742628.375 7     -2395.154          44.000
G15  21026238.156 8 110493615.740 8     -2071.477          51.000    21026238.211 8  86098908.536 8     -1614.138          51.000
G19  21953060.094 6 115364073.311 6      1680.227          37.000    21953055.797 6  89894106.972 6      1309.270          37.000
R01  20029967.406 8 107071664.936 8     -1561.582          48.000    20029971.180 6  83277960.882 6     -1214.564          38.000
R08  21845260.500 5 116980387.194 5     -4121.395          32.000    21845271.047 6  90984742.891 6     -3205.532          37.000
R10  20877724.648 5 111290038.744 5     -2440.230          35.000
R12  22816543.250 5 121881854.480 5      2977.109          34.000    22816543.883 4  94797048.404 4      2315.530          25.000
C21  23424408.617 6 121977013.401 6      -817.383          37.000
C22  24770177.258 6 128984729.028 6     -3101.332          41.000
C29  25163980.406 7 131035456.389 7      3067.133          47.000
E02  25307113.867 6 132989779.145 6      1976.555          39.000    25307117.219 7 101901269.747 7      1514.524          47.000
E03  23921909.156 8 125710481.875 8      -927.809          51.000    23921911.086 8  96323622.952 8      -710.903          51.000
E05  26294878.641 6 138180480.947 6     -2974.172          36.000    26294876.703 5 105878562.001 5     -2279.180          33.000
E24  24110289.531 6 126700419.457 6     -2256.363          37.000    24110285.797 5  97082130.357 5     -1728.929          31.000
E25  23440502.453 8 123180682.292 8      -214.562          51.000    23440504.188 8  94385193.564 8      -164.435          51.000
> 2020 05 06 07 06 30.0000000  0 16        .000000000000
G12  22346060.328 8 117429336.428 8      3167.691          48.000    22346059.555 8  91503366.024 8      2468.331          48.000
G13  22177868.320 8 116545457.870 8     -3088.172          51.000    22177867.352 7  90814631.803 7     -2406.371          45.000
G15  21038113.891 8 110556023.384 8     -2090.965          51.000    21038113.547 8  86147537.847 8     -1629.323          51.000
G19  21943529.398 6 115313976.734 6      1657.938          40.000    21943523.672 6  89855070.709 6      1291.902          36.000
R01  20038809.609 8 107118929.805 8     -1591.293          48.000    20038812.172 6  83314722.402 6     -1237.675          38.000
R08  21868384.211 5 117104205.030 5     -4135.000          33.000    21868393.352 5  91081045.621 5     -3216.111          35.000
R10  20891477.688 5 111363346.910 5     -2449.648          33.000
R12  22799850.031 6 121792677.121 6      2966.855          37.000
C21  23429167.305 6 122001804.534 6      -837.508          38.000
C22  24788065.398 6 129077880.195 6     -3110.309          40.000
C29  25146325.211 8 130943523.061 8      3059.922          48.000
E02  25295850.148 5 132930600.802 5      1966.945          35.000    25295854.891 7 101855925.328 7      1507.140          47.000
E03  23927249.734 8 125738546.761 8      -945.004          51.000    23927251.797 8  96345127.221 8      -724.016          51.000
E05  26311878.516 6 138269818.629 6     -2983.215          38.000    26311877.117 5 105947024.507 5     -2285.660          33.000
E24  24123181.453 5 126768174.918 5     -2262.000          33.000
E25  23441755.750 8 123187267.344 8      -226.199          51.000    23441757.266 8  94390239.248 8      -173.307          51.000
> 2020 05 06 07 07  0.0000000  0 15        .000000000000
G12  22327996.656 8 117334411.481 8      3160.332          49.000    22327996.023 8  91429398.578 8      2462.599          49.000
G13  22195520.352 8 116638215.548 8     -3096.070          51.000    22195518.992 7  90886910.495 7     -2412.522          46.000
G15  21050086.570 8 110618941.221 8     -2104.043          50.000    21050086.125 8  86196564.724 8     -1639.514          50.000
G19  21934111.844 7 115264486.693 7      1641.168          43.000    21934105.031 6  89816507.113 6      1278.829          36.000
R01  20047803.594 8 107167007.284 8     -1614.512          48.000    20047805.633 6  83352115.956 6     -1255.731          39.000
R08  21891574.820 4 117228380.329 4     -4143.164          27.000    21891582.547 5  91177626.353 5     -3222.461          34.000
R10  20905270.492 5 111436872.639 5     -2453.047          33.000
R12  22783197.047 6 121703714.917 6      2963.379          37.000    22783202.156 4  94658478.529 4      2304.841          26.000
C21  23434028.977 6 122027127.138 6      -851.305          38.000
C22  24805992.102 6 129171232.093 6     -3113.555          37.000
C29  25128697.320 8 130851731.590 8      3058.926          49.000
E02  25284630.297 6 132871641.867 6      1963.230          39.000    25284634.477 7 101810749.004 7      1504.383          47.000
E03  23932674.258 8 125767052.657 8      -955.883          51.000    23932676.609 8  96366969.396 8      -732.391          51.000
E05  26328914.430 6 138359337.391 6     -2984.949          40.000    26328914.766 5 106015618.749 5     -2287.785          35.000
E25  23443060.914 8 123194126.333 8      -231.477          51.000    23443062.312 8  94395494.837 8      -177.332          51.000
> 2020 05 06 07 07 30.0000000  0 16        .000000000000
G12  22309988.398 8 117239777.037 8      3150.496          49.000    22309987.516 8  91355657.500 8      2454.932          49.000
G13  22213230.047 8 116731278.660 8     -3106.301          51.000    22213228.852 7  90959427.190 7     -2420.494          46.000
G15  21062147.102 8 110682321.752 8     -2119.512          49.000    21062146.961 8  86245952.165 8     -1651.568          49.000
G17  22412044.227 5 117776088.363 5      -370.980          31.000    22412041.406 5  91773572.258 5      -289.079          30.000
G19  21924801.117 7 115215559.573 7      1622.473          43.000    21924793.570 5  89778382.146 5      1264.261          35.000
R01  20056940.258 8 107215848.770 8     -1639.852          48.000    20056943.062 6  83390103.762 6     -1275.440          40.000
R10  20919101.492 5 111510581.857 5     -2459.086          32.000
R12  22766575.148 5 121614921.432 5      2958.312          35.000    22766584.812 4  94589416.943 4      2300.913          29.000
C21  23438984.492 6 122052934.811 6      -867.340          36.000
C22  24823946.680 5 129264736.801 5     -3118.883          33.000
C29  25111088.508 8 130760039.027 8      3055.695          48.000
E02  25273444.961 7 132812856.447 7      1957.633          44.000    25273447.711 7 101765705.635 7      1499.924          47.000
E03  23938173.891 8 125795953.277 8      -969.027          51.000    23938176.484 8  96389114.002 8      -742.498          51.000
E05  26345976.094 6 138448989.853 6     -2989.824          41.000    26345978.344 6 106084313.407 6     -2290.859          37.000
E24  24149023.906 6 126903959.346 6     -2263.688          36.000
E25  23444409.352 8 123201212.735 8      -239.094          51.000    23444410.680 8  94400924.695 8      -183.190          51.000
> 2020 05 06 07 08  0.0000000  0 17        .000000000000
G12  22292030.695 8 117145407.870 8      3145.078          49.000    22292029.539 8  91282123.098 8      2450.710          49.000
G13  22230991.750 8 116824618.943 8     -3112.023          49.000    22230991.219 7  91032159.872 7     -2424.953          45.000
G15  21074290.641 8 110746136.788 8     -2130.461          51.000    21074290.789 8  86295678.162 8     -1660.099          51.000
G17  22414215.945 5 117787503.839 5      -385.250          33.000    22414214.000 5  91782469.057 5      -300.201          33.000
G19  21915592.273 6 115167170.862 6      1607.754          41.000    21915585.203 6  89740676.661 6      1252.798          36.000
G28  23991658.938 5 126077019.385 5     -3089.359          33.000
R01  20066213.992 7 107265425.110 7     -1660.723          47.000    20066217.992 6  83428663.148 6     -1291.673          40.000
R10  20932957.031 5 111584469.851 5     -2460.535          33.000
R12  22749977.250 5 121526270.110 5      2956.867          31.000    22749994.109 4  94520465.708 4      2299.789          28.000
C21  23444028.781 6 122079200.365 6      -879.148          36.000
C22  24841926.328 5 129358365.541 5     -3119.090          32.000
C29  25093494.078 7 130668421.638 7      3056.527          47.000
E02  25262287.891 7 132754218.136 7      1956.098          46.000    25262289.648 7 101720775.015 7      1498.750          47.000
E03  23943743.398 8 125825221.669 8      -977.809          51.000    23943746.031 8  96411540.421 8      -749.311          51.000
E05  26363057.094 7 138538747.953 7     -2989.703          42.000    26363061.547 6 106153089.050 6     -2290.826          39.000
E24  24161956.648 5 126971897.148 5     -2261.402          35.000    24161958.172 5  97290184.181 5     -1732.736          34.000
E25  23445795.953 8 123208499.286 8      -242.277          51.000    23445797.289 8  94406507.898 8      -185.611          51.000
> 2020 05 06 07 08 30.0000000  0 17        .000000000000
G12  22274138.727 8 117051384.750 8      3126.953          48.000    22274137.883 8  91208858.337 8      2436.587          48.000
G13  22248820.188 7 116918313.483 7     -3130.383          47.000    22248820.570 7  91105168.620 7     -2439.259          44.000
G15  21086531.891 8 110810463.552 8     -2154.098          51.000    21086532.156 8  86345802.890 8     -1678.521          51.000
G17  22416504.047 5 117799529.811 5      -412.188          33.000    22416505.914 5  91791839.954 5      -321.185          32.000
G19  21906500.570 6 115119402.059 6      1580.496          41.000    21906495.641 5  89703454.269 5      1231.549          32.000
G28  24009332.602 5 126169891.049 5     -3099.188          35.000
R01  20075639.445 7 107315814.056 7     -1694.578          47.000    20075644.469 6  83467854.583 6     -1318.002          41.000
R08  21961489.969 5 117602803.652 5     -4177.539          34.000    21961490.547 5  91468819.926 5     -3249.200          34.000
R10  20946854.555 5 111658559.347 5     -2474.871          30.000
R12  22733419.328 5 121437844.075 5      2942.176          31.000
C21  23449175.758 6 122106000.705 6      -903.504          36.000
C22  24859944.984 5 129452194.188 5     -3132.059          35.000
C29  25075929.805 7 130576960.083 7      3044.793          47.000
E02  25251173.477 7 132695805.792 7      1941.992          44.000    25251174.922 7 101676017.540 7      1488.005          47.000
E03  23949397.445 8 125854936.228 8      -999.234          51.000    23949400.195 8  96434308.698 8      -765.611          51.000
E05  26380172.664 7 138628688.909 7     -3002.461          43.000    26380178.719 6 106222004.816 6     -2300.623          38.000
E25  23447235.344 8 123216064.005 8      -258.117          51.000    23447236.859 8  94412304.245 8      -197.760          51.000
> 2020 05 06 07 09  0.0000000  0 16        .000000000000
G12  22256300.375 8 116957643.528 8      3119.797          49.000    22256299.734 8  91135813.234 8      2431.011          49.000
G13  22266703.508 8 117012295.066 8     -3137.762          48.000    22266704.461 7  91178401.021 7     -2445.009          42.000
G15  21098857.789 8 110875234.820 8     -2166.527          51.000    21098858.109 8  86396273.954 8     -1688.203          51.000
G17  22418896.664 5 117812098.180 5      -428.332          31.000    22418896.938 5  91801633.468 5      -333.765          31.000
G19  21897514.977 6 115072189.453 6      1564.379          38.000    21897509.516 5  89666665.151 5      1218.987          34.000
G28  24027012.742 5 126262801.221 5     -3097.629          32.000
R01  20085204.445 7 107366946.781 7     -1716.996          47.000    20085209.742 6  83507624.454 6     -1335.441          40.000
R08  21984901.297 6 117728192.473 6     -4184.344          38.000    21984909.023 5  91566344.518 5     -3254.490          35.000
R10  20960783.555 5 111732809.461 5     -2477.832          33.000
C21  23454412.367 5 122133269.883 5      -916.371          34.000
C22  24877990.062 6 129546155.300 6     -3134.680          37.000
C29  25058383.352 7 130485591.937 7      3043.762          46.000
E02  25240088.969 7 132637553.983 7      1939.137          42.000    25240090.078 7 101631383.033 7      1485.682          46.000
E03  23955123.758 8 125885030.957 8     -1009.602          51.000    23955126.734 8  96457368.262 8      -773.636          51.000
E05  26397310.117 7 138718745.694 7     -3003.914          42.000    26397315.031 5 106291009.379 5     -2301.943          35.000
E25  23448715.156 8 123223840.646 8      -262.977          51.000    23448716.758 8  94418262.961 8      -201.511          51.000
> 2020 05 06 07 09 30.0000000  0 16        .000000000000
G12  22238508.633 8 116864145.729 8      3095.625          50.000    22238507.812 8  91062957.810 8      2412.175          50.000
G13  22284634.195 8 117106521.593 8     -3161.941          48.000    22284634.711 7  91251824.232 7     -2463.850          42.000
G15  21111260.203 8 110940408.781 8     -2196.082          51.000    21111260.359 8  86447058.811 8     -1711.236          51.000
G19  21888627.258 5 115025495.032 5      1531.398          34.000    21888623.508 5  89630279.954 5      1193.307          33.000
G28  24044691.391 5 126355705.683 5     -3113.094          30.000
R01  20094901.383 8 107418780.467 8     -1756.688          49.000    20094906.273 6  83547939.482 6     -1366.316          41.000
R08  22008360.625 6 117853817.159 6     -4208.570          41.000    22008368.570 5  91664052.584 5     -3273.332          34.000
R10  20974735.305 5 111807178.179 5     -2497.828          34.000
R12  22700394.031 5 121261442.282 5      2919.145          34.000
C21  23459729.539 5 122160967.599 5      -947.387          35.000
C22  24896051.758 6 129640206.966 6     -3153.363          38.000
C29  25040847.867 7 130394280.246 7      3026.168          45.000
E02  25229026.641 6 132579423.029 6      1918.562          40.000    25229027.812 7 101586841.112 7      1470.256          45.000
E03  23960915.164 8 125915465.610 8     -1037.113          51.000    23960918.234 8  96480688.295 8      -794.632          51.000
E05  26414461.195 6 138808876.990 6     -3022.598          41.000    26414464.734 5 106360071.030 5     -2315.600          30.000
E25  23450227.742 8 123231788.682 8      -284.598          51.000    23450229.336 8  94424353.008 8      -218.101          51.000
> 2020 05 06 07 10  0.0000000  0 15        .000000000000
G12  22220805.031 8 116771111.521 8      3096.805          49.000    22220804.523 8  90990463.651 8      2413.095          49.000
G13  22302653.102 8 117201210.232 8     -3160.688          49.000    22302652.797 7  91325607.548 7     -2462.876          43.000
G15  21123780.438 8 111006202.430 8     -2200.199          51.000    21123780.047 8  86498326.556 8     -1714.441          51.000
G19  21879881.727 6 114979539.895 6      1522.676          40.000    21879879.367 5  89594470.777 5      1186.498          33.000
R01  20104770.594 8 107471535.020 8     -1770.574          48.000    20104775.672 7  83588970.787 7     -1377.116          42.000
R08  22031905.305 6 117979896.045 6     -4206.574          41.000    22031912.312 5  91762113.908 5     -3271.783          33.000
R10  20988751.078 5 111881885.862 5     -2492.812          33.000
R12  22683954.148 5 121173625.489 5      2924.391          34.000    22683972.422 4  94246183.075 4      2274.523          28.000
C21  23465171.234 6 122189309.271 6      -952.027          36.000
C22  24914172.125 6 129734563.403 6     -3146.961          38.000
C29  25023365.281 7 130303244.306 7      3033.156          45.000
E02  25218029.258 6 132521631.513 6      1923.887          40.000    25218029.602 7 101542559.305 7      1474.156          45.000
E03  23966813.008 8 125946458.308 8     -1039.113          51.000    23966816.102 8  96504435.937 8      -796.180          51.000
E05  26431667.883 6 138899299.921 6     -3015.812          40.000
E25  23451814.242 8 123240126.004 8      -281.152          51.000    23451815.836 8  94430741.347 8      -215.449          51.000
> 2020 05 06 07 10 30.0000000  0 15        .000000000000
G12  22203139.188 8 116678275.889 8      3089.848          48.000    22203138.680 8  90918124.214 8      2407.673          49.000
G13  22320709.062 8 117296092.284 8     -3167.270          51.000    22320708.547 7  91399541.580 7     -2468.002          44.000
G15  21136367.336 8 111072347.074 8     -2212.012          51.000    21136366.227 8  86549867.787 8     -1723.645          51.000
G19  21871227.203 6 114934059.493 6      1506.512          40.000    21871226.164 6  89559031.514 6      1173.908          37.000
R01  20114760.703 8 107524936.898 8     -1792.207          49.000    20114766.258 7  83630505.571 7     -1393.939          42.000
R08  22055483.961 6 118106152.906 6     -4213.148          38.000    22055490.852 5  91860313.647 5     -3276.893          33.000
R10  21002772.734 5 111956649.384 5     -2494.785          31.000
R12  22667522.531 5 121085876.833 5      2923.070          32.000    22667535.422 5  94177958.103 5      2273.496          30.000
C21  23470686.016 5 122218029.622 5      -964.773          30.000
C22  24932299.742 6 129828957.900 6     -3148.359          37.000
C29  25005885.484 7 130212222.239 7      3032.383          46.000
E02  25207045.492 6 132463912.762 6      1921.238          37.000    25207045.891 7 101498333.223 7      1472.189          44.000
E03  23972766.195 8 125977741.853 8     -1049.031          51.000    23972769.453 8  96528406.436 8      -803.860          51.000
E05  26448879.547 6 138989746.128 6     -3016.707          40.000
E25  23453423.859 8 123248585.112 8      -285.359          51.000    23453425.367 8  94437223.012 8      -218.628          51.000
> 2020 05 06 07 11  0.0000000  0 14        .000000000000
G12  22185520.367 8 116585688.613 8      3080.992          48.000    22185519.258 8  90845978.290 8      2400.773          48.000
G13  22338810.914 8 117391214.735 8     -3175.793          51.000    22338810.469 7  91473662.943 7     -2474.647          46.000
G15  21149029.680 8 111138889.507 8     -2225.703          50.000    21149028.281 8  86601718.979 8     -1734.314          50.000
G19  21862672.477 6 114889104.625 6      1488.676          37.000    21862672.594 5  89524001.779 5      1160.007          34.000
G24  20584551.078 5 108172549.382 5      1337.887          33.000    20584546.492 5  84290285.867 5      1042.503          33.000
R01  20124881.297 8 107579032.921 8     -1815.750          50.000    20124886.266 6  83672580.225 6     -1412.253          41.000
R08  22079105.461 6 118232633.641 6     -4220.531          36.000    22079111.805 5  91958687.526 5     -3282.635          31.000
R21  23647461.211 7 126542342.458 7      4099.523          43.000    23647464.539 6  98421831.372 6      3188.521          39.000
C22  24950444.172 6 129923436.155 6     -3151.594          38.000
C29  24988418.094 7 130121264.825 7      3029.785          46.000
E02  25196084.938 6 132406315.443 6      1916.801          38.000    25196085.578 7 101454200.179 7      1468.831          44.000
E03  23978783.641 8 126009364.393 8     -1060.758          51.000    23978787.133 8  96552636.678 8      -812.768          51.000
E05  26466104.297 6 139080262.762 6     -3019.574          40.000    26466116.297 6 106568077.316 6     -2313.631          41.000
E25  23455065.852 8 123257213.893 8      -291.539          51.000    23455067.406 8  94443834.681 8      -223.399          51.000
> 2020 05 06 07 11 30.0000000  0 16        .000000000000
G12  22167984.227 8 116493537.304 8      3068.805          48.000    22167982.422 8  90774172.104 8      2391.279          49.000
G13  22356993.492 8 117486761.413 8     -3187.543          51.000    22356992.945 7  91548114.876 7     -2483.800          46.000
G15  21161802.664 8 111206014.295 8     -2242.727          49.000    21161801.234 8  86654023.969 8     -1747.579          49.000
G19  21854252.969 6 114844862.861 6      1466.848          37.000    21854252.148 6  89489527.721 6      1142.998          37.000
G28  24115575.961 5 126728184.742 5     -3107.301          33.000
R01  20135166.250 8 107634009.838 8     -1842.781          48.000    20135170.203 6  83715340.007 6     -1433.277          40.000
R08  22102804.312 5 118359523.542 5     -4232.133          34.000    22102809.930 4  92057379.789 4     -3291.653          28.000
R12  22634777.031 5 120910886.774 5      2910.367          32.000    22634782.383 5  94041830.760 5      2263.622          31.000
R21  23624509.555 6 126419533.605 6      4094.664          40.000    23624514.789 6  98326313.457 6      3184.742          39.000
C21  23482014.805 5 122277008.007 5      -997.438          32.000
C22  24968639.836 6 130018180.114 6     -3158.086          37.000
C29  24970998.867 7 130030558.842 7      3023.629          45.000
E02  25185182.859 6 132349025.570 6      1909.117          38.000    25185183.961 7 101410302.728 7      1462.734          44.000
E03  23984900.883 8 126041511.364 8     -1075.867          51.000    23984904.406 8  96577268.753 8      -824.423          51.000
E05  26483377.586 6 139171034.211 6     -3025.523          39.000    26483387.695 7 106637629.481 7     -2318.300          43.000
E25  23456775.320 8 123266197.587 8      -300.859          51.000    23456777.203 8  94450718.296 8      -230.529          51.000
> 2020 05 06 07 12  0.0000000  0 16        .000000000000
G12  22150490.820 8 116401610.021 8      3057.758          49.000    22150488.383 8  90702540.467 8      2382.668          49.000
G13  22375215.453 8 117582517.061 8     -3198.105          51.000    22375215.078 7  91622729.630 7     -2492.030          46.000
G15  21174645.664 8 111273506.006 8     -2258.648          49.000    21174644.438 8  86706614.897 8     -1759.986          49.000
G19  21845929.875 6 114801122.876 6      1446.934          39.000    21845928.906 6  89455444.522 6      1127.481          38.000
G28  24133313.023 5 126821385.270 5     -3109.066          35.000    24133318.859 4  98821901.990 4     -2422.649          27.000
R01  20145573.797 7 107689648.019 7     -1868.453          47.000    20145578.086 7  83758614.144 7     -1453.241          42.000
R08  22126535.875 5 118486600.701 5     -4241.816          32.000
R10  21045055.180 5 112181997.900 5     -2514.039          31.000
R12  22618448.969 5 120823654.112 5      2903.527          30.000    22618452.922 5  93973983.170 5      2258.305          31.000
R21  23601559.430 5 126296733.454 5      4090.461          35.000    23601566.586 6  98230802.297 6      3181.470          39.000
C22  24986846.078 5 130112975.641 5     -3163.797          35.000
C29  24953587.141 7 129939895.305 7      3018.625          43.000
E02  25174298.539 6 132291829.636 6      1901.852          38.000    25174300.195 7 101366477.317 7      1457.428          44.000
E03  23991077.336 8 126073968.739 8     -1089.852          51.000    23991080.625 8  96602138.672 8      -835.147          51.000
E05  26500658.500 6 139261845.516 6     -3030.527          38.000    26500667.172 7 106707212.147 7     -2322.024          45.000
E25  23458511.680 8 123275321.973 8      -309.398          51.000    23458513.562 8  94457709.711 8      -237.081          51.000
> 2020 05 06 07 12 30.0000000  0 16        .000000000000
G12  22133060.359 8 116310013.550 8      3048.840          50.000    22133058.133 8  90631166.617 8      2375.722          50.000
G13  22393496.617 8 117678585.503 8     -3206.266          51.000    22393496.586 7  91697588.099 7     -2498.392          46.000
G15  21187578.477 8 111341468.384 8     -2272.078          50.000    21187577.492 8  86759572.576 8     -1770.454          50.000
G19  21837722.547 6 114757992.242 6      1428.949          40.000    21837723.062 5  89421836.300 5      1113.470          33.000
G28  24151062.062 6 126914651.904 6     -3108.684          36.000    24151061.609 5  98894563.283 5     -2422.351          35.000
R01  20156124.680 8 107746052.356 8     -1891.645          48.000    20156130.227 7  83802484.177 7     -1471.279          42.000
R08  22150320.969 5 118613968.801 5     -4248.840          32.000    22150328.164 4  92255318.933 4     -3304.656          26.000
R10  21059213.336 5 112257465.505 5     -2517.430          32.000
R12  22602151.109 5 120736624.150 5      2899.395          31.000    22602154.156 4  93906284.148 4      2255.085          25.000
C21  23493676.102 5 122337741.603 5     -1029.211          31.000
C22  25005082.398 5 130207925.042 5     -3166.258          31.000
C29  24936203.359 7 129849381.317 7      3015.590          42.000
E02  25163452.367 6 132234833.267 6      1897.777          39.000    25163454.719 7 101322804.816 7      1454.105          44.000
E03  23997332.820 8 126106841.560 8     -1101.508          51.000    23997335.703 8  96627326.914 8      -844.027          51.000
E05  26517967.383 6 139352800.625 6     -3033.207          37.000    26517974.742 7 106776905.006 7     -2324.029          46.000
E25  23460294.812 8 123284691.835 8      -315.168          51.000    23460296.430 8  94464889.206 8      -241.480          51.000
> 2020 05 06 07 13  0.0000000  0 16        .000000000000
G12  22115690.070 8 116218733.196 8      3038.445          50.000    22115688.070 8  90560039.059 8      2367.620          50.000
G13  22411833.578 8 117774948.461 8     -3216.008          50.000    22411833.711 7  91772676.070 7     -2505.983          45.000
G15  21200597.586 8 111409883.065 8     -2287.000          51.000    21200596.953 8  86812882.727 8     -1782.078          51.000
G19  21829628.961 7 114715456.994 7      1408.816          43.000    21829627.031 5  89388691.899 5      1097.776          30.000
G28  24168819.820 6 127007967.023 6     -3110.387          36.000    24168816.891 5  98967272.456 5     -2423.672          32.000
R01  20166816.258 8 107803203.491 8     -1916.273          49.000    20166821.500 6  83846935.042 6     -1490.438          40.000
R08  22174155.000 5 118741607.132 5     -4257.996          33.000    22174163.320 4  92354593.182 4     -3311.775          25.000
R10  21073404.289 5 112333105.461 5     -2522.926          33.000
R12  22585890.031 5 120649771.519 5      2892.570          33.000
R21  23555728.031 6 126051427.265 6      4084.691          36.000    23555735.172 6  98040037.211 6      3176.982          40.000
C21  23499655.336 5 122368874.764 5     -1044.520          35.000
C29  24918846.688 7 129759003.348 7      3011.246          44.000
E02  25152641.172 6 132178020.260 6      1891.742          41.000    25152644.219 7 101279272.800 7      1449.466          44.000
E03  24003664.203 8 126140112.988 8     -1114.672          51.000    24003666.555 8  96652820.594 8      -854.087          51.000
E05  26535300.727 6 139443881.728 6     -3037.207          38.000    26535306.820 7 106846694.386 7     -2327.163          47.000
E25  23462121.328 8 123294290.155 8      -322.789          51.000    23462123.016 8  94472243.753 8      -247.326          51.000
> 2020 05 06 07 13 30.0000000  0 16        .000000000000
G12  22098371.961 8 116127726.264 8      3037.926          50.000    22098370.125 8  90489124.576 8      2367.218          50.000
G13  22430218.188 8 117871560.038 8     -3215.586          51.000    22430218.406 7  91847957.786 7     -2505.648          45.000
G15  21213693.984 8 111478704.605 8     -2291.812          50.000    21213693.961 8  86866509.883 8     -1785.828          50.000
G17  22445233.188 6 117950475.948 6      -584.914          37.000
G19  21821640.070 6 114673474.603 6      1399.117          41.000    21821638.516 5  89355978.425 5      1090.230          33.000
G28  24186578.016 5 127101284.688 5     -3101.297          34.000    24186574.117 5  99039987.536 5     -2416.586          32.000
R01  20177638.875 8 107861054.557 8     -1930.910          49.000    20177642.992 6  83891930.291 6     -1501.819          39.000
R08  22198030.633 5 118869466.091 5     -4256.602          35.000
R10  21087618.594 5 112408872.058 5     -2518.664          34.000
R21  23532838.930 6 125928924.652 6      4091.262          39.000    23532843.039 6  97944757.506 6      3182.095          40.000
C21  23505719.148 5 122400445.435 5     -1050.375          34.000
C29  24901509.617 7 129668720.234 7      3016.707          47.000
E02  25141857.508 7 132121346.617 7      1895.801          44.000    25141860.180 7 101235847.542 7      1452.537          43.000
E03  24010063.078 8 126173738.418 8     -1117.684          51.000    24010065.039 8  96678585.528 8      -856.482          51.000
E05  26552649.125 5 139535043.158 5     -3030.789          35.000    26552654.070 7 106916545.356 7     -2322.496          47.000
E25  23463982.773 8 123304072.131 8      -320.074          51.000    23463984.789 8  94479739.033 8      -245.249          51.000
> 2020 05 06 07 14  0.0000000  0 15        .000000000000
G12  22081121.070 8 116037072.304 8      3014.906          51.000    22081119.141 8  90418485.147 8      2349.278          51.000
G13  22448664.727 8 117968496.734 8     -3237.672          50.000    22448665.250 7  91923492.860 7     -2522.864          45.000
G15  21226882.109 8 111548008.698 8     -2319.242          51.000    21226882.695 8  86920513.062 8     -1807.202          51.000
G19  21813772.047 6 114632124.890 6      1366.566          41.000    21813770.547 5  89323757.983 5      1064.854          32.000
R01  20188606.477 8 107919681.814 8     -1968.168          49.000    20188609.555 6  83937529.200 6     -1530.797          40.000
R08  22221962.359 5 118997621.283 5     -4277.555          35.000
R12  22553464.297 4 120476541.093 4      2878.762          29.000    22553482.312 5  93704055.601 5      2239.034          33.000
R21  23509977.328 7 125806574.163 7      4074.660          43.000    23509979.328 6  97849596.104 6      3169.180          39.000
C21  23511880.828 6 122432529.929 6     -1079.414          36.000
C22  25059922.484 5 130493581.474 5     -3180.867          30.000
C29  24884206.688 8 129578611.815 8      2999.605          50.000
E02  25131116.000 7 132064890.316 7      1877.164          44.000    25131117.016 7 101192588.807 7      1438.367          44.000
E03  24016544.195 8 126207795.282 8     -1143.508          51.000    24016546.031 8  96704681.035 8      -876.266          51.000
E05  26570027.594 5 139626435.543 5     -3047.633          31.000    26570031.398 7 106986516.520 7     -2335.172          47.000
E25  23465893.875 8 123314115.053 8      -340.262          51.000    23465895.945 8  94487434.253 8      -260.735          51.000
> 2020 05 06 07 14 30.0000000  0 16        .000000000000
G12  22063936.812 8 115946767.496 8      3006.008          51.000    22063935.016 8  90348117.768 8      2342.344          51.000
G13  22467171.375 8 118065751.086 8     -3245.398          49.000    22467172.102 7  91999275.467 7     -2528.882          43.000
G15  21240160.906 8 111617788.410 8     -2332.238          51.000    21240161.492 8  86974886.858 8     -1817.329          51.000
G17  22452229.703 5 117987262.987 5      -632.762          33.000
G19  21806022.766 6 114591404.931 6      1348.039          36.000    21806020.250 5  89292028.159 5      1050.423          34.000
R01  20199717.734 8 107979077.114 8     -1990.934          49.000    20199720.820 7  83983725.521 7     -1548.504          42.000
R08  22245948.305 6 119126063.203 6     -4284.504          36.000    22245947.961 5  92653580.305 5     -3332.395          31.000
R12  22537310.430 5 120390255.326 5      2873.887          35.000    22537327.867 5  93636944.932 5      2235.245          30.000
R21  23487142.422 7 125684375.243 7      4072.227          45.000    23487143.875 6  97754552.581 6      3167.290          38.000
C21  23518140.891 5 122465121.651 5     -1093.125          35.000
C22  25078259.867 5 130589075.855 5     -3183.887          34.000
C29  24866936.773 8 129488675.513 8      2996.605          50.000
E02  25120414.906 7 132008646.212 7      1872.840          44.000    25120413.781 7 101149492.707 7      1435.072          44.000
E03  24023106.273 8 126242277.844 8     -1154.895          51.000    24023108.188 8  96731102.717 8      -884.895          51.000
E05                                                                  26587437.258 7 107056602.687 7     -2336.827          47.000
E25  23467853.422 8 123324412.970 8      -345.816          51.000    23467855.266 8  94495324.863 8      -264.982          51.000
> 2020 05 06 07 15  0.0000000  0 16        .000000000000
G12  22046805.297 8 115856739.462 8      2995.191          51.000    22046804.258 8  90277966.061 8      2333.915          51.000
G13  22485723.445 7 118163247.084 7     -3254.922          47.000    22485724.273 6  92075246.391 6     -2536.303          41.000
G15  21253515.844 8 111687967.877 8     -2347.016          51.000    21253516.070 8  87029572.117 8     -1828.846          51.000
G19  21798379.844 6 114551242.694 6      1327.977          36.000    21798377.297 5  89260732.832 5      1034.784          32.000
R01  20210957.367 7 108039162.869 7     -2015.492          47.000    20210961.930 7  84030458.897 7     -1567.605          43.000
R08  22269973.102 6 119254712.661 6     -4292.609          37.000    22269974.070 5  92753640.944 5     -3338.696          34.000
R10  21130480.031 5 112637342.420 5     -2546.141          33.000
R12  22521186.250 6 120304107.677 6      2868.273          36.000
R21  23464321.312 7 125562256.965 7      4068.094          45.000    23464322.461 5  97659571.763 5      3164.076          34.000
C21  23524483.250 5 122498146.249 5     -1108.844          33.000
C22  25096614.414 6 130684651.058 6     -3188.531          37.000
C29  24849685.828 8 129398840.618 8      2991.770          50.000
E02  25109739.867 7 131952540.364 7      1866.887          43.000    25109736.031 7 101106502.592 7      1430.454          43.000
E03  24029735.195 8 126277111.598 8     -1167.984          51.000    24029737.195 8  96757793.490 8      -894.916          51.000
E05  26604855.906 5 139809460.987 5     -3053.629          33.000    26604857.094 7 107126746.054 7     -2339.767          46.000
E25  23469847.328 8 123334891.298 8      -353.355          51.000    23469848.984 8  94503353.717 8      -270.744          51.000
> 2020 05 06 07 15 30.0000000  0 17        .000000000000
G12  22029735.445 8 115767035.496 8      2985.676          51.000    22029735.008 8  90208066.883 8      2326.501          51.000
G13  22504329.906 7 118261028.789 7     -3263.215          46.000    22504330.336 6  92151439.879 6     -2542.765          40.000
G15  21266955.367 8 111758591.672 8     -2360.590          51.000    21266955.070 8  87084603.569 8     -1839.424          51.000
G17  22459667.930 5 118026337.788 5      -669.039          34.000    22459658.289 5  91968545.326 5      -521.329          33.000
G19  21790851.656 5 114511686.061 5      1309.777          35.000    21790850.664 5  89229909.393 5      1020.606          35.000
R01  20222334.383 8 108099983.365 8     -2038.605          48.000    20222340.250 7  84077763.706 7     -1585.582          43.000
R08  22294045.086 6 119383612.356 6     -4299.613          37.000    22294044.836 5  92853896.250 5     -3344.144          35.000
R10  21144816.828 5 112713800.471 5     -2550.227          33.000
