     3.02           OBSERVATION DATA    M (MIXED)           RINEX VERSION / TYPE
SAVERINEX           SC600               20200505 045931 LCL PGM / RUN BY / DATE
       G = GPS       R = GLONASS       C = COMPASS          COMMENT
       S = SBAS      J = QZSS          E = GALILEO          COMMENT
BEAN                                                        MARKER NAME
1                                                           MARKER NUMBER
GEODETIC                                                    MARKER TYPE
Unige DICCA         GTER                                    OBSERVER / AGENCY
SC60291900056       SC600               2.12(191226)        REC # / TYPE / VERS
                    HEMA45          NONE                    ANT # / TYPE
  4509407.8091   693652.4678  4442337.6214                  APPROX POSITION XYZ
        0.0000        0.0000        0.0000                  ANTENNA: DELTA H/E/N
G    8 C1C L1C D1C S1C C2Y L2Y D2Y S2Y                      SYS / # / OBS TYPES
R    8 C1C L1C D1C S1C C2P L2P D2P S2P                      SYS / # / OBS TYPES
C    8 C1I L1I D1I S1I C7I L7I D7I S7I                      SYS / # / OBS TYPES
E    8 C1C L1C D1C S1C C7Q L7Q D7Q S7Q                      SYS / # / OBS TYPES
DBHZ                                                        COMMENT
     30.000                                                 INTERVAL
  2020    05    05    02    00    0.0000000     GPS         TIME OF FIRST OBS
  2020    05    05    02    59   30.0000000     GPS         TIME OF LAST OBS
     0                                                      RCV CLOCK OFFS APPL
G L1C  0.00000                                              SYS / PHASE SHIFT
G L2Y  0.00000                                              SYS / PHASE SHIFT
R L1C  0.00000                                              SYS / PHASE SHIFT
R L2P  0.25000                                              SYS / PHASE SHIFT
C L1I  0.00000                                              SYS / PHASE SHIFT
C L7I  0.00000                                              SYS / PHASE SHIFT
E L1C  0.50000                                              SYS / PHASE SHIFT
E L7Q -0.25000                                              SYS / PHASE SHIFT
 13 R02 -4 R03  5 R04  6 R05  1 R10 -5 R13 -2 R14 -7 R15  0 GLONASS SLOT / FRQ #
    R16 -1 R17  4 R18 -3 R19  3 R20  2                      GLONASS SLOT / FRQ #
 C1C   71.950 C2C   71.950 C2P   71.950                     GLONASS COD/PHS/BIS
    18                                                      LEAP SECONDS
*** Above antenna height is from mark to ANTENNA BOTTOM.    COMMENT
    17     4        0.0000        ANT MEASURE TYPE/HEIGT    COMMENT
    0.0000    0.0000    0.0458    0.0405    0.0000          COMMENT
                    BASE STATION                            COMMENT
                                                            END OF HEADER
> 2020 05 05 02 00  0.0000000  0 15        .000000000000
G06  22951381.805 6 120610319.873 6     -3111.492          40.000    22951380.203 6  93982072.186 6     -2424.536          40.000
G07  20779536.086 8 109197179.620 8        66.637          51.000    20779533.539 8  85088702.415 8        51.925          51.000
G09  21598689.305 6 113501879.510 6     -2073.910          41.000    21598689.906 6  88443065.715 6     -1616.040          37.000
G30  21285733.586 8 111857336.629 8      2232.008          51.000    21285734.289 8  87161551.270 8      1739.227          51.000
R05  19521816.742 8 104355278.468 8        76.402          48.000    19521820.602 7  81165226.103 7        59.424          44.000
R14  21321390.609 5 113655008.480 5     -2674.320          32.000
R15  19758137.461 8 105581478.741 8      1406.281          51.000    19758140.797 8  82118961.129 8      1093.771          51.000
R16  22469915.086 5 120030267.668 5      4462.125          33.000
C05  39780103.727 5 207145438.498 5       -11.145          35.000    39780102.391 6 160177978.774 6        -8.512          40.000
C19  22184829.992 8 115522219.989 8     -1422.055          51.000
C22  22349294.523 4 116378624.966 4      1384.668          28.000
E02  25758253.891 8 135360533.005 8      2826.000          50.000    25758252.586 8 103717839.184 8      2165.398          50.000
E03  24071227.195 8 126495136.759 8     -1090.801          48.000    24071229.727 8  96924892.824 8      -835.877          50.000
E15                                                                  27174166.570 5 109419088.535 5     -2335.050          33.000
E25                                                                  25063166.680 5 100918982.538 5       391.935          35.000
> 2020 05 05 02 00 30.0000000  0 16        .000000000000
G02  22620793.016 5 118873070.153 5     -1184.277          33.000    22620797.898 5  92628402.031 5      -922.829          32.000
G06  22969171.789 6 120703810.521 6     -3122.801          36.000    22969172.398 5  94054922.106 5     -2433.351          35.000
G07  20779203.734 8 109195432.744 8        48.375          51.000    20779201.273 8  85087341.205 8        37.695          51.000
G09  21610552.844 6 113564221.907 6     -2083.367          38.000    21610551.453 5  88491644.050 5     -1623.409          32.000
G30  21273032.852 8 111790594.330 8      2216.098          51.000    21273033.484 8  87109544.304 8      1726.832          51.000
R04  21869578.273 4 117110623.395 4     -2705.270          29.000
R05  19521426.789 8 104353193.488 8        61.020          48.000    19521430.195 7  81163604.457 7        47.460          43.000
R14  21336513.398 5 113735565.404 5     -2698.406          30.000    21336527.125 3  88461072.971 3     -2098.757          23.000
R15  19750318.367 8 105539696.341 8      1377.746          51.000    19750321.695 8  82086463.687 8      1071.580          51.000
R16  22444878.273 5 119896529.443 5      4452.680          34.000
C05  39780168.445 5 207145776.087 5       -13.047          35.000    39780167.234 6 160178239.818 6       -10.164          41.000
C19  22193053.453 8 115565039.593 8     -1433.863          51.000
E02  25742140.906 8 135275861.213 8      2817.477          50.000    25742140.680 8 103652960.816 8      2158.789          51.000
E03  24077471.828 8 126527953.168 8     -1098.305          48.000    24077474.164 8  96950037.854 8      -841.543          51.000
E15                                                                  27191567.008 5 109489172.432 5     -2337.426          31.000
E25  25060288.844 6 131692707.702 6       494.320          36.000    25060297.094 6 100907405.229 6       379.058          39.000
> 2020 05 05 02 01  0.0000000  0 14        .000000000000
G02  22627601.430 6 118908841.002 6     -1198.371          37.000    22627601.375 6  92656275.468 6      -933.796          36.000
G06  22987024.586 6 120797632.803 6     -3130.465          39.000    22987029.914 6  94128030.495 6     -2439.320          38.000
G07  20778975.594 8 109194233.110 8        33.699          51.000    20778972.977 8  85086406.419 8        26.259          51.000
G09  21622469.008 6 113626841.775 6     -2089.227          38.000    21622468.055 5  88540438.616 5     -1627.972          35.000
G30  21260423.984 8 111724335.263 8      2203.375          51.000    21260424.703 8  87057913.874 8      1716.916          51.000
R05  19521123.609 8 104351571.733 8        49.145          49.000    19521126.086 7  81162343.092 7        38.224          43.000
R15  19742659.773 8 105498772.245 8      1352.688          51.000    19742663.156 8  82054633.848 8      1052.090          50.000
R16  22419895.297 5 119763074.556 5      4446.582          35.000
C05                                                                  39780244.086 6 160178549.155 6        -8.865          41.000
C19  22201345.344 8 115608214.778 8     -1442.344          51.000
C22  22333458.656 4 116296182.723 4      1367.207          26.000
E02  25726077.406 8 135191447.903 8      2812.203          51.000    25726078.031 8 103588280.497 8      2154.856          51.000
E03  24083758.375 7 126560990.246 7     -1102.090          47.000    24083760.773 8  96975351.983 8      -844.473          51.000
E25  25057510.664 6 131678110.001 6       480.762          38.000    25057520.883 6 100896220.043 6       368.331          39.000
> 2020 05 05 02 01 30.0000000  0 14        .000000000000
G02  22634482.805 6 118944998.643 6     -1213.590          39.000    22634481.922 6  92684450.257 6      -945.651          37.000
G06  23004911.750 7 120891630.721 7     -3138.172          42.000    23004922.484 7  94201275.664 7     -2445.329          42.000
G07  20778822.188 8 109193426.640 8        18.383          51.000    20778819.750 8  85085778.002 8        14.324          51.000
G09  21634408.625 6 113689585.413 6     -2095.223          39.000    21634408.969 5  88589329.698 5     -1632.644          34.000
G30  21247877.898 8 111658407.713 8      2190.012          51.000    21247879.078 8  87006541.737 8      1706.503          51.000
R05  19520878.391 8 104350258.646 8        36.613          50.000    19520879.977 7  81161321.799 7        28.477          43.000
R14  21367082.859 6 113898565.030 6     -2735.441          36.000
R15  19735133.453 8 105458552.548 8      1326.977          51.000    19735136.250 8  82023351.854 8      1032.093          50.000
R16  22394937.023 5 119629751.074 5      4439.875          33.000
C05  39780304.836 5 207146485.961 5       -10.609          35.000    39780303.797 6 160178789.510 6        -8.288          41.000
C19  22209676.156 8 115651593.908 8     -1451.285          51.000
E02  25710034.930 8 135107141.969 8      2806.512          51.000    25710035.828 8 103523682.420 8      2150.477          51.000
E03  24090058.078 7 126594095.022 7     -1106.383          47.000    24090060.266 8  97000717.988 8      -847.838          51.000
E25  25054801.547 6 131663871.341 6       466.867          40.000    25054807.930 6 100885309.889 6       357.619          41.000
> 2020 05 05 02 02  0.0000000  0 15        .000000000000
G02  22641463.008 6 118981674.496 6     -1230.828          41.000    22641461.344 6  92713028.831 6      -959.084          39.000
G06  23022857.516 7 120985934.493 7     -3148.031          44.000    23022873.773 7  94274759.161 7     -2453.011          43.000
G07  20778768.844 8 109193146.429 8          .984          51.000    20778766.672 8  85085559.665 8          .767          51.000
G09  21646396.984 6 113752585.236 6     -2103.914          39.000    21646398.711 6  88638420.472 6     -1639.414          39.000
G30  21235420.453 8 111592946.272 8      2174.648          50.000    21235421.984 8  86955532.784 8      1694.528          50.000
R05  19520716.336 8 104349390.995 8        22.012          50.000    19520717.633 7  81160646.968 7        17.120          44.000
R14  21382540.742 5 113980964.551 5     -2756.836          31.000
R15  19727764.578 8 105419174.497 8      1299.031          51.000    19727767.258 8  81992724.480 8      1010.358          51.000
R16  22370030.578 5 119496698.284 5      4431.480          33.000
C05  39780372.797 5 207146839.716 5       -11.777          35.000    39780371.711 6 160179063.054 6        -9.340          40.000
C19  22218071.414 8 115695308.983 8     -1462.309          51.000
E02  25694038.602 8 135023078.637 8      2798.539          51.000    25694039.812 8 103459270.245 8      2144.326          51.000
E03  24096396.156 8 126627400.847 8     -1113.109          48.000    24096398.234 8  97026238.036 8      -852.899          51.000
E13  25909226.211 5 136153895.325 5     -1685.477          34.000    25909224.875 5 104325713.610 5     -1291.855          33.000
E25  25052185.820 6 131650125.551 6       450.516          40.000    25052191.047 7 100874777.419 7       345.012          44.000
> 2020 05 05 02 02 30.0000000  0 16        .000000000000
G02  22648534.688 6 119018836.739 6     -1246.586          39.000    22648532.977 6  92741986.357 6      -971.375          36.000
G06  23040855.328 7 121080510.690 7     -3157.055          42.000    23040877.352 6  94348454.913 6     -2460.043          41.000
G07  20778809.742 8 109193361.970 8       -15.410          51.000    20778807.664 8  85085727.613 8       -12.008          51.000
G09  21658428.234 6 113815810.284 6     -2111.367          38.000    21658429.625 6  88687686.747 6     -1645.218          38.000
G30  21223046.570 8 111527921.928 8      2160.328          50.000    21223048.109 8  86904864.437 8      1683.370          50.000
R04  21930563.875 5 117437169.912 5     -2738.781          31.000
R05  19520631.750 8 104348938.858 8         8.215          50.000    19520632.945 7  81160295.284 7         6.389          43.000
R15  19720547.586 8 105380608.609 8      1272.121          51.000    19720550.234 8  81962728.812 8       989.428          50.000
R16  22345169.359 4 119363882.389 4      4423.223          28.000
C05                                                                  39780442.164 6 160179346.537 6        -9.599          40.000
C19  22226525.414 8 115739329.972 8     -1472.418          51.000
E02  25678082.820 8 134939229.512 8      2791.453          51.000    25678084.000 8 103395022.186 8      2138.840          51.000
E03  24102766.844 8 126660877.483 8     -1118.715          48.000    24102768.906 8  97051888.963 8      -857.179          51.000
E08  22066889.547 5 115962280.476 5      1124.121          33.000    22066878.703 5  88854178.075 5       861.226          35.000
E13  25918889.797 6 136204644.459 6     -1697.641          37.000    25918888.078 5 104364599.256 5     -1301.032          33.000
E25  25049658.602 6 131636842.515 6       435.109          39.000    25049663.266 7 100864599.539 7       333.407          45.000
> 2020 05 05 02 03  0.0000000  0 17        .000000000000
G02  22655685.422 6 119056419.718 6     -1261.668          37.000    22655683.477 5  92771271.774 5      -983.121          35.000
G06  23058891.922 6 121175292.090 6     -3164.328          41.000    23058919.695 6  94422310.555 6     -2465.710          37.000
G07  20778932.555 8 109194008.116 8       -30.473          51.000    20778930.758 8  85086231.117 8       -23.742          51.000
G09  21670490.016 6 113879195.634 6     -2117.336          38.000    21670490.852 6  88737077.929 6     -1649.872          37.000
G30  21210744.227 8 111463271.836 8      2146.891          50.000    21210745.430 8  86854487.736 8      1672.902          50.000
R04  21945931.227 5 117519412.997 5     -2746.891          31.000
R05  19520612.977 8 104348838.125 8        -4.371          50.000    19520613.758 7  81160216.948 7        -3.400          43.000
R14  21413789.383 5 114147535.489 5     -2796.117          35.000    21413801.438 4  88781474.748 4     -2174.761          27.000
R15  19713470.430 8 105342791.361 8      1246.145          51.000    19713472.648 8  81933315.380 8       969.224          49.000
C05  39780503.836 5 207147522.221 5       -11.250          35.000    39780502.836 6 160179590.818 6        -8.914          40.000
C19  22235025.422 8 115783593.273 8     -1481.320          51.000
C22  22302324.914 5 116134088.836 5      1333.473          32.000
E02  25662155.953 8 134855532.364 8      2785.516          51.000    25662156.531 8 103330890.576 8      2134.359          50.000
E03  24109157.750 8 126694460.791 8     -1123.105          49.000    24109159.664 8  97077621.625 8      -860.543          51.000
E08  22060476.484 5 115928585.891 5      1120.395          32.000    22060466.281 5  88828351.795 5       858.248          35.000
E13                                                                  25928611.164 5 104403717.429 5     -1308.922          35.000
E25  25047207.203 6 131623958.443 6       421.348          36.000    25047210.109 7 100854727.392 7       322.623          44.000
> 2020 05 05 02 03 30.0000000  0 16        .000000000000
G02  22662927.039 6 119094484.701 6     -1273.930          37.000    22662925.562 5  92800932.810 5      -992.669          35.000
G06  23076978.922 6 121270338.949 6     -3169.727          39.000    23077012.445 5  94496373.025 5     -2469.914          35.000
G07  20779149.125 8 109195147.610 8       -43.055          51.000    20779147.742 8  85087119.050 8       -33.549          51.000
G09  21682593.773 5 113942803.997 5     -2121.125          35.000    21682594.102 5  88786642.849 5     -1652.825          34.000
G30  21198525.336 8 111399060.556 8      2136.074          51.000    21198526.102 8  86804453.007 8      1664.473          51.000
R05  19520672.477 8 104349154.331 8       -14.293          51.000    19520673.156 7  81160462.890 7       -11.117          45.000
R14  21429577.859 5 114231701.410 5     -2812.668          35.000    21429585.156 4  88846936.716 4     -2187.625          29.000
R15  19706545.641 8 105305788.434 8      1223.004          51.000    19706548.438 8  81904535.332 8       951.225          50.000
C05  39780566.883 5 207147850.169 5        -8.824          35.000    39780565.773 6 160179844.337 6        -6.325          40.000
C19  22243583.906 8 115828161.610 8     -1487.660          51.000
C22  22294671.805 5 116094209.975 5      1328.082          31.000
E02  25646270.180 8 134772052.408 8      2782.035          51.000    25646270.117 8 103266925.405 8      2131.653          49.000
E03  24115580.984 8 126728214.161 8     -1125.039          50.000    24115582.492 8  97103484.595 8      -862.034          51.000
E08                                                                  22054083.805 5  88802642.464 5       857.245          35.000
E13                                                                  25938402.047 5 104443115.403 5     -1315.342          35.000
E25  25044844.289 5 131611544.051 5       408.871          35.000    25044844.875 7 100845209.697 7       313.683          45.000
> 2020 05 05 02 04  0.0000000  0 15        .000000000000
G02  22670259.383 6 119133025.662 6     -1295.555          36.000
G06  23095115.586 6 121365645.543 6     -3184.188          38.000    23095151.539 5  94570637.997 5     -2481.185          35.000
G07  20779458.922 8 109196777.453 8       -65.746          51.000    20779457.906 8  85088389.058 8       -51.231          51.000
G09  21694739.555 6 114006631.787 6     -2134.445          37.000    21694740.016 6  88836378.835 6     -1663.198          37.000
G30  21186389.742 8 111335286.838 8      2115.121          50.000    21186389.953 8  86754759.244 8      1648.149          50.000
R05  19520809.773 8 104349885.972 8       -34.645          51.000    19520810.492 7  81161031.934 7       -26.946          45.000
R14  21445478.164 6 114316467.326 6     -2838.770          37.000    21445486.523 4  88912865.802 4     -2207.932          27.000
R15  19699773.117 8 105269598.625 8      1189.473          51.000    19699775.992 8  81876387.696 8       925.145          48.000
C05  39780631.727 5 207148188.461 5       -14.355          35.000    39780630.562 6 160180105.202 6       -11.300          41.000
C19  22252200.555 8 115873032.346 8     -1503.914          51.000
C22  22287070.781 4 116054602.665 4      1312.734          27.000
E02  25630425.273 8 134688789.003 8      2768.543          50.000    25630424.453 7 103203126.177 7      2121.393          47.000
E03  24122035.852 8 126762135.084 8     -1136.758          51.000    24122037.062 8  97129475.955 8      -871.031          51.000
E13  25948234.438 5 136358891.880 5     -1735.543          33.000    25948256.406 5 104482789.888 5     -1329.661          32.000
E25                                                                  25042569.203 7 100836044.770 7       297.173          45.000
> 2020 05 05 02 04 30.0000000  0 14        .000000000000
G02  22677684.641 6 119172036.852 6     -1312.375          38.000    22677682.453 6  92861307.673 6     -1022.630          36.000
G06  23113299.867 6 121461200.475 6     -3193.805          37.000    23113335.008 3  94645096.370 3     -2488.673          23.000
G07  20779860.102 8 109198888.187 8       -82.629          50.000    20779859.820 8  85090033.787 8       -64.386          50.000
G09  21706925.555 5 114070670.139 5     -2142.188          34.000    21706926.445 5  88886278.858 5     -1669.237          33.000
G30  21174335.695 8 111271943.603 8      2100.035          48.000    21174336.188 8  86705400.907 8      1636.391          48.000
R05  19521023.000 8 104351025.566 8       -49.109          51.000    19521024.406 7  81161918.273 7       -38.199          46.000
R14  21461489.945 5 114401821.327 5     -2859.449          33.000    21461498.977 4  88979252.116 4     -2224.022          26.000
R15  19693151.164 8 105234214.946 8      1161.664          51.000    19693154.211 8  81848867.060 8       903.516          48.000
C05  39780696.750 5 207148526.941 5       -15.738          35.000    39780695.586 6 160180366.929 6       -12.061          40.000
C19  22260873.656 8 115918197.224 8     -1514.648          51.000
E02  25614620.281 8 134605735.700 8      2760.688          51.000    25614618.430 7 103139487.967 7      2115.296          47.000
E03  24128521.016 8 126796215.259 8     -1142.871          51.000    24128522.211 8  97155589.342 8      -875.727          51.000
E13  25958156.227 5 136411021.364 5     -1748.133          35.000    25958176.359 4 104522819.237 4     -1338.943          29.000
E25                                                                  25040379.523 7 100827226.419 7       284.970          44.000
> 2020 05 05 02 05  0.0000000  0 14        .000000000000
G02  22685205.625 6 119211554.726 6     -1322.449          40.000    22685204.805 6  92892100.796 6     -1030.483          39.000
G06  23131538.828 6 121557040.937 6     -3196.316          37.000    23131573.656 4  94719777.067 4     -2490.648          29.000
G07  20780360.297 8 109201519.456 8       -93.406          49.000    20780360.930 8  85092084.129 8       -72.784          49.000
G09  21719159.305 6 114134958.511 6     -2143.902          37.000    21719160.320 6  88936373.687 6     -1670.570          37.000
G30  21162370.391 7 111209072.400 7      2090.723          45.000    21162372.750 7  86656410.355 7      1629.135          45.000
R05  19521320.258 8 104352615.271 8       -57.406          51.000    19521321.828 7  81163154.704 7       -44.649          46.000
R14  21477619.258 5 114487800.164 5     -2873.395          32.000    21477628.617 4  89046124.395 4     -2234.872          29.000
R15  19686688.141 8 105199679.541 8      1140.098          51.000    19686691.805 8  81822006.214 8       886.746          49.000
C05  39780769.742 5 207148906.560 5       -10.496          35.000    39780768.484 6 160180660.454 6        -8.041          40.000
C19  22269611.156 8 115963696.017 8     -1519.176          51.000
E02  25598863.648 8 134522934.685 8      2758.801          51.000    25598861.312 7 103076043.065 7      2113.832          47.000
E03  24135044.141 8 126830495.007 8     -1143.066          51.000    24135045.578 8  97181855.645 8      -875.850          51.000
E13  25968151.859 5 136463558.343 5     -1753.707          34.000
E25  25038280.531 5 131577051.958 5       361.852          33.000    25038281.719 6 100818785.677 6       277.472          41.000
> 2020 05 05 02 05 30.0000000  0 14        .000000000000
G02  22692805.367 7 119251486.596 7     -1339.016          42.000    22692803.633 6  92923216.507 6     -1043.389          39.000
G06  23149814.312 6 121653072.905 6     -3205.609          37.000    23149810.445 6  94794605.621 6     -2497.877          37.000
G07  20780942.305 8 109204579.973 8      -110.355          48.000    20780943.453 8  85094468.921 8       -85.991          48.000
G09  21731422.617 5 114199405.155 5     -2151.879          35.000    21731423.648 5  88986591.933 5     -1676.792          35.000
G30  21150478.594 8 111146583.572 8      2075.363          48.000    21150482.055 8  86607717.722 8      1617.163          48.000
R05  19521684.344 8 104354563.419 8       -72.047          50.000    19521685.953 7  81164669.930 7       -56.036          46.000
R14  21493847.055 5 114574307.761 5     -2893.293          33.000    21493857.422 4  89113408.150 4     -2250.330          26.000
R15  19680366.742 8 105165901.462 8      1112.156          51.000    19680370.836 8  81795734.426 8       865.010          48.000
C05  39780833.281 5 207149238.141 5       -11.363          35.000    39780832.016 6 160180916.084 6        -8.793          41.000
C19  22278395.352 8 116009438.693 8     -1529.938          51.000
E02  25583138.227 8 134440296.974 8      2750.758          51.000    25583136.945 8 103012723.290 8      2107.658          49.000
E03  24141587.969 8 126864883.505 8     -1149.230          51.000    24141589.750 8  97208205.269 8      -880.570          51.000
E13  25978202.875 5 136516377.415 5     -1766.812          33.000    25978205.062 4 104603466.721 4     -1353.561          29.000
E25  25036259.852 6 131566438.208 6       346.117          36.000    25036260.367 6 100810653.134 6       265.009          39.000
> 2020 05 05 02 06  0.0000000  0 14        .000000000000
G02  22700492.148 7 119291876.843 7     -1354.250          44.000    22700488.609 6  92954689.428 6     -1055.260          40.000
G06  23168134.734 6 121749339.353 6     -3213.426          38.000    23168129.500 6  94869618.423 6     -2503.968          38.000
G07  20781614.953 8 109208115.300 8      -126.125          48.000    20781616.250 8  85097223.718 8       -98.279          48.000
G09  21743724.695 5 114264055.716 5     -2159.168          35.000    21743726.469 6  89036968.986 6     -1682.466          36.000
G30  21138669.922 8 111084524.282 8      2061.098          51.000    21138672.656 8  86559359.833 8      1606.050          51.000
R05  19522124.633 8 104356918.246 8       -85.664          50.000    19522126.070 7  81166501.458 7       -66.628          46.000
R14  21510183.867 5 114661387.383 5     -2913.176          31.000
R15  19674196.430 8 105132928.737 8      1085.293          51.000    19674199.633 8  81770088.979 8       844.114          48.000
C05                                                                  39780894.773 6 160181169.120 6        -8.575          40.000
C19  22287235.297 8 116055470.798 8     -1539.574          51.000
E02  25567452.992 8 134357870.555 8      2743.602          51.000    25567453.562 8 102949565.394 8      2102.177          51.000
E03  24148161.430 8 126899426.932 8     -1154.488          51.000    24148163.406 8  97234673.599 8      -884.569          51.000
E13  25988320.352 5 136569539.863 5     -1778.016          34.000    25988318.391 5 104644189.644 5     -1362.157          32.000
E25  25034324.336 6 131556273.053 6       330.996          39.000    25034325.820 6 100802864.347 6       253.480          36.000
> 2020 05 05 02 06 30.0000000  0 14        .000000000000
G02  22708272.562 7 119332759.910 7     -1369.078          44.000    22708267.969 6  92986546.379 6     -1066.814          39.000
G06  23186506.805 6 121845873.321 6     -3220.281          36.000    23186499.242 5  94944839.701 5     -2509.307          35.000
G07  20782384.891 8 109212160.633 8      -141.355          49.000    20782386.109 8  85100375.918 8      -110.147          49.000
G09  21756072.641 6 114328945.248 6     -2165.230          36.000    21756075.078 5  89087532.312 5     -1687.186          35.000
G30  21126950.328 8 111022931.926 8      2047.195          51.000    21126951.844 8  86511365.787 8      1595.217          51.000
R05  19522648.094 8 104359717.379 8       -98.719          50.000    19522649.695 7  81168678.559 7       -76.781          47.000
R15  19668183.688 8 105100799.243 8      1058.836          51.000    19668186.617 8  81745099.391 8       823.542          49.000
C05  39780965.125 5 207149924.046 5       -10.492          35.000    39780963.867 6 160181447.257 6        -8.222          40.000
C19  22296138.055 8 116101828.071 8     -1548.785          51.000
C22  22249791.289 4 115860491.773 4      1272.496          29.000
E02  25551814.789 8 134275693.419 8      2736.988          49.000    25551817.531 8 102886598.488 8      2097.170          51.000
E03  24154771.422 8 126934161.387 8     -1159.152          51.000    24154773.141 8  97261288.318 8      -888.176          51.000
E13  25998509.281 5 136623088.090 5     -1788.492          35.000
E25  25032483.312 6 131546592.867 6       316.527          41.000    25032483.250 5 100795447.084 5       242.492          32.000
> 2020 05 05 02 07  0.0000000  0 13        .000000000000
G02  22716133.047 7 119374064.404 7     -1384.176          44.000    22716128.016 6  93018731.707 6     -1078.579          39.000
G06  23204916.758 5 121942602.166 5     -3228.227          35.000    23204905.875 5  95020212.797 5     -2515.504          35.000
G07  20783238.633 8 109216645.275 8      -157.352          49.000    20783239.539 8  85103870.439 8      -122.612          49.000
G09  21768453.148 6 114394003.644 6     -2171.480          37.000    21768455.375 6  89138227.196 6     -1692.063          39.000
G30  21115306.312 8 110961738.087 8      2032.613          51.000    21115306.891 8  86463682.295 8      1583.855          51.000
R05  19523241.734 8 104362891.055 8      -112.543          51.000    19523243.500 7  81171146.962 7       -87.533          47.000
R15  19662315.867 8 105069443.412 8      1031.750          51.000    19662319.055 8  81720711.556 8       802.472          49.000
C05  39781027.148 5 207150247.191 5       -10.887          35.000    39781025.992 6 160181697.139 6        -8.264          40.000
C19  22305090.203 8 116148441.511 8     -1558.598          51.000
E02  25536210.664 7 134193697.879 7      2729.559          47.000    25536215.453 8 102823770.734 8      2091.477          51.000
E03  24161404.516 8 126969017.360 8     -1164.355          51.000    24161406.117 8  97287996.149 8      -892.157          50.000
E13  26008756.000 5 136676934.868 5     -1800.297          31.000    26008751.547 5 104726467.870 5     -1379.361          31.000
E25  25030720.203 6 131537328.116 6       301.363          36.000    25030719.781 5 100788348.227 5       230.768          31.000
> 2020 05 05 02 07 30.0000000  0 15        .000000000000
G02  22724077.781 7 119415812.964 7     -1397.035          44.000    22724072.180 6  93051263.063 6     -1088.599          39.000
G06  23223367.789 5 122039547.224 5     -3232.848          31.000    23223352.703 5  95095754.357 5     -2519.099          31.000
G07  20784180.609 8 109221593.312 8      -170.684          51.000    20784180.836 8  85107726.058 8      -133.000          51.000
G09  21780870.477 6 114459254.632 6     -2175.945          39.000    21780872.836 6  89189072.153 6     -1695.542          39.000
G30  21103742.375 8 110900968.500 8      2020.551          51.000    21103742.672 8  86416329.398 8      1574.455          51.000
R04  22086349.891 4 118271416.531 4     -2819.941          27.000
R05  19523910.406 8 104366465.434 8      -123.777          50.000    19523912.133 7  81173927.037 7       -96.271          47.000
R14  21559837.242 5 114925999.926 5     -2966.121          33.000    21559848.359 4  89386973.383 4     -2306.983          28.000
R15  19656597.953 8 105038887.342 8      1007.238          51.000    19656600.703 8  81696945.724 8       783.408          49.000
C05  39781086.828 5 207150558.101 5        -8.230          35.000    39781085.672 6 160181937.527 6        -6.262          41.000
C19  22314096.086 8 116195335.296 8     -1565.801          51.000
E02  25520646.250 7 134111910.305 7      2724.773          47.000    25520652.242 8 102761102.332 8      2087.834          51.000
E03  24168065.312 8 127004019.465 8     -1167.188          51.000    24168067.367 8  97314815.936 8      -894.285          50.000
E13                                                                  26019062.375 5 104767976.074 5     -1385.979          33.000
E25  25029041.547 6 131528503.593 6       288.820          39.000    25029041.812 5 100781576.678 5       221.136          33.000
> 2020 05 05 02 08  0.0000000  0 16        .000000000000
G02  22732107.094 7 119458009.454 7     -1414.996          42.000    22732101.125 6  93084143.457 6     -1102.591          39.000
G06  23241859.484 5 122136792.087 5     -3243.656          33.000    23241863.688 5  95171577.845 5     -2527.512          31.000
G07  20785211.766 8 109227009.554 8      -189.195          51.000    20785211.016 8  85111946.510 8      -147.425          51.000
G09  21793325.469 6 114524703.125 6     -2186.008          37.000    21793327.016 6  89240070.939 6     -1703.383          37.000
G30  21092259.844 8 110840629.839 8      2003.258          51.000    21092260.438 8  86369312.263 8      1560.980          51.000
R04  22102176.523 5 118356137.046 5     -2831.367          33.000
R05  19524654.945 8 104370447.082 8      -140.488          51.000    19524657.148 8  81177023.862 8      -109.269          48.000
R14  21576593.055 5 115015319.923 5     -2987.129          34.000    21576596.953 4  89456431.584 4     -2323.313          25.000
R15  19651031.047 8 105009137.724 8       977.359          51.000    19651033.562 8  81673807.122 8       760.165          50.000
C05  39781145.273 5 207150862.156 5       -10.523          35.000    39781144.070 6 160182172.665 6        -8.400          41.000
C19  22323156.867 8 116242514.777 8     -1578.250          51.000
C22  22228061.789 5 115747344.167 5      1244.809          31.000
E02  25505123.203 7 134030338.076 7      2714.766          46.000    25505129.344 8 102698598.943 8      2080.097          51.000
E03  24174754.938 8 127039173.212 8     -1175.211          51.000    24174757.141 8  97341751.928 8      -900.516          49.000
E13                                                                  26029435.453 5 104809732.944 5     -1396.991          35.000
E25  25027448.375 6 131520125.044 6       270.863          36.000    25027449.055 6 100775156.783 6       207.410          36.000
> 2020 05 05 02 08 30.0000000  0 15        .000000000000
G02  22740238.422 6 119500747.049 6     -1432.891          40.000    22740233.398 6  93117445.449 6     -1116.538          40.000
G06  23260409.008 6 122234266.136 6     -3253.602          37.000    23260401.891 6  95247531.585 6     -2535.268          38.000
G07  20786349.820 8 109232987.958 8      -208.098          51.000    20786348.453 8  85116605.022 8      -162.154          51.000
G09  21805836.258 6 114590443.041 6     -2195.227          38.000    21805835.789 6  89291296.786 6     -1710.572          38.000
G30  21080877.516 8 110780818.052 8      1985.512          51.000    21080878.539 8  86322705.678 8      1547.152          51.000
R05  19525494.062 8 104374933.112 8      -157.348          51.000    19525496.547 8  81180512.978 8      -122.382          48.000
R15  19645633.000 8 104980292.031 8       947.027          50.000    19645635.773 8  81651371.602 8       736.580          50.000
R16  22050390.352 5 117789233.406 5      4318.109          31.000    22050395.070 4  91613859.452 4      3358.533          28.000
C05  39781220.383 5 207151253.387 5       -13.945          35.000    39781219.172 6 160182475.174 6       -10.859          40.000
C19  22332289.906 8 116290073.844 8     -1591.090          51.000
C22  22220923.266 5 115710204.332 5      1232.844          32.000
E02  25489659.969 7 133949077.977 7      2704.027          47.000    25489665.555 8 102636334.697 8      2071.878          51.000
E03  24181491.398 8 127074573.502 8     -1183.598          50.000    24181493.266 7  97368876.853 7      -906.805          47.000
E13                                                                  26039888.648 5 104851814.973 5     -1407.592          31.000
E25  25025957.742 5 131512287.364 5       252.746          35.000    25025958.961 6 100769151.240 6       193.902          37.000
> 2020 05 05 02 09  0.0000000  0 14        .000000000000
G02  22748436.680 6 119543835.371 6     -1442.945          41.000    22748433.828 6  93151020.727 6     -1124.373          40.000
G06  23278980.352 6 122331859.144 6     -3256.012          36.000    23278971.859 6  95323578.033 6     -2537.152          37.000
G07  20787558.836 8 109239339.656 8      -219.039          51.000    20787556.844 8  85121554.409 8      -170.680          51.000
G09  21818366.031 6 114656285.369 6     -2197.820          38.000    21818363.617 6  89342602.548 6     -1712.587          38.000
G30  21069560.273 8 110721345.912 8      1975.602          51.000    21069561.516 8  86276363.767 8      1539.430          51.000
R05  19526392.094 8 104379733.538 8      -166.277          51.000    19526394.195 8  81184246.635 8      -129.327          48.000
R15  19640368.078 8 104952159.667 8       924.656          48.000    19640371.211 8  81629490.850 8       719.177          50.000
R16  22026143.789 6 117659707.546 6      4313.227          37.000    22026150.047 5  91513117.165 5      3354.732          31.000
C05  39781276.289 5 207151544.153 5        -8.887          35.000    39781275.180 6 160182700.781 6        -7.110          40.000
C19  22341459.609 8 116337825.778 8     -1595.945          51.000
E02  25474220.656 8 133867943.524 8      2701.250          48.000    25474225.078 8 102574166.693 8      2069.789          51.000
E03  24188238.688 7 127110032.088 7     -1184.016          47.000    24188241.023 7  97396046.440 7      -907.278          47.000
E13  26050368.844 5 136895611.592 5     -1843.266          32.000
E25  25024535.070 5 131504818.412 5       242.445          34.000    25024535.477 6 100763416.028 6       185.872          40.000
> 2020 05 05 02 09 30.0000000  0 14        .000000000000
G02  22756730.539 7 119587423.507 7     -1459.043          43.000    22756729.320 6  93184985.503 6     -1136.917          39.000
G06  23297588.594 5 122429666.039 5     -3264.539          34.000    23297593.359 5  95399744.503 5     -2543.797          34.000
G07  20788867.344 8 109246214.564 8      -235.613          51.000    20788864.789 8  85126911.488 8      -183.595          51.000
G09  21830943.727 6 114722380.563 6     -2205.340          39.000    21830941.477 6  89394105.210 6     -1718.447          38.000
G30  21058337.055 8 110662365.567 8      1960.039          51.000    21058338.461 8  86230405.073 8      1527.303          51.000
R04  22149987.766 5 118612171.625 5     -2855.496          31.000    22149988.898 4  92253919.008 4     -2220.941          24.000
R05  19527378.094 8 104385002.569 8      -181.262          51.000    19527379.898 8  81188344.765 8      -140.981          48.000
R15  19635265.305 8 104924895.388 8       896.672          48.000    19635269.227 8  81608285.277 8       697.411          51.000
R16  22001960.422 6 117530519.096 6      4303.086          39.000    22001967.141 5  91412637.280 5      3346.845          32.000
C05  39781342.047 5 207151887.003 5        -9.613          35.000    39781340.867 6 160182965.150 6        -7.826          40.000
C19  22350695.438 8 116385920.094 8     -1606.629          51.000
E02  25458834.500 8 133787087.575 8      2692.734          49.000    25458837.148 8 102512212.091 8      2063.279          50.000
E03  24195025.859 7 127145700.048 7     -1190.215          44.000    24195028.391 7  97423376.434 7      -911.980          44.000
E25  25023207.867 6 131497837.300 6       226.578          36.000    25023207.367 6 100758066.880 6       173.579          41.000
> 2020 05 05 02 10  0.0000000  0 12        .000000000000
G02  22765106.008 7 119631438.144 7     -1474.621          43.000    22765104.602 6  93219282.602 6     -1149.055          38.000
G07  20790261.508 8 109253540.558 8      -252.062          51.000    20790258.938 8  85132620.083 8      -196.412          51.000
G09  21843556.070 6 114788656.036 6     -2212.320          38.000    21843554.695 6  89445748.414 6     -1723.892          37.000
G30  21047194.219 8 110603806.513 8      1944.508          51.000    21047195.445 8  86184774.667 8      1515.204          51.000
R05  19528438.312 8 104390668.689 8      -195.848          51.000    19528439.672 8  81192751.749 8      -152.326          48.000
R15  19630311.867 8 104898427.019 8       868.668          49.000    19630316.344 8  81587698.741 8       675.631          51.000
R16  21977826.781 6 117401599.360 6      4292.414          40.000    21977832.867 5  91312366.354 5      3338.544          33.000
C05  39781403.781 5 207152208.127 5       -10.801          35.000    39781402.484 6 160183213.426 6        -8.291          41.000
C19  22359983.398 8 116434285.714 8     -1617.145          51.000
E02  25443488.500 8 133706440.372 8      2684.301          51.000    25443489.102 8 102450417.466 8      2056.685          48.000
E03  24201838.734 7 127181505.715 7     -1196.164          42.000    24201841.844 7  97450812.055 7      -916.736          42.000
E25  25021962.258 5 131491298.563 5       210.719          34.000    25021961.172 6 100753049.044 6       161.382          41.000
> 2020 05 05 02 10 30.0000000  0 13        .000000000000
G02  22773567.898 6 119675908.887 6     -1489.055          40.000    22773564.094 6  93253935.090 6     -1160.305          37.000
G07  20791747.297 8 109261348.132 8      -267.363          51.000    20791744.508 8  85138703.911 8      -208.335          51.000
G09  21856208.297 6 114855142.739 6     -2218.797          37.000    21856207.969 6  89497556.221 6     -1728.933          37.000
G30  21036137.547 8 110545701.327 8      1930.125          51.000    21036138.531 8  86139497.924 8      1503.994          51.000
R05  19529578.859 8 104396764.853 8      -209.523          51.000    19529579.891 8  81197493.214 8      -162.963          49.000
R15  19625513.586 8 104872787.515 8       841.758          49.000    19625518.133 8  81567756.891 8       654.701          50.000
R16  21953749.719 6 117272984.275 6      4282.965          41.000    21953755.523 5  91212332.396 5      3331.195          32.000
C05  39781467.367 5 207152540.520 5       -10.207          35.000    39781466.102 6 160183469.710 6        -8.134          41.000
C19  22369329.469 8 116482953.737 8     -1626.449          51.000
C22  22192869.266 4 115564044.617 4      1199.871          28.000
E02  25428188.766 8 133626035.261 8      2676.906          51.000    25428186.867 7 102388808.366 7      2051.142          46.000
E03  24208683.102 6 127217480.759 6     -1201.285          38.000    24208688.258 6  97478377.440 6      -920.426          39.000
E25  25020804.156 6 131485213.812 6       195.797          36.000    25020802.922 7 100748386.708 7       150.095          42.000
> 2020 05 05 02 11  0.0000000  0 15        .000000000000
G02  22782106.898 6 119720784.434 6     -1502.508          40.000    22782101.836 6  93288903.055 6     -1170.785          39.000
G06  23353690.688 4 122724472.592 4     -3283.195          29.000
G07  20793315.000 8 109269586.873 8      -281.730          51.000    20793311.984 8  85145123.717 8      -219.530          51.000
G09  21868891.102 6 114921790.530 6     -2224.117          38.000    21868890.195 6  89549489.612 6     -1733.075          38.000
G30  21025157.781 8 110488001.784 8      1916.727          51.000    21025158.492 8  86094537.240 8      1493.553          51.000
R05  19530790.438 8 104403241.868 8      -222.129          51.000    19530791.625 8  81202530.891 8      -172.770          49.000
R15  19620861.609 8 104847927.698 8       815.762          49.000    19620866.102 8  81548421.480 8       634.481          50.000
R16  21929720.648 6 117144627.496 6      4274.242          40.000    21929725.102 5  91112499.362 5      3324.414          31.000
C05  39781523.641 5 207152832.419 5        -9.016          35.000    39781522.359 6 160183696.181 6        -7.080          41.000
C19  22378724.281 8 116531875.179 8     -1634.797          51.000
C22  22185969.305 5 115528174.931 5      1190.973          30.000
E02  25412926.094 8 133545824.745 8      2670.500          51.000    25412921.539 7 102327348.412 7      2046.260          45.000
E03  24215551.344 7 127253575.927 7     -1205.066          42.000    24215558.906 6  97506034.877 6      -923.225          36.000
E13  26093018.891 5 137119735.149 5     -1887.238          34.000    26093021.680 5 105065779.371 5     -1446.012          35.000
E25  25019724.578 5 131479543.890 5       182.352          34.000    25019723.719 7 100744042.174 7       139.589          43.000
> 2020 05 05 02 11 30.0000000  0 15        .000000000000
G02  22790725.523 6 119766077.582 6     -1521.363          41.000    22790721.445 6  93324196.426 6     -1185.481          38.000
G06  23372461.289 5 122823113.603 5     -3295.156          32.000    23372462.328 5  95706318.131 5     -2567.651          33.000
G07  20794967.398 8 109278270.965 8      -301.516          51.000    20794964.664 8  85151890.542 8      -234.947          51.000
G09  21881606.547 6 114988613.361 6     -2235.145          37.000    21881605.758 6  89601559.348 6     -1741.671          36.000
G30  21014257.961 8 110430723.478 8      1897.621          51.000    21014258.555 8  86049904.745 8      1478.663          51.000
R05  19532076.148 8 104410115.570 8      -240.414          51.000    19532077.617 8  81207877.086 8      -186.989          49.000
R15  19616358.391 8 104823862.997 8       784.195          51.000    19616362.688 8  81529704.489 8       609.930          49.000
R16  21905742.508 5 117016548.017 5      4260.055          35.000    21905745.000 4  91012881.994 4      3313.373          28.000
C05  39781575.359 5 207153102.189 5       -13.430          35.000    39781574.039 6 160183903.985 6        -9.995          41.000
C19  22388170.680 8 116581064.254 8     -1648.656          51.000
C22  22179129.602 5 115492576.255 5      1177.891          32.000
E02  25397703.438 8 133465825.205 8      2658.590          51.000    25397697.352 7 102266050.112 7      2037.062          45.000
E03  24222446.125 7 127289805.786 7     -1214.402          45.000    24222455.453 5  97533795.541 5      -930.384          34.000
E13  26103821.086 6 137176514.027 6     -1902.227          36.000    26103822.188 5 105109285.329 5     -1457.882          32.000
E25  25018730.617 5 131474314.137 5       162.750          35.000    25018726.742 7 100740026.616 7       124.770          43.000
> 2020 05 05 02 12  0.0000000  0 16        .000000000000
G02  22799442.094 7 119811882.622 7     -1533.242          45.000    22799439.094 7  93359888.654 7     -1194.734          42.000
G06  23391279.320 5 122922002.430 5     -3298.422          31.000    23391282.461 5  95783390.453 5     -2570.199          33.000
G07  20796722.570 8 109287495.688 8      -314.336          51.000    20796720.266 8  85159078.649 8      -244.934          51.000
G09  21894372.844 5 115055706.872 5     -2239.324          33.000    21894373.023 5  89653840.033 5     -1744.928          34.000
G30  21003456.742 8 110373963.832 8      1885.504          51.000    21003457.383 8  86005676.428 8      1469.224          51.000
R05  19533454.914 8 104417485.009 8      -251.730          51.000    19533456.516 8  81213608.861 8      -195.790          50.000
R15  19612022.562 8 104800692.226 8       759.668          51.000    19612026.055 8  81511682.795 8       590.853          49.000
R16  21881833.828 5 116888847.778 5      4252.484          35.000    21881837.344 5  90913559.541 5      3307.488          31.000
C05  39781640.656 5 207153442.327 5       -10.633          35.000    39781639.336 6 160184167.003 6        -7.959          41.000
C19  22397687.047 8 116630616.385 8     -1655.715          51.000
C22  22172359.977 4 115457330.640 4      1170.551          29.000
E02  25382539.406 8 133386134.927 8      2653.414          51.000    25382533.648 7 102204988.797 7      2033.019          46.000
E03  24229385.328 7 127326266.846 7     -1217.039          47.000    24229392.414 6  97561733.404 6      -932.459          36.000
E08  21949710.328 5 115346503.779 5      1034.738          34.000    21949698.812 5  88382344.939 5       792.905          34.000
E13  26114699.102 6 137233689.118 6     -1910.195          36.000    26114704.859 5 105153092.874 5     -1463.905          32.000
E25  25017836.625 6 131469599.431 6       150.551          36.000    25017828.945 7 100736413.953 7       115.342          43.000
> 2020 05 05 02 12 30.0000000  0 15        .000000000000
G02  22808232.875 7 119858075.163 7     -1549.512          46.000    22808230.281 7  93395882.874 7     -1207.412          42.000
G07  20798556.984 8 109297137.569 8      -331.621          50.000    20798554.984 8  85166591.780 8      -258.409          50.000
G09  21907167.641 6 115122947.622 6     -2246.453          36.000    21907169.289 6  89706235.422 6     -1750.483          36.000
G30  20992731.055 8 110317601.168 8      1868.785          51.000    20992731.742 8  85961757.466 8      1456.196          51.000
R05  19534903.086 8 104425226.200 8      -267.582          51.000    19534904.805 8  81219629.796 8      -208.119          50.000
R15  19607830.734 8 104778291.113 8       730.539          51.000    19607833.445 7  81494259.736 7       568.197          47.000
R16  21857974.914 6 116761405.420 6      4240.422          39.000    21857979.820 5  90814437.632 5      3298.106          33.000
C05  39781696.352 5 207153732.225 5       -11.762          35.000    39781695.070 6 160184391.188 6        -9.258          41.000
C19  22407249.672 8 116680409.828 8     -1667.051          51.000
C22  22165635.773 5 115422317.569 5      1160.246          33.000
E02  25367411.133 8 133306633.022 8      2643.621          51.000    25367406.852 8 102144071.804 8      2025.623          48.000
E03  24236345.039 8 127362836.433 8     -1224.043          48.000    24236349.477 6  97589754.320 6      -937.828          41.000
E08                                                                  21943801.656 6  88358593.919 6       787.994          36.000
E13  26125629.172 6 137291135.962 6     -1922.789          37.000    26125638.602 5 105197110.612 5     -1473.252          34.000
E25                                                                  25017007.664 7 100733110.206 7       102.379          42.000
> 2020 05 05 02 13  0.0000000  0 16        .000000000000
G02  22817114.031 7 119904742.195 7     -1561.926          46.000    22817111.812 7  93432246.827 7     -1217.082          42.000
G07  20800487.484 8 109307284.727 8      -345.219          50.000    20800486.086 8  85174498.654 8      -269.002          50.000
G09  21920007.500 5 115190424.066 5     -2251.441          35.000    21920010.102 5  89758814.485 5     -1754.373          34.000
G30  20982098.250 8 110261725.602 8      1855.746          51.000    20982098.797 8  85918218.073 8      1446.036          51.000
R04  22263148.188 5 119218180.167 5     -2914.711          30.000
R05  19536437.688 8 104433430.911 8      -279.805          51.000    19536439.625 8  81226011.229 8      -217.626          50.000
R15  19603799.984 8 104756751.237 8       705.035          51.000    19603802.039 7  81477506.546 7       548.361          47.000
R16  21834184.133 7 116634315.993 7      4231.852          42.000    21834188.844 5  90715590.280 5      3291.440          33.000
C05  39781759.352 5 207154060.191 5       -10.543          35.000    39781758.031 6 160184644.779 6        -7.908          41.000
C19  22416875.391 8 116730532.744 8     -1674.848          51.000
C22  22158973.383 5 115387626.581 5      1152.555          32.000
E02  25352336.242 8 133227410.471 8      2637.488          51.000    25352333.117 8 102083368.840 8      2020.939          50.000
E03  24243341.961 8 127399603.720 8     -1227.441          48.000    24243345.383 7  97617926.685 7      -940.567          44.000
E08                                                                  21937940.820 6  88334985.627 6       785.572          37.000
E13  26136628.797 6 137348941.781 6     -1931.301          38.000    26136639.906 5 105241403.370 5     -1479.789          32.000
E25  25016288.258 6 131461507.320 6       120.293          38.000    25016280.836 6 100730183.667 6        92.457          41.000
> 2020 05 05 02 13 30.0000000  0 16        .000000000000
G02  22826071.398 7 119951811.091 7     -1576.293          45.000    22826069.477 7  93468923.913 7     -1228.277          43.000
G07  20802500.766 8 109317865.851 8      -360.500          50.000    20802499.906 8  85182743.676 8      -280.909          51.000
G09  21932879.281 6 115258065.127 6     -2257.789          41.000    21932881.609 6  89811521.810 6     -1759.313          41.000
G30  20971544.922 8 110206267.730 8      1841.008          51.000    20971545.508 8  85875004.156 8      1434.552          51.000
R04  22279501.836 4 119305717.620 4     -2922.934          29.000
R05  19538046.000 8 104442028.576 8      -293.852          51.000    19538047.992 8  81232698.298 8      -228.554          50.000
R15  19599917.172 8 104736001.297 8       677.883          51.000    19599918.648 7  81461367.762 7       527.242          47.000
R16  21810446.922 7 116507511.681 7      4221.324          44.000    21810450.688 5  90616964.734 5      3283.252          30.000
C05  39781816.383 5 207154356.410 5       -10.156          35.000    39781814.906 6 160184873.832 6        -7.681          41.000
C19  22426550.727 8 116780915.164 8     -1684.328          51.000
C22  22152358.773 5 115353189.012 5      1143.012          33.000
E02  25337301.133 8 133148398.688 8      2629.633          50.000    25337299.242 8 102022827.355 8      2014.898          51.000
E03  24250362.961 8 127436498.354 8     -1232.543          49.000    24250365.219 7  97646196.607 7      -944.446          45.000
E08                                                                  21932100.727 6  88311466.338 6       782.208          36.000
E13  26147684.609 6 137407034.494 6     -1941.906          36.000    26147694.859 5 105285931.837 5     -1487.598          31.000
E25                                                                  25015634.430 6 100727580.399 6        80.907          40.000
> 2020 05 05 02 14  0.0000000  0 16        .000000000000
G02  22835107.500 7 119999295.515 7     -1590.688          44.000    22835105.578 7  93505924.747 7     -1239.497          43.000
G06  23466889.250 5 123319334.889 5     -3323.871          34.000
G07  20804599.422 8 109328895.329 8      -376.031          50.000    20804598.758 8  85191338.050 8      -293.011          50.000
G09  21945785.289 6 115325885.525 6     -2264.711          36.000    21945787.719 6  89864368.927 6     -1764.710          36.000
G30  20961074.109 8 110151244.067 8      1825.980          51.000    20961074.914 8  85832128.579 8      1422.845          51.000
R05  19539731.133 8 104451035.833 8      -308.012          51.000    19539733.172 8  81239703.936 8      -239.565          50.000
R14  21785626.094 5 116129606.795 5     -3199.480          34.000    21785625.703 4  90323055.960 4     -2488.485          25.000
R15  19596185.352 8 104716057.908 8       650.398          51.000    19596186.086 8  81445856.248 8       505.865          48.000
R16  21786766.945 7 116381011.925 7      4210.602          43.000    21786767.570 4  90518557.645 4      3274.915          25.000
C05  39781870.164 5 207154637.165 5        -9.598          35.000    39781868.641 6 160185090.196 6        -7.829          40.000
C19  22436278.156 8 116831572.280 8     -1694.016          49.000
C22  22145796.180 4 115318972.040 4      1133.875          28.000
E02  25322308.320 8 133069615.001 8      2621.395          48.000    25322308.875 8 101962460.617 8      2008.577          51.000
E03  24257411.016 8 127473535.877 8     -1237.855          49.000    24257411.836 7  97674576.035 7      -948.508          46.000
E08                                                                  21926284.102 6  88288048.302 6       778.104          36.000
E25  25015074.586 6 131455107.780 6        90.273          37.000    25015071.844 6 100725312.289 6        69.177          39.000
> 2020 05 05 02 14 30.0000000  0 17        .000000000000
G02  22844226.305 7 120047216.907 7     -1604.668          42.000    22844224.375 7  93543266.081 7     -1250.394          42.000
G06  23485878.820 6 123419130.445 6     -3329.914          37.000    23485883.836 6  96170777.657 6     -2594.738          36.000
G07  20806787.898 8 109340395.594 8      -391.242          51.000    20806787.078 8  85200299.292 8      -304.864          51.000
G09  21958730.094 6 115393908.225 6     -2271.141          39.000    21958731.984 6  89917373.533 6     -1769.717          39.000
G30  20950690.555 8 110096678.974 8      1811.070          51.000    20950691.734 8  85789610.322 8      1411.224          51.000
R05  19541497.461 8 104460477.332 8      -322.004          51.000    19541499.641 8  81247047.316 8      -250.447          50.000
R14  21803675.969 5 116225843.512 5     -3216.816          34.000    21803683.609 4  90397906.698 4     -2501.971          28.000
R15  19592608.641 8 104696945.329 8       623.160          51.000    19592610.000 8  81430990.947 8       484.683          49.000
R16  21763148.898 6 116254844.544 6      4200.121          41.000    21763146.047 4  90420416.073 4      3266.764          27.000
C05  39781925.188 5 207154923.775 5        -9.445          35.000    39781923.688 6 160185311.812 6        -7.545          40.000
C19  22446062.609 8 116882527.110 8     -1703.516          50.000
C22  22139292.086 5 115285098.488 5      1124.168          32.000
E02  25307362.367 8 132991084.695 8      2613.398          49.000    25307365.969 8 101902287.954 8      2002.507          51.000
E03  24264490.586 8 127510739.786 8     -1242.926          48.000    24264491.109 8  97703082.940 8      -952.315          48.000
E08                                                                  21920498.320 6  88264749.762 6       774.561          37.000
E13  26169974.234 5 137524147.242 5     -1962.668          34.000    26169973.867 5 105375637.393 5     -1503.566          30.000
E25  25014598.375 6 131452608.646 6        75.711          37.000    25014596.289 6 100723397.278 6        57.955          37.000
> 2020 05 05 02 15  0.0000000  0 17        .000000000000
G02  22853431.742 7 120095595.510 7     -1618.641          42.000    22853430.273 7  93580963.678 7     -1261.275          42.000
G06  23504908.219 5 123519137.598 5     -3335.172          31.000    23504915.344 5  96248705.283 5     -2598.835          30.000
G07  20809070.203 8 109352388.245 8      -406.324          50.000    20809069.180 8  85209644.212 8      -316.616          50.000
G09  21971717.477 6 115462154.301 6     -2277.094          37.000    21971718.148 6  89970552.317 6     -1774.356          37.000
G30  20940398.945 8 110042595.575 8      1796.344          51.000    20940400.141 8  85747467.408 8      1399.745          51.000
R04  22328840.227 5 119569897.483 5     -2946.887          34.000
R05  19543349.391 8 104470376.667 8      -335.961          51.000    19543351.633 8  81254746.797 8      -261.303          50.000
R15  19589191.320 8 104678686.478 8       596.137          50.000    19589193.383 8  81416789.634 8       463.662          50.000
R16  21739597.359 6 116129036.071 6      4189.648          38.000    21739594.852 5  90322565.107 5      3258.615          30.000
C05                                                                  39781984.211 6 160185555.662 6        -7.252          40.000
C19  22455909.164 8 116933801.449 8     -1712.840          50.000
C22  22132849.172 6 115251542.985 6      1114.691          37.000
E02  25292470.281 8 132912831.592 8      2605.523          51.000    25292475.227 8 101842327.736 8      1996.461          51.000
E03  24271606.203 8 127548132.335 8     -1247.863          48.000    24271606.977 8  97731734.378 8      -956.188          48.000
E08                                                                  21914747.258 6  88241588.008 6       771.223          37.000
