     3.02           OBSERVATION DATA    M (MIXED)           RINEX VERSION / TYPE
SAVERINEX           SC600               20200501 205931 LCL PGM / RUN BY / DATE
       G = GPS       R = GLONASS       C = COMPASS          COMMENT
       S = SBAS      J = QZSS          E = GALILEO          COMMENT
BEAN                                                        MARKER NAME
1                                                           MARKER NUMBER
GEODETIC                                                    MARKER TYPE
Unige DICCA         GTER                                    OBSERVER / AGENCY
SC60291900056       SC600               2.12(191226)        REC # / TYPE / VERS
                    HEMA45          NONE                    ANT # / TYPE
  4509407.8091   693652.4678  4442337.6214                  APPROX POSITION XYZ
        0.0000        0.0000        0.0000                  ANTENNA: DELTA H/E/N
G    8 C1C L1C D1C S1C C2Y L2Y D2Y S2Y                      SYS / # / OBS TYPES
R    8 C1C L1C D1C S1C C2P L2P D2P S2P                      SYS / # / OBS TYPES
C    8 C1I L1I D1I S1I C7I L7I D7I S7I                      SYS / # / OBS TYPES
E    8 C1C L1C D1C S1C C7Q L7Q D7Q S7Q                      SYS / # / OBS TYPES
DBHZ                                                        COMMENT
     30.000                                                 INTERVAL
  2020    05    01    18    00    0.0000000     GPS         TIME OF FIRST OBS
  2020    05    01    18    59   30.0000000     GPS         TIME OF LAST OBS
     0                                                      RCV CLOCK OFFS APPL
G L1C  0.00000                                              SYS / PHASE SHIFT
G L2Y  0.00000                                              SYS / PHASE SHIFT
R L1C  0.00000                                              SYS / PHASE SHIFT
R L2P  0.25000                                              SYS / PHASE SHIFT
C L1I  0.00000                                              SYS / PHASE SHIFT
C L7I  0.00000                                              SYS / PHASE SHIFT
E L1C  0.50000                                              SYS / PHASE SHIFT
E L7Q -0.25000                                              SYS / PHASE SHIFT
 13 R03  5 R04  6 R05  1 R06 -4 R07  5 R09 -2 R10 -5 R11  0 GLONASS SLOT / FRQ #
    R16 -1 R18 -3 R19  3 R20  2 R21  4                      GLONASS SLOT / FRQ #
 C1C   71.950 C2C   71.950 C2P   71.950                     GLONASS COD/PHS/BIS
    18                                                      LEAP SECONDS
*** Above antenna height is from mark to ANTENNA BOTTOM.    COMMENT
    17     4        0.0000        ANT MEASURE TYPE/HEIGT    COMMENT
    0.0000    0.0000    0.0458    0.0405    0.0000          COMMENT
                    BASE STATION                            COMMENT
                                                            END OF HEADER
> 2020 05 01 18 00  0.0000000  0 18        .000000000000
G08  20446826.609 8 107448800.923 8       809.699          48.000    20446826.961 8  83726342.210 8       630.938          48.000
G10  21402455.250 6 112470665.269 6     -1690.578          40.000    21402455.898 6  87639474.578 6     -1317.331          40.000
G14  24554522.617 6 129034888.206 6      2985.883          37.000    24554522.453 6 100546678.989 6      2326.662          37.000
G16  24003531.969 5 126139396.050 5     -3709.508          35.000
G22  23949561.016 6 125855762.590 6      3459.695          36.000
G27  20683500.594 8 108692516.651 8     -1458.223          51.000    20683502.000 8  84695460.238 8     -1136.280          51.000
G32  23372027.102 7 122820858.572 7      2590.008          42.000    23372029.141 7  95704577.398 7      2018.191          42.000
R05  21056972.008 6 112561585.552 6     -2223.215          36.000
R06  20090610.852 7 107207398.954 7      2397.832          47.000
R11  23043682.992 7 123138447.008 7     -3552.375          46.000    23043685.062 6  95774356.559 6     -2762.961          41.000
R21  19646195.562 5 105130720.489 5       518.957          33.000
C05  39624487.117 6 206335100.438 6       -19.281          37.000    39624486.094 6 159551388.904 6       -15.094          38.000
C19  22723974.844 5 118329866.556 5     -1046.402          31.000
C22  22881702.695 8 119151102.374 8      2142.094          51.000
E04  25641392.289 8 134746464.668 8      2379.738          51.000    25641394.195 8 103247281.017 8      1823.427          49.000
E11  22751526.047 6 119560064.032 6       542.457          37.000    22751526.367 5  91610967.737 5       415.601          35.000
E12  23136170.352 5 121581397.675 5     -1595.062          33.000    23136162.688 6  93159751.488 6     -1221.787          37.000
E25  25949676.781 7 136366461.050 7     -1971.082          42.000    25949677.094 6 104488595.125 6     -1510.202          41.000
> 2020 05 01 18 00 30.0000000  0 18        .000000000000
G01  23207000.148 6 121953623.232 6      2863.746          36.000
G08  20442248.773 7 107424745.818 7       792.758          47.000    20442249.719 7  83707597.969 7       617.730          47.000
G10  21412149.844 7 112521616.492 7     -1707.359          44.000    21412152.211 7  87679176.793 7     -1330.413          44.000
G14  24537480.734 6 128945341.316 6      2982.770          38.000    24537482.383 6 100476902.234 6      2324.236          36.000
G16  24024720.406 5 126250739.154 5     -3714.840          35.000
G22  23929828.711 6 125752076.527 6      3451.941          37.000
G27  20691869.672 8 108736498.650 8     -1475.199          50.000    20691871.125 8  84729731.924 8     -1149.506          50.000
G32  23357269.648 7 122743308.836 7      2578.934          42.000    23357272.289 7  95644149.116 7      2009.562          43.000
R06  20077196.984 7 107135821.179 7      2372.867          47.000
R11  23063654.727 7 123245169.050 7     -3563.551          45.000    23063657.344 6  95857362.487 6     -2771.654          41.000
R21  19643323.438 6 105115350.445 6       504.887          37.000
C05  39624602.156 6 206335699.217 6       -21.613          37.000    39624601.031 6 159551851.934 6       -16.728          38.000
C19  22730052.047 6 118361503.304 6     -1063.746          37.000
C22  22869401.469 8 119087050.417 8      2126.895          50.000
E04  25627832.586 8 134675210.805 8      2369.258          51.000    25627834.547 8 103192683.953 8      1815.456          51.000
E11  22748448.250 6 119543889.805 6       534.977          37.000    22748446.523 5  91598574.490 5       409.893          35.000
E12                                                                  23145278.922 6  93196454.502 6     -1226.040          38.000
E25  25960964.094 7 136425766.301 7     -1983.699          44.000    25960962.352 6 104534036.768 6     -1519.867          41.000
> 2020 05 01 18 01  0.0000000  0 17        .000000000000
G08  20437741.117 7 107401059.641 7       780.270          47.000    20437742.617 7  83689141.186 7       608.002          47.000
G10  21421915.078 7 112572936.257 7     -1719.797          42.000    21421918.234 7  87719166.173 7     -1340.098          42.000
G14  24520434.102 6 128855764.002 6      2983.223          40.000    24520436.914 6 100407101.739 6      2324.592          39.000
G16  24045908.344 6 126362081.671 6     -3714.074          36.000
G22  23910115.523 5 125648489.550 5      3448.574          35.000    23910108.109 4  97907894.927 4      2687.201          28.000
G27  20700308.805 8 108780847.593 8     -1487.426          51.000    20700310.250 8  84764289.542 8     -1159.033          51.000
G32  23342550.977 7 122665961.047 7      2571.852          43.000    23342554.203 7  95583878.167 7      2004.040          43.000
R06  20063897.359 7 107064854.807 7      2352.191          45.000
R11  23083662.203 7 123352084.523 7     -3570.047          43.000    23083665.930 6  95940518.899 6     -2776.703          41.000
R21  19640503.758 6 105100259.397 6       495.219          36.000
C05  39624702.555 6 206336222.114 6       -18.992          37.000    39624701.281 6 159552256.293 6       -14.840          38.000
C19  22736204.648 5 118393534.284 5     -1077.742          34.000
C22  22857162.133 8 119023319.022 8      2116.078          50.000
E04  25614306.102 8 134604132.260 8      2363.379          50.000    25614308.383 8 103138221.236 8      1810.886          51.000
E11  22745384.484 6 119527791.522 6       532.453          37.000    22745382.078 5  91586239.431 5       407.858          35.000
E12                                                                  23154402.094 6  93233185.980 6     -1227.264          38.000
E25  25972296.914 7 136485310.805 7     -1991.812          44.000    25972293.859 7 104579661.679 7     -1526.083          42.000
> 2020 05 01 18 01 30.0000000  0 18        .000000000000
G08  20433331.883 8 107377889.456 8       766.660          49.000    20433333.516 8  83671086.498 8       597.401          49.000
G10  21431778.398 6 112624768.111 6     -1733.188          40.000    21431781.422 6  87759554.695 6     -1350.530          41.000
G11  21303300.188 5 111949593.767 5      2454.117          35.000
G14  24503410.555 6 128766304.431 6      2982.758          41.000    24503413.852 6 100337393.045 6      2324.227          40.000
G16  24067123.031 6 126473566.604 6     -3715.234          36.000
G22  23890449.531 5 125545149.075 5      3443.320          33.000
G27  20708845.680 8 108825708.758 8     -1500.891          51.000    20708847.125 8  84799246.274 8     -1169.525          51.000
G32  23327899.555 7 122588963.687 7      2563.859          44.000    23327903.102 7  95523880.306 7      1997.816          44.000
R06  20050740.320 7 106994651.044 7      2330.535          43.000
R11  23103732.273 7 123459336.541 7     -3577.566          43.000    23103737.047 6  96023937.109 6     -2782.555          40.000
R21  19637761.789 5 105085596.716 5       485.324          31.000    19637760.672 4  81733258.061 4       377.474          25.000
C05  39624815.969 6 206336813.393 6       -17.867          37.000    39624814.797 6 159552713.503 6       -13.722          38.000
C19  22742459.992 5 118426102.575 5     -1091.391          35.000
C22  22845012.891 8 118960054.122 8      2104.059          51.000
E04  25600841.297 8 134533376.497 8      2356.105          50.000    25600843.844 8 103084005.799 8      1805.346          51.000
E11  22742363.086 6 119511915.080 6       528.484          37.000    22742360.336 5  91574074.368 5       404.814          35.000
E12                                                                  23163559.039 6  93270057.550 6     -1229.201          38.000
E25  25983702.438 7 136545238.386 7     -2001.148          45.000    25983698.453 7 104625580.175 7     -1533.222          43.000
> 2020 05 01 18 02  0.0000000  0 17        .000000000000
G08  20429003.695 8 107355144.985 8       751.113          48.000    20429005.562 8  83653363.536 8       585.283          48.000
G10  21441721.484 7 112677018.536 7     -1748.457          43.000    21441724.602 7  87800269.274 7     -1362.434          43.000
G14  24486392.961 7 128676874.040 7      2980.621          42.000    24486395.820 6 100267707.124 6      2322.565          40.000
G16  24088346.016 5 126585099.595 5     -3718.184          33.000
G22  23870814.586 5 125441977.382 5      3436.484          31.000
G27  20717462.477 8 108870989.941 8     -1516.262          51.000    20717463.922 8  84834530.271 8     -1181.503          51.000
G32  23313298.023 7 122512227.906 7      2553.691          43.000    23313301.109 7  95464086.298 7      1989.892          43.000
R06  20037709.234 7 106925119.615 7      2306.539          44.000
R11  23123847.602 7 123566827.319 7     -3586.832          45.000    23123852.383 6  96107540.980 6     -2789.761          40.000
R21  19635083.750 5 105071269.978 5       472.332          35.000    19635084.781 4  81722116.591 4       367.372          27.000
C05  39624925.109 6 206337382.144 6       -18.023          36.000    39624924.031 6 159553153.329 6       -14.185          38.000
C19  22748800.336 5 118459115.925 5     -1107.750          31.000
C22  22832936.180 8 118897166.255 8      2090.047          51.000
E04  25587420.445 7 134462853.536 7      2346.965          47.000    25587424.188 8 103029968.723 8      1798.312          51.000
E11  22739366.383 6 119496168.794 6       523.293          37.000    22739363.656 5  91562009.055 5       400.734          35.000
E12                                                                  23172733.297 6  93306998.878 6     -1232.544          37.000
E25  25995162.469 7 136605455.465 7     -2012.074          43.000    25995158.008 7 104671720.503 7     -1541.755          43.000
> 2020 05 01 18 02 30.0000000  0 16        .000000000000
G08  20424766.266 8 107332877.842 8       735.336          48.000    20424768.469 8  83636012.503 8       572.989          48.000
G10  21451753.352 6 112729735.602 6     -1764.027          40.000    21451756.234 6  87841347.483 6     -1374.564          40.000
G14  24469390.875 7 128587525.692 7      2977.781          42.000    24469393.328 6 100198085.110 6      2320.352          40.000
G16  24109586.594 5 126696727.730 5     -3721.570          31.000    24109587.359 5  98724728.749 5     -2899.925          30.000
G27  20726168.703 8 108916740.816 8     -1531.773          51.000    20726170.195 8  84870180.285 8     -1193.593          51.000
G32  23298756.305 6 122435806.894 6      2543.293          41.000    23298758.648 6  95404537.547 6      1981.790          41.000
R06  20024814.984 7 106856313.789 7      2282.441          47.000
R11  23144017.062 7 123674603.570 7     -3596.145          45.000    23144020.703 6  96191366.842 6     -2797.004          39.000
R21  19632478.438 5 105057331.929 5       459.129          34.000    19632482.750 5  81711275.870 5       357.097          30.000
C05  39625039.438 6 206337978.086 6       -19.012          36.000    39625038.523 6 159553614.170 6       -15.073          38.000
C19  22755235.008 6 118492623.125 6     -1124.062          37.000
C22  22820941.844 8 118834706.722 8      2075.941          51.000
E04  25574053.383 8 134392615.297 8      2337.668          48.000    25574058.648 8 102976149.801 8      1791.083          51.000
E11  22736404.359 6 119480603.259 6       516.844          37.000    22736402.281 6  91550082.212 6       395.879          36.000
E12                                                                  23181933.930 6  93344048.434 6     -1236.055          37.000
E25  26006684.242 6 136666010.429 6     -2022.953          38.000    26006680.305 7 104718119.795 7     -1550.052          43.000
> 2020 05 01 18 03  0.0000000  0 15        .000000000000
G08  20420614.328 8 107311059.310 8       719.195          49.000    20420616.508 8  83619011.051 8       560.412          49.000
G10  21461868.234 6 112782887.707 6     -1779.523          41.000    21461870.406 6  87882764.740 6     -1386.645          41.000
G14  24452399.195 6 128498232.417 6      2974.684          41.000    24452401.305 6 100128506.023 6      2317.938          41.000
G27  20734958.469 8 108962931.426 8     -1547.652          51.000    20734960.375 8  84906172.962 8     -1205.963          51.000
G32  23284267.219 5 122359674.027 5      2532.520          32.000    23284270.641 5  95345213.281 5      1973.392          33.000
R06  20012052.281 7 106788206.774 7      2257.992          47.000
R11  23164233.375 7 123782630.464 7     -3605.633          43.000    23164236.102 6  96275387.690 6     -2804.381          39.000
R21  19629940.945 6 105043753.353 6       446.137          36.000    19629946.234 5  81700714.784 5       346.998          32.000
C05  39625153.453 6 206338571.932 6       -20.363          37.000    39625152.516 6 159554073.359 6       -15.562          38.000
C19  22761757.547 5 118526593.350 5     -1140.441          31.000
C22  22809024.258 8 118772647.758 8      2061.359          51.000
E04  25560736.156 8 134322633.992 8      2327.730          51.000    25560741.133 8 102922527.729 8      1783.655          51.000
E11  22733471.133 6 119465188.985 6       510.660          38.000    22733470.141 6  91538271.271 6       391.210          37.000
E12                                                                  23191156.516 6  93381183.580 6     -1239.718          38.000
E25  26018262.297 6 136726872.090 6     -2034.258          37.000    26018260.492 7 104764754.062 7     -1558.720          44.000
> 2020 05 01 18 03 30.0000000  0 18        .000000000000
G08  20416547.555 8 107289688.389 8       706.887          49.000    20416549.766 8  83602358.380 8       550.821          49.000
G10  21472064.875 7 112836470.148 7     -1791.141          42.000    21472067.195 7  87924517.205 7     -1395.697          42.000
G14  24435417.734 6 128408994.576 6      2975.984          41.000    24435419.859 6 100058970.137 6      2318.952          40.000
G16  24152098.969 5 126920138.002 5     -3723.473          33.000
G22  23812115.016 5 125133527.907 5      3418.750          31.000
G27  20743831.141 8 109009558.401 8     -1559.484          50.000    20743833.742 8  84942505.662 8     -1215.183          50.000
G32  23269831.617 6 122283829.455 6      2525.160          37.000    23269837.500 6  95286113.508 6      1967.654          38.000
R05  21147465.070 5 113045276.748 5     -2379.531          34.000
R06  19999420.461 7 106720798.425 7      2237.422          47.000
R11  23184494.578 7 123890900.394 7     -3610.934          43.000    23184497.406 6  96359597.530 6     -2808.507          38.000
R21  19627469.391 5 105030532.668 5       437.148          30.000    19627475.953 5  81690431.927 5       339.998          33.000
C05  39625266.508 6 206339160.828 6       -17.594          37.000    39625265.742 6 159554528.744 6       -13.469          38.000
C19  22768367.398 6 118561022.460 6     -1153.152          37.000
C22  22797183.047 8 118710987.976 8      2050.691          51.000
E04  25547468.359 8 134252908.419 8      2321.934          51.000    25547472.148 8 102869101.664 8      1779.135          51.000
E11  22730566.422 6 119449923.353 6       508.434          39.000    22730565.758 6  91526574.256 6       389.657          36.000
E12                                                                  23200400.359 5  93418402.090 5     -1240.206          35.000
E25  26029898.859 5 136788035.804 5     -2041.605          34.000    26029898.484 7 104811619.714 7     -1564.437          43.000
> 2020 05 01 18 04  0.0000000  0 18        .000000000000
G08  20412561.469 8 107268741.828 8       690.266          49.000    20412563.758 8  83586036.386 8       537.869          49.000
G10  21482337.906 6 112890456.449 6     -1807.508          39.000    21482340.859 6  87966584.428 6     -1408.448          39.000
G14  24418442.461 7 128319790.436 7      2972.070          42.000    24418445.109 6  99989460.511 6      2315.902          40.000
G16  24173373.281 5 127031917.256 5     -3727.492          33.000
G22  23792620.500 6 125031066.173 6      3412.176          37.000
G27  20752782.117 8 109056596.919 8     -1575.688          50.000    20752785.117 8  84979159.062 8     -1227.808          50.000
G32  23255450.375 7 122208251.447 7      2513.996          42.000    23255455.508 7  95227221.594 7      1958.961          42.000
R05  21160880.508 5 113117013.951 5     -2404.031          34.000
R06  19986915.266 7 106654066.861 7      2212.086          45.000
R11  23204795.773 7 123999384.210 7     -3620.695          43.000    23204798.805 6  96443973.703 6     -2816.102          37.000
R21  19625062.430 6 105017646.409 6       422.969          37.000    19625065.875 5  81680409.324 5       328.979          33.000
C05  39625374.055 6 206339720.723 6       -19.145          37.000    39625373.266 6 159554961.702 6       -14.635          38.000
C19  22775061.562 5 118595885.321 5     -1170.402          35.000
C22  22785414.148 8 118649704.844 8      2035.605          51.000
E04  25534245.062 8 134183416.073 8      2311.652          51.000    25534247.477 8 102815854.318 8      1771.236          51.000
E11  22727685.273 6 119434782.334 6       501.918          39.000    22727684.086 6  91514972.691 6       384.799          36.000
E12                                                                  23209658.625 5  93455678.476 5     -1244.400          33.000
E25  26041588.719 6 136849475.454 6     -2053.582          36.000    26041589.734 7 104858696.760 7     -1573.584          44.000
> 2020 05 01 18 04 30.0000000  0 17        .000000000000
G08  20408666.625 8 107248273.883 8       674.500          50.000    20408668.961 8  83570087.316 8       525.584          50.000
G10  21492697.727 6 112944897.757 6     -1822.293          41.000    21492699.391 6  88009006.172 6     -1419.975          41.000
G14  24401484.422 7 128230675.973 7      2969.051          42.000    24401487.477 7  99920020.750 7      2313.549          42.000
G16  24194661.086 5 127143777.416 5     -3729.605          35.000
G22  23773164.891 6 124928820.469 6      3404.891          36.000
G27  20761821.859 8 109104099.730 8     -1590.934          51.000    20761824.438 8  85016174.236 8     -1239.689          51.000
G32  23241130.961 6 122132996.206 6      2503.379          41.000    23241134.992 6  95168581.243 6      1950.688          41.000
R06  19974547.109 7 106588069.393 7      2187.945          42.000
R11  23225145.820 7 124108131.441 7     -3628.969          42.000    23225149.758 6  96528554.777 6     -2822.531          37.000
R21  19622727.281 6 105005149.803 6       410.246          38.000    19622731.164 5  81670689.725 5       319.080          34.000
C05  39625486.070 6 206340304.206 6       -19.898          37.000    39625485.359 6 159555412.910 6       -14.982          38.000
C19  22781848.141 5 118631059.972 5     -1186.484          30.000
C22  22773728.227 8 118588852.549 8      2021.344          51.000
E04  25521076.211 8 134114211.885 8      2302.188          51.000    25521077.281 8 102762827.751 8      1764.068          51.000
E11  22724838.031 6 119419819.298 6       496.059          39.000    22724836.391 6  91503507.567 6       379.917          37.000
E12                                                                  23218945.203 5  93493067.386 5     -1247.599          35.000
E25  26053341.680 6 136911235.223 6     -2064.168          37.000    26053343.898 7 104906024.526 7     -1581.635          45.000
> 2020 05 01 18 05  0.0000000  0 17        .000000000000
G08  20404857.547 8 107228255.793 8       660.344          51.000    20404859.852 8  83554488.822 8       514.557          51.000
G10  21503137.727 6 112999762.164 6     -1835.273          37.000    21503139.094 6  88051757.527 6     -1430.086          37.000
G14  24384538.531 7 128141624.332 7      2967.699          43.000    24384541.758 7  99850629.935 7      2312.496          42.000
G16  24215957.484 5 127255685.649 5     -3730.184          35.000
G22  23753743.727 6 124826758.718 6      3399.445          38.000
G27  20770944.281 8 109152036.307 8     -1604.531          51.000    20770946.312 8  85053527.415 8     -1250.284          51.000
G32  23226867.492 7 122058036.666 7      2494.227          42.000    23226870.344 7  95110171.328 7      1943.553          42.000
R06  19962310.906 7 106522777.302 7      2165.117          43.000
R11  23245538.461 7 124217107.229 7     -3635.949          44.000    23245543.055 6  96613313.614 6     -2827.964          36.000
R21  19620458.750 6 104993013.360 6       399.008          38.000    19620463.281 5  81661250.292 5       310.342          33.000
C05  39625596.961 6 206340881.605 6       -18.855          37.000    39625596.305 6 159555859.409 6       -14.523          38.000
C19  22788724.359 6 118666861.731 6     -1200.383          38.000
C22  22762118.969 8 118528402.848 8      2008.801          50.000
E04  25507956.336 8 134045267.644 8      2294.258          51.000    25507956.656 8 102710000.393 8      1757.971          51.000
E11  22722018.789 6 119405004.611 6       491.879          39.000    22722017.516 6  91492156.052 6       376.795          38.000
E12                                                                  23228254.242 5  93530538.888 5     -1249.919          35.000
E25  26065150.938 6 136973297.394 6     -2073.348          37.000    26065154.961 7 104953578.683 7     -1588.528          45.000
> 2020 05 01 18 05 30.0000000  0 18        .000000000000
G01  23044931.062 5 121101906.115 5      2812.332          32.000
G08  20401134.766 8 107208691.958 8       644.809          51.000    20401137.188 8  83539244.275 8       502.448          51.000
G10  21513658.398 6 113055050.205 6     -1849.562          37.000    21513660.492 6  88094839.143 6     -1441.218          37.000
G14  24367605.938 7 128052641.101 7      2965.062          45.000    24367608.906 6  99781292.410 6      2310.441          41.000
G16  24237262.609 5 127367642.004 5     -3731.938          35.000
G22  23734357.891 6 124724885.444 6      3392.996          39.000
G27  20780149.695 8 109200408.950 8     -1619.379          51.000    20780151.555 8  85091220.349 8     -1261.854          51.000
G32  23212661.500 6 121983378.649 6      2483.824          41.000    23212663.297 6  95051996.284 6      1935.450          41.000
R06  19950208.828 7 106458196.549 7      2141.023          47.000
R11  23265974.008 7 124326309.621 7     -3643.508          44.000    23265978.023 5  96698248.737 5     -2833.842          35.000
R21  19618257.641 6 104981241.633 6       386.559          39.000    19618262.328 5  81652094.421 5       300.654          32.000
C05  39625707.289 6 206341455.812 6       -18.758          37.000    39625706.500 6 159556303.434 6       -14.580          38.000
C19  22795687.008 5 118703118.923 5     -1215.676          35.000
C22  22750586.891 8 118468360.003 8      1994.926          48.000
E04  25494886.969 8 133976587.856 8      2285.160          51.000    25494886.266 8 102657375.666 8      1750.982          49.000
E11  22719228.500 6 119390341.186 6       486.504          38.000    22719227.641 6  91480920.425 6       372.734          38.000
E12  23237578.945 5 122114308.710 5     -1635.203          33.000
E25  26077017.195 6 137035655.972 6     -2083.207          39.000    26077022.555 7 105001359.935 7     -1596.164          45.000
> 2020 05 01 18 06  0.0000000  0 18        .000000000000
G08  20397500.961 8 107189595.962 8       628.980          51.000    20397503.398 8  83524364.277 8       490.115          51.000
G10  21524262.055 7 113110772.318 7     -1864.273          42.000    21524263.938 7  88138258.865 7     -1452.684          42.000
G14  24350689.281 7 127963741.110 7      2962.176          46.000    24350691.594 6  99712019.752 6      2308.192          39.000
G16  24258578.438 5 127479656.197 5     -3734.285          35.000
G20  23571955.836 5 123871448.681 5     -3268.719          32.000
G22  23715010.492 6 124623214.554 6      3385.887          39.000
G27  20789440.188 8 109249229.292 8     -1634.488          51.000    20789441.672 8  85129262.124 8     -1273.627          51.000
G32  23198515.648 6 121909037.171 6      2472.758          38.000    23198517.016 6  94994067.897 6      1926.827          37.000
R06  19938243.352 8 106394342.703 8      2116.543          49.000
R11  23286454.062 7 124435746.460 7     -3651.457          44.000    23286456.297 5  96783366.191 5     -2840.025          33.000
R21  19616129.250 6 104969847.777 6       373.812          41.000    19616131.086 5  81643232.567 5       290.746          30.000
C05  39625819.180 6 206342038.733 6       -19.480          37.000    39625818.383 6 159556754.225 6       -15.015          39.000
C19  22802738.719 5 118739842.152 5     -1231.621          35.000
C22  22739135.273 7 118408737.530 7      1980.641          46.000
E04  25481870.953 8 133908186.434 8      2275.691          51.000    25481869.508 8 102604964.241 8      1743.688          49.000
E11  22716469.617 6 119375841.479 6       481.000          39.000    22716468.609 6  91469810.236 6       368.600          39.000
E12  23246929.789 5 122163440.572 5     -1639.312          34.000
E25  26088941.719 6 137098321.436 6     -2093.559          38.000    26088947.922 7 105049376.288 7     -1604.057          44.000
> 2020 05 01 18 06 30.0000000  0 17        .000000000000
G08  20393955.195 8 107170963.218 8       613.492          51.000    20393957.773 8  83509845.245 8       478.046          51.000
G10  21534946.977 6 113166921.089 6     -1878.820          37.000    21534949.086 6  88182011.138 6     -1464.013          37.000
G14  24333787.789 7 127874922.512 7      2959.391          46.000    24333789.500 6  99642810.509 6      2306.019          39.000
G16  24279903.625 5 127591720.529 5     -3736.008          31.000
G20  23590634.508 5 123969602.954 5     -3274.020          32.000
G22  23695700.633 6 124521742.529 6      3379.242          39.000
G27  20798814.664 8 109298491.623 8     -1649.328          51.000    20798815.492 8  85167648.311 8     -1285.194          51.000
G32  23184429.484 6 121835009.800 6      2462.410          40.000    23184430.852 6  94936384.263 6      1918.764          40.000
R06  19926413.352 8 106331212.849 8      2092.270          49.000
R11  23306976.320 7 124545408.086 7     -3659.105          44.000    23306975.992 5  96868658.464 5     -2845.974          32.000
R21  19614070.484 7 104958827.797 7       361.188          43.000    19614070.117 5  81634661.524 5       280.927          34.000
C05  39625931.836 6 206342625.308 6       -19.434          37.000    39625930.961 6 159557207.825 6       -15.127          38.000
C19  22809880.648 6 118777025.108 6     -1246.715          37.000
C22  22727765.289 8 118349531.696 8      1966.672          49.000
E04  25468907.312 8 133840059.938 8      2266.414          51.000    25468905.734 8 102552763.475 8      1736.651          49.000
E11  22713741.039 6 119361500.587 6       475.629          39.000    22713739.117 6  91458821.750 6       364.458          39.000
E25  26100923.766 6 137161286.725 6     -2103.750          39.000    26100930.477 7 105097622.352 7     -1611.955          44.000
> 2020 05 01 18 07  0.0000000  0 18        .000000000000
G08  20390497.914 8 107152795.215 8       598.227          51.000    20390500.625 8  83495688.362 8       466.151          51.000
G10  21545712.898 7 113223494.219 7     -1892.625          43.000    21545714.609 7  88226094.113 7     -1474.776          43.000
G14  24316902.188 7 127786187.640 7      2956.801          46.000    24316903.062 6  99573666.527 6      2304.004          38.000
G16  24301238.148 5 127703831.592 5     -3737.281          32.000
G20  23609344.242 5 124067919.557 5     -3279.930          34.000
G22  23676428.758 6 124420471.039 6      3372.477          37.000
G27  20808272.984 8 109348195.140 8     -1663.730          51.000    20808273.383 8  85206378.305 8     -1296.413          51.000
G32  23170403.781 6 121761299.298 6      2452.379          39.000    23170405.094 6  94878947.548 6      1910.945          39.000
R06  19914718.977 7 106268808.959 7      2068.637          47.000
R11  23327539.672 7 124655289.613 7     -3665.941          43.000    23327537.461 5  96954121.727 5     -2851.294          33.000
R21  19612081.070 6 104948183.015 6       349.000          41.000    19612082.953 6  81626382.233 6       271.444          36.000
C05  39626045.180 6 206343215.280 6       -19.109          37.000    39626044.219 6 159557664.027 6       -14.831          38.000
C19  22817109.164 5 118814666.143 5     -1261.629          35.000
C22  22716476.641 8 118290743.735 8      1953.059          51.000
E04  25455995.844 8 133772209.858 8      2257.512          51.000    25455994.961 8 102500774.506 8      1729.848          50.000
E11  22711042.344 6 119347318.606 6       470.492          38.000    22711039.664 6  91447955.061 6       360.327          39.000
E12  23265695.023 6 122262057.601 6     -1647.223          36.000
E25  26112962.688 6 137224549.728 6     -2113.273          39.000    26112969.398 7 105146096.542 7     -1619.261          44.000
> 2020 05 01 18 07 30.0000000  0 20        .000000000000
G08  20387121.758 8 107135053.551 8       579.543          51.000    20387124.430 8  83481863.687 8       451.592          51.000
G10  21556551.500 7 113280450.208 7     -1909.641          46.000    21556553.391 7  88270475.317 7     -1488.032          45.000
G14  24300025.570 7 127697499.851 7      2950.801          45.000    24300025.375 6  99504559.257 6      2299.328          37.000
G16  24322573.828 5 127815986.417 5     -3741.504          31.000
G20  23628076.773 6 124166357.135 6     -3287.961          37.000    23628072.820 4  96753008.347 4     -2562.047          29.000
G22  23657187.992 5 124319362.088 5      3363.215          35.000
G27  20817807.414 8 109398299.683 8     -1681.617          51.000    20817808.141 8  85245420.793 8     -1310.354          51.000
G32  23156430.734 6 121687868.858 6      2437.859          36.000    23156432.445 6  94821729.138 6      1899.637          36.000
R05  21258324.758 6 113637876.041 6     -2559.258          36.000
R06  19903153.281 7 106207093.892 7      2040.891          45.000
R07  22904816.391 6 122611267.937 6      4479.191          36.000    22904822.727 4  95364346.471 4      3483.819          28.000
R11  23348136.156 7 124765346.404 7     -3676.457          43.000    23348133.203 5  97039721.328 5     -2859.470          34.000
R21  19610152.992 6 104937873.898 6       333.324          39.000    19610157.531 6  81618364.019 6       259.252          36.000
C05  39626151.664 6 206343769.434 6       -22.508          37.000    39626150.617 6 159558092.558 6       -17.456          39.000
C19  22824418.078 5 118852724.562 5     -1280.469          34.000
C22  22705261.102 8 118232335.792 8      1935.906          51.000
E04  25443129.094 8 133704598.305 8      2245.004          48.000    25443129.680 8 102448968.300 8      1720.141          51.000
E11  22708366.008 6 119333256.041 6       461.906          36.000    22708363.430 6  91437179.845 6       354.048          40.000
E12  23275105.094 6 122311507.685 6     -1654.402          36.000
E25  26125050.641 6 137288068.948 6     -2126.641          41.000    26125057.102 7 105194767.094 7     -1629.321          44.000
> 2020 05 01 18 08  0.0000000  0 19        .000000000000
G08  20383847.727 8 107117848.780 8       566.902          51.000    20383850.148 8  83468457.370 8       441.742          51.000
G10  21567483.383 7 113337896.264 7     -1920.516          43.000    21567485.781 7  88315238.460 7     -1496.506          43.000
G14  24283179.188 7 127608971.374 7      2950.633          44.000    24283178.617 6  99435576.129 6      2299.197          38.000
G20  23646852.703 6 124265022.599 6     -3290.320          37.000    23646850.836 5  96829898.645 5     -2563.852          33.000
G22  23637999.453 5 124218527.079 5      3359.645          35.000
G27  20827438.898 8 109448914.145 8     -1693.277          51.000    20827440.242 8  85284860.613 8     -1319.437          51.000
G32  23142533.211 5 121614830.801 5      2430.516          34.000    23142534.656 5  94764816.498 5      1893.911          35.000
R05  21272736.977 6 113714923.446 6     -2577.484          36.000
R06  19891737.703 7 106146181.301 7      2019.344          44.000
R07  22879718.500 5 122476917.366 5      4477.125          35.000
R11  23368785.672 7 124875685.002 7     -3679.980          43.000    23368782.445 5  97125540.134 5     -2862.210          34.000
R21  19608309.680 6 104928013.472 6       323.461          40.000    19608315.312 6  81610694.754 6       251.581          36.000
C05  39626272.156 6 206344396.286 6       -19.980          37.000    39626271.000 6 159558577.270 6       -15.287          39.000
C19  22831828.094 5 118891307.503 5     -1292.133          34.000
C22  22694139.484 8 118174417.754 8      1924.820          51.000
E04  25430328.391 7 133637336.507 7      2238.441          47.000    25430330.914 8 102397430.039 8      1715.256          51.000
E11  22705733.203 6 119319422.715 6       459.535          37.000    22705731.547 6  91426580.284 6       352.288          41.000
E12  23284551.242 6 122361145.316 6     -1655.539          37.000    23284553.359 5  93757245.412 5     -1268.099          32.000
E25  26137207.195 6 137351951.977 6     -2133.051          40.000    26137214.406 7 105243716.427 7     -1634.499          45.000
> 2020 05 01 18 08 30.0000000  0 18        .000000000000
G08  20380656.773 8 107101080.907 8       550.434          51.000    20380659.023 8  83455391.490 8       428.906          51.000
G10  21578488.531 7 113395729.110 7     -1935.387          45.000    21578490.812 7  88360303.021 7     -1508.094          45.000
G14  24266344.625 7 127520503.893 7      2946.832          45.000    24266344.125 6  99366640.542 6      2296.236          38.000
G20  23665652.133 6 124363812.447 6     -3295.918          38.000    23665649.438 5  96906877.709 5     -2568.251          35.000
G22  23618844.531 6 124117866.459 6      3350.305          36.000
G27  20837148.203 8 109499936.667 8     -1708.656          51.000    20837149.867 8  85324618.409 8     -1331.420          51.000
G32  23128692.898 5 121542086.877 5      2418.488          34.000    23128690.094 5  94708133.206 5      1884.545          34.000
R06  19880454.094 7 106085970.618 7      1994.066          45.000
R07  22854643.781 6 122342693.133 6      4470.672          37.000
R11  23389467.484 6 124986197.891 6     -3687.871          41.000    23389465.133 6  97211494.486 6     -2868.347          37.000
R21  19606531.703 6 104918499.414 6       310.293          40.000    19606537.258 6  81603294.931 6       241.339          36.000
C05  39626387.180 6 206344995.317 6       -20.406          37.000    39626385.992 6 159559040.537 6       -16.145          38.000
C19  22839319.492 5 118930313.265 5     -1308.281          34.000
C22  22683092.883 8 118116890.680 8      1909.855          51.000
E04  25417576.055 8 133570324.849 8      2228.297          49.000    25417579.695 8 102346083.444 8      1707.435          51.000
E11  22703124.742 6 119305717.598 6       453.863          37.000    22703124.445 6  91416078.986 6       347.535          41.000
E12  23294013.617 6 122410869.036 6     -1660.176          38.000    23294014.031 5  93795342.474 5     -1272.110          33.000
E25  26149412.852 6 137416095.805 6     -2143.594          40.000    26149420.367 7 105292865.596 7     -1642.491          44.000
> 2020 05 01 18 09  0.0000000  0 18        .000000000000
G08  20377554.203 8 107084777.428 8       535.984          51.000    20377556.586 8  83442687.469 8       417.650          51.000
G10  21589571.695 7 113453972.503 7     -1948.117          44.000    21589573.719 7  88405687.431 7     -1518.013          44.000
G14  24249527.117 7 127432126.239 7      2944.621          42.000    24249526.859 6  99297774.971 6      2294.516          41.000
G20  23684479.836 6 124462751.030 6     -3300.230          37.000    23684477.234 5  96983972.708 5     -2571.602          31.000
G22  23599727.820 6 124017407.963 6      3345.625          38.000    23599724.336 4  96636925.269 4      2606.981          27.000
G27  20846939.898 8 109551392.656 8     -1722.082          51.000    20846941.664 8  85364713.968 8     -1341.882          51.000
G32  23114913.094 6 121469665.739 6      2408.711          39.000    23114907.133 6  94651701.399 6      1876.921          38.000
R06  19869307.492 7 106026490.987 7      1970.621          46.000
R07  22829598.875 6 122208625.248 6      4466.441          37.000
R11  23410185.234 6 125096907.269 6     -3693.203          39.000    23410185.031 6  97297601.676 6     -2872.497          37.000
R21  19604823.516 6 104909359.754 6       298.793          41.000    19604828.008 6  81596186.321 6       232.395          36.000
C05  39626501.773 6 206345593.427 6       -19.332          37.000    39626500.680 6 159559502.273 6       -15.520          38.000
C19  22846897.031 5 118969766.249 5     -1322.152          33.000
C22  22672126.414 8 118059781.695 8      1896.832          51.000
E04  25404877.641 8 133503591.023 8      2220.000          51.000    25404880.961 8 102294949.757 8      1701.093          51.000
E11  22700545.711 6 119292167.070 6       449.102          37.000    22700546.320 6  91405696.059 6       344.150          40.000
E12  23303497.609 5 122460706.115 5     -1662.910          34.000    23303497.445 6  93833528.469 6     -1273.977          36.000
E25  26161672.758 6 137480524.528 6     -2151.984          41.000    26161679.938 7 105342233.081 7     -1649.073          45.000
> 2020 05 01 18 09 30.0000000  0 17        .000000000000
G08  20374540.828 8 107068942.275 8       520.395          51.000    20374543.391 8  83430348.382 8       405.502          51.000
G10  21600733.125 7 113512627.926 7     -1961.703          42.000    21600735.508 7  88451392.999 7     -1528.597          42.000
G14  24232728.422 7 127343844.609 7      2941.566          43.000    24232727.391 6  99228984.205 6      2292.133          39.000
G20  23703335.492 5 124561839.075 5     -3304.480          33.000    23703333.297 5  97061184.126 5     -2574.935          33.000
G22  23580650.516 6 123917156.181 6      3338.656          37.000    23580653.734 4  96558814.161 4      2601.559          29.000
G27  20856814.523 8 109603284.779 8     -1736.660          51.000    20856816.422 8  85405149.373 8     -1353.242          51.000
G32  23101194.539 6 121397573.737 6      2397.684          39.000    23101187.258 6  94595525.907 6      1868.328          37.000
R06  19858299.086 7 105967748.051 7      1946.133          47.000
R07  22804584.242 6 122074721.099 6      4461.266          37.000    22804590.688 4  94947034.414 4      3469.876          28.000
R11  23430938.977 6 125207811.769 6     -3699.363          38.000    23430941.289 6  97383860.634 6     -2877.289          37.000
R21  19603186.477 6 104900599.037 6       286.133          41.000    19603189.141 6  81589372.453 6       222.548          37.000
C05  39626616.617 6 206346190.917 6       -19.266          37.000    39626615.688 6 159559965.071 6       -15.453          38.000
C22  22661240.625 8 118003095.477 8      1882.859          51.000
E04  25392233.375 8 133437139.988 8      2210.684          51.000    25392235.930 8 102244032.762 8      1693.870          51.000
E11  22697996.906 6 119278774.631 6       443.520          37.000    22697997.664 6  91395434.264 6       340.163          41.000
E12  23313003.469 6 122510657.695 6     -1666.555          36.000    23313005.148 6  93871803.035 6     -1277.081          38.000
E25  26173987.586 7 137545239.628 7     -2161.645          42.000    26173993.562 7 105391819.976 7     -1656.352          46.000
> 2020 05 01 18 10  0.0000000  0 18        .000000000000
G08  20371607.586 8 107053527.878 8       510.555          51.000    20371610.078 8  83418337.158 8       397.835          51.000
G10  21611963.430 7 113571644.214 7     -1969.582          45.000    21611965.711 7  88497379.711 7     -1534.739          45.000
G14  24215938.273 6 127255612.966 6      2943.789          41.000    24215937.055 6  99160232.336 6      2293.865          38.000
G20  23722205.961 5 124661043.319 5     -3304.176          30.000
G22  23561603.578 6 123817064.411 6      3337.625          38.000    23561605.727 5  96480820.642 5      2600.753          34.000
G27  20866762.680 8 109655563.319 8     -1745.254          50.000    20866764.680 8  85445885.891 8     -1359.938          51.000
G32  23087529.203 6 121325764.601 6      2392.535          37.000    23087520.055 5  94539570.802 5      1864.316          34.000
R06  19847419.898 7 105909694.609 7      1927.332          47.000
R07  22779590.945 6 121940934.246 6      4461.570          37.000    22779598.953 5  94842977.124 5      3470.113          31.000
R11  23451718.680 5 125318857.094 5     -3700.684          32.000    23451723.523 6  97470229.121 6     -2878.309          37.000
R21  19601611.414 7 104892168.260 7       279.145          43.000    19601613.297 6  81582815.180 6       217.109          38.000
C05  39626722.570 6 206346742.168 6       -13.812          37.000    39626721.531 6 159560386.319 6       -10.445          38.000
C19  22862315.000 5 119050015.973 5     -1346.270          32.000
C22  22650426.469 8 117946784.764 8      1874.484          51.000
E04  25379633.641 8 133370924.422 8      2206.949          51.000    25379635.570 8 102193296.198 8      1691.039          51.000
E11  22695469.219 6 119265491.358 6       444.559          38.000    22695469.469 6  91385256.177 6       340.788          40.000
E12  23322521.617 5 122560677.907 5     -1664.719          30.000    23322523.070 6  93910128.606 6     -1275.486          37.000
E25  26186347.766 7 137610190.180 7     -2165.168          43.000    26186352.609 7 105441587.249 7     -1659.201          46.000
> 2020 05 01 18 10 30.0000000  0 16        .000000000000
G08  20368780.938 8 107038673.835 8       487.195          51.000    20368783.227 8  83406762.575 8       379.630          51.000
G10  21623288.602 7 113631157.734 7     -1990.488          44.000    21623291.016 7  88543753.865 7     -1551.030          44.000
G14  24199182.617 6 127167572.763 6      2933.004          40.000    24199182.281 6  99091629.646 6      2285.461          38.000
G22  23542613.312 6 123717272.735 6      3322.727          36.000    23542616.016 5  96403060.934 5      2589.141          35.000
G27  20876810.383 8 109708366.221 8     -1767.457          50.000    20876812.805 8  85487031.002 8     -1377.239          50.000
R06  19836696.617 7 105852473.404 7      1894.785          47.000
R07  22754647.734 5 121807410.325 5      4447.672          35.000    22754654.969 5  94739125.257 5      3459.303          33.000
R11  23472550.141 5 125430179.614 5     -3713.848          34.000    23472557.016 5  97556813.228 5     -2888.551          35.000
R21  19600124.570 7 104884209.902 7       258.859          44.000    19600126.312 6  81576625.353 6       201.335          38.000
C05  39626845.727 6 206347383.469 6       -21.781          36.000    39626844.727 6 159560882.222 6       -16.417          38.000
C19  22870157.688 6 119090851.937 6     -1368.789          36.000
C22  22639710.828 8 117890988.207 8      1852.738          51.000
E04  25367105.062 8 133305084.590 8      2189.676          51.000    25367106.750 8 102142847.531 8      1677.801          51.000
E11  22692988.797 6 119252456.199 6       431.867          39.000    22692988.367 6  91375268.233 6       330.842          41.000
E12  23332089.594 5 122610965.358 5     -1676.672          34.000    23332077.961 6  93948611.434 6     -1284.178          38.000
E25  26198779.141 7 137675512.883 7     -2182.293          43.000    26198783.016 7 105491639.658 7     -1672.185          47.000
> 2020 05 01 18 11  0.0000000  0 17        .000000000000
G08  20366035.266 8 107024244.890 8       473.742          51.000    20366037.516 8  83395519.242 8       369.150          51.000
G10  21634682.023 7 113691029.719 7     -2001.961          45.000    21634684.750 7  88590407.381 7     -1559.970          45.000
G14  24182438.609 7 127079590.211 7      2931.598          43.000    24182438.867 6  99023071.875 6      2284.368          40.000
G22  23523654.031 5 123617646.248 5      3317.766          35.000    23523657.062 5  96325429.921 5      2585.272          33.000
G27  20886931.617 8 109761556.173 8     -1779.648          50.000    20886934.242 8  85528477.730 8     -1386.739          50.000
G32  23060410.812 5 121183273.855 5      2364.109          31.000    23060417.867 4  94428555.250 4      1842.163          29.000
R06  19826103.945 7 105795948.510 7      1872.477          47.000
R07  22729728.000 5 121674013.201 5      4444.898          32.000    22729734.273 5  94635372.076 5      3457.149          33.000
R11  23493407.438 5 125541635.926 5     -3718.008          35.000    23493415.109 5  97643501.314 5     -2891.793          34.000
R21  19598700.312 7 104876586.095 7       248.387          46.000    19598701.500 6  81570695.720 6       193.190          39.000
C05  39626960.258 6 206347979.355 6       -19.434          37.000    39626959.156 6 159561343.044 6       -15.051          38.000
C19  22878077.445 5 119132085.741 5     -1380.762          33.000
C22  22629068.195 8 117835571.694 8      1840.652          51.000
E04  25354621.875 8 133239485.493 8      2182.336          51.000    25354623.727 8 102092583.321 8      1672.156          51.000
E11  22690529.797 6 119239532.838 6       428.867          41.000    22690528.648 6  91365365.937 6       328.475          41.000
E12                                                                  23341647.891 6  93987146.810 6     -1285.522          39.000
E25  26211254.812 7 137741069.174 7     -2189.348          44.000    26211257.984 7 105541871.041 7     -1677.489          47.000
> 2020 05 01 18 11 30.0000000  0 15        .000000000000
G01  22854689.930 5 120102171.266 5      2739.914          33.000    22854690.961 5  93586138.563 5      2134.998          31.000
G08  20363381.188 8 107010297.441 8       454.828          51.000    20363383.547 8  83384651.098 8       354.412          51.000
G10  21646154.000 7 113751313.664 7     -2018.379          47.000    21646155.953 7  88637381.876 7     -1572.766          47.000
G14  24165717.648 7 126991723.580 7      2925.031          44.000    24165718.945 6  98954604.431 6      2279.248          41.000
G22  23504736.734 5 123518241.951 5      3307.676          34.000    23504741.250 5  96247972.084 5      2577.413          34.000
G27  20897137.391 8 109815188.090 8     -1797.016          51.000    20897139.594 8  85570268.830 8     -1400.272          51.000
R06  19815652.828 8 105740178.345 8      1844.320          48.000
R11  23514301.414 6 125653277.792 6     -3726.695          36.000    23514307.828 5  97730333.746 5     -2898.547          33.000
R21  19597349.367 7 104869354.388 7       232.504          45.000    19597350.227 6  81565071.077 6       180.839          39.000
C05  39627076.586 6 206348584.974 6       -22.289          36.000    39627075.383 6 159561811.355 6       -17.317          38.000
C22  22618509.914 8 117780591.622 8      1823.438          51.000
E04  25342194.852 8 133174184.318 8      2169.734          50.000    25342197.344 8 102042547.393 8      1662.539          51.000
E11  22688102.812 7 119226777.119 7       420.285          42.000    22688100.906 6  91355592.067 6       321.899          41.000
E12                                                                  23351241.961 6  94025777.314 6     -1290.607          37.000
E25  26223785.133 7 137806912.672 7     -2201.504          46.000    26223787.734 7 105592322.501 7     -1686.771          47.000
> 2020 05 01 18 12  0.0000000  0 16        .000000000000
G08  20360818.000 8 106996827.790 8       438.938          51.000    20360820.305 8  83374155.261 8       342.026          51.000
G10  21657702.828 7 113812002.305 7     -2031.648          44.000    21657704.250 7  88684671.693 7     -1583.103          43.000
G14  24149018.727 7 126903970.829 7      2920.992          43.000    24149021.195 7  98886225.731 7      2276.098          42.000
G22  23485861.977 5 123419056.651 5      3301.066          33.000    23485866.078 5  96170684.813 5      2572.260          32.000
G27  20907426.570 8 109869256.185 8     -1811.582          51.000    20907428.078 8  85612399.797 8     -1411.622          51.000
G32  23033549.047 5 121042116.069 5      2338.598          30.000    23033560.055 5  94318549.777 5      1822.287          30.000
R06  19805342.430 7 105685160.021 7      1819.223          47.000
R11  23535228.141 5 125765095.696 5     -3732.711          32.000    23535233.273 5  97817303.094 5     -2903.226          30.000
R21  19596070.922 7 104862510.997 7       219.422          45.000    19596071.469 6  81559748.436 6       170.661          39.000
C05  39627193.734 6 206349196.220 6       -22.391          37.000    39627192.562 6 159562283.230 6       -17.299          38.000
C19  22894157.445 6 119215880.980 6     -1414.188          39.000
C22  22608034.766 8 117726044.158 8      1808.977          51.000
E04  25329823.836 8 133109177.674 8      2159.918          49.000    25329827.156 8 101992737.143 8      1655.002          51.000
E11  22685706.875 7 119214184.133 7       415.094          42.000    22685704.273 7  91345942.883 7       317.882          42.000
E12                                                                  23360858.367 6  94064499.165 6     -1293.956          37.000
E25  26236368.430 7 137873036.408 7     -2210.875          46.000    26236370.867 7 105642988.688 7     -1693.999          47.000
> 2020 05 01 18 12 30.0000000  0 15        .000000000000
G08  20358348.859 8 106983852.204 8       425.625          51.000    20358351.125 8  83364044.405 8       331.656          51.000
G10  21669331.109 7 113873108.746 7     -2042.348          45.000    21669332.695 7  88732287.137 7     -1591.440          45.000
G14  24132345.188 7 126816350.158 7      2919.727          42.000    24132348.422 6  98817949.914 6      2275.112          40.000
G22  23467034.359 5 123320107.472 5      3295.816          34.000    23467036.680 5  96093581.524 5      2568.169          33.000
G27  20917801.625 8 109923775.038 8     -1823.520          51.000    20917802.633 8  85654882.002 8     -1420.924          51.000
G32  23020223.711 6 120972081.372 6      2329.762          36.000    23020232.203 6  94263977.254 6      1815.393          37.000
R06  19795176.180 7 105630911.648 7      1796.691          47.000
R21  19594867.797 7 104856072.694 7       209.219          44.000    19594868.664 6  81554740.881 6       162.726          39.000
C05  39627314.734 6 206349826.215 6       -20.211          36.000    39627313.609 6 159562770.406 6       -15.468          38.000
C19  22902338.875 6 119258469.834 6     -1425.836          38.000
C22  22597645.742 8 117671945.751 8      1797.105          51.000
E04  25317511.914 8 133044482.475 8      2152.617          48.000    25317515.945 8 101943165.533 8      1649.477          51.000
E11  22683344.820 7 119201769.476 7       412.305          42.000    22683342.023 7  91336430.322 7       315.934          42.000
E12                                                                  23370500.977 6  94103324.001 6     -1295.142          37.000
E25  26249007.109 7 137939453.768 7     -2217.449          46.000    26249010.000 7 105693879.866 7     -1699.171          47.000
> 2020 05 01 18 13  0.0000000  0 16        .000000000000
G08  20355962.289 8 106971310.456 8       409.375          51.000    20355964.469 8  83354271.617 8       318.994          51.000
G10  21681026.961 7 113934569.670 7     -2056.020          46.000    21681028.305 7  88780178.746 7     -1602.093          47.000
G14  24115685.766 7 126728803.004 7      2915.473          42.000    24115689.648 6  98749731.395 6      2271.803          40.000
G22  23448241.383 5 123221334.292 5      3287.461          35.000    23448240.211 5  96016615.536 5      2561.661          33.000
G27  20928250.570 8 109978682.628 8     -1838.141          51.000    20928251.297 8  85697667.101 8     -1432.317          51.000
G32  23006955.766 6 120902352.658 6      2317.535          37.000    23006967.977 5  94209643.041 5      1805.859          34.000
R06  19785142.875 7 105577372.729 7      1771.309          46.000
R07  22630407.516 5 121142334.902 5      4418.617          32.000    22630398.430 5  94221793.863 5      3436.708          32.000
R21  19593728.383 7 104849977.986 7       195.980          45.000    19593730.242 6  81550000.532 6       152.426          40.000
C05  39627427.797 6 206350415.258 6       -20.426          37.000    39627426.672 6 159563225.910 6       -15.643          38.000
C19  22910590.320 5 119301454.860 5     -1441.203          33.000
C22  22587331.555 8 117618236.925 8      1782.352          51.000
E04  25305247.922 7 132980039.049 7      2142.410          47.000    25305252.352 8 101893786.835 8      1641.647          51.000
E11  22681004.773 7 119189472.133 7       406.551          42.000    22681002.750 7  91327007.701 7       311.459          43.000
E12                                                                  23380156.555 6  94142204.885 6     -1298.045          36.000
E25  26261689.305 7 138006101.527 7     -2226.914          46.000    26261692.992 7 105744947.584 7     -1706.238          45.000
> 2020 05 01 18 13 30.0000000  0 16        .000000000000
G08  20353671.664 8 106959272.376 8       393.449          51.000    20353673.703 8  83344891.287 8       306.584          51.000
G10  21692802.844 7 113996451.620 7     -2069.230          45.000    21692803.828 7  88828398.422 7     -1612.390          45.000
G14  24099054.266 7 126641401.301 7      2911.273          43.000    24099058.008 6  98681626.237 6      2268.528          38.000
G22  23429496.203 6 123122807.788 6      3280.656          38.000    23429490.906 6  95939841.751 6      2556.359          36.000
G27  20938786.367 8 110034046.959 8     -1852.547          51.000    20938786.930 8  85740808.130 8     -1443.543          51.000
R06  19775256.188 7 105524615.519 7      1745.941          45.000
R07  22605663.930 5 121009885.837 5      4412.656          32.000    22605655.844 5  94118778.066 5      3432.069          33.000
R11  23598186.414 5 126101544.598 5     -3746.277          32.000    23598194.078 5  98079000.193 5     -2913.774          30.000
R21  19592666.812 7 104844298.288 7       182.855          45.000    19592669.258 6  81545582.953 6       142.221          40.000
C05  39627546.172 6 206351031.480 6       -20.574          37.000    39627545.023 6 159563702.380 6       -15.595          38.000
C19  22918932.422 6 119344902.969 6     -1455.191          39.000
C22  22577105.672 8 117564987.106 8      1767.883          51.000
E04  25293045.156 7 132915917.784 7      2132.469          46.000    25293050.070 8 101844654.994 8      1634.005          50.000
E11  22678700.008 7 119177361.204 7       400.738          42.000    22678699.125 7  91317727.902 7       307.176          42.000
E12  23389840.977 6 122914432.546 6     -1697.961          36.000    23389841.641 6  94181194.567 6     -1301.134          36.000
E25  26274428.133 7 138073046.484 7     -2235.992          46.000    26274432.672 7 105796243.043 7     -1713.230          45.000
> 2020 05 01 18 14  0.0000000  0 16        .000000000000
G01  22776832.914 5 119693058.462 5      2712.832          35.000
G08  20351466.148 8 106947681.697 8       377.945          51.000    20351468.008 8  83335859.593 8       294.503          51.000
G10  21704647.391 7 114058695.193 7     -2081.734          43.000    21704648.094 7  88876899.883 7     -1622.131          43.000
G14  24082439.812 7 126554090.308 7      2907.777          43.000    24082442.898 6  98613591.799 6      2265.804          36.000
G22  23410787.242 6 123024472.604 6      3273.621          41.000    23410778.586 6  95863217.000 6      2550.877          36.000
G27  20949398.016 8 110089810.114 8     -1866.496          51.000    20949398.453 8  85784259.925 8     -1454.413          51.000
R06  19765505.500 7 105472584.139 7      1721.156          44.000
R07  22580949.039 5 120877603.397 5      4405.500          33.000    22580944.375 5  94015891.937 5      3426.506          34.000
R21  19591671.828 7 104838976.447 7       170.395          43.000    19591675.156 6  81541443.747 6       132.529          41.000
C05  39627658.789 6 206351618.105 6       -19.922          36.000    39627657.719 6 159564156.053 6       -15.495          38.000
C19  22927353.281 5 119388755.861 5     -1469.246          35.000
C22  22566957.227 8 117512140.820 8      1753.844          51.000
E04  25280893.703 7 132852063.076 7      2123.082          47.000    25280898.539 8 101795727.384 8      1626.735          50.000
