     3.02           OBSERVATION DATA    M (MIXED)           RINEX VERSION / TYPE
SAVERINEX           SC600               20200504 015932 LCL PGM / RUN BY / DATE
       G = GPS       R = GLONASS       C = COMPASS          COMMENT
       S = SBAS      J = QZSS          E = GALILEO          COMMENT
BEAN                                                        MARKER NAME
1                                                           MARKER NUMBER
GEODETIC                                                    MARKER TYPE
Unige DICCA         GTER                                    OBSERVER / AGENCY
SC60291900056       SC600               2.12(191226)        REC # / TYPE / VERS
                    HEMA45          NONE                    ANT # / TYPE
  4509407.8091   693652.4678  4442337.6214                  APPROX POSITION XYZ
        0.0000        0.0000        0.0000                  ANTENNA: DELTA H/E/N
G    8 C1C L1C D1C S1C C2Y L2Y D2Y S2Y                      SYS / # / OBS TYPES
R    8 C1C L1C D1C S1C C2P L2P D2P S2P                      SYS / # / OBS TYPES
C    4 C1I L1I D1I S1I                                      SYS / # / OBS TYPES
E    8 C1C L1C D1C S1C C7Q L7Q D7Q S7Q                      SYS / # / OBS TYPES
DBHZ                                                        COMMENT
     30.000                                                 INTERVAL
  2020    05    03    23    00    0.0000000     GPS         TIME OF FIRST OBS
  2020    05    03    23    59   30.0000000     GPS         TIME OF LAST OBS
     0                                                      RCV CLOCK OFFS APPL
G L1C  0.00000                                              SYS / PHASE SHIFT
G L2Y  0.00000                                              SYS / PHASE SHIFT
R L1C  0.00000                                              SYS / PHASE SHIFT
R L2P  0.25000                                              SYS / PHASE SHIFT
C L1I  0.00000                                              SYS / PHASE SHIFT
E L1C  0.50000                                              SYS / PHASE SHIFT
E L7Q -0.25000                                              SYS / PHASE SHIFT
 12 R01  1 R02 -4 R03  5 R04  6 R10 -5 R11  0 R12 -1 R13 -2 GLONASS SLOT / FRQ #
    R14 -7 R17  4 R18 -3 R23  3                             GLONASS SLOT / FRQ #
 C1C   71.950 C2C   71.950 C2P   71.950                     GLONASS COD/PHS/BIS
    18                                                      LEAP SECONDS
*** Above antenna height is from mark to ANTENNA BOTTOM.    COMMENT
    17     4        0.0000        ANT MEASURE TYPE/HEIGT    COMMENT
    0.0000    0.0000    0.0458    0.0405    0.0000          COMMENT
                    BASE STATION                            COMMENT
                                                            END OF HEADER
> 2020 05 03 23 00  0.0000000  0 16        .000000000000
G01  23697728.102 7 124532393.754 7     -3577.469          46.000    23697729.852 7  97038236.261 7     -2787.641          46.000
G04  20250129.086 8 106415149.915 8        62.004          51.000    20250129.297 8  82920928.513 8        48.315          51.000
G09  21326964.086 8 112074043.563 8      2281.207          51.000    21326964.852 8  87330396.695 8      1777.564          51.000
G17  22768706.344 8 119650347.879 8     -2031.387          48.000    22768705.375 8  93234026.423 8     -1582.899          49.000
G22  23047858.289 5 121117313.281 5     -2450.898          35.000
R02  20245491.156 6 108033828.125 6     -2061.277          39.000    20245494.695 6  84026293.777 6     -1603.219          37.000
R04  23365919.164 5 125123449.677 5      3147.426          33.000
R11  22914453.547 5 122447812.019 5      -486.816          32.000    22914457.328 4  95237236.578 4      -378.638          27.000
R17  21183748.852 8 113358517.060 8     -3905.523          50.000    21183748.711 7  88167710.669 7     -3037.629          47.000
R18  19768827.883 7 105527334.705 7      -334.566          42.000    19768825.625 5  82076830.137 5      -260.221          34.000
C19  22180060.898 7 115497378.902 7     -1348.691          47.000
C22  22519091.508 5 117262813.861 5      1240.824          30.000
E07  23399986.422 8 122967782.094 8       238.930          51.000    23399988.914 8  94222159.875 8       183.046          51.000
E08                                                                  23181336.969 5  93341690.290 5     -1542.243          35.000
E13  25390584.047 7 133428429.608 7     -2804.883          46.000    25390587.023 8 102237363.218 8     -2149.172          51.000
E26  22706603.945 8 119324031.383 8      -323.066          51.000    22706607.688 8  91430081.356 8      -247.574          51.000
> 2020 05 03 23 00 30.0000000  0 17        .000000000000
G01  23718223.188 7 124640094.177 7     -3595.730          46.000    23718221.039 7  97122158.588 7     -2801.871          46.000
G04  20249877.703 8 106413828.566 8        32.938          51.000    20249878.148 8  82919898.892 8        25.666          51.000
G09  21314032.102 8 112006087.041 8      2256.035          50.000    21314033.258 8  87277443.571 8      1757.949          50.000
G17  22780395.906 8 119711776.688 8     -2057.184          50.000    22780395.180 8  93281893.033 8     -1603.003          50.000
G19  22379604.070 5 117605586.743 5     -1278.395          35.000
R02  20257158.680 6 108096084.334 6     -2082.195          39.000    20257162.266 6  84074715.192 6     -1619.488          36.000
R03  19943568.750 5 106759485.826 5      1090.598          31.000    19943561.523 4  83035129.903 4       848.243          29.000
R04  23348352.180 5 125029389.874 5      3129.887          34.000
R11  22917308.242 6 122463067.608 6      -523.762          37.000    22917313.719 5  95249135.923 5      -407.367          31.000
R17  21205737.109 8 113476186.584 8     -3932.148          48.000    21205738.562 7  88259231.431 7     -3058.338          47.000
R18  19770841.273 7 105538082.057 7      -374.977          44.000    19770840.586 6  82085189.203 6      -291.645          36.000
C19  22187903.148 7 115538216.163 7     -1367.227          47.000
C22  22512011.117 5 117225963.928 5      1221.328          30.000
E07  23398701.859 8 122961031.324 8       217.953          51.000    23398704.203 8  94216987.227 8       167.009          51.000
E08                                                                  23192894.281 5  93388223.008 5     -1554.655          35.000
E13  25406669.992 7 133512968.387 7     -2824.285          46.000    25406674.797 8 102302139.719 8     -2164.072          51.000
E26  22708543.609 8 119334223.507 8      -349.578          51.000    22708546.820 8  91437890.906 8      -267.847          51.000
> 2020 05 03 23 01  0.0000000  0 16        .000000000000
G01  23738739.000 7 124747903.185 7     -3605.527          47.000    23738734.969 7  97206165.546 7     -2809.505          47.000
G04  20249709.164 8 106412943.067 8        12.281          51.000    20249709.695 8  82919208.889 8         9.570          51.000
G09  21301161.664 8 111938455.411 8      2238.844          50.000    21301163.062 8  87224743.598 8      1744.554          50.000
G17  22792149.914 8 119773544.123 8     -2074.602          50.000    22792149.602 8  93330023.435 8     -1616.576          50.000
G19  22386930.133 5 117644075.198 5     -1301.488          32.000
G22  23076007.547 5 121265213.242 5     -2478.598          30.000
R02  20268859.656 6 108158520.238 6     -2094.516          39.000    20268862.570 6  84123276.346 6     -1629.071          36.000
R11  22920290.961 5 122479076.259 5      -553.836          34.000    22920296.359 5  95261518.188 5      -430.758          34.000
R17  21227792.078 8 113594211.744 8     -3950.266          49.000    21227795.055 7  88351028.820 7     -3072.429          46.000
R18  19773000.875 7 105549607.642 7      -407.363          42.000    19773001.406 6  82094153.553 6      -316.841          39.000
C19  22195769.156 7 115579178.348 7     -1377.488          46.000
C22  22504962.938 5 117189271.500 5      1210.227          34.000
E07  23397454.258 8 122954474.956 8       205.270          51.000    23397456.805 8  94211963.522 8       157.263          51.000
E08                                                                  23204460.219 5  93434793.246 5     -1560.642          35.000
E13  25422784.977 8 133597654.315 8     -2835.488          48.000    25422790.461 8 102367028.938 8     -2172.578          51.000
E26  22710552.000 8 119344777.342 8      -367.949          51.000    22710554.844 8  91445977.601 8      -281.884          51.000
> 2020 05 03 23 01 30.0000000  0 15        .000000000000
G01  23759313.023 8 124856018.265 8     -3603.605          48.000    23759310.883 7  97290411.053 7     -2808.004          47.000
G03  21173740.875 5 111268794.341 5     -1692.418          32.000    21173742.164 5  86702938.372 5     -1318.776          32.000
G04  20249661.453 8 106412692.185 8         3.121          51.000    20249661.734 8  82919013.386 8         2.432          51.000
G09  21288391.727 8 111871349.091 8      2233.492          51.000    21288392.977 8  87172452.971 8      1740.384          51.000
G17  22804005.969 8 119835847.200 8     -2080.309          50.000    22804005.250 8  93378571.259 8     -1621.020          49.000
R02  20280630.977 5 108221336.825 5     -2094.609          32.000    20280633.195 6  84172133.697 6     -1629.138          36.000
R11  22923443.391 5 122495918.203 5      -570.531          35.000    22923447.367 5  95274617.151 5      -443.740          34.000
R17  21249951.234 8 113712791.846 8     -3956.430          50.000    21249954.984 7  88443257.800 7     -3077.223          45.000
R18  19775343.875 7 105562113.393 7      -427.715          43.000    19775345.523 6  82103880.248 6      -332.667          39.000
C19  22203696.891 7 115620462.549 7     -1376.047          45.000
C22  22497983.344 4 117152934.308 4      1209.984          29.000
E07  23396281.609 8 122948311.955 8       204.219          51.000    23396284.305 8  94207241.208 8       156.449          51.000
E08                                                                  23216072.414 5  93481553.116 5     -1557.807          34.000
E13  25438966.570 8 133682685.413 8     -2834.738          49.000    25438971.641 8 102432182.625 8     -2172.117          50.000
E26  22712667.070 8 119355892.484 8      -374.520          51.000    22712669.891 8  91454494.390 8      -286.984          51.000
> 2020 05 03 23 02  0.0000000  0 16        .000000000000
G01  23779906.125 8 124964233.871 8     -3611.047          48.000    23779906.273 8  97374734.900 8     -2813.803          48.000
G03  21183427.211 6 111319700.247 6     -1702.461          39.000    21183429.336 6  86742605.334 6     -1326.590          39.000
G04  20249695.703 8 106412871.416 8       -15.523          51.000    20249695.906 8  82919153.047 8       -12.096          51.000
G09  21275683.398 8 111804565.355 8      2218.328          51.000    21275684.578 8  87120413.720 8      1728.567          51.000
G17  22815924.453 8 119898479.712 8     -2095.594          50.000    22815923.312 8  93427375.800 8     -1632.930          49.000
R02  20292432.477 5 108284309.241 5     -2105.023          35.000    20292436.109 6  84221139.812 6     -1637.234          36.000
R03  19925500.820 4 106662783.345 4      1053.500          29.000
R11  22926723.969 5 122513364.442 5      -598.027          35.000    22926727.922 5  95288251.436 5      -465.132          33.000
R17  21272174.844 8 113831715.002 8     -3972.164          50.000    21272178.523 7  88535753.562 7     -3089.461          43.000
R18  19777831.508 7 105575392.577 7      -457.934          43.000    19777833.078 6  82114208.519 6      -356.168          38.000
C19  22211647.586 7 115661866.329 7     -1384.480          43.000
C22  22491035.156 5 117116750.330 5      1200.992          32.000
E07  23395144.969 8 122942338.026 8       193.582          51.000    23395147.539 8  94202663.773 8       148.326          51.000
E08                                                                  23227692.562 5  93528345.743 5     -1561.944          34.000
E13  25455175.164 8 133767856.531 8     -2843.738          50.000    25455178.828 8 102497443.570 8     -2178.932          49.000
E26  22714850.273 8 119367365.391 8      -390.773          51.000    22714853.031 8  91463285.313 8      -299.421          51.000
> 2020 05 03 23 02 30.0000000  0 18        .000000000000
G01  23800510.227 8 125072508.789 8     -3608.426          48.000    23800511.852 8  97459104.969 8     -2811.760          48.000
G03  21193143.477 6 111370758.869 6     -1702.676          40.000    21193145.609 6  86782391.250 6     -1326.760          40.000
G04  20249804.164 8 106413440.697 8       -23.793          51.000    20249804.430 8  82919596.652 8       -18.540          51.000
G09  21263029.102 8 111738065.862 8      2213.586          51.000    21263030.133 8  87068595.948 8      1724.872          51.000
G17  22827897.461 8 119961399.476 8     -2100.336          50.000    22827896.109 8  93476404.201 8     -1636.625          50.000
G19  22409600.352 5 117763246.082 5     -1346.109          35.000
R02  20304266.219 6 108347428.381 6     -2104.516          38.000    20304265.906 6  84270232.498 6     -1636.845          36.000
R04  23278385.000 4 124654659.622 4      3117.801          28.000
R11  22930124.664 5 122531630.249 5      -614.680          30.000    22930127.586 5  95302387.592 5      -478.084          32.000
R12  22435390.961 4 119845813.706 4      2494.367          29.000
R17  21294454.539 8 113950937.306 8     -3977.273          50.000    21294457.094 7  88628481.949 7     -3093.438          42.000
R18  19780456.469 7 105589404.862 7      -477.504          43.000    19780458.320 6  82125106.948 6      -371.392          39.000
C19  22219613.930 7 115703350.214 7     -1382.500          44.000
C22  22484110.461 5 117080680.882 5      1201.703          35.000
E07  23394036.719 8 122936513.322 8       193.344          51.000    23394039.055 8  94198200.696 8       148.096          51.000
E08  23239347.352 6 122123553.123 6     -2034.008          36.000    23239313.945 5  93575140.390 5     -1558.567          34.000
E13  25471402.547 8 133853126.900 8     -2842.301          50.000    25471404.281 8 102562780.568 8     -2177.906          49.000
E26  22717094.016 8 119379156.854 8      -396.680          51.000    22717096.812 8  91472320.326 8      -303.982          51.000
> 2020 05 03 23 03  0.0000000  0 20        .000000000000
G01  23821155.016 7 125180998.644 7     -3619.121          47.000    23821157.461 7  97543642.541 7     -2820.091          46.000
G03  21202918.672 6 111422127.228 6     -1717.047          40.000    21202920.273 6  86822418.583 6     -1337.959          41.000
G04  20250016.664 8 106414556.797 8       -45.715          51.000    20250016.680 8  82920466.338 8       -35.622          51.000
G09  21250459.000 8 111672009.102 8      2195.168          51.000    21250459.977 8  87017123.183 8      1710.520          51.000
G17  22839954.766 8 120024761.545 8     -2118.906          50.000    22839953.609 8  93525777.236 8     -1651.096          50.000
G19  22417370.391 5 117804075.355 5     -1370.988          33.000
G22  23132645.242 5 121562882.391 5     -2489.996          33.000
G31  24248827.148 5 127428435.133 5     -2449.945          31.000    24248826.891 5  99294881.372 5     -1909.048          33.000
R02  20316150.086 6 108410836.639 6     -2118.070          37.000    20316146.727 5  84319549.935 5     -1647.391          34.000
R03  19913789.078 5 106600032.167 5      1031.762          32.000    19913785.664 4  82911123.343 4       802.481          27.000
R04  23260966.711 4 124561362.646 4      3106.691          29.000
R11  22933677.883 5 122550612.180 5      -645.703          31.000    22933682.023 4  95317151.354 4      -502.211          29.000
R17  21316819.336 8 114070614.919 8     -3996.117          50.000    21316820.984 7  88721564.496 7     -3108.091          43.000
R18  19783248.227 7 105604309.712 7      -511.195          43.000    19783250.352 6  82136699.546 6      -397.596          38.000
C19  22227626.039 7 115745069.776 7     -1393.918          45.000
C22  22477237.383 5 117044881.858 5      1190.113          34.000
E07  23392986.859 8 122930994.870 8       179.418          51.000    23392988.961 8  94193972.268 8       137.509          51.000
E08                                                                  23250965.750 5  93622057.005 5     -1565.598          34.000
E13  25487678.195 8 133938652.615 8     -2854.441          49.000    25487678.383 8 102628313.232 8     -2187.244          49.000
E26  22719428.391 8 119391424.568 8      -416.250          51.000    22719431.234 8  91481720.257 8      -318.909          51.000
> 2020 05 03 23 03 30.0000000  0 17        .000000000000
G01  23841836.586 7 125289682.662 7     -3625.461          46.000    23841839.570 7  97628331.404 7     -2825.034          46.000
G03  21212749.141 6 111473786.110 6     -1726.516          38.000    21212751.000 6  86862672.237 6     -1345.340          38.000
G04  20250329.422 8 106416199.963 8       -63.086          51.000    20250329.211 8  82921746.737 8       -49.158          51.000
G09  21237969.812 8 111606377.091 8      2181.062          51.000    21237970.742 8  86965981.380 8      1699.529          51.000
G17  22852092.234 8 120088544.515 8     -2132.648          50.000    22852091.438 8  93575478.224 8     -1661.804          50.000
G19  22425256.961 5 117845513.070 5     -1391.188          34.000
G31  24262860.719 5 127502176.087 5     -2465.355          34.000    24262857.781 4  99352341.770 4     -1921.056          29.000
R02  20328081.797 6 108474513.320 6     -2126.590          39.000    20328080.203 5  84369076.212 5     -1654.020          34.000
R11  22937378.250 5 122570380.492 5      -671.602          33.000
R17  21339265.109 8 114190724.539 8     -4010.395          49.000    21339266.625 7  88814983.078 7     -3119.196          45.000
R18  19786203.930 7 105620087.781 7      -540.051          44.000    19786206.125 6  82148971.385 6      -420.039          39.000
C19  22235679.758 7 115787005.716 7     -1400.953          44.000
C22  22470411.648 5 117009334.883 5      1181.398          34.000
E07  23391991.469 8 122925763.180 8       170.031          51.000    23391993.594 8  94189963.570 8       130.326          51.000
E08  23262646.320 5 122246063.942 5     -2047.793          35.000    23262644.414 5  93669080.367 5     -1568.771          35.000
E13  25503998.055 8 134024413.318 8     -2862.047          49.000    25503997.844 8 102694025.959 8     -2193.054          50.000
E26  22721849.906 8 119404149.695 8      -431.309          51.000    22721852.695 8  91491470.685 8      -330.483          51.000
> 2020 05 03 23 04  0.0000000  0 17        .000000000000
G01  23862554.125 7 125398555.129 7     -3626.078          45.000    23862557.492 7  97713167.109 7     -2825.515          45.000
G03  21222633.953 6 111525731.282 6     -1730.266          39.000    21222635.922 6  86903149.046 6     -1348.259          40.000
G04  20250741.562 8 106418365.663 8       -74.820          51.000    20250741.266 8  82923434.310 8       -58.302          51.000
G09  21225560.711 8 111541166.999 8      2172.668          51.000    21225561.836 8  86915168.334 8      1692.988          51.000
G17  22864308.680 8 120152742.256 8     -2140.750          50.000    22864308.117 8  93625502.407 8     -1668.117          50.000
G31  24276982.609 5 127576386.472 5     -2475.180          34.000    24276978.445 5  99410167.976 5     -1928.714          32.000
R02  20340063.078 6 108538452.633 6     -2129.703          39.000    20340063.672 5  84418806.822 5     -1656.433          33.000
R03  19902374.977 5 106538951.176 5      1011.121          32.000    19902378.344 4  82863645.635 4       786.428          29.000
R11  22941222.109 5 122590932.214 5      -691.996          35.000
R17  21361789.820 7 114311258.164 7     -4018.574          47.000    21361791.602 7  88908731.471 7     -3125.558          45.000
R18  19789322.422 7 105636734.677 7      -563.223          45.000    19789325.555 6  82161918.943 6      -438.062          40.000
C19  22243774.188 7 115829153.771 7     -1402.473          44.000
C22  22463632.961 5 116974036.163 5      1178.496          33.000
E07  23391049.680 8 122920813.927 8       166.363          51.000    23391051.914 8  94186171.297 8       127.434          51.000
E08  23274350.930 6 122307568.056 6     -2045.855          37.000    23274350.453 5  93716206.899 5     -1567.819          35.000
E13  25520361.227 8 134110403.794 8     -2864.094          49.000    25520361.508 8 102759914.755 8     -2194.589          50.000
E26  22724357.742 8 119417328.613 8      -440.750          51.000    22724360.453 8  91501568.817 8      -337.730          51.000
> 2020 05 03 23 04 30.0000000  0 18        .000000000000
G01  23883291.156 7 125507528.959 7     -3635.488          45.000    23883294.867 7  97798081.789 7     -2832.848          45.000
G03  21232557.070 6 111577877.209 6     -1742.992          38.000    21232559.055 6  86943782.274 6     -1358.173          37.000
G04  20251236.758 8 106420967.819 8       -95.344          51.000    20251236.211 8  82925461.954 8       -74.294          51.000
G09  21213215.750 8 111476294.517 8      2155.457          51.000    21213217.109 8  86864618.340 8      1679.577          51.000
G17  22876587.289 8 120217266.930 8     -2157.531          50.000    22876586.773 8  93675781.342 8     -1681.193          50.000
G31  24291177.438 5 127650978.660 5     -2494.305          32.000    24291174.062 5  99468291.742 5     -1943.605          31.000
R02  20352077.195 6 108602566.949 6     -2141.578          38.000    20352079.945 4  84468673.506 4     -1665.675          29.000
R04  23208907.844 5 124282624.753 5      3090.383          33.000
R11  22945198.789 5 122612177.696 5      -721.055          35.000
R12  22380335.031 5 119551742.385 5      2413.531          33.000
R17  21384376.148 7 114432124.669 7     -4035.672          47.000    21384378.641 7  89002738.801 7     -3138.856          45.000
R18  19792587.922 7 105654163.385 7      -595.273          47.000    19792590.852 7  82175474.595 7      -462.990          42.000
C19  22251892.773 7 115871428.974 7     -1412.715          43.000
C22  22456884.531 4 116938901.139 4      1167.816          29.000
E07  23390145.398 8 122916061.353 8       153.820          51.000    23390147.602 8  94182529.712 8       117.859          51.000
E08  23286063.711 6 122369120.610 6     -2053.816          37.000    23286066.195 6  93763370.588 6     -1573.611          36.000
E13  25536751.523 8 134196537.353 8     -2874.727          49.000    25536752.602 8 102825913.194 8     -2202.748          50.000
E26  22726935.898 8 119430876.177 8      -458.992          51.000    22726938.281 8  91511949.419 8      -351.719          51.000
> 2020 05 03 23 05  0.0000000  0 16        .000000000000
G01  23904083.086 7 125616791.410 7     -3651.941          43.000    23904087.047 7  97883221.368 7     -2845.669          43.000
G03  21242554.484 6 111630412.709 6     -1763.285          39.000    21242556.695 6  86984719.047 6     -1373.988          39.000
G04  20251850.773 8 106424194.806 8      -123.289          51.000    20251850.109 8  82927976.488 8       -96.069          51.000
G09  21200971.219 8 111411949.764 8      2130.648          51.000    21200972.727 8  86814479.577 8      1660.246          51.000
G17  22888963.484 8 120282305.075 8     -2181.781          49.000    22888962.898 8  93726460.419 8     -1700.089          49.000
R02  20364160.039 6 108667046.425 6     -2161.062          39.000
R04  23191629.406 5 124190125.281 5      3072.934          32.000
R11  22949340.797 6 122634309.892 6      -757.520          37.000
R17  21407060.359 8 114553512.853 8     -4060.336          48.000    21407062.930 7  89097151.852 7     -3158.039          43.000
R18  19796035.578 7 105672565.702 7      -635.016          46.000    19796038.227 6  82189787.488 6      -493.898          41.000
C19  22260071.414 7 115914018.223 7     -1430.215          42.000
C22  22450204.836 5 116904117.412 5      1148.660          32.000
E07  23389314.375 8 122911694.118 8       133.840          51.000    23389316.758 8  94179183.382 8       102.571          51.000
E08  23297822.211 5 122430880.966 5     -2068.574          31.000    23297825.367 5  93810715.685 5     -1585.032          35.000
E13  25553204.797 8 134283001.744 8     -2892.930          48.000    25553206.555 8 102892165.126 8     -2216.705          50.000
E26  22729620.383 8 119444981.654 8      -484.801          51.000    22729622.500 8  91522757.507 8      -371.486          51.000
> 2020 05 03 23 05 30.0000000  0 17        .000000000000
G01  23924901.336 7 125726191.901 7     -3644.809          42.000    23924905.391 7  97968468.497 7     -2840.111          42.000
G03  21252598.070 6 111683188.687 6     -1759.195          40.000    21252599.703 6  87025843.164 6     -1370.802          40.000
G04  20252555.242 8 106427897.069 8      -127.277          51.000    20252554.492 8  82930861.367 8       -99.177          51.000
G09  21188799.047 8 111347984.877 8      2129.918          51.000    21188800.391 8  86764636.828 8      1659.676          51.000
G17  22901408.578 8 120347705.203 8     -2182.020          49.000    22901407.922 8  93777421.543 8     -1700.272          49.000
R02  20376283.188 6 108731738.886 6     -2155.719          41.000
R03  19885800.172 4 106450242.879 4       971.242          29.000    19885812.039 4  82794668.000 4       755.417          25.000
R04  23174378.617 5 124097740.880 5      3080.086          33.000
R11  22953623.617 5 122657191.852 5      -770.262          35.000    22953624.016 4  95400045.377 4      -599.089          28.000
R17  21429813.484 8 114675266.970 8     -4060.480          49.000    21429814.789 6  89191849.468 6     -3158.151          40.000
R18  19799636.625 7 105691790.018 7      -650.363          45.000    19799638.820 6  82204739.742 6      -505.838          41.000
C19  22268282.078 7 115956773.638 7     -1423.926          44.000
C22  22443566.258 5 116869537.657 5      1153.355          34.000
E07  23388528.000 8 122907562.924 8       137.828          51.000    23388530.773 8  94176017.917 8       105.618          51.000
E08                                                                  23309598.828 5  93858127.571 5     -1578.418          33.000
E13  25569692.016 7 134369646.763 7     -2887.180          46.000    25569694.172 8 102958555.450 8     -2212.261          49.000
E26  22732382.625 8 119459496.363 8      -486.594          51.000    22732384.727 8  91533879.162 8      -372.860          51.000
> 2020 05 03 23 06  0.0000000  0 19        .000000000000
G01  23945718.906 7 125835588.011 7     -3653.453          43.000    23945722.914 7  98053712.236 7     -2846.847          43.000
G03  21262660.297 6 111736064.289 6     -1771.043          36.000    21262661.484 5  87067044.920 5     -1380.037          35.000
G04  20253323.289 8 106431933.267 8      -147.043          51.000    20253322.422 8  82934006.461 8      -114.576          50.000
G09  21176672.789 8 111284260.344 8      2113.180          51.000    21176673.766 8  86714981.364 8      1646.634          51.000
G17  22913895.664 8 120413324.572 8     -2197.945          51.000    22913894.828 8  93828553.525 8     -1712.685          51.000
G19  22466335.227 5 118061364.783 5     -1487.289          32.000
G22  23218533.375 4 122014220.666 4     -2524.434          28.000
G31  24334293.023 5 127877556.804 5     -2540.117          31.000
R02  20388419.008 6 108796499.663 6     -2166.855          38.000    20388427.711 4  84619543.666 4     -1685.332          25.000
R03  19880388.633 4 106421288.181 4       954.273          29.000
R04  23157134.672 6 124005397.268 6      3070.559          36.000
R17  21452607.859 8 114797240.016 8     -4076.477          48.000    21452607.117 6  89286717.334 6     -3170.596          39.000
R18  19803364.688 7 105711692.702 7      -681.852          44.000    19803367.195 7  82220219.605 7      -530.329          42.000
C19  22276498.320 7 115999555.522 7     -1433.645          44.000
C22  22436939.734 6 116835022.862 6      1142.438          36.000
E07  23387759.727 8 122903526.795 8       125.988          51.000    23387762.578 8  94172925.291 8        96.560          51.000
E08                                                                  23321359.758 5  93905450.903 5     -1584.239          31.000
E13  25586185.781 7 134456330.470 7     -2897.070          44.000    25586188.758 8 103024975.433 8     -2219.836          48.000
E26  22735195.797 8 119474279.929 8      -504.316          51.000    22735197.906 8  91545206.830 8      -386.391          51.000
> 2020 05 03 23 06 30.0000000  0 17        .000000000000
G01  23966596.680 7 125945299.978 7     -3654.105          43.000    23966600.289 7  98139202.102 7     -2847.355          44.000
G03  21272802.359 5 111789361.287 5     -1775.820          35.000    21272803.539 5  87108575.046 5     -1383.756          35.000
G04  20254215.992 8 106436624.654 8      -159.195          51.000    20254214.922 8  82937662.095 8      -124.045          50.000
G09  21164653.844 8 111221099.146 8      2104.008          51.000    21164654.406 8  86665764.868 8      1639.490          51.000
G17  22926485.305 8 120479482.228 8     -2206.148          51.000    22926484.438 8  93880104.923 8     -1719.077          51.000
R02  20400628.227 6 108861654.699 6     -2170.375          36.000    20400647.969 4  84670242.424 4     -1688.069          26.000
R03  19875080.242 4 106392859.435 4       946.133          29.000
R04  23139957.289 5 123913389.056 5      3069.328          34.000
R11  22962571.875 5 122704979.275 5      -819.512          34.000
R17  21475503.344 7 114919755.809 7     -4084.590          47.000    21475501.766 6  89382007.334 6     -3176.903          38.000
R18  19807280.898 7 105732600.254 7      -705.621          44.000    19807284.000 7  82236481.039 7      -548.813          42.000
C19  22284780.672 7 116042682.603 7     -1435.410          44.000
C22  22430384.297 5 116800892.265 5      1139.430          34.000
E07  23387070.961 8 122899907.279 8       121.812          51.000    23387073.570 8  94170151.890 8        93.313          51.000
E08  23333179.375 5 122616689.149 5     -2066.074          33.000    23333172.156 4  93953014.784 4     -1583.138          29.000
E13  25602748.125 7 134543373.515 7     -2899.352          45.000    25602752.117 8 103091670.786 8     -2221.506          49.000
E26  22738121.141 8 119489654.526 8      -514.176          51.000    22738123.469 8  91556987.360 8      -394.000          51.000
> 2020 05 03 23 07  0.0000000  0 16        .000000000000
G01  23987480.344 6 126055042.752 6     -3658.906          41.000    23987483.586 6  98224715.952 6     -2851.096          41.000
G03  21282970.812 5 111842766.088 5     -1783.508          32.000    21282971.742 5  87150212.540 5     -1389.743          32.000
G04  20255179.328 8 106441687.190 8      -174.867          51.000    20255178.312 8  82941606.928 8      -136.260          51.000
G09  21152688.227 8 111158218.967 8      2091.312          51.000    21152688.867 8  86616767.358 8      1629.594          51.000
G17  22939122.992 8 120545892.808 8     -2217.906          51.000    22939121.938 8  93931853.383 8     -1728.239          51.000
G22  23247398.844 5 122165904.527 5     -2529.453          30.000
R02  20412857.758 6 108926914.920 6     -2176.914          37.000    20412869.789 4  84720988.402 4     -1693.158          25.000
R04  23122787.078 4 123821427.950 4      3064.402          29.000
R11  22967251.625 5 122729986.960 5      -843.781          35.000
R17  21498444.617 7 115042521.698 7     -4096.500          45.000    21498444.203 6  89477491.872 6     -3186.167          38.000
R18  19811331.781 7 105754224.845 7      -732.914          44.000    19811335.281 7  82253300.181 7      -570.044          42.000
C19  22293075.047 7 116085873.743 7     -1440.766          44.000
C22  22423847.883 5 116766865.172 5      1133.121          32.000
E07  23386407.547 8 122896420.660 8       113.930          51.000    23386409.992 8  94167480.331 8        87.294          51.000
E13  25619326.648 8 134630491.380 8     -2905.273          48.000    25619330.547 8 103158423.427 8     -2226.137          50.000
E26  22741105.047 8 119505337.020 8      -528.012          51.000    22741107.805 8  91569003.824 8      -404.550          51.000
> 2020 05 03 23 07 30.0000000  0 14        .000000000000
G01  24008392.836 6 126164938.073 6     -3673.148          38.000    24008396.039 6  98310348.702 6     -2862.194          38.000
G04  20256236.602 8 106447243.659 8      -200.699          51.000    20256235.977 8  82945936.664 8      -156.389          51.000
G09  21140799.586 8 111095744.442 8      2068.465          51.000    21140800.680 8  86568085.914 8      1611.791          51.000
G17  22951831.688 8 120612677.013 8     -2239.531          51.000    22951830.391 8  93983893.001 8     -1745.089          51.000
G19  22492266.562 5 118197658.059 5     -1549.285          32.000
R02  20425130.547 6 108992404.239 6     -2194.211          39.000    20425139.727 4  84771920.586 4     -1706.605          24.000
R12  22301004.188 5 119127957.686 5      2290.160          31.000
R17  21521455.000 7 115165659.543 7     -4118.055          43.000    21521456.555 6  89573265.728 6     -3202.931          38.000
R18  19815540.695 7 105776691.066 7      -770.184          45.000    19815543.492 6  82270773.925 6      -599.035          40.000
C19  22301404.984 7 116129250.994 7     -1456.059          42.000
C22  22417355.797 5 116733064.203 5      1115.523          32.000
E07  23385792.758 8 122893190.081 8        96.250          51.000    23385795.242 8  94165004.962 8        73.759          51.000
E13  25635943.531 8 134717806.234 8     -2920.902          51.000    25635946.977 8 103225326.981 8     -2238.184          51.000
E26  22744171.297 8 119521451.101 8      -551.531          51.000    22744174.312 8  91581350.989 8      -422.596          51.000
> 2020 05 03 23 08  0.0000000  0 13        .000000000000
G01  24029346.758 6 126275053.903 6     -3669.477          36.000    24029350.695 6  98396153.284 6     -2859.329          36.000
G04  20257400.930 8 106453363.024 8      -208.453          51.000    20257400.375 8  82950705.007 8      -162.431          51.000
G09  21129001.383 8 111033746.224 8      2063.508          51.000    21129003.297 8  86519775.600 8      1607.928          50.000
G17  22964624.008 8 120679902.278 8     -2243.152          48.000    22964622.742 8  94036276.322 8     -1747.911          48.000
G22  23276372.500 5 122318174.103 5     -2540.973          34.000
R02  20437459.930 6 109058192.498 6     -2192.941          38.000    20437465.789 4  84823089.275 4     -1705.621          25.000
R17  21544547.945 7 115289236.434 7     -4121.453          44.000    21544550.547 6  89669381.123 6     -3205.575          37.000
R18  19819920.328 7 105800069.350 7      -789.535          45.000    19819921.930 6  82288957.005 6      -614.086          39.000
C19  22309783.461 6 116172883.068 6     -1453.766          41.000
E07  23385239.867 8 122890284.852 8        96.254          51.000    23385242.359 8  94162778.887 8        73.738          51.000
E08  23368696.812 6 122803313.320 6     -2076.578          36.000
E13  25652610.945 8 134805386.468 8     -2918.969          51.000    25652614.008 8 103292433.872 8     -2236.612          51.000
E26  22747332.992 8 119538066.671 8      -557.477          51.000    22747336.227 8  91594082.403 8      -427.169          51.000
> 2020 05 03 23 08 30.0000000  0 15        .000000000000
G01  24050318.445 6 126385260.667 6     -3676.836          37.000    24050322.586 6  98482028.735 6     -2865.067          37.000
G03  21313794.141 5 112004753.473 5     -1812.359          34.000
G04  20258647.930 8 106459916.628 8      -227.133          51.000    20258647.305 8  82955811.718 8      -176.987          50.000
G09  21117269.836 8 110972097.399 8      2047.668          51.000    21117272.328 8  86471737.581 8      1595.588          51.000
G17  22977475.398 8 120747438.013 8     -2257.805          48.000    22977474.398 8  94088901.576 8     -1759.325          48.000
G22  23290905.414 5 122394537.933 5     -2549.273          33.000
R02  20449820.789 5 109124148.241 5     -2202.438          34.000    20449821.648 4  84874349.202 4     -1713.007          27.000
R03  19854480.555 5 106282563.998 5       894.188          30.000
R17  21567698.945 7 115413118.059 7     -4136.031          44.000    21567700.578 5  89765733.473 5     -3216.916          34.000
R18  19824446.188 7 105824228.700 7      -819.852          45.000    19824447.984 6  82307747.547 6      -637.665          41.000
C19  22318186.391 6 116216642.969 6     -1462.156          41.000
E07  23384724.430 8 122887576.713 8        85.613          51.000    23384726.891 8  94160703.809 8        65.582          51.000
E08  23380568.570 5 122865712.129 5     -2082.180          33.000
E13  25669303.930 8 134893102.835 8     -2927.543          51.000    25669306.852 8 103359645.106 8     -2243.245          51.000
E26  22750565.883 8 119555055.988 8      -573.957          51.000    22750569.297 8  91607100.182 8      -439.824          51.000
> 2020 05 03 23 09  0.0000000  0 15        .000000000000
G01  24071323.820 6 126495640.878 6     -3680.555          38.000    24071327.648 6  98568039.279 6     -2867.965          38.000
G03  21324162.773 4 112059231.224 4     -1819.109          28.000
G04  20259993.562 8 106466987.953 8      -242.777          51.000    20259993.188 8  82961321.855 8      -189.177          50.000
G09  21105621.305 8 110910883.254 8      2034.695          51.000    21105623.680 8  86424038.271 8      1585.477          51.000
G17  22990401.641 8 120815366.462 8     -2269.258          49.000    22990401.016 8  94141832.811 8     -1768.256          49.000
G22  23305470.367 5 122471086.670 5     -2553.145          33.000
R02  20462227.773 6 109190356.001 6     -2209.184          37.000    20462228.203 4  84925845.079 4     -1718.257          27.000
R03  19849500.562 5 106255917.334 5       882.664          30.000
R17  21590922.891 7 115537386.114 7     -4147.090          43.000    21590918.992 4  89862386.294 4     -3225.514          29.000
R18  19829134.250 7 105849254.272 7      -847.078          46.000    19829136.477 7  82327211.879 7      -658.839          42.000
C19  22326630.195 6 116260613.774 6     -1467.625          40.000
C22  22398167.672 5 116633107.877 5      1100.102          35.000
E07  23384262.211 8 122885149.500 8        77.828          51.000    23384264.984 8  94158843.999 8        59.650          51.000
E13  25686038.109 8 134981038.297 8     -2933.305          51.000    25686041.141 8 103427024.215 8     -2247.567          51.000
E26  22753885.977 8 119572503.481 8      -587.656          51.000    22753889.500 8  91620469.018 8      -450.285          51.000
> 2020 05 03 23 09 30.0000000  0 14        .000000000000
G01  24092352.102 6 126606140.526 6     -3685.312          40.000    24092355.484 6  98654142.909 6     -2871.669          40.000
G03  21334581.930 6 112113974.407 6     -1829.195          38.000    21334583.203 6  87361551.025 6     -1425.347          38.000
G04  20261427.602 8 106474523.992 8      -259.062          51.000    20261427.320 8  82967194.125 8      -201.867          50.000
G09  21094045.719 8 110850052.590 8      2021.105          51.000    21094047.836 8  86376637.761 8      1574.887          51.000
G17  23003392.406 8 120883632.192 8     -2281.277          51.000    23003391.734 8  94195026.873 8     -1777.619          50.000
R02  20474672.250 6 109256761.206 6     -2216.719          39.000
R12  22250330.203 5 118857208.937 5      2215.895          33.000
R17  21614206.867 7 115661983.614 7     -4158.867          42.000    21614202.734 5  89959295.434 5     -3234.674          34.000
R18  19833974.695 7 105875092.251 7      -875.105          46.000    19833977.211 7  82347308.137 7      -680.638          43.000
C19  22335104.547 6 116304743.495 6     -1473.949          41.000
C22  22391855.391 6 116600225.411 6      1092.637          36.000
E07  23383843.500 8 122882950.593 8        69.312          51.000    23383846.586 8  94157159.136 8        53.113          51.000
E13  25702803.141 8 135069139.282 8     -2939.668          49.000    25702806.633 8 103494530.172 8     -2252.461          51.000
E26  22757283.477 8 119590357.030 8      -602.047          51.000    22757286.773 8  91634148.997 8      -461.324          51.000
> 2020 05 03 23 10  0.0000000  0 14        .000000000000
G01  24113402.875 6 126716760.929 6     -3690.070          38.000    24113406.234 6  98740340.647 6     -2875.379          38.000
G03  21345047.477 6 112168961.461 6     -1837.469          41.000    21345046.023 6  87404398.164 6     -1431.791          41.000
G04  20262950.570 8 106482527.098 8      -275.164          51.000    20262949.930 8  82973430.316 8      -214.414          50.000
G09  21082543.836 8 110789609.475 8      2007.766          51.000    21082545.602 8  86329539.228 8      1564.493          51.000
G17  23016447.445 8 120952236.144 8     -2292.984          50.000    23016446.578 8  94248484.464 8     -1786.744          51.000
R02  20487153.719 6 109323365.671 6     -2224.312          38.000    20487147.578 4  85029268.034 4     -1730.021          28.000
R12  22237930.344 5 118791015.761 5      2195.918          34.000
R17  21637552.383 7 115786909.557 7     -4170.148          45.000    21637551.875 6  90056460.066 6     -3243.449          37.000
R18  19838967.867 7 105901745.049 7      -902.559          46.000    19838970.203 7  82368038.108 7      -701.990          43.000
C19  22343610.492 6 116349034.804 6     -1479.469          41.000
C22  22385579.688 6 116567547.416 6      1085.641          36.000
E07  23383469.078 8 122880982.729 8        61.234          51.000    23383471.938 8  94155651.294 8        46.962          51.000
E13  25719599.375 7 135157407.561 7     -2945.508          47.000    25719603.719 8 103562164.340 8     -2256.986          51.000
E26  22760759.172 8 119608619.833 8      -616.023          51.000    22760761.773 8  91648142.585 8      -472.075          51.000
> 2020 05 03 23 10 30.0000000  0 16        .000000000000
G01  24134483.031 6 126827538.311 6     -3692.418          38.000    24134486.609 6  98826660.663 6     -2877.209          39.000
G03  21355563.562 6 112224223.350 6     -1843.828          41.000    21355563.609 6  87447459.383 6     -1436.749          41.000
G04  20264569.398 8 106491034.280 8      -288.941          51.000    20264569.008 8  82980059.300 8      -225.146          51.000
G09  21071123.250 8 110729592.713 8      1996.320          51.000    21071124.688 8  86282772.914 8      1555.574          51.000
G17  23029573.469 8 121021213.632 8     -2302.535          50.000    23029572.195 8  94302233.146 8     -1794.183          50.000
G19  22547012.680 5 118485343.172 5     -1650.383          32.000
R02  20499678.953 6 109390206.836 6     -2229.070          39.000    20499676.992 5  85081260.548 5     -1733.724          31.000
R04  23003485.609 4 123182627.779 4      3023.996          28.000
R17  21660967.203 8 115912198.762 8     -4179.293          48.000    21660967.664 6  90153907.207 6     -3250.561          38.000
R18  19844120.648 7 105929250.044 7      -927.965          47.000    19844122.477 7  82389430.900 7      -721.750          42.000
C19  22352155.125 7 116393524.970 7     -1483.273          43.000
C22  22379349.680 5 116535111.689 5      1079.969          34.000
E07  23383145.695 8 122879283.366 8        55.066          51.000    23383148.219 8  94154349.195 8        42.221          51.000
E08  23428264.633 5 123116355.431 5     -2092.812          32.000
E13  25736434.078 7 135245879.701 7     -2949.652          47.000    25736439.508 8 103629954.738 8     -2260.075          51.000
E26  22764319.992 8 119627329.951 8      -628.336          51.000    22764322.125 8  91662478.905 8      -481.368          51.000
> 2020 05 03 23 11  0.0000000  0 14        .000000000000
G01  24155568.742 6 126938344.590 6     -3716.641          39.000    24155571.805 6  98913003.227 6     -2896.081          39.000
G03  21366107.188 6 112279633.637 6     -1871.945          41.000    21366107.305 6  87490636.210 6     -1458.659          41.000
G04  20266260.102 8 106499918.548 8      -324.863          51.000    20266260.094 8  82986982.117 8      -253.137          51.000
G09  21059760.008 8 110669877.015 8      1963.066          51.000    21059761.039 8  86236241.205 8      1529.665          51.000
G17  23042745.844 8 121090435.794 8     -2333.898          49.000    23042744.344 8  94356172.507 8     -1818.619          49.000
G19  22556474.977 5 118535091.438 5     -1688.379          30.000
R02  20512224.680 6 109457155.037 6     -2256.051          40.000    20512223.992 5  85133331.393 5     -1754.706          32.000
R17  21684425.406 7 116037718.471 7     -4210.680          47.000    21684425.242 6  90251533.597 6     -3274.976          37.000
R18  19849407.953 7 105957478.584 7      -975.844          44.000    19849410.461 7  82411386.402 7      -758.993          42.000
C19  22360713.586 7 116438088.618 7     -1509.070          42.000
C22  22373140.938 5 116502793.410 5      1053.457          31.000
E07  23382849.156 8 122877725.872 8        27.012          51.000    23382851.711 8  94153155.807 8        20.709          51.000
E13  25753283.750 7 135334428.147 7     -2975.422          47.000    25753289.617 8 103697803.598 8     -2279.854          50.000
E26  22767941.953 8 119646361.246 8      -662.234          51.000    22767943.914 8  91677061.301 8      -507.429          51.000
> 2020 05 03 23 11 30.0000000  0 15        .000000000000
G01  24176697.617 6 127049378.509 6     -3693.855          40.000    24176699.891 6  98999523.189 6     -2878.329          39.000
G03  21376717.406 7 112335392.571 7     -1853.219          43.000    21376717.203 7  87534084.755 7     -1444.064          43.000
G04  20268060.578 8 106509379.488 8      -313.824          51.000    20268060.484 8  82994354.286 8      -244.538          51.000
G09  21048492.062 8 110610663.827 8      1976.680          51.000    21048493.039 8  86190101.089 8      1540.270          51.000
G17  23056002.531 8 121160100.755 8     -2318.367          49.000    23056001.109 8  94410456.886 8     -1806.520          49.000
G19  22566059.547 6 118585477.781 6     -1678.863          36.000
R02  20524828.695 6 109524412.865 6     -2235.824          36.000    20524829.617 5  85185642.983 5     -1738.977          32.000
R17  21707964.008 7 116163668.741 7     -4194.062          45.000    21707963.125 5  90349494.855 5     -3262.052          35.000
R18  19854869.648 7 105986632.958 7      -975.867          46.000    19854872.234 7  82434062.055 7      -759.005          42.000
C19  22369323.797 7 116482924.065 7     -1488.016          43.000
C22  22366992.469 5 116470791.497 5      1071.828          31.000
E07  23382617.812 8 122876510.332 8        46.078          51.000    23382620.555 8  94152224.437 8        35.283          51.000
E08  23452214.031 5 123242204.981 5     -2091.145          34.000
E13  25770186.398 8 135423252.051 8     -2954.129          48.000    25770191.578 7 103765863.471 7     -2263.484          47.000
E26  22771663.336 8 119665914.246 8      -649.262          51.000    22771664.883 8  91692043.443 8      -497.447          51.000
> 2020 05 03 23 12  0.0000000  0 17        .000000000000
G01  24197844.578 6 127160508.138 6     -3709.035          40.000    24197847.008 6  99086117.679 6     -2890.157          40.000
G03  21387369.148 7 112391369.683 7     -1872.574          42.000    21387369.391 7  87577703.275 7     -1459.152          42.000
G04  20269945.812 8 106519286.107 8      -340.715          51.000    20269945.945 8  83002073.731 8      -265.492          51.000
G09  21037294.797 8 110551823.859 8      1952.105          51.000    21037296.023 8  86144251.791 8      1521.121          51.000
G17  23069318.375 8 121230075.930 8     -2340.742          50.000    23069316.562 8  94464982.976 8     -1823.958          50.000
G19  22575738.992 6 118636369.096 6     -1708.008          38.000    22575742.062 4  92443906.062 4     -1330.927          27.000
R02  20537465.820 6 109591846.188 6     -2253.969          38.000    20537467.906 5  85238091.080 5     -1753.087          34.000
R04  22952840.188 5 122911428.276 5      3003.012          30.000    22952833.641 4  95597748.613 4      2335.673          28.000
R11  23021774.758 6 123021310.056 6     -1096.902          36.000
R17  21731557.562 6 116289913.256 6     -4216.156          41.000    21731555.281 5  90447684.978 5     -3279.233          31.000
R18  19860479.727 7 106016580.290 7     -1014.570          46.000    19860482.805 7  82457354.378 7      -789.113          43.000
C19  22377961.633 7 116527901.952 7     -1504.625          44.000
C22  22360882.648 5 116438977.020 5      1054.023          35.000
E07  23382426.828 8 122875506.191 8        26.828          51.000    23382429.609 8  94151455.027 8        20.599          51.000
E08  23464201.461 5 123305210.852 5     -2105.105          31.000
E13  25787116.773 8 135512219.915 8     -2971.070          48.000    25787119.625 7 103834033.613 7     -2276.579          45.000
E26  22775459.070 8 119685858.845 8      -674.457          51.000    22775460.195 8  91707325.669 8      -516.795          51.000
> 2020 05 03 23 12 30.0000000  0 15        .000000000000
G01  24219027.258 6 127271824.250 6     -3711.711          40.000    24219030.578 6  99172857.499 6     -2892.242          39.000
G03  21398079.891 7 112447657.310 7     -1879.668          42.000    21398081.219 7  87621563.749 7     -1464.679          42.000
G04  20271933.242 8 106529730.044 8      -355.340          51.000    20271933.648 8  83010211.884 8      -276.885          51.000
G09  21026186.555 8 110493450.599 8      1939.621          51.000    21026187.969 8  86098766.134 8      1511.393          51.000
G17  23082710.320 8 121300450.777 8     -2350.754          50.000    23082707.875 8  94519820.494 8     -1831.756          50.000
G19  22585533.523 6 118687855.889 6     -1724.332          37.000
R02  20550153.758 6 109659548.596 6     -2259.383          39.000    20550155.547 5  85290748.500 5     -1757.295          33.000
R11  23027997.383 5 123054560.356 5     -1119.605          34.000
R17  21755223.641 6 116416541.968 6     -4225.785          39.000    21755219.062 4  90546173.907 4     -3286.728          28.000
R18  19866255.953 8 106047413.351 8     -1040.855          48.000    19866259.359 7  82481335.645 7      -809.554          44.000
C19  22386644.602 7 116573113.698 7     -1509.332          44.000
C22  22354827.953 6 116407441.997 6      1047.895          38.000
E07  23382293.625 8 122874805.514 8        20.023          51.000    23382296.312 8  94150918.149 8        15.346          51.000
E13  25804091.938 8 135601422.887 8     -2975.582          48.000    25804091.578 7 103902383.869 7     -2280.021          44.000
E26  22779346.641 8 119706287.605 8      -687.320          51.000    22779347.648 8  91722978.893 8      -526.615          51.000
> 2020 05 03 23 13  0.0000000  0 14        .000000000000
G01  24240246.422 6 127383331.202 6     -3720.508          39.000    24240250.398 6  99259746.043 6     -2899.097          39.000
G03  21408850.898 6 112504261.337 6     -1892.555          40.000    21408852.055 6  87665670.817 6     -1474.715          39.000
G04  20274023.930 8 106540716.540 8      -375.680          51.000    20274024.414 8  83018772.796 8      -292.737          51.000
G09  21015168.547 8 110435550.970 8      1921.730          51.000    21015169.992 8  86053649.546 8      1497.452          51.000
G17  23096179.062 8 121371228.921 8     -2366.242          49.000    23096176.562 8  94574972.268 8     -1843.825          49.000
R02  20562892.828 5 109727524.866 5     -2270.773          33.000    20562893.438 5  85343618.943 5     -1766.163          34.000
R11  23034369.617 5 123088613.539 5     -1148.898          34.000
R17  21778961.555 6 116543557.210 6     -4240.629          41.000
R18  19872198.898 7 106079137.301 7     -1072.660          47.000    19872202.547 7  82506009.800 7      -834.294          44.000
C19  22395372.906 7 116618565.079 7     -1519.387          43.000
C22  22348827.773 6 116376192.559 6      1036.453          36.000
E07  23382219.203 8 122874413.996 8         7.641          51.000    23382221.945 8  94150618.166 8         5.786          51.000
E13  25821112.719 8 135690865.702 8     -2985.762          48.000    25821110.719 7 103970917.921 7     -2287.738          45.000
E26  22783327.312 8 119727206.698 8      -705.746          51.000    22783328.492 8  91739007.826 8      -540.838          51.000
> 2020 05 03 23 13 30.0000000  0 16        .000000000000
G01  24261456.336 6 127494789.991 6     -3720.723          41.000    24261460.758 6  99346597.061 6     -2899.264          40.000
G03  21419636.641 5 112560944.551 5     -1896.746          34.000    21419637.398 5  87709839.503 5     -1477.987          34.000
G04  20276172.484 8 106552007.507 8      -387.406          51.000    20276173.180 8  83027570.960 8      -301.875          51.000
G09  21004195.805 8 110377888.746 8      1912.090          51.000    21004197.055 8  86008717.941 8      1489.940          51.000
G17  23109678.820 8 121442170.745 8     -2373.383          48.000    23109676.867 8  94630251.583 8     -1849.389          48.000
R02  20575638.141 6 109795532.393 6     -2273.484          37.000    20575638.477 5  85396513.728 5     -1768.266          34.000
R11  23040845.000 4 123123227.867 4     -1169.238          29.000    23040854.789 4  95762599.869 4      -909.398          25.000
R12  22154436.852 5 118345000.291 5      2049.539          34.000
R17  21802724.258 7 116670713.363 7     -4246.988          44.000    21802719.719 4  90743931.490 4     -3303.216          27.000
R18  19878263.547 7 106111510.097 7     -1096.125          47.000    19878267.125 7  82531188.626 7      -852.542          44.000
C19  22404101.984 7 116664020.681 7     -1521.172          43.000
C22  22342837.172 5 116344994.162 5      1032.727          34.000
E07  23382158.336 8 122874094.049 8         3.402          51.000    23382161.180 8  94150373.018 8         2.622          51.000
E08  23500297.656 5 123494904.210 5     -2113.051          34.000
E13  25838133.680 7 135780309.811 7     -2987.551          47.000    25838132.078 7 104039452.992 7     -2289.186          46.000
E26  22787356.023 8 119748378.954 8      -716.066          51.000    22787357.289 8  91755230.719 8      -548.653          51.000
> 2020 05 03 23 14  0.0000000  0 18        .000000000000
G01  24282705.164 6 127606452.231 6     -3722.535          41.000    24282709.508 6  99433606.583 6     -2900.677          39.000
G03  21430486.461 6 112617959.810 6     -1903.355          36.000    21430487.875 5  87754267.062 5     -1483.137          35.000
G04  20278427.133 8 106563855.498 8      -401.484          51.000    20278427.977 8  83036803.160 8      -312.845          51.000
G09  20993316.953 8 110320718.227 8      1900.141          51.000    20993317.633 8  85964169.487 8      1480.629          51.000
G17  23123257.328 7 121513527.083 7     -2382.438          47.000    23123256.164 7  94685853.925 7     -1856.445          47.000
G19  22615514.844 5 118845334.661 5     -1776.559          32.000
G22  23452662.703 5 123244596.089 5     -2601.875          32.000
R02  20588437.227 6 109863827.967 6     -2278.348          36.000    20588437.930 5  85449632.429 5     -1772.051          34.000
R04  22885769.234 4 122552254.233 4      2983.203          29.000
R11  23047474.453 5 123158714.640 5     -1191.844          35.000    23047481.930 4  95790147.185 4      -926.980          29.000
R17  21826559.258 7 116798264.415 7     -4255.262          45.000    21826558.703 5  90843137.836 5     -3309.648          31.000
R18  19884498.031 7 106144788.089 7     -1121.539          47.000    19884500.812 7  82557071.517 7      -872.308          45.000
C19  22412880.094 7 116709731.366 7     -1525.297          42.000
C22  22336903.422 5 116314098.027 5      1027.547          34.000
E07  23382159.156 8 122874098.681 8        -2.777          51.000    23382162.039 8  94150376.583 8        -2.137          51.000
E08  23512370.570 5 123558336.381 5     -2114.633          35.000
E13  25855202.703 7 135870007.278 7     -2991.273          47.000    25855202.508 7 104108182.208 7     -2292.072          47.000
E26  22791481.227 8 119770057.817 8      -728.254          51.000    22791482.172 8  91771841.800 8      -558.058          51.000
> 2020 05 03 23 14 30.0000000  0 17        .000000000000
G01  24303973.609 6 127718218.801 6     -3727.523          41.000    24303977.461 6  99520697.297 6     -2904.570          39.000
G03  21441380.570 5 112675209.842 5     -1912.168          33.000    21441381.539 5  87798877.442 5     -1490.010          32.000
G04  20280769.016 8 106576162.126 8      -418.020          51.000    20280770.078 8  83046392.743 8      -325.730          51.000
G09  20982513.367 8 110263942.791 8      1885.801          51.000    20982513.438 8  85919928.897 8      1469.455          51.000
G17  23136895.727 8 121585197.666 8     -2394.355          48.000    23136895.047 8  94741701.140 8     -1865.732          49.000
G19  22625710.352 4 118898902.591 4     -1794.113          28.000
R02  20601303.047 5 109932412.938 5     -2286.363          31.000    20601269.633 5  85502930.864 5     -1778.283          32.000
R04  22869076.930 4 122462874.293 4      2975.766          28.000
R11  23054240.070 6 123194863.682 6     -1216.660          36.000    23054245.555 4  95818263.305 4      -946.288          29.000
R17  21850448.047 7 116926107.121 7     -4266.398          46.000    21850450.656 5  90942571.023 5     -3318.310          31.000
R18  19890883.164 7 106178871.275 7     -1149.699          46.000    19890885.930 7  82583580.631 7      -894.214          46.000
C19  22421688.430 7 116755600.282 7     -1531.688          42.000
C22  22331009.031 5 116283407.744 5      1019.879          32.000
E07  23382203.133 8 122874330.049 8       -11.633          51.000    23382206.164 8  94150553.868 8        -8.895          51.000
E08  23524456.422 6 123621840.852 6     -2117.824          36.000
E13  25872301.086 7 135959859.296 7     -2997.691          45.000    25872302.047 7 104177029.856 7     -2296.938          47.000
E26  22795684.266 8 119792145.832 8      -743.199          51.000    22795684.797 8  91788766.379 8      -569.479          51.000
> 2020 05 03 23 15  0.0000000  0 15        .000000000000
G01  24325265.531 6 127830108.662 6     -3732.000          39.000    24325270.047 6  99607884.166 6     -2908.052          39.000
G03  21452323.141 5 112732715.072 5     -1921.000          30.000    21452324.453 4  87843686.756 4     -1496.883          28.000
G04  20283201.977 8 106588947.363 8      -434.371          51.000    20283202.859 8  83056355.273 8      -338.471          51.000
G09  20971788.633 8 110207584.221 8      1871.406          51.000    20971788.859 8  85876013.142 8      1458.239          51.000
G17  23150597.820 8 121657200.933 8     -2405.855          50.000    23150596.836 8  94797807.584 8     -1874.693          50.000
R02  20614143.031 5 110001070.101 5     -2293.688          32.000    20614145.398 5  85556368.590 5     -1783.979          34.000
R11  23061143.531 5 123231750.002 5     -1242.418          30.000    23061149.086 4  95846952.775 4      -966.319          27.000
