     3.04           OBSERVATION DATA    M (MIXED)           RINEX VERSION / TYPE
Convert 2.6.2       NovAtel             20200518 121320 UTC PGM / RUN BY / DATE 
Rinex Version 3.04 Observation File                         COMMENT             
                                                            MARKER NAME         
                                                            MARKER NUMBER       
                                                            MARKER TYPE         
                                                            OBSERVER / AGENCY   
                    NovAtel GPSCard                         REC # / TYPE / VERS 
                                                            ANT # / TYPE        
        0.0000        0.0000        0.0000                  APPROX POSITION XYZ 
        0.0000        0.0000        0.0000                  ANTENNA: DELTA H/E/N
G    8 C1C L1C D1C S1C C2W L2W D2W S2W                      SYS / # / OBS TYPES 
R    8 C1C L1C D1C S1C C2P L2P D2P S2P                      SYS / # / OBS TYPES 
E    8 C1C L1C D1C S1C C7Q L7Q D7Q S7Q                      SYS / # / OBS TYPES 
C    8 C2I L2I D2I S2I C7I L7I D7I S7I                      SYS / # / OBS TYPES 
DBHZ                                                        SIGNAL STRENGTH UNIT
    30.000                                                  INTERVAL            
  2020    05    16    17    00    0.0000000     GPS         TIME OF FIRST OBS   
  2020    05    16    17    59   30.0000000     GPS         TIME OF LAST OBS    
G L1C  0.00000  11 G32 G08 G22 G10 G16 G14 G27 G01 G20 G11  SYS / PHASE SHIFT   
                   G03                                      SYS / PHASE SHIFT   
G L2W  0.00000  10 G32 G08 G10 G14 G27 G22 G20 G01 G11 G03  SYS / PHASE SHIFT   
R L1C  0.00000  05 R05 R10 R04 R20 R06                      SYS / PHASE SHIFT   
R L2P  0.25000  03 R05 R20 R04                              SYS / PHASE SHIFT   
E L1C  0.50000  05 E15 E08 E21 E13 E07                      SYS / PHASE SHIFT   
E L7Q -0.25000  05 E15 E08 E21 E13 E07                      SYS / PHASE SHIFT   
C L2I  0.00000  06 C29 C20 C19 C05 C30 C22                  SYS / PHASE SHIFT   
C L7I  0.00000  01 C05                                      SYS / PHASE SHIFT   
  5 R05  1 R10 -7 R04  6 R20  2 R06 -4                      GLONASS SLOT / FRQ #
 C1C  -71.950 C2C  -71.950 C2P  -71.950                     GLONASS COD/PHS/BIS 
     0     0     0     0GPS                                 LEAP SECONDS        
                                                            END OF HEADER       
> 2020 05 16 17 00  0.0000000  0 17      -0.000000000000
G32  23336088.492 6 122632023.791 6      2571.180          41.000    23336093.016 6  95557416.298 6      2003.520          41.000  
G08  20432762.953 8 107374893.555 8       766.129          48.000    20432764.227 8  83668752.249 8       596.984          49.000  
G22  23783573.570 6 124983502.141 6      3418.867          39.000                                                                  
G10  21438121.992 6 112658086.119 6     -1734.336          41.000    21438123.453 6  87785550.985 6     -1351.431          41.000  
G16  24019260.867 5 126221959.624 5     -3707.539          32.000                                                                  
G14  24497721.961 7 128736410.703 7      2976.043          44.000    24497724.531 7 100314085.632 7      2318.995          42.000  
G27  20709949.219 8 108831512.185 8     -1501.336          51.000    20709951.625 8  84803780.689 8     -1169.873          51.000  
R05  19997130.266 8 106895734.596 8      1963.449          51.000    19997132.805 7  83141231.617 7      1527.127          47.000  
R10  23328199.375 7 124352081.906 7     -3714.152          45.000                                                                  
E15  24583355.789 5 129186420.269 5     -1567.395          35.000    24583357.117 6  98986993.449 6     -1201.051          39.000  
E08  23606767.656 8 124054444.453 8      2405.871          50.000    23606770.070 8  95054732.833 8      1843.392          50.000  
E21  25984266.852 6 136548256.839 6     -1973.238          41.000    25984269.617 7 104627885.840 7     -1511.816          43.000  
E13  23406187.945 7 123000346.931 7       523.535          42.000    23406191.250 6  94247045.443 6       401.001          40.000  
C29  21982017.945 8 114466117.130 8     -1157.801          51.000                                                                  
C20  22763318.109 7 118534619.603 7      -550.637          47.000                                                                  
C19  22809658.359 8 118775898.687 8      2456.504          50.000                                                                  
C05  39639124.852 6 206411324.185 6       -20.828          36.000                                                                  
> 2020 05 16 17 00 30.0000000  0 17      -0.000000000000
G32  23321436.414 7 122555024.161 7      2561.926          42.000    23321441.367 6  95497416.657 6      1996.312          41.000  
G08  20428431.227 8 107352130.186 8       751.402          48.000    20428432.953 8  83651014.555 8       585.505          48.000  
G22  23764070.617 6 124881019.130 6      3413.574          36.000                                                                  
G10  21448065.312 7 112710339.544 7     -1749.121          43.000    21448067.156 7  87826267.915 7     -1362.952          43.000  
G16  24040438.773 5 126333248.694 5     -3710.652          30.000                                                                  
G14  24480737.070 7 128647152.021 7      2974.223          42.000    24480739.586 6 100244533.517 6      2317.583          41.000  
G27  20718562.750 8 108876775.769 8     -1516.102          51.000    20718565.227 8  84839050.968 8     -1181.378          51.000  
R05  19986180.672 8 106837203.058 8      1938.746          51.000    19986183.703 8  83095707.098 8      1507.914          48.000  
R10  23349122.508 7 124463611.305 7     -3720.801          44.000                                                                  
E15  24592315.781 6 129233504.997 6     -1571.480          36.000    24592316.711 6  99023071.300 6     -1204.035          39.000  
E08  23593056.953 8 123982393.839 8      2397.594          50.000    23593059.219 8  94999525.277 8      1837.058          51.000  
E21  25995561.266 7 136607610.161 7     -1983.633          42.000    25995564.055 7 104673364.263 7     -1519.855          43.000  
E13  23403214.406 6 122984720.426 6       518.461          41.000    23403217.289 6  94235071.909 6       397.257          41.000  
C29  21988716.398 8 114500997.812 8     -1167.555          51.000                                                                  
C20  22766538.102 7 118551386.037 7      -567.078          47.000                                                                  
C19  22795539.516 8 118702376.893 8      2445.000          51.000                                                                  
C05  39639245.492 6 206411951.934 6       -20.836          36.000    39639245.594 6 159610814.729 6       -16.169          37.000  
> 2020 05 16 17 01  0.0000000  0 17      -0.000000000000
G32  23306837.172 7 122478301.998 7      2552.840          42.000    23306842.438 7  95437633.272 7      1989.229          42.000  
G08  20424183.719 8 107329809.930 8       736.781          48.000    20424185.883 8  83633622.134 8       574.115          48.000  
G22  23744602.430 6 124778719.434 6      3406.684          36.000    23744605.406 5  97230188.322 5      2654.560          31.000  
G10  21458090.883 7 112763025.434 7     -1763.438          42.000    21458092.688 7  87867321.835 7     -1374.108          42.000  
G14  24463761.320 6 128557942.478 6      2972.980          41.000    24463763.797 6 100175019.665 6      2316.612          41.000  
G27  20727259.242 8 108922475.091 8     -1530.375          51.000    20727261.609 8  84874660.790 8     -1192.500          51.000  
R05  19975370.109 8 106779412.172 8      1914.195          51.000    19975372.961 8  83050758.661 8      1488.819          48.000  
R10  23370081.867 7 124575336.635 7     -3727.168          42.000                                                                  
R04  21060801.672 5 112779205.926 5     -2264.980          34.000                                                                  
E15  24601296.320 6 129280699.034 6     -1574.539          37.000    24601298.008 6  99059232.933 6     -1206.514          39.000  
E08  23579393.781 8 123910590.566 8      2389.430          49.000    23579396.047 8  94944507.244 8      1830.923          51.000  
E21  26006915.016 7 136667272.485 7     -1993.672          43.000    26006917.656 7 104719079.466 7     -1527.590          43.000  
E13  23400268.594 7 122969238.838 7       514.020          42.000    23400271.227 6  94223209.391 6       393.752          41.000  
C29  21995470.430 8 114536168.458 8     -1177.082          51.000                                                                  
C20  22769851.844 7 118568642.157 7      -583.246          46.000                                                                  
C19  22781487.211 8 118629199.380 8      2433.738          51.000                                                                  
C05  39639364.836 6 206412574.156 6       -20.492          36.000    39639365.023 6 159611295.096 6       -15.801          36.000  
> 2020 05 16 17 01 30.0000000  0 17      -0.000000000000
G32  23292293.883 7 122401873.234 7      2542.844          42.000    23292298.859 7  95378078.471 7      1981.440          42.000  
G08  20420023.172 8 107307946.830 8       721.348          49.000    20420025.484 8  83616585.940 8       562.089          49.000  
G22  23725173.125 6 124676617.592 6      3399.652          37.000    23725179.609 5  97150646.544 5      2649.081          32.000  
G10  21468200.906 7 112816154.630 7     -1778.191          43.000    21468202.766 7  87908721.209 7     -1385.604          44.000  
G14  24446798.133 6 128468797.675 6      2970.629          41.000    24446800.367 6 100105556.302 6      2314.782          39.000  
G27  20736040.922 8 108968622.534 8     -1545.453          51.000    20736043.344 8  84910619.818 8     -1204.253          51.000  
R05  19964700.867 8 106722377.219 8      1888.742          51.000    19964703.664 8  83006398.187 8      1469.022          48.000  
R10  23391079.281 6 124687266.893 6     -3734.316          40.000                                                                  
R04  21073559.195 5 112847526.113 5     -2288.348          31.000                                                                  
E15  24610300.297 5 129328015.419 5     -1578.875          35.000    24610302.703 6  99095488.274 6     -1209.686          39.000  
E08  23565780.102 7 123839049.250 7      2380.516          47.000    23565782.266 8  94889689.894 8      1824.036          51.000  
E21  26018329.719 7 136727254.848 7     -2004.559          43.000    26018332.383 7 104765039.920 7     -1536.045          44.000  
E13  23397353.016 7 122953915.249 7       508.164          43.000    23397355.195 6  94211467.928 6       389.456          41.000  
C29  22002282.461 8 114571641.939 8     -1187.371          51.000                                                                  
C20  22773261.875 7 118586399.911 7      -600.164          46.000                                                                  
C19  22767503.695 8 118556380.648 8      2421.496          51.000                                                                  
C05  39639485.453 6 206413201.588 6       -20.867          36.000    39639485.562 6 159611780.272 6       -16.266          36.000  
> 2020 05 16 17 02  0.0000000  0 18      -0.000000000000
G32  23277805.594 6 122325740.669 6      2531.867          38.000    23277810.938 6  95318754.432 6      1972.881          39.000  
G08  20415949.828 8 107286542.044 8       705.215          48.000    20415952.250 8  83599906.876 8       549.518          49.000  
G22  23705782.578 6 124574715.331 6      3392.645          40.000    23705790.836 5  97071242.259 5      2643.620          31.000  
G10  21478395.008 7 112869725.190 7     -1793.859          44.000    21478397.641 7  87950464.433 7     -1397.816          43.000  
G14  24429847.375 6 128379720.434 6      2967.457          40.000    24429849.711 6 100036145.631 6      2312.314          40.000  
G27  20744907.516 8 109015217.543 8     -1561.363          51.000    20744910.453 8  84946927.596 8     -1216.647          51.000  
G01  23090881.703 5 121343401.37325      2828.520          32.000                                                                  
R05  19954173.242 8 106666100.678 8      1862.477          51.000    19954176.344 8  82962627.607 8      1448.596          48.000  
R10  23412114.164 6 124799397.222 6     -3741.703          39.000                                                                  
E15  24619327.664 6 129375454.018 6     -1584.160          36.000    24619329.492 6  99131837.305 6     -1213.787          38.000  
E08  23552214.727 7 123767771.630 7      2370.664          46.000    23552218.555 8  94835074.537 8      1816.511          51.000  
E21  26029804.406 7 136787555.454 7     -2016.211          42.000    26029807.172 7 104811244.216 7     -1544.791          44.000  
E13  23394467.539 7 122938749.792 7       502.113          43.000    23394468.875 6  94199847.631 6       384.605          41.000  
C30  25923469.375 4 134990313.340 4     -2832.914          29.000                                                                  
C29  22009152.773 8 114607418.298 8     -1198.336          51.000                                                                  
C20  22776768.188 7 118604658.409 7      -617.762          44.000                                                                  
C19  22753589.141 8 118483922.319 8      2408.527          51.000                                                                  
C05  39639607.211 6 206413835.186 6       -21.941          36.000    39639607.188 6 159612270.175 6       -16.782          36.000  
> 2020 05 16 17 02 30.0000000  0 17      -0.000000000000
G32  23263372.008 6 122249903.726 6      2523.273          37.000    23263379.438 6  95259660.718 6      1966.188          37.000  
G08  20411963.320 8 107265593.666 8       691.234          49.000    20411965.805 8  83583583.457 8       538.624          49.000  
G22  23686430.484 6 124473011.263 6      3387.293          40.000    23686436.602 6  96991992.436 6      2639.456          36.000  
G10  21488671.930 7 112923731.493 7     -1807.059          43.000    21488675.031 7  87992547.246 7     -1408.098          42.000  
G16  24125290.039 5 126779219.38425     -3719.441          32.000                                                                  
G14  24412909.266 7 128290710.386 7      2966.289          42.000    24412911.867 6  99966787.316 6      2311.401          39.000  
G27  20753858.438 8 109062256.166 8     -1574.617          51.000    20753861.820 8  84983581.052 8     -1226.975          51.000  
R05  19943787.406 8 106610581.370 8      1838.590          51.000    19943790.547 8  82919445.953 8      1430.015          48.000  
R10  23433185.844 6 124911719.989 6     -3746.840          39.000                                                                  
E15                                                                  24628379.320 6  99168277.370 6     -1215.690          37.000  
E08  23538700.219 8 123696755.922 8      2363.457          50.000    23538704.766 8  94780659.900 8      1810.953          51.000  
E21  26041337.648 6 136848168.996 6     -2025.004          40.000    26041340.297 7 104857688.396 7     -1551.496          43.000  
E13  23391611.289 7 122923739.255 7       498.262          42.000    23391612.047 7  94188346.043 7       381.857          42.000  
C29  22016080.656 8 114643494.212 8     -1206.863          51.000                                                                  
C20  22780369.414 6 118623413.346 6      -632.934          41.000                                                                  
C19  22739742.938 8 118411822.690 8      2397.883          50.000                                                                  
C05  39639729.344 6 206414472.493 6       -20.395          36.000    39639729.336 6 159612763.215 6       -16.033          36.000  
> 2020 05 16 17 03  0.0000000  0 17      -0.000000000000
G32  23248994.953 6 122174353.040 6      2513.176          40.000    23249001.797 6  95200790.066 6      1958.325          41.000  
G08  20408061.836 8 107245090.653 8       675.836          50.000    20408064.227 8  83567607.051 8       526.626          50.000  
G22  23667114.492 6 124371494.367 6      3380.613          41.000    23667116.664 5  96912888.478 5      2634.248          30.000  
G10  21499029.109 7 112978159.234 7     -1821.340          45.000    21499031.406 7  88034958.395 7     -1419.229          45.000  
G16  24146526.867 5 126890849.354 5     -3721.809          34.000                                                                  
G14  24395982.195 7 128201758.098 7      2964.129          44.000    24395985.141 6  99897473.959 6      2309.715          39.000  
G27  20762891.617 8 109109725.623 8     -1589.555          51.000    20762894.742 8  85020570.233 8     -1238.614          51.000  
R05  19933540.883 8 106555809.412 8      1813.039          50.000    19933544.359 8  82876845.558 8      1410.145          48.000  
R10  23454290.469 6 125024218.085 6     -3752.883          38.000                                                                  
E15                                                                  24637448.664 6  99204799.068 6     -1219.019          37.000  
E08  23525234.781 8 123625991.583 8      2354.391          51.000    23525238.398 8  94726437.882 8      1804.045          51.000  
E21  26052927.969 6 136909081.510 6     -2035.543          40.000    26052930.852 7 104904361.586 7     -1559.679          44.000  
E13  23388781.984 7 122908871.518 7       493.070          42.000    23388782.672 7  94176953.869 7       377.837          43.000  
C29  22023063.984 8 114679857.565 8     -1217.086          51.000                                                                  
C20  22784063.836 6 118642651.747 6      -649.645          39.000                                                                  
C19  22725962.938 8 118340071.229 8      2385.688          49.000                                                                  
C05  39639849.664 6 206415099.264 6       -20.559          36.000    39639849.703 6 159613247.870 6       -16.178          36.000  
> 2020 05 16 17 03 30.0000000  0 18      -0.000000000000
G32  23234676.133 6 122099102.546 6      2502.512          39.000    23234680.883 6  95142153.420 6      1950.013          40.000  
G08  20404247.523 8 107225045.158 8       659.703          51.000    20404249.734 8  83551987.193 8       514.055          51.000  
G22  23647836.781 6 124270177.910 6      3372.637          40.000    23647835.977 4  96833940.786 4      2628.035          28.000  
G10  21509468.164 7 113033017.684 7     -1836.707          42.000    21509470.031 7  88077705.143 7     -1431.204          42.000  
G16  24167779.531 5 127002542.000 5     -3725.008          35.000                                                                  
G14  24379068.703 7 128112877.407 7      2960.566          45.000    24379072.250 6  99828216.381 6      2306.939          41.000  
G20  23553604.344 5 123775013.007 5     -3263.852          31.000                                                                  
G27  20772009.047 8 109157636.597 8     -1605.254          51.000    20772011.664 8  85057903.452 8     -1250.848          51.000  
R05  19923436.766 8 106501798.360 8      1786.762          51.000    19923440.609 8  82834836.970 8      1389.704          49.000  
R10  23475428.906 6 125136898.058 6     -3760.070          38.000                                                                  
E15                                                                  24646541.523 6  99241410.968 6     -1222.679          37.000  
E08  23511819.836 8 123555491.601 8      2344.727          51.000    23511822.758 8  94672418.458 8      1796.634          51.000  
E21  26064577.891 6 136970302.414 6     -2046.539          36.000    26064580.656 7 104951271.029 7     -1568.242          44.000  
E13  23385981.930 6 122894158.068 6       487.129          41.000    23385983.406 7  94165679.922 7       373.240          43.000  
C29  22030104.672 8 114716519.607 8     -1227.898          51.000                                                                  
C20  22787851.547 4 118662383.816 4      -666.289          29.000                                                                  
C19  22712252.156 8 118268680.806 8      2372.703          48.000                                                                  
C05  39639970.344 6 206415727.703 6       -21.438          36.000    39639970.422 6 159613733.815 6       -17.009          36.000  
> 2020 05 16 17 04  0.0000000  0 18      -0.000000000000
G32  23220415.078 5 122024158.748 5      2493.465          35.000    23220419.047 5  95083755.825 5      1942.966          35.000  
G08  20400521.125 8 107205461.928 8       645.930          51.000    20400523.258 8  83536727.527 8       503.322          51.000  
G22  23628598.523 6 124169067.037 6      3367.602          39.000    23628593.797 4  96755153.188 4      2624.106          25.000  
G10  21519989.336 7 113088308.157 7     -1849.305          43.000    21519991.281 7  88120788.637 7     -1441.017          43.000  
G16  24189044.617 5 127114297.437 5     -3725.215          35.000                                                                  
G14  24362170.078 7 128024074.693 7      2959.602          46.000    24362173.828 6  99759019.525 6      2306.187          40.000  
G20  23572243.641 5 123872967.273 5     -3266.711          33.000                                                                  
G27  20781211.266 8 109205992.179 8     -1618.340          51.000    20781213.445 8  85095583.112 8     -1261.044          51.000  
G11  21212326.570 5 111471557.17025      2401.891          32.000                                                                  
R05  19913476.500 8 106448553.910 8      1762.922          51.000    19913480.148 8  82793424.611 8      1371.162          49.000  
R10  23496601.461 6 125249759.243 6     -3763.984          37.000                                                                  
E15                                                                  24655659.789 6  99278115.862 6     -1224.499          36.000  
E08  23498455.859 8 123485261.390 8      2337.297          51.000    23498458.250 8  94618605.748 8      1790.914          51.000  
E21  26076287.242 6 137031833.501 6     -2055.645          38.000    26076289.859 7 104998418.114 7     -1574.809          45.000  
E13  23383212.078 6 122879602.746 6       483.469          41.000    23383214.555 7  94154527.145 7       370.361          43.000  
C29  22037203.320 8 114753484.005 8     -1236.391          51.000                                                                  
C19  22698612.125 8 118197656.675 8      2362.277          49.000                                                                  
C05  39640092.133 6 206416361.298 6       -20.309          36.000    39640092.328 6 159614223.719 6       -15.991          36.000  
> 2020 05 16 17 04 30.0000000  0 19      -0.000000000000
G32  23206211.969 6 121949516.917 6      2483.453          38.000    23206215.758 6  95025593.401 6      1935.162          38.000  
G08  20396881.320 8 107186334.709 8       630.180          50.000    20396883.547 8  83521823.193 8       491.049          50.000  
G22  23609398.336 6 124068155.941 6      3360.664          39.000    23609390.125 5  96676521.330 5      2618.709          31.000  
G10  21530591.203 7 113144021.006 7     -1863.855          46.000    21530592.945 7  88164201.167 7     -1452.355          46.000  
G16  24210320.500 5 127226105.793 5     -3727.246          35.000                                                                  
G14  24345285.391 7 127935345.146 7      2956.664          46.000    24345288.789 6  99689879.658 6      2303.895          37.000  
G20  23590914.703 5 123971080.338 5     -3272.555          35.000                                                                  
G27  20790496.445 8 109254783.959 8     -1633.426          51.000    20790498.219 8  85133602.633 8     -1272.803          51.000  
R05  19903658.406 8 106396070.551 8      1736.988          51.000    19903661.961 8  82752604.266 8      1350.991          49.000  
R10  23517805.375 5 125362789.346 5     -3770.074          32.000                                                                  
E15                                                                  24664798.102 5  99314907.793 5     -1227.600          34.000  
E08  23485141.617 8 123415294.811 8      2328.086          51.000    23485143.969 8  94564995.038 8      1783.904          51.000  
E21  26088053.789 6 137093664.890 6     -2065.879          39.000    26088056.789 7 105045795.386 7     -1582.836          45.000  
E13  23380470.883 6 122865197.901 6       477.910          40.000    23380473.883 7  94143489.672 7       366.125          43.000  
C30  26005299.633 4 135416408.782 4     -2848.645          29.000                                                                  
C29  22044358.703 8 114790743.018 8     -1246.660          51.000                                                                  
C20  22795714.578 5 118703269.507 5      -698.324          32.000                                                                  
C19  22685042.133 8 118126992.736 8      2349.664          50.000                                                                  
C05  39640213.211 6 206416992.211 6       -20.309          36.000    39640213.492 6 159614712.598 6       -16.115          36.000  
> 2020 05 16 17 05  0.0000000  0 18      -0.000000000000
G32  23192062.477 6 121875152.864 6      2474.875          40.000    23192065.969 6  94967647.468 6      1928.478          40.000  
G08  20393323.336 8 107167637.789 8       616.758          51.000    20393325.695 8  83507254.148 8       480.591          51.000  
G22  23590230.125 6 123967419.112 6      3355.852          39.000    23590219.531 4  96598025.270 4      2614.953          29.000  
G10  21541268.008 7 113200127.203 7     -1876.184          43.000    21541269.758 7  88207920.255 7     -1461.962          43.000  
G16  24231601.000 6 127337936.189 6     -3726.922          36.000                                                                  
G14  24328410.148 7 127846664.798 7      2955.805          47.000    24328413.219 6  99620778.144 6      2303.225          39.000  
G20  23609610.438 5 124069323.467 5     -3276.031          35.000                                                                  
G27  20799859.289 8 109303984.560 8     -1646.113          51.000    20799860.367 8  85171940.715 8     -1282.686          51.000  
G01  22994543.430 5 120837131.148 5      2798.125          35.000                                                                  
R05  19893978.133 8 106344323.333 8      1713.363          51.000    19893981.344 8  82712356.464 8      1332.616          49.000  
E15                                                                  24673951.250 5  99351776.277 5     -1229.372          33.000  
E08  23471872.680 8 123345566.802 8      2321.020          51.000    23471875.414 8  94511567.150 8      1778.495          51.000  
E21  26099871.234 6 137155767.991 6     -2073.762          38.000    26099875.734 7 105093380.920 7     -1589.056          46.000  
E13  23377753.328 6 122850916.998 6       474.758          41.000    23377756.172 7  94132547.161 7       363.644          44.000  
C29  22051565.352 8 114828270.189 8     -1254.684          51.000                                                                  
C20  22799783.805 6 118724445.556 6      -712.766          39.000                                                                  
C19  22671536.883 8 118056664.027 8      2339.438          51.000                                                                  
C05  39640328.828 6 206417593.975 6       -18.961          36.000    39640329.086 6 159615177.881 6       -14.692          37.000  
> 2020 05 16 17 05 30.0000000  0 19      -0.000000000000
G32  23177976.820 7 121801124.931 7      2462.027          42.000    23177980.148 7  94909963.412 7      1918.466          42.000  
G08  20389858.094 8 107149427.844 8       599.242          51.000    20389860.570 8  83493064.568 8       466.942          51.000  
G22  23571105.219 6 123866914.191 6      3346.621          40.000    23571093.555 5  96519709.911 5      2607.779          31.000  
G10  21552029.859 7 113256680.058 7     -1892.023          46.000    21552031.539 7  88251987.413 7     -1474.304          46.000  
G16  24252896.586 5 127449841.946 5     -3730.602          35.000                                                                  
G14  24311555.398 8 127758091.647 8      2951.109          48.000    24311558.188 6  99551760.193 6      2299.570          37.000  
G20  23628341.023 6 124167749.730 6     -3283.359          36.000                                                                  
G27  20809310.258 8 109353648.796 8     -1662.812          51.000    20809310.625 8  85210640.082 8     -1295.698          51.000  
G01  22978599.172 6 120753333.934 6      2790.324          36.000                                                                  
R05  19884446.320 8 106293370.570 8      1685.578          51.000    19884449.430 8  82672726.586 8      1311.009          49.000  
R04  21180120.539 5 113418197.57325     -2466.543          32.000                                                                  
E15                                                                  24683133.164 5  99388744.654 5     -1233.957          32.000  
E08  23458659.953 8 123276134.469 8      2309.891          51.000    23458662.508 8  94458365.825 8      1769.911          51.000  
E21  26111750.164 6 137218196.552 6     -2086.207          40.000    26111756.680 7 105141215.739 7     -1598.317          46.000  
E13  23375070.242 7 122836815.616 7       467.520          42.000    23375072.523 7  94121742.209 7       358.235          44.000  
C29  22058834.094 8 114866120.455 8     -1266.672          51.000                                                                  
C20  22803949.430 7 118746135.622 7      -731.266          43.000                                                                  
C19  22658106.750 8 117986727.091 8      2324.996          51.000                                                                  
C05  39640449.336 6 206418221.351 6       -21.305          36.000    39640449.602 6 159615662.982 6       -16.145          36.000  
> 2020 05 16 17 06  0.0000000  0 20      -0.000000000000
G32  23163954.234 6 121727429.332 6      2446.777          40.000    23163957.328 6  94852538.342 6      1906.580          39.000  
G08  20386484.523 8 107131699.504 8       578.676          51.000    20386486.992 8  83479250.268 8       450.916          51.000  
G22  23552022.500 6 123766635.792 6      3334.746          37.000    23552010.094 4  96441570.993 4      2598.507          28.000  
G10  21562875.047 7 113313670.974 7     -1911.113          47.000    21562877.195 7  88296395.879 7     -1489.180          47.000  
G16  24274205.523 5 127561813.445 5     -3737.406          34.000                                                                  
G14  24294720.234 7 127669622.099 7      2942.973          47.000    24294722.359 6  99482823.000 6      2293.229          38.000  
G20  23647104.625 6 124266350.432 6     -3294.039          36.000                                                                  
G27  20818847.852 8 109403769.423 8     -1682.449          51.000    20818847.992 8  85249695.084 8     -1311.000          51.000  
G01  22962691.234 4 120669756.55924      2779.066          29.000                                                                  
R05  19875062.203 8 106243207.676 8      1654.664          51.000    19875065.508 8  82633711.028 8      1286.961          49.000  
R10  23581604.188 5 125702882.408 5     -3791.875          30.000                                                                  
R04  21194008.195 5 113492565.26625     -2493.867          30.000                                                                  
E15  24692335.391 5 129759100.548 5     -1618.734          35.000                                                                  
E08  23445502.766 8 123206992.928 8      2295.594          51.000    23445505.406 8  94405387.320 8      1758.986          51.000  
E21  26123689.523 6 137280941.951 6     -2100.887          40.000    26123697.992 7 105189293.358 7     -1609.858          46.000  
E13  23372419.602 7 122822887.419 7       457.082          42.000    23372422.086 7  94111069.941 7       350.340          44.000  
C29  22066163.617 8 114904287.301 8     -1281.656          51.000                                                                  
C20  22808211.922 7 118768332.224 7      -752.578          46.000                                                                  
C19  22644750.477 8 117917176.994 8      2307.691          51.000                                                                  
C05  39640573.578 6 206418867.792 6       -26.043          36.000    39640573.773 6 159616162.872 6       -20.274          36.000  
> 2020 05 16 17 06 30.0000000  0 17      -0.000000000000
G32  23149998.836 5 121654090.142 5      2440.277          31.000    23150001.602 4  94795391.057 4      1901.525          29.000  
G08  20383206.734 8 107114474.991 8       567.719          51.000    20383209.023 8  83465828.557 8       442.378          51.000  
G22  23532987.680 5 123666684.425 5      3331.645          32.000    23532974.359 4  96363596.013 4      2596.106          27.000  
G10  21573807.125 7 113371118.988 7     -1920.387          46.000    21573809.734 7  88341160.573 7     -1496.406          46.000  
G14  24277909.352 7 127581280.095 7      2944.688          47.000    24277910.953 6  99413985.198 6      2294.568          38.000  
G20  23665905.086 6 124365144.635 6     -3294.090          36.000                                                                  
G27  20828476.023 8 109454367.165 8     -1692.461          51.000    20828476.695 8  85289121.854 8     -1318.801          51.000  
R05  19865829.977 8 106193858.420 8      1633.418          49.000    19865833.828 8  82595328.300 8      1270.439          49.000  
R10  23602940.000 5 125816610.538 5     -3792.539          30.000                                                                  
E15  24701571.016 6 129807638.468 6     -1618.539          36.000                                                                  
E08  23432405.617 8 123138165.140 8      2291.113          51.000    23432408.086 8  94352649.233 8      1755.529          51.000  
E21  26135692.641 6 137344023.630 6     -2105.922          36.000    26135703.156 7 105237628.635 7     -1613.869          45.000  
E13  23369805.516 6 122809153.917 6       456.676          41.000    23369808.438 7  94100546.831 7       349.876          44.000  
C29  22073558.125 8 114942791.833 8     -1287.047          51.000                                                                  
C20  22812574.992 7 118791055.385 7      -764.160          45.000                                                                  
C19  22631472.758 8 117848036.441 8      2299.852          51.000                                                                  
C05  39640705.453 6 206419554.380 6       -21.707          36.000    39640705.383 6 159616693.756 6       -16.661          36.000  
> 2020 05 16 17 07  0.0000000  0 15      -0.000000000000
G32  23136106.711 4 121581048.012 4      2430.770          29.000    23136105.680 4  94738486.608 4      1894.110          29.000  
G08  20380015.602 8 107097705.655 8       553.262          51.000    20380017.562 8  83452761.540 8       431.113          51.000  
G10  21584816.094 7 113428971.882 7     -1933.328          47.000    21584818.383 7  88386240.732 7     -1506.490          47.000  
G14  24261113.945 7 127493018.416 7      2942.582          45.000    24261115.414 6  99345210.023 6      2292.925          41.000  
G20  23684732.109 6 124464080.328 6     -3297.719          37.000    23684733.094 5  96985026.338 5     -2569.652          35.000  
G27  20838185.383 8 109505391.184 8     -1706.113          51.000    20838186.562 8  85328880.798 8     -1329.439          51.000  
R05  19856740.422 8 106145273.840 8      1608.609          48.000    19856745.227 8  82557540.279 8      1251.141          49.000  
R10  23624303.078 4 125930477.899 4     -3796.445          29.000                                                                  
E08  23419359.242 8 123069602.661 8      2282.828          51.000    23419360.625 8  94300114.400 8      1749.175          51.000  
E21  26147750.375 6 137407389.653 6     -2115.121          37.000    26147761.141 7 105286181.759 7     -1620.720          44.000  
E13  23367218.664 6 122795565.135 6       452.281          41.000    23367222.016 7  94090134.621 7       346.619          43.000  
C29  22081008.000 8 114981584.392 8     -1296.070          51.000                                                                  
C20  22817029.938 7 118814254.403 7      -779.340          46.000                                                                  
C19  22618264.414 8 117779257.269 8      2288.465          51.000                                                                  
C05  39640835.383 6 206420231.238 6       -20.422          36.000    39640835.242 6 159617217.167 6       -16.042          36.000  
> 2020 05 16 17 07 30.0000000  0 15      -0.000000000000
G32  23122256.891 5 121508293.103 5      2416.570          34.000    23122249.602 5  94681744.460 5      1883.052          32.000  
G08  20376899.445 8 107081330.646 8       534.223          51.000    20376901.492 8  83440001.781 8       416.278          51.000  
G10  21595889.945 7 113487165.778 7     -1950.270          46.000    21595892.008 7  88431586.595 7     -1519.691          46.000  
G14  24244322.859 7 127404778.367 7      2935.984          43.000    24244323.656 6  99276451.707 6      2287.784          39.000  
G20  23703573.586 6 124563093.191 6     -3306.570          36.000    23703573.000 5  97062179.239 5     -2576.546          31.000  
G27  20847964.000 8 109556779.103 8     -1724.051          51.000    20847965.516 8  85368923.302 8     -1343.417          51.000  
R05  19847782.883 8 106097393.083 8      1579.156          50.000    19847788.281 8  82520299.686 8      1228.230          48.000  
E15  24720092.414 6 129904944.030 6     -1628.652          39.000                                                                  
E08  23406351.805 8 123001245.504 8      2270.133          51.000    23406352.062 8  94247736.844 8      1739.480          51.000  
E21  26159850.594 6 137470976.203 6     -2128.191          37.000    26159860.758 7 105334903.897 7     -1630.630          45.000  
E13  23364648.039 6 122782059.542 6       444.172          40.000    23364651.328 7  94079786.176 7       340.109          43.000  
C29  22088501.375 8 115020603.836 8     -1309.395          51.000                                                                  
C20  22821564.445 8 118837867.075 8      -799.062          48.000                                                                  
C19  22605114.367 8 117710779.961 8      2272.457          51.000                                                                  
C05  39640951.789 6 206420837.319 6       -23.895          36.000    39640951.703 6 159617684.780 6       -18.552          36.000  
> 2020 05 16 17 08  0.0000000  0 16      -0.000000000000
G32  23108486.914 6 121435934.431 6      2407.445          39.000    23108483.102 6  94625361.163 6      1875.932          39.000  
G08  20373890.664 8 107065519.650 8       520.219          51.000    20373892.922 8  83427681.511 8       405.365          51.000  
G22  23476093.844 5 123367705.20725      3310.488          31.000                                                                  
G10  21607060.180 7 113545866.646 7     -1962.531          46.000    21607062.383 7  88477327.541 7     -1529.243          46.000  
G14  24227568.445 7 127316730.928 7      2934.078          43.000    24227567.805 6  99207843.421 6      2286.298          37.000  
G20  23722460.711 5 124662348.954 5     -3309.020          33.000    23722460.859 5  97139521.395 5     -2578.451          32.000  
G27  20857843.703 8 109608698.338 8     -1736.918          51.000    20857845.570 8  85409379.819 8     -1353.443          51.000  
R05  19838989.711 8 106050388.994 8      1554.809          51.000    19838994.953 7  82483740.981 7      1209.296          47.000  
E15  24729400.492 6 129953846.769 6     -1631.199          40.000                                                                  
E08  23393414.586 8 122933263.399 8      2262.426          49.000    23393415.078 8  94195646.634 8      1733.530          51.000  
E21  26172024.508 6 137534949.589 6     -2136.301          39.000    26172033.266 7 105383922.448 7     -1636.904          44.000  
E13  23362125.906 7 122768805.537 7       440.191          42.000    23362128.648 7  94069630.490 7       337.290          43.000  
C29  22096070.258 8 115060016.738 8     -1317.793          51.000                                                                  
C20  22826210.523 8 118862058.961 8      -813.414          48.000                                                                  
C19  22592054.664 8 117642772.638 8      2261.602          51.000                                                                  
C05  39641086.570 6 206421539.005 6       -22.727          36.000    39641086.359 6 159618227.351 6       -17.296          36.000  
> 2020 05 16 17 08 30.0000000  0 17      -0.000000000000
G32  23094766.250 6 121363838.809 6      2398.535          39.000    23094763.875 6  94569182.898 6      1868.992          39.000  
G08  20370958.766 8 107050112.436 8       506.402          51.000    20370961.047 8  83415675.875 8       394.599          51.000  
G22  23457215.859 5 123268481.885 5      3304.938          32.000    23457215.117 4  96053351.495 4      2575.289          25.000  
G10  21618296.055 7 113604911.603 7     -1974.191          47.000    21618298.078 7  88523336.583 7     -1538.334          47.000  
G14  24210819.211 6 127228717.998 6      2932.664          40.000    24210818.883 6  99139262.007 6      2285.197          38.000  
G20  23741362.617 5 124761685.280 5     -3312.578          32.000    23741363.867 5  97216926.354 5     -2581.215          30.000  
G27  20867793.828 8 109660987.483 8     -1749.473          50.000    20867795.859 8  85450124.593 8     -1363.226          51.000  
R05  19830330.523 8 106004099.969 8      1530.602          51.000    19830335.734 7  82447738.493 7      1190.471          46.000  
R04  21265264.742 4 113874064.662 4     -2594.934          29.000                                                                  
E15  24738715.727 6 130002801.861 6     -1633.027          38.000    24738716.461 5  99612544.473 5     -1251.329          35.000  
E08  23380517.867 8 122865497.251 8      2254.980          50.000    23380519.383 8  94143721.907 8      1727.783          51.000  
E21  26184241.328 7 137599147.124 7     -2144.113          42.000    26184248.383 7 105433112.753 7     -1642.770          44.000  
E13  23359621.281 7 122755642.564 7       436.715          43.000    23359623.812 7  94059544.554 7       334.764          44.000  
C29  22103683.984 8 115099663.825 8     -1325.852          51.000                                                                  
C20  22830936.141 7 118886669.622 7      -827.777          46.000                                                                  
C19  22579054.594 8 117575077.555 8      2250.898          51.000                                                                  
C05  39641209.156 6 206422177.030 6       -20.492          36.000    39641208.906 6 159618720.718 6       -15.659          36.000  
> 2020 05 16 17 09  0.0000000  0 15      -0.000000000000
G32  23081114.523 6 121292101.019 6      2386.922          37.000    23081109.336 5  94513283.347 5      1859.940          35.000  
G08  20368121.461 8 107035202.194 8       490.383          51.000    20368123.438 8  83404057.496 8       382.117          51.000  
G22  23438383.234 5 123169504.034 5      3296.852          32.000    23438380.805 5  95976225.960 5      2568.979          31.000  
G10  21629614.555 7 113664390.317 7     -1988.199          46.000    21629616.773 7  88569683.628 7     -1549.247          46.000  
G14  24194093.680 7 127140834.178 7      2929.059          42.000    24194094.922 6  99070781.200 6      2282.390          41.000  
G27  20877831.547 8 109713737.596 8     -1764.402          49.000    20877833.945 8  85491228.581 8     -1374.859          49.000  
R05  19821823.289 8 105958621.480 8      1504.004          51.000    19821827.531 7  82412366.374 7      1169.784          46.000  
E15  24748058.938 6 130051901.146 6     -1637.246          38.000    24748063.008 6  99650165.954 6     -1254.861          38.000  
E08  23367681.047 8 122798040.469 8      2245.004          51.000    23367682.852 8  94092034.265 8      1720.139          51.000  
E21  26196518.156 7 137663658.748 7     -2154.121          44.000    26196524.219 7 105482543.702 7     -1650.459          45.000  
E13  23357151.539 7 122742662.677 7       431.277          43.000    23357154.398 7  94049598.907 7       330.385          44.000  
C29  22111359.844 8 115139636.093 8     -1336.137          50.000                                                                  
C20  22835760.453 8 118911789.003 8      -844.180          48.000                                                                  
C19  22566131.898 8 117507787.225 8      2237.871          51.000                                                                  
C05  39641336.930 6 206422843.361 6       -21.012          36.000    39641336.711 6 159619235.196 6       -16.272          36.000  
> 2020 05 16 17 09 30.0000000  0 16      -0.000000000000
G32  23067519.094 5 121220667.276 5      2374.426          34.000                                                                  
G08  20365368.219 8 107020733.821 8       472.777          51.000    20365370.062 8  83392783.442 8       368.398          51.000  
G22  23419587.922 5 123070717.170 5      3287.223          34.000    23419583.266 5  95899249.359 5      2561.482          31.000  
G10  21641004.516 7 113724244.309 7     -2003.285          46.000    21641006.664 7  88616323.114 7     -1561.002          46.000  
G14  24177383.648 7 127053026.135 7      2923.508          45.000    24177385.617 6  99002359.439 6      2278.062          40.000  
G27  20887946.062 8 109766891.787 8     -1780.633          50.000    20887948.703 8  85532647.439 8     -1387.506          49.000  
G01  22852244.117 5 120089353.46225      2742.160          33.000                                                                  
R05  19813457.211 8 105913898.067 8      1476.082          51.000    19813460.922 8  82377581.541 8      1148.067          48.000  
E15  24757418.109 5 130101109.377 5     -1643.082          33.000    24757422.625 6  99687854.791 6     -1258.938          38.000  
E08  23354893.148 8 122730838.501 8      2233.719          51.000    23354895.023 8  94040541.899 8      1711.552          51.000  
E21  26208844.000 7 137728426.252 7     -2165.355          44.000    26208848.914 7 105532170.729 7     -1659.077          46.000  
E13  23354705.969 7 122729809.859 7       424.195          43.000    23354709.125 7  94039750.628 7       324.973          45.000  
C29  22119087.453 8 115179877.789 8     -1347.922          50.000                                                                  
C20  22840671.305 7 118937360.280 7      -861.953          47.000                                                                  
C19  22553276.391 8 117440847.412 8      2223.457          51.000                                                                  
C05  39641459.297 6 206423480.157 6       -22.766          36.000    39641459.086 6 159619727.620 6       -17.942          37.000  
> 2020 05 16 17 10  0.0000000  0 15      -0.000000000000
G32  23053992.477 5 121149592.781 5      2362.988          30.000    23054001.477 4  94402285.881 4      1841.308          28.000  
G08  20362709.078 8 107006759.899 8       457.758          51.000    20362711.055 8  83381894.659 8       356.695          51.000  
G22  23400838.875 6 122972174.768 6      3280.453          36.000    23400830.039 5  95822463.174 5      2556.201          34.000  
G10  21652475.508 7 113784523.427 7     -2016.227          47.000    21652476.969 7  88663293.818 7     -1571.089          47.000  
G14  24160698.789 7 126965348.622 7      2920.555          44.000    24160701.273 6  98934039.375 6      2275.761          41.000  
G27  20898147.734 8 109820501.377 8     -1794.320          51.000    20898149.852 8  85574421.136 8     -1398.172          51.000  
R05  19805242.812 8 105869984.351 8      1450.445          51.000    19805246.086 8  82343426.459 8      1128.124          48.000  
E15  24766804.828 5 130150434.572 5     -1646.090          34.000    24766809.250 6  99725650.884 6     -1261.563          39.000  
E08  23342163.875 8 122663945.030 8      2224.863          51.000    23342166.148 8  93989285.933 8      1704.754          51.000  
E21  26221228.094 7 137793499.792 7     -2173.977          44.000    26221231.906 7 105582032.214 7     -1665.751          47.000  
E13  23352294.656 7 122717136.345 7       419.824          44.000    23352297.547 7  94030039.761 7       321.591          45.000  
C29  22126876.789 8 115220440.452 8     -1357.250          50.000                                                                  
C20  22845678.555 7 118963433.846 7      -877.242          46.000                                                                  
C19  22540498.664 8 117374311.260 8      2211.277          51.000                                                                  
C05  39641586.047 6 206424139.962 6       -22.340          36.000    39641585.891 6 159620237.804 6       -17.069          37.000  
> 2020 05 16 17 10 30.0000000  0 15      -0.000000000000
G08  20360139.641 8 106993257.409 8       442.031          51.000    20360141.734 8  83371373.236 8       344.440          51.000  
G22  23382130.766 6 122873853.385 6      3273.227          37.000    23382120.250 5  95745849.236 5      2550.570          35.000  
G10  21664022.188 7 113845200.692 7     -2029.453          44.000    21664023.508 7  88710574.797 7     -1581.390          44.000  
G14  24144034.445 7 126877779.752 7      2916.961          42.000    24144037.758 6  98865803.982 6      2272.960          41.000  
G27  20908431.531 8 109874540.662 8     -1808.684          51.000    20908432.719 8  85616529.636 8     -1409.367          51.000  
R05  19797174.961 8 105826856.784 8      1424.242          51.000    19797178.133 8  82309882.820 8      1107.744          49.000  
R20  19755782.117 5 105642664.949 5       -98.062          34.000    19755783.633 7  82166520.095 7       -76.271          42.000  
E15  24776214.953 5 130199887.586 5     -1650.066          32.000    24776216.289 6  99763535.082 6     -1264.457          37.000  
E08  23329488.711 8 122597336.716 8      2215.312          51.000    23329491.195 8  93938248.453 8      1697.505          51.000  
E21  26233665.188 7 137858852.429 7     -2183.188          45.000    26233668.281 7 105632107.534 7     -1672.746          47.000  
E13  23349912.758 7 122704617.393 7       414.633          43.000    23349915.234 7  94020447.336 7       317.694          45.000  
C29  22134723.352 8 115261299.272 8     -1367.062          50.000                                                                  
C20  22850776.945 7 118989983.829 7      -893.098          44.000                                                                  
C19  22527794.375 8 117308155.450 8      2198.645          51.000                                                                  
C05  39641712.508 6 206424797.938 6       -21.719          36.000    39641712.320 6 159620746.599 6       -17.118          37.000  
> 2020 05 16 17 11  0.0000000  0 16      -0.000000000000
G08  20357661.398 8 106980234.271 8       426.008          51.000    20357663.555 8  83361225.323 8       331.951          51.000  
G22  23363465.555 6 122775762.480 6      3265.840          37.000    23363453.867 5  95669414.824 5      2544.817          34.000  
G10  21675645.508 7 113906281.493 7     -2042.723          46.000    21675646.961 7  88758170.245 7     -1591.732          46.000  
G14  24127392.469 6 126790329.865 6      2912.969          41.000    24127395.984 6  98797661.245 6      2269.846          39.000  
G27  20918798.484 8 109929016.528 8     -1823.090          51.000    20918798.852 8  85658978.327 8     -1420.593          51.000  
G01  22805415.938 5 119843269.57625      2725.531          33.000                                                                  
R05  19789256.141 8 105784524.859 8      1397.699          51.000    19789259.125 8  82276957.992 8      1087.100          49.000  
R20  19756365.016 5 105645786.860 5      -110.316          34.000    19756368.297 7  82168948.284 7       -85.802          43.000  
E15                                                                  24785646.109 6  99801513.281 6     -1267.369          39.000  
E08  23316869.438 8 122531022.908 8      2205.469          51.000    23316872.398 8  93887436.624 8      1689.909          51.000  
E21  26246156.117 7 137924489.901 7     -2192.730          46.000    26246158.656 7 105682401.109 7     -1680.112          47.000  
E13  23347561.852 7 122692260.960 7       409.012          45.000    23347563.750 7  94010979.427 7       313.492          45.000  
C29  22142628.305 8 115302461.901 8     -1377.180          50.000                                                                  
C20  22855968.688 7 119017016.694 7      -909.176          45.000                                                                  
C19  22515164.953 8 117242389.188 8      2185.707          51.000                                                                  
C05  39641840.078 6 206425462.711 6       -22.410          36.000    39641839.875 6 159621259.818 6       -17.130          37.000  
> 2020 05 16 17 11 30.0000000  0 17      -0.000000000000
G32  23013807.547 5 120938344.496 5      2330.105          34.000    23013811.766 5  94237708.499 5      1815.667          34.000  
G08  20355273.016 8 106967683.099 8       411.379          51.000    20355275.031 8  83351445.187 8       320.555          51.000  
G22  23344842.961 6 122677894.508 6      3259.582          37.000    23344829.906 4  95593154.187 4      2539.944          28.000  
G10  21687343.555 8 113967754.603 8     -2054.586          48.000    21687344.977 8  88806071.346 8     -1600.977          48.000  
G14  24110772.383 7 126702992.746 7      2910.242          42.000    24110776.367 6  98729606.387 6      2267.722          36.000  
G27  20929246.547 8 109983919.119 8     -1836.289          51.000    20929246.477 8  85701759.525 8     -1430.875          51.000  
G11  21012460.125 5 110421230.01525      2265.422          34.000                                                                  
R05  19781484.367 8 105742980.824 8      1372.539          51.000    19781487.375 8  82244646.005 8      1067.534          49.000  
R20  19757017.547 5 105649280.888 5      -121.895          34.000    19757022.531 7  82171665.851 7       -94.807          43.000  
E15                                                                  24795101.305 6  99839578.403 6     -1269.626          41.000  
E08  23304304.703 8 122464996.053 8      2196.992          51.000    23304308.383 8  93836844.677 8      1683.422          51.000  
E21  26258698.906 7 137990401.106 7     -2200.652          47.000    26258700.961 7 105732904.437 7     -1686.260          47.000  
E13  23345240.133 7 122680058.190 7       405.172          45.000    23345241.211 7  94001629.235 7       310.364          45.000  
C29  22150589.883 8 115343919.274 8     -1385.949          51.000                                                                  
C20  22861251.430 6 119044522.306 6      -923.762          41.000                                                                  
C19  22502608.453 8 117177004.889 8      2174.047          51.000                                                                  
C05  39641966.938 6 206426123.082 6       -20.988          36.000    39641966.719 6 159621770.475 6       -16.202          37.000  
> 2020 05 16 17 12  0.0000000  0 16      -0.000000000000
G32  23000546.023 6 120868639.633 6      2317.863          36.000    23000554.445 5  94183392.801 5      1806.116          35.000  
G08  20352974.812 8 106955605.549 8       394.730          51.000    20352976.727 8  83342034.101 8       307.579          51.000  
G22  23326264.500 5 122580252.139 5      3250.418          35.000    23326249.133 5  95517069.308 5      2532.806          34.000  
G10  21699116.031 7 114029618.715 7     -2068.488          46.000    21699117.438 7  88854277.109 7     -1611.813          46.000  
G14  24094175.031 6 126615772.038 6      2905.504          41.000    24094178.508 6  98661642.291 6      2264.030          36.000  
G27  20939775.648 8 110039248.561 8     -1851.285          51.000    20939775.383 8  85744873.354 8     -1442.560          51.000  
R05  19773860.758 8 105702227.610 8      1345.301          51.000    19773863.383 8  82212949.075 8      1046.345          49.000  
R20  19757740.648 5 105653148.809 5      -135.391          34.000    19757745.672 7  82174674.230 7      -105.304          43.000  
E15  24804574.320 5 130348926.884 5     -1661.309          35.000    24804578.484 6  99877731.234 6     -1273.164          40.000  
E08  23291795.328 8 122399258.736 8      2186.492          51.000    23291799.375 8  93786474.570 8      1675.404          51.000  
E21  26271293.234 7 138056585.029 7     -2210.500          47.000    26271295.742 7 105783616.733 7     -1693.842          47.000  
E13  23342947.773 7 122668010.223 7       399.023          46.000    23342947.883 7  93992397.645 7       305.931          45.000  
C29  22158608.664 8 115385672.245 8     -1396.645          51.000                                                                  
C20  22866623.891 6 119072500.207 6      -940.305          36.000                                                                  
