     3.02           OBSERVATION DATA    M (MIXED)           RINEX VERSION / TYPE
SAVERINEX           SC600               20200505 145931 LCL PGM / RUN BY / DATE
       G = GPS       R = GLONASS       C = COMPASS          COMMENT
       S = SBAS      J = QZSS          E = GALILEO          COMMENT
BEAN                                                        MARKER NAME
1                                                           MARKER NUMBER
GEODETIC                                                    MARKER TYPE
Unige DICCA         GTER                                    OBSERVER / AGENCY
SC60291900056       SC600               2.12(191226)        REC # / TYPE / VERS
                    HEMA45          NONE                    ANT # / TYPE
  4509407.8091   693652.4678  4442337.6214                  APPROX POSITION XYZ
        0.0000        0.0000        0.0000                  ANTENNA: DELTA H/E/N
G    8 C1C L1C D1C S1C C2Y L2Y D2Y S2Y                      SYS / # / OBS TYPES
R    8 C1C L1C D1C S1C C2P L2P D2P S2P                      SYS / # / OBS TYPES
C    8 C1I L1I D1I S1I C7I L7I D7I S7I                      SYS / # / OBS TYPES
E    8 C1C L1C D1C S1C C7Q L7Q D7Q S7Q                      SYS / # / OBS TYPES
DBHZ                                                        COMMENT
     30.000                                                 INTERVAL
  2020    05    05    12    00    0.0000000     GPS         TIME OF FIRST OBS
  2020    05    05    12    59   30.0000000     GPS         TIME OF LAST OBS
     0                                                      RCV CLOCK OFFS APPL
G L1C  0.00000                                              SYS / PHASE SHIFT
G L2Y  0.00000                                              SYS / PHASE SHIFT
R L1C  0.00000                                              SYS / PHASE SHIFT
R L2P  0.25000                                              SYS / PHASE SHIFT
C L1I  0.00000                                              SYS / PHASE SHIFT
C L7I  0.00000                                              SYS / PHASE SHIFT
E L1C  0.50000                                              SYS / PHASE SHIFT
E L7Q -0.25000                                              SYS / PHASE SHIFT
 12 R01  1 R06 -4 R07  5 R08  6 R09 -2 R10 -5 R11  0 R12 -1 GLONASS SLOT / FRQ #
    R20  2 R21  4 R22 -3 R23  3                             GLONASS SLOT / FRQ #
 C1C   71.950 C2C   71.950 C2P   71.950                     GLONASS COD/PHS/BIS
    18                                                      LEAP SECONDS
*** Above antenna height is from mark to ANTENNA BOTTOM.    COMMENT
    17     4        0.0000        ANT MEASURE TYPE/HEIGT    COMMENT
    0.0000    0.0000    0.0458    0.0405    0.0000          COMMENT
                    BASE STATION                            COMMENT
                                                            END OF HEADER
> 2020 05 05 12 00  0.0000000  0 16        .000000000000
G14  23967901.031 7 125952158.852 7     -2352.914          42.000    23967901.094 6  98144556.440 6     -1833.443          36.000
G18  22724302.539 8 119417066.182 8      3408.453          49.000    22724302.070 6  93052266.343 6      2655.941          40.000
G21  22543048.914 7 118464523.874 7      3015.098          47.000    22543050.219 7  92309992.858 7      2349.427          42.000
G25  21048609.703 8 110611217.594 8     -1862.578          50.000    21048611.430 8  86190526.337 8     -1451.360          50.000
G29  20233873.219 8 106329727.145 8      -374.285          51.000    20233871.773 8  82854327.726 8      -291.651          51.000
R11  21550601.180 7 115159855.499 7     -3354.129          45.000    21550609.641 8  89568803.939 8     -2608.767          48.000
R12  19163954.516 8 102370419.518 8      -147.531          51.000    19163957.719 8  79621439.976 8      -114.747          48.000
R22  19110390.398 8 102012537.796 8      -232.773          51.000    19110393.562 8  79343102.831 8      -181.046          49.000
C11  23069899.969 8 120131117.557 8      2250.105          50.000    23069900.016 8  92893000.834 8      1739.982          49.000
C12  21621907.523 8 112590948.840 8      -733.652          50.000    21621906.883 8  87062461.932 8      -567.213          51.000
C24  23174013.562 8 120673215.357 8     -2384.469          51.000
C25  22069053.477 7 114919356.694 7       745.730          42.000
E13  23436327.094 8 123158730.259 8       258.395          51.000    23436328.383 8  94368400.754 8       198.030          51.000
E21  23436591.336 8 123160107.745 8       -82.020          51.000    23436594.172 8  94369464.940 8       -62.789          51.000
E26  24491063.438 8 128701508.294 8      2756.402          51.000    24491067.367 8  98615395.472 8      2112.072          50.000
E27  25725215.148 7 135186926.217 7     -2219.887          44.000    25725211.406 6 103584753.827 6     -1701.021          36.000
> 2020 05 05 12 00 30.0000000  0 17        .000000000000
G02  24616194.578 5 129358969.030 5     -2758.211          34.000
G14  23981365.453 6 126022916.511 6     -2361.512          40.000    23981364.891 6  98199692.195 6     -1840.145          37.000
G18  22704875.477 8 119314975.348 8      3400.539          48.000    22704873.414 6  92972715.148 6      2649.777          39.000
G21  22525872.695 8 118374261.106 8      3005.430          48.000    22525874.555 7  92239658.246 7      2341.893          44.000
G25  21059280.836 8 110667293.810 8     -1872.918          49.000    21059282.672 8  86234222.043 8     -1459.420          49.000
G29  20236058.812 8 106341212.092 8      -388.477          51.000    20236057.156 8  82863277.039 8      -302.709          51.000
R11  21569476.016 8 115260713.912 8     -3366.754          48.000    21569484.258 7  89647249.336 7     -2618.589          47.000
R12  19164850.125 8 102375203.893 8      -168.496          51.000    19164853.195 8  79625161.152 8      -131.053          48.000
R22  19111775.750 8 102019933.374 8      -257.246          50.000    19111778.844 8  79348854.951 8      -200.077          49.000
C11  23056976.188 8 120063814.356 8      2239.617          51.000    23056975.117 8  92840957.810 8      1731.929          50.000
C12  21626179.672 8 112613195.804 8      -746.625          50.000    21626179.328 8  87079664.699 8      -577.305          51.000
C24  23187790.062 8 120744950.713 8     -2394.910          51.000
C25  22064806.086 7 114897240.181 7       731.578          43.000
E13  23434900.305 8 123151232.201 8       244.453          51.000    23434901.781 8  94362655.503 8       187.314          51.000
E21  23437093.656 8 123162746.625 8       -90.898          51.000    23437096.430 8  94371486.937 8       -69.682          51.000
E26  24475356.055 8 128618969.225 8      2749.195          50.000    24475360.117 8  98552151.298 8      2106.493          50.000
E27  25737912.555 7 135253654.385 7     -2225.602          42.000    25737908.266 6 103635883.101 6     -1705.660          39.000
> 2020 05 05 12 01  0.0000000  0 19        .000000000000
G02  24631965.508 5 129441849.943 5     -2766.398          35.000
G14  23994869.195 6 126093880.905 6     -2369.656          40.000    23994867.914 6  98254989.071 6     -1846.485          37.000
G18  22685484.367 8 119213074.209 8      3392.949          48.000    22685483.289 7  92893311.754 7      2643.860          42.000
G21  22508742.453 8 118284239.105 8      2996.141          50.000    22508744.281 7  92169511.246 7      2334.655          44.000
G25  21070001.188 8 110723629.561 8     -1882.648          48.000    21070003.398 8  86278119.982 8     -1466.999          48.000
G29  20238315.562 8 106353071.529 8      -402.125          51.000    20238313.875 8  82872518.175 8      -313.344          51.000
R11  21588412.758 8 115361897.111 8     -3378.711          50.000    21588419.469 7  89725947.297 7     -2627.892          46.000
R12  19165853.852 8 102380567.313 8      -189.059          50.000    19165857.367 8  79629332.685 8      -147.046          48.000
R21  21959838.797 4 117511532.340 4     -3773.441          28.000
R22  19113288.938 8 102028010.110 8      -281.156          50.000    19113292.047 8  79355136.877 8      -218.677          49.000
R23  21839936.266 5 116828937.135 5      3851.516          34.000    21839937.430 6  90866934.546 6      2995.626          36.000
C11  23044102.328 8 119996773.337 8      2229.957          49.000    23044101.422 8  92789117.482 8      1724.196          50.000
C12  21630516.898 8 112635780.710 8      -759.074          51.000    21630516.578 8  87097128.785 8      -586.949          51.000
C24  23201616.625 8 120816948.607 8     -2404.887          51.000
C25  22060630.695 7 114875498.734 7       717.887          44.000
E13  23433542.945 8 123144099.930 8       231.125          51.000    23433544.656 8  94357190.545 8       177.057          51.000
E21  23437637.078 8 123165601.875 8       -99.367          51.000    23437639.719 8  94373674.718 8       -76.153          51.000
E26  24459679.852 8 128536593.683 8      2742.547          49.000    24459684.227 8  98489032.411 8      2101.393          50.000
E27  25750633.359 7 135320504.497 7     -2230.824          45.000    25750631.344 6 103687105.823 6     -1709.414          41.000
> 2020 05 05 12 01 30.0000000  0 18        .000000000000
G02  24647785.305 5 129524979.452 5     -2774.980          35.000
G14  24008421.453 6 126165098.883 6     -2378.242          40.000    24008419.602 6  98310483.545 6     -1853.176          38.000
G18  22666139.156 7 119111415.563 7      3384.469          47.000    22666140.344 7  92814097.275 7      2637.248          45.000
G21  22491667.875 8 118194510.360 8      2985.859          50.000    22491669.578 7  92099592.767 7      2326.644          44.000
G25  21080780.297 7 110780274.466 7     -1893.500          47.000    21080782.344 7  86322258.821 7     -1475.455          47.000
G29  20240652.953 8 106365354.539 8      -416.629          51.000    20240651.344 8  82882089.345 8      -324.646          51.000
R11  21607419.531 8 115463454.001 8     -3391.570          50.000    21607425.273 7  89804935.900 7     -2637.891          46.000
R12  19166976.016 8 102386561.741 8      -210.496          50.000    19166979.344 8  79633995.023 8      -163.719          48.000
R22  19114939.070 8 102036817.380 8      -305.832          50.000    19114941.906 8  79361986.954 8      -237.869          50.000
R23  21818365.961 5 116713560.959 5      3839.879          34.000    21818368.453 6  90777197.587 6      2986.572          36.000
C11  23031287.336 7 119930044.857 7      2218.934          47.000    23031287.766 8  92737518.772 8      1715.817          51.000
C12  21634928.453 8 112658751.760 8      -772.391          50.000    21634927.836 8  87114891.454 8      -597.107          51.000
C24  23215502.531 8 120889257.418 8     -2415.633          49.000
C25  22056537.406 7 114854182.974 7       703.309          44.000
E13  23432264.727 8 123137383.143 8       216.844          51.000    23432265.977 8  94352043.916 8       166.162          51.000
E21  23438231.195 8 123168724.107 8      -108.629          51.000    23438233.594 8  94376067.080 8       -83.283          51.000
E26  24444044.820 8 128454432.977 8      2734.949          49.000    24444049.555 8  98426078.127 8      2095.589          51.000
E27  25763387.406 7 135387526.278 7     -2237.051          45.000    25763387.734 7 103738460.153 7     -1714.140          42.000
> 2020 05 05 12 02  0.0000000  0 18        .000000000000
G02  24663653.859 5 129608365.572 5     -2783.547          35.000    24663642.648 5 100993492.602 5     -2168.998          31.000
G14  24022023.531 6 126236578.147 6     -2386.742          40.000    24022021.398 6  98366181.633 6     -1859.802          37.000
G18  22646842.273 7 119010012.490 7      3376.113          47.000    22646845.312 7  92735081.923 7      2630.738          46.000
G21  22474651.109 8 118105087.661 8      2975.941          48.000    22474652.617 6  92029912.765 6      2318.915          41.000
G25  21091620.250 8 110837238.211 8     -1903.746          48.000    21091622.062 8  86366646.169 8     -1483.435          48.000
G29  20243072.672 8 106378070.362 8      -430.723          51.000    20243071.133 8  82891997.785 8      -335.628          51.000
R11  21626496.602 8 115565393.215 8     -3403.980          50.000    21626502.742 7  89884221.848 7     -2647.543          45.000
R12  19168218.438 8 102393198.721 8      -231.613          51.000    19168221.648 8  79639157.121 8      -180.144          48.000
R22  19116727.742 8 102046363.951 8      -330.180          51.000    19116730.633 8  79369412.069 8      -256.806          50.000
R23  21796862.391 5 116598545.295 5      3827.988          35.000    21796867.336 5  90687741.006 5      2977.327          35.000
C11  23018533.242 7 119863639.879 7      2208.340          46.000    23018536.070 8  92686170.179 8      1707.704          51.000
C12  21639415.586 8 112682117.802 8      -785.129          50.000    21639414.938 8  87132959.575 8      -607.102          51.000
C24  23229449.625 8 120961886.235 8     -2425.910          50.000
C25  22052527.977 7 114833304.241 7       689.109          44.000
E13  23431067.531 8 123131091.764 8       203.004          51.000    23431068.469 8  94347223.247 8       155.525          51.000
E21  23438878.234 8 123172124.282 8      -117.715          51.000    23438880.422 8  94378672.389 8       -90.149          51.000
E26  24428453.391 8 128372498.688 8      2727.652          49.000    24428458.414 8  98363297.350 8      2090.043          51.000
E27  25776175.852 7 135454729.762 7     -2242.832          44.000    25776178.320 7 103789953.715 7     -1718.593          44.000
> 2020 05 05 12 02 30.0000000  0 18        .000000000000
G02  24679538.289 6 129691835.488 6     -2789.531          36.000
G14  24035642.539 7 126308145.180 7     -2393.160          43.000    24035640.594 6  98421948.120 6     -1864.800          38.000
G18  22627562.047 7 118908697.269 7      3369.672          47.000    22627566.109 7  92656135.020 7      2625.718          46.000
G21  22457660.180 8 118015802.933 8      2967.855          48.000    22457660.883 6  91960340.291 6      2312.618          38.000
G25  21102488.141 7 110894349.988 7     -1912.344          47.000    21102490.125 7  86411148.854 7     -1490.138          46.000
G29  20245542.078 8 106391047.192 8      -442.914          51.000    20245540.523 8  82902109.595 8      -345.128          51.000
R11  21645611.984 8 115667539.371 8     -3414.500          49.000    21645617.211 7  89963668.835 7     -2655.725          43.000
R12  19169548.953 8 102400305.992 8      -250.855          51.000    19169552.297 8  79644684.990 8      -195.110          49.000
R22  19118622.148 8 102056475.047 8      -352.504          51.000    19118624.789 8  79377276.258 8      -274.173          50.000
R23  21775392.688 6 116483719.030 6      3818.309          36.000    21775401.812 5  90598431.726 5      2969.799          35.000
C11  23005810.086 8 119797390.071 8      2199.746          48.000    23005813.805 8  92634941.639 8      1700.944          51.000
C12  21643946.078 8 112705708.775 8      -796.102          50.000    21643945.328 8  87151201.615 8      -615.702          51.000
C24  23243425.695 8 121034664.991 8     -2434.449          50.000
C25  22048569.781 7 114812694.764 7       676.578          45.000
E13  23429918.617 8 123125055.001 8       190.852          51.000    23429919.820 8  94342597.709 8       146.216          51.000
E21  23439545.945 8 123175632.580 8      -124.848          51.000    23439547.984 8  94381360.554 8       -95.648          51.000
E26  24412873.289 8 128290621.664 8      2722.215          51.000    24412878.273 8  98300560.459 8      2085.859          51.000
E27  25788966.539 7 135521944.145 7     -2246.609          43.000    25788971.102 7 103841455.624 7     -1721.572          45.000
> 2020 05 05 12 03  0.0000000  0 18        .000000000000
G02  24695508.062 5 129775755.454 5     -2801.082          35.000
G14  24049347.836 7 126380165.171 7     -2404.359          43.000    24049346.227 6  98478067.534 6     -1873.530          36.000
G18  22608369.195 7 118807841.012 7      3358.043          45.000    22608373.609 7  92577545.733 7      2616.657          45.000
G21  22440766.242 8 117927026.540 8      2954.496          49.000    22440763.625 6  91891163.995 6      2302.208          38.000
G25  21113454.242 7 110951977.608 7     -1925.680          47.000    21113456.266 8  86456053.485 8     -1500.530          48.000
G29  20248130.945 8 106404652.071 8      -460.199          51.000    20248129.633 8  82912710.811 8      -358.597          51.000
R11  21664835.773 8 115770265.267 8     -3429.938          49.000    21664839.609 7  90043566.727 7     -2667.729          44.000
R12  19171037.961 8 102408259.165 8      -275.371          51.000    19171041.266 8  79650870.781 8      -214.178          49.000
R22  19120691.953 8 102067523.031 8      -380.023          51.000    19120694.469 8  79385869.123 8      -295.574          51.000
R23  21754029.500 6 116369460.082 6      3803.066          39.000    21754043.062 5  90509563.665 5      2957.941          35.000
C11  22993188.039 8 119731661.157 8      2185.961          49.000    22993190.805 8  92584115.910 8      1690.375          50.000
C12  21648589.461 8 112729888.223 8      -812.051          49.000    21648588.648 8  87169898.687 8      -627.968          51.000
C24  23257500.539 8 121107957.563 8     -2447.828          48.000
C25  22044733.547 7 114792720.600 7       658.953          45.000
E13  23428888.266 8 123119640.844 8       173.750          51.000    23428889.430 8  94338449.215 8       133.190          51.000
E21  23440304.383 8 123179617.958 8      -137.047          51.000    23440306.562 8  94384414.275 8      -105.025          51.000
E26  24397374.672 8 128209171.519 8      2711.590          51.000    24397379.156 8  98238150.658 8      2077.676          51.000
E27  25801828.812 6 135589537.475 6     -2255.879          38.000    25801834.906 7 103893247.877 7     -1728.378          45.000
> 2020 05 05 12 03 30.0000000  0 18        .000000000000
G02  24711517.742 5 129859887.787 5     -2808.598          34.000
G14  24063093.977 7 126452399.537 7     -2412.062          43.000    24063092.062 6  98534353.999 6     -1879.529          36.000
G18  22589219.984 7 118707211.113 7      3349.852          47.000    22589224.031 7  92499132.839 7      2610.274          47.000
G21  22423925.289 8 117838525.736 8      2944.715          50.000    22423921.000 6  91822202.425 6      2294.586          39.000
G25  21124473.969 8 111009885.317 8     -1935.617          50.000    21124475.914 8  86501176.362 8     -1508.276          50.000
G29  20250794.352 8 106418648.671 8      -473.785          51.000    20250793.328 8  82923617.248 8      -369.183          51.000
R11  21684123.102 8 115873329.714 8     -3441.816          50.000    21684126.219 7  90123727.942 7     -2676.968          44.000
R12  19172640.578 8 102416820.084 8      -296.156          51.000    19172643.852 8  79657529.264 8      -230.344          49.000
R22  19122892.250 8 102079267.236 8      -403.742          51.000    19122894.820 8  79395003.499 8      -314.022          51.000
R23  21732730.266 6 116255531.248 6      3791.062          39.000    21732746.680 6  90420952.374 6      2948.604          36.000
C11  22980621.867 8 119666220.702 8      2175.777          50.000    22980622.719 8  92533513.282 8      1682.576          49.000
C12  21653300.695 8 112754421.785 8      -824.359          49.000    21653299.844 8  87188869.596 8      -637.399          51.000
C24  23271629.414 8 121181529.603 8     -2457.777          49.000
C25  22040974.961 7 114773149.620 7       644.930          45.000
E13  23427931.578 8 123114613.610 8       160.480          51.000    23427932.648 8  94334597.192 8       122.960          51.000
E21  23441108.852 8 123183845.741 8      -145.613          51.000    23441111.312 8  94387653.730 8      -111.577          51.000
E26  24381912.781 8 128127914.265 8      2704.668          51.000    24381916.430 8  98175888.652 8      2072.447          51.000
E27  25814717.625 6 135657273.984 6     -2261.059          39.000    25814724.797 7 103945149.911 7     -1732.386          44.000
> 2020 05 05 12 04  0.0000000  0 18        .000000000000
G02  24727573.289 5 129944264.068 5     -2816.672          33.000
G14  24076886.891 7 126524879.888 7     -2419.625          42.000    24076883.977 5  98590832.152 5     -1885.422          34.000
G18  22570121.180 8 118606844.067 8      3341.430          48.000    22570124.297 7  92420924.791 7      2603.714          47.000
G21  22407143.742 8 117750336.203 8      2934.793          51.000    22407140.023 6  91753483.388 6      2286.855          41.000
G25  21135553.289 8 111068106.317 8     -1945.660          50.000    21135555.148 8  86546543.362 8     -1516.099          50.000
G29  20253538.508 8 106433069.530 8      -487.508          51.000    20253537.648 8  82934854.285 8      -379.876          51.000
R11  21703479.930 8 115976764.895 8     -3453.715          50.000    21703482.523 7  90204177.538 7     -2686.223          43.000
R12  19174363.695 8 102426023.668 8      -317.309          51.000    19174366.992 8  79664687.587 8      -246.796          49.000
R22  19125228.820 8 102091740.018 8      -427.617          51.000    19125231.430 8  79404704.563 8      -332.591          50.000
R23  21711501.281 6 116141969.193 6      3779.395          40.000    21711519.094 5  90332626.319 5      2939.529          35.000
C11  22968117.852 8 119601102.927 8      2165.504          50.000    22968116.367 8  92483160.164 8      1674.402          49.000
C12  21658086.258 8 112779341.470 8      -836.840          49.000    21658085.266 8  87208139.085 8      -647.107          51.000
C24  23285818.664 8 121255413.372 8     -2467.707          50.000
C25  22037300.656 7 114754016.323 7       630.652          46.000
E13  23427054.953 8 123110006.622 8       146.812          51.000    23427056.234 8  94331067.184 8       112.484          51.000
E21  23441966.023 8 123188350.313 8      -154.520          51.000    23441968.766 8  94391105.267 8      -118.428          51.000
E26  24366493.984 8 128046884.887 8      2697.461          50.000    24366496.656 8  98113801.258 8      2066.838          50.000
E27  25827640.797 6 135725187.176 6     -2266.277          41.000    25827647.602 7 103997187.354 7     -1736.618          42.000
> 2020 05 05 12 04 30.0000000  0 18        .000000000000
G02  24743673.945 5 130028879.990 5     -2824.766          32.000
G14  24090725.617 6 126597600.844 6     -2428.188          41.000    24090721.492 5  98647497.807 5     -1892.091          34.000
G18  22551072.484 8 118506740.576 8      3332.199          49.000    22551074.703 7  92342922.126 7      2596.519          46.000
G21  22390421.484 8 117662458.690 8      2923.766          51.000    22390418.758 7  91685007.458 7      2278.262          42.000
G25  21146691.594 8 111126638.106 8     -1956.426          50.000    21146693.500 8  86592152.504 8     -1524.491          50.000
G29  20256362.766 8 106447911.282 8      -501.867          51.000    20256362.086 8  82946419.291 8      -391.065          51.000
R11  21722905.719 8 116080566.868 8     -3466.430          50.000    21722908.070 7  90284912.361 7     -2696.115          43.000
R12  19176206.961 8 102435869.071 8      -339.074          51.000    19176210.188 8  79672345.112 8      -263.727          49.000
R22  19127701.391 8 102104937.797 8      -452.219          51.000    19127703.672 8  79414969.492 8      -351.726          50.000
R23  21690341.836 6 116028774.855 6      3766.848          41.000    21690360.352 5  90244586.286 5      2929.770          34.000
C11  22955675.133 8 119536306.275 8      2154.344          49.000    22955672.594 8  92433055.334 8      1665.884          51.000
C12  21662945.430 8 112804643.926 8      -850.043          50.000    21662944.344 8  87227704.543 8      -657.274          51.000
C24  23300067.297 8 121329605.697 8     -2478.363          51.000
C25  22033709.961 7 114735319.734 7       615.562          46.000
E13  23426257.711 8 123105817.392 8       132.426          51.000    23426259.484 8  94327857.270 8       101.490          51.000
E21  23442875.703 8 123193130.183 8      -164.168          51.000    23442878.617 8  94394767.753 8      -125.791          51.000
E26  24351117.977 8 127966082.638 8      2689.324          50.000    24351119.938 8  98051887.886 8      2060.702          50.000
E27  25840598.086 7 135793274.756 7     -2272.762          43.000    25840603.844 6 104049358.359 6     -1741.446          40.000
> 2020 05 05 12 05  0.0000000  0 18        .000000000000
G02  24759819.461 5 130113733.614 5     -2833.840          34.000
G14  24104609.375 6 126670559.042 6     -2436.137          41.000    24104604.086 5  98704348.296 5     -1898.291          32.000
G18  22532074.312 8 118406903.744 8      3323.086          48.000    22532075.953 7  92265127.240 7      2589.421          46.000
G21  22373758.828 8 117574895.594 8      2913.160          51.000    22373756.797 7  91616776.513 7      2269.995          43.000
G25  21157889.062 8 111185480.490 8     -1966.785          50.000    21157891.258 8  86638003.667 8     -1532.560          50.000
G29  20259266.875 8 106463172.790 8      -515.992          51.000    20259266.367 8  82958311.363 8      -402.072          51.000
R11  21742399.367 8 116184734.050 8     -3478.621          50.000    21742401.367 7  90365931.167 7     -2705.597          43.000
R12  19178170.727 8 102446357.506 8      -360.641          51.000    19178173.820 8  79680502.770 8      -280.498          48.000
R22  19130308.805 8 102118859.209 8      -476.414          51.000    19130311.766 8  79425797.290 8      -370.544          49.000
R23  21669252.000 7 115915951.056 7      3754.258          42.000    21669270.789 5  90156834.396 5      2919.978          31.000
C11  22943292.906 8 119471831.953 8      2143.457          48.000    22943291.461 8  92383199.685 8      1657.475          51.000
C12  21667877.789 8 112830328.128 8      -862.895          49.000    21667876.547 8  87247565.195 8      -667.094          51.000
C24  23314375.016 8 121404105.696 8     -2488.773          51.000
C25  22030203.297 7 114717061.254 7       601.262          46.000
E13  23425539.898 8 123102045.918 8       118.434          51.000    23425542.141 8  94324967.453 8        90.787          51.000
E21  23443838.023 8 123198186.341 8      -173.453          51.000    23443840.836 8  94398641.938 8      -132.897          51.000
E26  24335785.016 8 127885509.140 8      2681.617          49.000    24335786.812 8  97990149.796 8      2054.761          49.000
E27  25853588.695 7 135861536.661 7     -2278.527          43.000    25853593.445 6 104101662.841 6     -1745.765          39.000
> 2020 05 05 12 05 30.0000000  0 18        .000000000000
G02  24776010.820 5 130198826.302 5     -2840.223          34.000
G14  24118538.375 6 126743756.187 6     -2443.930          41.000    24118533.289 5  98761384.941 5     -1904.367          34.000
G18  22513127.938 8 118307339.815 8      3314.496          48.000    22513129.172 7  92187545.002 7      2582.724          46.000
G21  22357157.031 8 117487652.824 8      2902.816          51.000    22357155.453 7  91548795.172 7      2261.938          43.000
G25  21169145.953 8 111244636.512 8     -1976.938          49.000    21169148.336 8  86684099.228 8     -1540.471          49.000
G29  20262251.492 8 106478857.028 8      -529.723          51.000    20262251.000 8  82970532.836 8      -412.771          51.000
R11  21761960.789 8 116289267.947 8     -3490.430          48.000    21761963.219 7  90447235.179 7     -2714.782          44.000
R12  19180255.680 8 102457493.668 8      -381.812          51.000    19180258.719 8  79689164.225 8      -296.965          48.000
R22  19133052.383 8 102133505.682 8      -500.086          51.000    19133055.383 8  79437188.954 8      -388.956          50.000
R23  21648233.281 7 115803503.842 7      3742.188          44.000    21648253.953 4  90069375.383 4      2910.590          25.000
C11  22930972.836 8 119407684.064 8      2133.031          49.000    22930973.594 8  92333596.426 8      1649.374          51.000
C12  21672883.961 8 112856396.179 8      -875.027          50.000    21672882.289 8  87267722.674 8      -676.684          51.000
C24  23328742.086 8 121478915.699 8     -2498.637          51.000
C25  22026781.922 7 114699245.401 7       586.676          46.000
E13  23424902.273 8 123098695.274 8       104.941          51.000    23424904.633 8  94322400.100 8        80.350          51.000
E21  23444853.594 8 123203522.934 8      -182.348          51.000    23444856.250 8  94402731.010 8      -139.673          51.000
E26  24320496.219 8 127805169.124 8      2674.266          49.000    24320498.453 8  97928590.602 8      2049.169          50.000
E27  25866613.383 7 135929976.100 7     -2283.969          43.000    25866615.094 6 104154103.402 6     -1750.123          38.000
> 2020 05 05 12 06  0.0000000  0 18        .000000000000
G02  24792245.953 5 130284148.415 5     -2847.664          32.000
G14  24132510.812 6 126817181.454 6     -2450.895          39.000    24132506.344 6  98818599.367 6     -1909.791          36.000
G18  22494232.711 8 118208044.108 8      3305.375          49.000    22494233.664 7  92110171.758 7      2575.617          46.000
G21  22340615.117 8 117400725.141 8      2892.270          51.000    22340613.648 7  91481059.361 7      2253.717          43.000
G25  21180460.914 8 111304098.239 8     -1987.184          48.000    21180463.320 8  86730433.002 8     -1548.455          48.000
G29  20265314.820 8 106494955.067 8      -543.457          51.000    20265314.398 8  82983076.768 8      -423.473          51.000
R11  21781589.664 8 116394159.132 8     -3502.312          49.000    21781592.664 7  90528817.125 7     -2724.021          45.000
R12  19182460.555 8 102469270.744 8      -403.254          51.000    19182463.438 8  79698324.161 8      -313.642          48.000
R22  19135929.898 8 102148867.906 8      -524.031          51.000    19135933.492 8  79449137.367 8      -407.580          50.000
R23  21627283.633 7 115691428.280 7      3729.715          45.000
C11  22918715.398 8 119343855.800 8      2122.129          50.000    22918717.055 8  92284240.364 8      1641.067          51.000
C12  21677962.469 8 112882839.512 8      -887.676          50.000    21677960.438 8  87288170.327 8      -686.416          51.000
C24  23343166.398 8 121554027.164 8     -2508.707          51.000
C25  22023444.203 7 114681865.830 7       571.949          46.000
E13  23424343.000 8 123095757.627 8        91.043          51.000    23424345.625 8  94320149.184 8        69.802          51.000
E21  23445921.094 8 123209133.164 8      -191.590          51.000    23445923.797 8  94407029.750 8      -146.755          51.000
E26  24305250.703 8 127725056.490 8      2666.621          49.000    24305253.695 8  97867205.636 8      2043.288          50.000
E27  25879670.016 7 135998585.307 7     -2289.719          42.000    25879669.250 6 104206674.012 6     -1754.436          40.000
> 2020 05 05 12 06 30.0000000  0 18        .000000000000
G02  24808525.422 5 130369701.181 5     -2856.406          31.000
G14  24146526.539 6 126890835.639 6     -2459.188          38.000    24146523.461 5  98875992.164 5     -1916.247          30.000
G18  22475389.961 8 118109023.036 8      3296.004          50.000    22475390.570 7  92033012.519 7      2568.315          45.000
G21  22324134.219 8 117314118.808 8      2881.160          51.000    22324132.398 7  91413573.988 7      2245.063          42.000
G25  21191834.625 7 111363868.779 7     -1997.762          47.000    21191836.805 7  86777007.444 7     -1556.697          47.000
G29  20268457.414 8 106511469.694 8      -557.660          51.000    20268457.039 8  82995945.302 8      -434.540          51.000
R11  21801285.008 7 116499409.317 7     -3514.430          46.000    21801289.281 7  90610678.329 7     -2733.448          45.000
R12  19184786.297 8 102481693.130 8      -425.066          51.000    19184789.250 8  79707986.012 8      -330.607          48.000
R22  19138942.125 8 102164947.584 8      -548.172          51.000    19138945.492 8  79461643.775 8      -426.356          49.000
R23  21606403.023 7 115579730.329 7      3716.867          43.000    21606402.586 5  89895297.892 5      2890.900          30.000
C11  22906520.609 8 119280351.491 8      2111.164          51.000    22906521.984 8  92235134.823 8      1632.510          51.000
C12  21683113.180 8 112909660.316 8      -900.516          50.000    21683111.195 8  87308909.891 8      -696.354          51.000
C24  23357648.352 8 121629442.507 8     -2519.133          50.000
C25  22020191.094 7 114664927.149 7       557.078          47.000
E13  23423862.969 8 123093236.134 8        76.914          51.000    23423865.961 8  94318217.150 8        58.940          51.000
E21  23447041.695 8 123215021.262 8      -201.121          51.000    23447044.242 8  94411541.408 8      -154.106          51.000
E26  24290049.523 8 127645176.077 8      2658.484          50.000    24290053.258 8  97805998.592 8      2037.038          51.000
E27  25892759.055 7 136067367.596 7     -2296.047          42.000    25892757.938 6 104259377.236 6     -1759.153          41.000
> 2020 05 05 12 07  0.0000000  0 18        .000000000000
G14  24160607.117 6 126964830.557 6     -2467.242          40.000    24160604.930 5  98933650.475 5     -1922.529          35.000
G18  22456621.867 8 118010394.311 8      3286.250          50.000    22456622.078 7  91956159.005 7      2560.714          44.000
G21  22307736.570 8 117227950.852 8      2870.164          50.000    22307734.703 7  91346430.179 7      2236.491          44.000
G25  21203288.922 7 111424062.659 7     -2008.359          47.000    21203291.547 7  86823911.749 7     -1564.955          47.000
G29  20271700.750 8 106528514.299 8      -571.754          51.000    20271700.430 8  83009226.825 8      -445.523          51.000
R11  21821069.555 8 116605133.482 8     -3526.859          49.000    21821074.312 7  90692908.200 7     -2743.113          44.000
R12  19187254.578 8 102494878.941 8      -447.047          51.000    19187257.891 8  79718241.639 8      -347.703          48.000
R22  19142110.289 8 102181859.939 8      -572.395          51.000    19142113.961 8  79474797.845 8      -445.196          49.000
R23  21585612.695 6 115468530.109 6      3703.434          39.000    21585617.977 5  89808808.811 5      2880.448          35.000
C05                                                                  39641343.320 6 159619262.991 6        18.389          38.000
C11  22894410.031 8 119217285.672 8      2099.953          50.000    22894410.188 8  92186368.387 8      1623.790          51.000
C12  21688357.969 8 112936971.177 8      -913.422          50.000    21688355.617 8  87330028.379 8      -706.346          51.000
C24  23372210.453 8 121705274.456 8     -2529.625          50.000
C25  22017044.812 7 114648544.387 7       541.867          47.000
E13  23423484.117 8 123091245.427 8        62.629          51.000    23423487.398 8  94316691.807 8        48.033          51.000
E21  23448237.312 8 123221302.877 8      -210.809          51.000    23448239.648 8  94416354.589 8      -161.562          51.000
E26  24274914.906 8 127565644.168 8      2650.367          50.000    24274919.430 8  97745058.591 8      2030.825          51.000
E27  25905902.266 7 136136437.607 7     -2301.922          43.000    25905901.773 7 104312300.932 7     -1763.864          42.000
> 2020 05 05 12 07 30.0000000  0 18        .000000000000
G14  24174702.016 6 127038899.868 6     -2472.426          41.000    24174700.766 5  98991366.764 5     -1926.562          35.000
G18  22437878.633 8 117911897.187 8      3278.688          49.000    22437878.133 7  91879408.054 7      2554.821          42.000
G21  22291372.445 8 117141959.933 8      2861.133          49.000    22291371.422 7  91279424.319 7      2229.454          45.000
G25  21214773.891 7 111484415.903 7     -2016.605          47.000    21214777.000 7  86870940.232 7     -1571.384          47.000
G29  20274994.586 8 106545823.731 8      -583.691          51.000    20274994.125 8  83022714.692 8      -454.824          51.000
R11  21840892.945 7 116711061.644 7     -3536.602          47.000    21840897.008 7  90775296.702 7     -2750.696          42.000
R12  19189815.406 8 102508561.031 8      -466.652          50.000    19189819.516 8  79728883.249 8      -362.952          48.000
R22  19145383.898 8 102199335.235 8      -594.109          51.000    19145387.969 8  79488389.779 8      -462.085          48.000
R23  21564866.250 7 115357561.659 7      3692.586          42.000    21564874.656 6  89722499.956 6      2872.011          36.000
C05  39641199.711 5 206422128.341 5        25.613          35.000    39641196.922 6 159618673.189 6        19.821          38.000
C11  22882333.125 8 119154398.093 8      2090.992          48.000    22882332.039 8  92137739.759 8      1616.972          50.000
C12  21693646.625 8 112964509.687 8      -923.902          50.000    21693643.852 8  87351322.890 8      -714.456          51.000
C24  23386802.734 8 121781260.720 8     -2537.719          51.000
C25  22013955.422 8 114632457.358 8       529.125          48.000
E13  23423156.070 8 123089521.478 8        50.781          51.000    23423159.391 8  94315370.869 8        38.886          51.000
E21  23449457.758 8 123227715.088 8      -218.211          51.000    23449459.891 8  94421267.841 8      -167.195          51.000
E26  24259796.938 8 127486198.555 8      2644.500          50.000    24259801.984 8  97684184.709 8      2026.299          51.000
E27  25919050.766 7 136205531.457 7     -2305.688          43.000    25919050.656 7 104365242.908 7     -1766.702          42.000
> 2020 05 05 12 08  0.0000000  0 19        .000000000000
G14  24188837.883 7 127113184.211 7     -2478.965          42.000    24188837.945 5  99049250.579 5     -1931.661          32.000
G18  22419187.898 8 117813678.065 8      3270.219          49.000    22419185.977 6  91802873.763 6      2548.228          39.000
G21  22275070.062 8 117056292.168 8      2851.047          49.000    22275069.945 7  91212670.239 7      2221.595          46.000
G25  21226316.508 8 111545071.739 8     -2026.219          48.000    21226319.555 8  86918204.498 8     -1578.872          48.000
G29  20278366.102 8 106563540.947 8      -596.477          51.000    20278365.484 8  83036520.313 8      -464.787          51.000
R11  21860779.445 7 116817337.759 7     -3547.406          42.000    21860784.508 6  90857955.801 6     -2759.097          40.000
R12  19192496.562 8 102522886.122 8      -487.328          50.000    19192501.609 8  79740024.957 8      -379.033          48.000
R21  22260391.336 5 119119816.433 5     -3877.887          32.000
R22  19148789.711 8 102217517.313 8      -617.008          51.000    19148793.758 8  79502531.402 8      -479.895          48.000
R23  21544193.578 7 115246973.769 7      3680.703          44.000    21544202.102 6  89636487.150 6      2862.769          36.000
C05                                                                  39641050.008 6 159618081.112 6        20.313          38.000
C11  22870317.055 7 119091831.604 7      2081.012          47.000    22870316.383 8  92089359.383 8      1609.225          51.000
C12  21699005.781 8 112992416.795 8      -935.566          50.000    21699003.391 8  87372902.450 8      -723.400          51.000
C24  23401452.438 8 121857542.472 8     -2546.820          51.000
C25  22010950.555 8 114616809.479 8       515.129          48.000
E13  23422906.148 8 123088207.547 8        37.789          51.000    23422909.250 8  94314364.089 8        28.970          51.000
E21  23450730.531 8 123234402.215 8      -226.652          51.000    23450732.391 8  94426391.746 8      -173.702          51.000
E26  24244723.117 8 127406984.122 8      2637.453          51.000    24244728.133 8  97623487.962 8      2020.846          51.000
E27  25932230.117 6 136274792.540 6     -2310.875          37.000    25932230.953 6 104418313.000 6     -1770.482          40.000
> 2020 05 05 12 08 30.0000000  0 19        .000000000000
G14  24203017.859 6 127187699.356 6     -2487.703          41.000    24203018.664 5  99107314.265 5     -1938.470          32.000
G18  22400554.055 8 117715758.575 8      3258.887          49.000    22400550.539 6  91726572.995 6      2539.398          38.000
G21  22258833.469 8 116970968.651 8      2838.262          49.000    22258834.031 7  91146184.401 7      2211.633          46.000
G25  21237920.289 8 111606048.489 8     -2037.969          49.000    21237922.977 8  86965718.849 8     -1588.028          49.000
G29  20281818.484 8 106581683.457 8      -611.891          51.000    20281817.906 8  83050657.337 8      -476.798          51.000
R11  21880733.273 7 116923979.156 7     -3560.949          42.000    21880740.828 7  90940899.053 7     -2769.627          43.000
R12  19195302.031 8 102537874.167 8      -510.734          50.000    19195307.445 8  79751682.340 8      -397.238          48.000
R21  22282159.055 5 119236299.501 5     -3886.316          32.000    22282160.172 4  92739375.900 4     -3022.697          25.000
R22  19152331.359 8 102236423.409 8      -642.332          51.000    19152335.805 8  79517236.163 8      -499.592          48.000
R23  21523595.938 7 115136788.225 7      3666.031          45.000    21523604.203 5  89550787.324 5      2851.358          34.000
C05  39640908.617 5 206420612.682 5        24.754          34.000    39640905.930 6 159617501.207 6        18.924          37.000
C11  22858366.375 8 119029605.574 8      2068.352          48.000    22858366.805 8  92041242.257 8      1599.459          51.000
C12  21704439.141 8 113020709.911 8      -949.602          51.000    21704437.055 8  87394780.480 8      -734.250          51.000
C24  23416162.266 8 121934137.237 8     -2558.477          51.000
C25  22008033.781 8 114601620.436 8       498.691          48.000
E13  23422737.820 8 123087322.027 8        22.363          51.000    23422740.656 8  94313685.570 8        17.121          51.000
E21  23452059.195 8 123241383.782 8      -237.695          51.000    23452060.836 8  94431741.252 8      -182.121          51.000
E26  24229697.062 8 127328021.040 8      2627.914          50.000    24229701.742 8  97562983.808 8      2013.549          51.000
E27                                                                  25945446.531 6 104471525.424 6     -1776.100          40.000
> 2020 05 05 12 09  0.0000000  0 21        .000000000000
G12  23619579.805 5 124121729.416 5     -3036.949          32.000
G14  24217241.562 6 127262442.396 6     -2492.230          41.000    24217242.312 5  99165555.507 5     -1941.998          34.000
G18  22381977.953 8 117618141.567 8      3252.000          49.000    22381974.758 6  91650507.886 6      2534.029          41.000
G21  22242663.008 8 116885991.651 8      2829.938          50.000    22242663.719 7  91079968.585 7      2205.149          46.000
G25  21249584.938 8 111667345.771 8     -2045.414          50.000    21249587.547 8  87013482.945 8     -1593.829          49.000
G29  20285351.680 8 106600250.275 8      -622.840          51.000    20285351.078 8  83065124.982 8      -485.330          51.000
R11  21900756.828 7 117030983.749 7     -3569.754          46.000    21900765.531 7  91024124.872 7     -2776.472          44.000
R12  19198231.664 8 102553526.144 8      -529.609          50.000    19198237.617 8  79763856.072 8      -411.921          48.000
R21  22303965.703 5 119352996.032 5     -3890.523          34.000
R22  19156008.297 8 102256051.613 8      -663.109          51.000    19156012.641 8  79532502.563 8      -515.752          48.000
R23  21503073.859 7 115027007.744 7      3655.727          46.000    21503080.477 5  89465402.576 5      2843.346          32.000
C05  39640767.625 5 206419879.145 5        27.527          34.000    39640764.906 6 159616933.570 6        21.225          38.000
C11  22846482.062 8 118967720.692 8      2060.277          50.000    22846483.039 8  91993388.953 8      1593.116          51.000
C12  21709946.508 8 113049387.803 8      -959.258          51.000    21709944.375 8  87416956.024 8      -741.711          51.000
C24  23430931.891 8 122011043.878 8     -2565.660          51.000
C25  22005205.242 8 114586891.323 8       486.418          49.000
E13  23422650.805 8 123086864.575 8        11.285          51.000    23422653.430 8  94313335.072 8         8.617          51.000
E15  26022679.328 5 136750094.030 5     -2459.520          34.000
E21  23453443.859 8 123248660.479 8      -244.254          51.000    23453445.406 8  94437316.895 8      -187.174          51.000
E26  24214718.898 8 127249310.634 8      2622.594          50.000    24214723.359 8  97502673.270 8      2009.502          51.000
E27                                                                  25958698.445 7 104524880.043 7     -1778.381          42.000
> 2020 05 05 12 09 30.0000000  0 21        .000000000000
G12  23636941.734 6 124212980.143 6     -3044.871          36.000
G14  24231499.875 6 127337367.968 6     -2502.262          41.000    24231500.336 5  99223939.003 5     -1949.814          35.000
G18  22363451.797 8 117520787.111 8      3238.988          48.000    22363450.047 7  91574647.343 7      2523.893          43.000
G21  22226551.070 8 116801320.982 8      2815.543          50.000    22226551.109 7  91013991.473 7      2193.930          45.000
G25  21261302.375 8 111728920.407 8     -2058.781          50.000    21261304.617 8  87061463.171 8     -1604.245          50.000
G29  20288957.148 8 106619197.585 8      -639.723          51.000    20288956.602 8  83079889.121 8      -498.485          51.000
R11  21920841.938 8 117138306.234 8     -3584.527          49.000    21920850.062 7  91107597.888 7     -2787.966          47.000
R12  19201278.203 8 102569799.565 8      -554.547          51.000    19201284.016 8  79776513.175 8      -431.314          48.000
R21  22325802.594 5 119469858.907 5     -3899.750          31.000
R22  19159812.375 8 102276356.719 8      -689.812          51.000    19159816.477 8  79548295.419 8      -536.521          48.000
R23  21482619.867 7 114917590.909 7      3639.320          47.000    21482623.859 5  89380300.697 5      2830.586          32.000
C05                                                                  39640618.852 6 159616345.541 6        18.730          38.000
C11  22834655.758 8 118906135.351 8      2046.188          51.000    22834656.516 8  91945767.289 8      1582.275          51.000
C12  21715519.055 8 113078406.808 8      -974.707          50.000    21715517.430 8  87439395.361 8      -753.603          51.000
C24  23445752.742 8 122088218.863 8     -2578.641          51.000
C25  22002457.070 8 114572580.817 8       468.203          49.000
E13  23422637.164 8 123086792.028 8        -5.715          51.000    23422639.508 8  94313279.485 8        -4.358          51.000
E15  26036754.953 5 136824053.109 5     -2470.273          34.000
E21  23454876.719 8 123256190.267 8      -256.879          51.000    23454878.141 8  94443086.470 8      -196.832          51.000
E26  24199780.734 8 127170811.540 8      2611.473          50.000    24199785.242 8  97442524.624 8      2001.008          51.000
E27  25971975.125 6 136483635.309 6     -2329.781          41.000    25971977.836 7 104578343.845 7     -1785.133          43.000
> 2020 05 05 12 10  0.0000000  0 21        .000000000000
G12  23654336.039 6 124304384.005 6     -3050.441          36.000    23654327.734 5  96860517.115 5     -2376.967          32.000
G14  24245804.906 6 127412540.911 6     -2509.809          39.000    24245805.562 6  99282515.277 6     -1955.692          37.000
G18  22344988.883 7 117423766.077 7      3228.473          46.000    22344988.758 7  91499046.564 7      2515.693          46.000
G21  22210511.062 8 116717026.844 8      2803.492          50.000    22210509.500 7  90948307.781 7      2184.542          44.000
G25  21273085.273 8 111790840.036 8     -2069.789          48.000    21273087.164 8  87109712.192 8     -1612.826          48.000
G29  20292647.750 8 106638592.150 8      -653.953          51.000    20292647.148 8  83095001.770 8      -509.571          51.000
R11  21940999.398 8 117246013.719 8     -3596.715          50.000    21941006.844 8  91191370.313 8     -2797.445          48.000
R12  19204454.094 8 102586764.209 8      -577.164          50.000    19204459.492 8  79789707.873 8      -448.905          48.000
R21  22347681.469 4 119586954.288 4     -3907.012          29.000
R22  19163755.469 8 102297405.781 8      -714.023          51.000    19163759.789 8  79564666.951 8      -555.352          48.000
R23  21462247.328 8 114808610.092 8      3625.332          48.000    21462251.602 6  89295537.906 6      2819.703          36.000
C05                                                                  39640480.695 6 159615789.338 6        17.996          38.000
C11  22822900.328 8 118844917.693 8      2034.348          51.000    22822900.039 8  91898429.947 8      1573.177          51.000
C12  21721170.039 8 113107833.002 8      -987.668          51.000    21721168.711 8  87462149.571 8      -763.619          51.000
C24  23460637.258 8 122165728.489 8     -2589.176          50.000
C25  21999802.336 8 114558757.374 8       452.664          49.000
E13  23422709.680 8 123087171.987 8       -20.184          51.000    23422711.766 8  94313570.624 8       -15.477          51.000
E15  26050876.539 5 136898279.199 5     -2477.141          34.000
E21  23456370.805 8 123264041.865 8      -267.078          51.000    23456372.047 8  94449102.627 8      -204.620          51.000
E26  24184896.086 8 127092593.109 8      2602.539          50.000    24184900.461 8  97382591.020 8      1994.264          50.000
E27  25985293.625 7 136553620.483 7     -2336.418          43.000    25985296.750 7 104631968.798 7     -1790.135          44.000
> 2020 05 05 12 10 30.0000000  0 19        .000000000000
G14  24260146.828 6 127487909.292 6     -2516.211          40.000    24260147.578 5  99341243.817 5     -1960.687          31.000
G18  22326580.289 7 117327031.988 7      3218.723          47.000    22326581.523 7  91423669.353 7      2508.096          45.000
G21  22194533.625 8 116633062.111 8      2792.363          51.000    22194530.164 7  90882880.798 7      2175.871          43.000
G25  21284924.242 7 111853054.883 7     -2079.648          47.000    21284926.062 7  87158191.228 7     -1620.508          47.000
G29  20296413.953 8 106658383.353 8      -667.156          51.000    20296413.172 8  83110423.486 8      -519.862          51.000
R11  21961219.164 8 117354054.160 8     -3607.773          50.000    21961225.508 7  91275401.716 7     -2806.046          46.000
R12  19207750.359 8 102604370.781 8      -598.551          51.000    19207755.148 8  79803401.866 8      -465.539          48.000
R22  19167828.281 8 102319146.608 8      -737.129          51.000    19167832.336 7  79581576.492 7      -573.319          47.000
R23  21441947.195 8 114700017.430 8      3612.438          49.000    21441952.812 6  89211076.998 6      2809.674          39.000
C05  39640343.375 5 206417669.493 5        23.078          33.000    39640341.109 6 159615227.212 6        18.280          38.000
C11  22811205.781 8 118784019.501 8      2023.824          49.000    22811204.828 8  91851339.635 8      1564.910          51.000
C12  21726889.680 8 113137616.214 8      -999.551          50.000    21726888.305 8  87485179.836 8      -772.859          51.000
C24  23475576.031 8 122243522.673 8     -2598.762          50.000
C25  21997231.695 8 114545373.161 8       437.902          49.000
E13  23422858.727 8 123087954.695 8       -33.598          51.000    23422860.797 8  94314170.378 8       -25.735          51.000
E15  26065033.211 5 136972673.546 5     -2483.707          33.000
E21  23457916.750 8 123272166.655 8      -276.215          51.000    23457917.938 8  94455328.108 8      -211.639          51.000
E26  24170056.078 8 127014607.233 8      2594.824          51.000    24170060.055 8  97322835.632 8      1988.290          50.000
E27  25998640.594 6 136623766.336 6     -2341.746          41.000    25998645.227 7 104685716.854 7     -1794.298          43.000
> 2020 05 05 12 11  0.0000000  0 19        .000000000000
G14  24274527.828 6 127563483.451 6     -2522.152          40.000    24274528.656 5  99400132.738 5     -1965.310          33.000
G18  22308229.727 8 117230600.675 8      3209.848          49.000    22308231.242 7  91348528.067 7      2501.180          44.000
G21  22178621.555 8 116549442.475 8      2782.066          49.000    22178617.047 7  90817722.722 7      2167.847          43.000
G25  21296821.789 8 111915577.571 8     -2088.664          48.000    21296823.414 7  87206910.145 7     -1627.530          47.000
G29  20300257.922 8 106678583.245 8      -679.543          51.000    20300257.133 8  83126163.664 8      -529.514          51.000
R11  21981502.961 8 117462439.016 8     -3617.930          49.000    21981508.211 7  91359700.967 7     -2813.948          45.000
R12  19211169.516 8 102622633.188 8      -619.078          51.000    19211173.633 8  79817605.948 8      -481.505          49.000
R22  19172032.570 8 102341590.413 8      -759.145          49.000    19172036.758 7  79599032.796 7      -590.446          47.000
R23  21421722.883 8 114591828.425 8      3600.102          50.000    21421729.289 6  89126930.035 6      2800.079          40.000
C05  39640204.648 5 206416947.926 5        24.379          34.000    39640202.539 6 159614669.265 6        18.882          38.000
C11  22799574.016 7 118723454.392 7      2013.863          47.000    22799573.820 8  91804506.861 8      1557.283          51.000
C12  21732680.016 8 113167768.161 8     -1010.641          50.000    21732678.688 8  87508495.243 8      -781.458          51.000
C24  23490572.406 8 122321613.335 8     -2607.352          51.000
C25  21994748.312 8 114532442.120 8       424.070          50.000
E13  23423086.852 8 123089152.822 8       -46.246          51.000    23423088.914 8  94315088.434 8       -35.468          51.000
E15  26079228.008 5 137047266.411 5     -2489.148          33.000
E21  23459517.250 8 123280578.394 8      -284.562          51.000    23459518.477 8  94461773.458 8      -218.041          51.000
E26  24155263.422 8 126936868.377 8      2587.777          51.000    24155266.805 8  97263269.536 8      1982.774          51.000
E27  26012019.852 7 136694085.669 7     -2346.141          42.000    26012025.680 6 104739597.866 6     -1797.794          41.000
> 2020 05 05 12 11 30.0000000  0 18        .000000000000
G14  24288958.703 6 127639320.253 6     -2531.305          40.000    24288959.062 5  99459226.198 5     -1972.448          30.000
G18  22289949.297 8 117134534.871 8      3196.883          50.000    22289950.211 7  91273671.629 7      2491.081          44.000
G21  22162786.453 7 116466230.207 7      2767.750          47.000    22162782.383 7  90752882.082 7      2156.691          43.000
G25  21308789.414 7 111978467.616 7     -2101.473          46.000    21308790.867 7  87255915.351 7     -1637.511          46.000
G29  20304190.805 8 106699250.552 8      -695.824          51.000    20304190.047 8  83142268.069 8      -542.201          51.000
R11  22001862.086 8 117571227.091 8     -3632.066          50.000    22001866.336 7  91444313.801 7     -2824.947          43.000
R12  19214722.727 8 102641613.250 8      -643.781          51.000    19214726.477 8  79832368.206 8      -500.719          48.000
R22  19176379.625 8 102364796.308 8      -785.426          49.000    19176383.695 8  79617081.832 8      -610.887          48.000
R23  21401586.336 8 114484107.319 8      3583.797          51.000    21401592.438 6  89043146.999 6      2787.398          40.000
C05  39640078.336 5 206416290.187 5        21.867          34.000    39640076.422 6 159614161.429 6        16.670          38.000
C11  22788017.320 7 118663282.494 7      1999.910          47.000    22788018.461 8  91757978.128 8      1546.545          51.000
C12  21738552.477 8 113198346.950 8     -1025.590          50.000    21738551.242 8  87532140.709 8      -793.000          51.000
C24  23505637.547 8 122400058.651 8     -2619.898          51.000
C25  21992363.812 8 114520024.678 8       406.277          50.000
E13  23423405.180 8 123090825.881 8       -62.828          51.000    23423407.234 8  94316370.400 8       -48.162          51.000
E21  23461183.844 8 123289337.699 8      -296.977          51.000    23461185.273 8  94468485.128 8      -227.536          51.000
E26  24140529.438 8 126859437.787 8      2576.742          51.000    24140532.180 8  97203939.643 8      1974.378          51.000
E27  26025444.453 6 136764638.113 6     -2354.844          41.000    26025450.758 6 104793657.503 6     -1804.217          40.000
> 2020 05 05 12 12  0.0000000  0 18        .000000000000
G14  24303414.164 6 127715285.073 6     -2535.484          41.000    24303415.062 4  99518419.432 4     -1975.708          28.000
G18  22271714.242 8 117038706.071 8      3189.215          51.000    22271714.289 7  91198999.879 7      2485.102          43.000
G21  22147003.969 7 116383296.254 7      2758.918          46.000    22147001.469 7  90688258.278 7      2149.809          44.000
G25  21320801.852 7 112041593.316 7     -2109.191          46.000    21320803.188 7  87305104.189 7     -1643.526          47.000
G29  20308187.453 8 106720252.789 8      -706.746          51.000    20308186.695 8  83158633.449 8      -550.711          51.000
R11  22022271.172 8 117680282.863 8     -3640.781          51.000    22022274.570 7  91529134.870 7     -2831.722          43.000
R12  19218385.422 8 102661178.093 8      -663.074          51.000    19218388.945 8  79847585.306 8      -515.727          49.000
R22  19180844.094 8 102388628.509 8      -805.949          48.000    19180848.461 8  79635617.990 8      -626.849          49.000
R23  21381512.570 8 114376722.821 8      3572.742          50.000    21381517.953 6  88959625.759 6      2778.799          40.000
C05  39639939.680 5 206415566.883 5        23.531          34.000    39639937.805 6 159613603.265 6        18.465          39.000
C11  22776512.430 8 118603374.274 8      1991.453          50.000    22776513.578 8  91711653.332 8      1539.827          51.000
C12  21744481.367 8 113229221.119 8     -1035.168          49.000    21744480.516 8  87556014.569 8      -800.527          51.000
C24  23520745.641 8 122478727.302 8     -2627.055          51.000
C25  21990053.148 8 114507991.719 8       393.586          51.000
E13  23423788.664 8 123092842.060 8       -74.082          51.000    23423790.836 8  94317915.280 8       -56.800          51.000
E21  23462891.711 8 123298313.988 8      -304.047          51.000    23462893.242 8  94475363.043 8      -232.941          51.000
E26  24125829.102 8 126782185.474 8      2570.949          51.000    24125831.648 8  97144746.365 8      1969.870          51.000
E27  26038888.703 7 136835292.154 7     -2358.117          42.000    26038895.227 6 104847794.959 6     -1806.594          38.000
> 2020 05 05 12 12 30.0000000  0 19        .000000000000
G12  23741722.406 4 124763593.191 4     -3071.930          29.000
G14  24317907.086 6 127791447.351 6     -2541.520          39.000    24317908.844 5  99577766.576 5     -1980.417          34.000
G18  22253538.422 8 116943188.901 8      3179.098          51.000    22253537.609 7  91124570.966 7      2477.219          44.000
G21  22131288.305 7 116300714.546 7      2747.207          45.000    22131287.727 7  90623908.914 7      2140.681          44.000
