     3.02           OBSERVATION DATA    M (MIXED)           RINEX VERSION / TYPE
SAVERINEX           SC600               20200512 025930 LCL PGM / RUN BY / DATE
       G = GPS       R = GLONASS       C = COMPASS          COMMENT
       S = SBAS      J = QZSS          E = GALILEO          COMMENT
BEAN                                                        MARKER NAME
1                                                           MARKER NUMBER
GEODETIC                                                    MARKER TYPE
Unige DICCA         GTER                                    OBSERVER / AGENCY
SC60291900056       SC600               2.12(191226)        REC # / TYPE / VERS
                    HEMA45          NONE                    ANT # / TYPE
  4509407.8091   693652.4678  4442337.6214                  APPROX POSITION XYZ
        0.0000        0.0000        0.0000                  ANTENNA: DELTA H/E/N
G    8 C1C L1C D1C S1C C2Y L2Y D2Y S2Y                      SYS / # / OBS TYPES
R    8 C1C L1C D1C S1C C2P L2P D2P S2P                      SYS / # / OBS TYPES
C    8 C1I L1I D1I S1I C7I L7I D7I S7I                      SYS / # / OBS TYPES
E    8 C1C L1C D1C S1C C7Q L7Q D7Q S7Q                      SYS / # / OBS TYPES
DBHZ                                                        COMMENT
     30.000                                                 INTERVAL
  2020    05    12    00    00    0.0000000     GPS         TIME OF FIRST OBS
  2020    05    12    00    59   30.0000000     GPS         TIME OF LAST OBS
     0                                                      RCV CLOCK OFFS APPL
G L1C  0.00000                                              SYS / PHASE SHIFT
G L2Y  0.00000                                              SYS / PHASE SHIFT
R L1C  0.00000                                              SYS / PHASE SHIFT
R L2P  0.25000                                              SYS / PHASE SHIFT
C L1I  0.00000                                              SYS / PHASE SHIFT
C L7I  0.00000                                              SYS / PHASE SHIFT
E L1C  0.50000                                              SYS / PHASE SHIFT
E L7Q -0.25000                                              SYS / PHASE SHIFT
 13 R01  1 R02 -4 R03  5 R04  6 R10 -5 R11  0 R12 -1 R13 -2 GLONASS SLOT / FRQ #
    R14 -7 R17  4 R18 -3 R19  3 R23  3                      GLONASS SLOT / FRQ #
 C1C   71.950 C2C   71.950 C2P   71.950                     GLONASS COD/PHS/BIS
    18                                                      LEAP SECONDS
*** Above antenna height is from mark to ANTENNA BOTTOM.    COMMENT
    17     4        0.0000        ANT MEASURE TYPE/HEIGT    COMMENT
    0.0000    0.0000    0.0458    0.0405    0.0000          COMMENT
                    BASE STATION                            COMMENT
                                                            END OF HEADER
> 2020 05 12 00 00  0.0000000  0 15        .000000000000
G03  23719334.125 5 124645938.628 5     -3026.148          34.000    23719336.117 5  97126713.076 5     -2358.035          35.000
G04  21577589.477 6 113391001.017 6     -2268.758          37.000    21577589.281 5  88356627.702 5     -1767.863          33.000
G06  21064639.953 6 110695448.148 6      -161.375          39.000    21064645.078 6  86256184.127 6      -125.747          39.000
G07  22342086.133 8 117408452.506 8      2750.629          50.000    22342086.570 8  91487072.631 8      2143.350          50.000
G09  20279500.016 8 106569488.128 8      -265.973          51.000    20279500.008 8  83041159.940 8      -207.251          51.000
R02  22942310.742 5 122424566.685 5     -2943.133          33.000    22942316.703 4  95219127.628 4     -2289.097          28.000
R03  19909074.711 6 106574857.325 6      -935.809          39.000    19909076.000 6  82891555.483 6      -727.851          41.000
R12  22075733.648 5 117924594.611 5     -1946.852          30.000    22075724.461 5  91719094.344 5     -1514.221          34.000
R13  20883527.719 5 111516872.191 5      2006.441          30.000    20883525.602 4  86735332.811 4      1560.566          26.000
R14  23163208.359 6 123472930.166 6      4346.598          38.000    23163210.125 5  96034489.525 5      3380.687          34.000
R18  22431052.312 6 119738459.824 6     -4133.652          39.000    22431053.781 4  93129954.843 4     -3215.063          27.000
C19  21581086.602 8 112378381.241 8       225.750          50.000
C20  23873659.492 5 124316413.782 5     -2061.859          31.000
E05  23575094.789 8 123887956.815 8      -578.441          51.000    23575097.305 8  94927176.560 8      -443.161          51.000
E09                                                                  24627159.859 5  99163359.815 5     -1676.756          34.000
> 2020 05 12 00 00 30.0000000  0 13        .000000000000
G04  21590558.680 5 113459153.139 5     -2278.043          35.000    21590559.617 5  88409730.614 5     -1775.092          35.000
G06  21065617.883 6 110700586.929 6      -184.004          41.000    21065622.484 6  86260188.369 6      -143.380          41.000
G07  22326410.609 8 117326076.474 8      2738.215          49.000    22326410.555 8  91422883.539 8      2133.674          49.000
G09  20281051.656 8 106577642.240 8      -280.504          51.000    20281051.789 8  83047513.793 8      -218.574          51.000
R02  22958863.633 5 122512883.621 5     -2947.320          35.000    22958868.477 5  95287818.565 5     -2292.360          30.000
R03  19914341.664 6 106603056.729 6      -946.832          38.000    19914344.484 6  82913488.344 6      -736.425          41.000
R13  20872319.062 5 111457016.081 5      1980.898          32.000    20872318.922 5  86688787.450 5      1540.696          30.000
R14  23138753.547 5 123342571.908 5      4341.344          31.000    23138757.203 6  95933099.771 6      3376.601          37.000
R18  22454303.836 5 119862587.366 5     -4144.066          35.000    22454302.484 4  93226498.349 4     -3223.172          25.000
C19  21579806.062 8 112371712.050 8       216.023          51.000
E03                                                                  24851248.695 6 100065683.214 6      1214.903          36.000
E05  23578410.508 8 123905380.737 8      -585.957          51.000    23578412.844 8  94940527.349 8      -449.010          51.000
E09                                                                  24639654.156 5  99213676.102 5     -1678.522          31.000
> 2020 05 12 00 01  0.0000000  0 10        .000000000000
G06  21066713.172 7 110706342.817 7      -201.477          42.000    21066717.211 7  86264673.477 7      -156.992          42.000
G07  22310796.344 7 117244024.571 7      2730.336          47.000    22310796.211 7  91358947.013 7      2127.534          47.000
G09  20282676.828 8 106586182.586 8      -290.500          51.000    20282676.820 8  83054168.605 8      -226.364          51.000
R02  22975429.805 5 122601286.940 5     -2947.941          30.000    22975435.258 4  95356576.730 4     -2292.840          25.000
R03  19919665.938 6 106631555.206 6      -954.277          38.000    19919668.320 6  82935653.781 6      -742.219          41.000
R13  20861245.070 5 111397885.463 5      1959.477          30.000    20861247.859 5  86642807.016 5      1524.040          31.000
R14  23114321.602 5 123212315.128 5      4341.250          30.000    23114322.039 6  95831789.041 6      3376.522          37.000
C19  21578572.492 8 112365286.601 8       210.848          51.000
E03                                                                  24842206.656 4 100029271.321 4      1213.047          29.000
E05  23581759.406 8 123922979.020 8      -588.734          51.000    23581761.484 8  94954011.740 8      -451.090          51.000
> 2020 05 12 00 01 30.0000000  0  8        .000000000000
G06  21067918.711 7 110712676.641 7      -220.797          42.000    21067922.180 7  86269608.954 7      -172.046          42.000
G07  22295236.492 7 117162259.175 7      2720.773          47.000    22295236.914 7  91295233.729 7      2120.083          47.000
G09  20284367.953 8 106595069.269 8      -301.898          51.000    20284367.930 8  83061093.309 8      -235.246          51.000
R03  19925039.188 6 106660312.228 6      -962.641          41.000    19925040.680 6  82958020.363 6      -748.717          40.000
R13  20850300.156 5 111339438.441 5      1936.176          30.000    20850301.898 4  86597347.984 4      1505.908          28.000
R14  23089897.797 6 123082124.877 6      4339.156          36.000    23089898.484 5  95730529.874 5      3374.896          35.000
C19  21577378.258 8 112359066.531 8       204.035          51.000
E05  23585133.914 8 123940712.157 8      -593.258          51.000    23585135.766 8  94967599.471 8      -454.550          51.000
> 2020 05 12 00 02  0.0000000  0 13        .000000000000
G04  21629758.719 6 113665146.549 6     -2293.516          37.000    21629759.133 5  88570243.877 5     -1787.152          34.000
G06  21069283.078 6 110719846.575 6      -237.961          39.000    21069285.984 6  86275195.922 6      -185.421          39.000
G07  22279781.031 8 117081040.408 8      2712.875          49.000    22279781.555 8  91231946.382 8      2113.929          49.000
G09  20286173.961 8 106604559.573 8      -311.590          51.000    20286174.039 8  83068488.347 8      -242.797          51.000
R03  19930508.797 6 106689590.657 6      -969.645          41.000    19930510.328 6  82980792.501 6      -754.168          39.000
R12  22120541.414 4 118163952.926 4     -2037.246          29.000
R13  20839533.742 4 111281947.168 4      1915.273          29.000    20839538.664 5  86552637.897 5      1489.660          31.000
R14  23065535.914 5 122952267.070 5      4338.000          34.000    23065538.977 6  95629529.363 6      3374.000          36.000
R18  22524374.711 5 120236599.785 5     -4160.898          34.000    22524376.562 5  93517386.410 5     -3236.254          32.000
C19  21576272.539 8 112353307.963 8       198.887          51.000
C20  23921450.789 5 124565200.765 5     -2077.348          32.000
E03  24824199.328 5 130452047.094 5      1577.668          33.000    24824201.289 6  99956768.326 6      1209.296          36.000
E05  23588583.148 8 123958837.886 8      -596.020          51.000    23588584.727 8  94981488.022 8      -456.699          51.000
> 2020 05 12 00 02 30.0000000  0 12        .000000000000
G04  21642893.477 6 113734168.428 6     -2307.586          38.000    21642893.227 5  88624027.180 5     -1798.122          31.000
G06  21070719.734 6 110727397.383 6      -264.895          37.000    21070722.023 6  86281079.617 6      -206.414          37.000
G07  22264343.656 8 116999914.479 8      2695.664          50.000    22264343.805 8  91168731.371 8      2100.517          50.000
G09  20288007.992 8 106614197.375 8      -330.648          51.000    20288008.078 8  83075998.330 8      -257.648          51.000
R03  19935989.281 7 106718926.689 7      -985.930          44.000    19935990.914 6  83003609.391 6      -766.837          38.000
R12  22132065.547 6 118225504.535 6     -2066.734          37.000
R13  20828859.508 5 111224949.967 5      1884.227          30.000    20828864.555 4  86508313.127 4      1465.513          27.000
R14  23041149.664 6 122822283.843 6      4327.805          36.000    23041155.523 5  95528431.298 5      3366.073          35.000
R18  22547795.922 5 120361645.147 5     -4175.285          35.000    22547801.562 5  93614643.889 5     -3247.444          35.000
C19  21575168.617 8 112347560.172 8       184.539          51.000
E03                                                                  24815223.461 5  99920622.646 5      1200.425          35.000
E05  23592020.414 8 123976900.561 8      -607.957          51.000    23592021.703 8  94995328.256 8      -465.867          51.000
> 2020 05 12 00 03  0.0000000  0 13        .000000000000
G04  21656082.719 5 113803481.761 5     -2312.977          33.000    21656081.820 5  88678032.865 5     -1802.322          31.000
G06  21072286.336 6 110735628.601 6      -283.242          37.000    21072287.570 6  86287493.530 6      -220.708          37.000
G07  22248981.656 8 116919184.228 8      2686.531          51.000    22248981.398 8  91105824.717 8      2093.401          51.000
G09  20289926.859 8 106624281.585 8      -341.375          51.000    20289927.023 8  83083856.159 8      -266.006          51.000
R03  19941537.586 7 106748625.363 7      -993.664          44.000    19941538.562 6  83026708.352 6      -772.850          37.000
R12  22143733.453 6 118287829.483 6     -2087.801          36.000
R13  20818336.031 4 111168751.213 4      1862.184          29.000    20818340.805 5  86464589.675 5      1448.368          30.000
R14  23016798.586 6 122692483.824 6      4325.449          36.000    23016806.977 4  95427475.717 4      3364.238          28.000
R18  22571272.711 4 120486987.478 4     -4180.461          29.000    22571283.609 6  93712132.352 6     -3251.473          36.000
C19  21574123.688 8 112342120.525 8       178.320          51.000
C20  23945469.062 5 124690318.733 5     -2091.383          33.000
E03                                                                  24806286.930 5  99884638.645 5      1198.021          34.000
E05  23595502.703 8 123995199.511 8      -611.668          51.000    23595503.758 8  95009349.525 8      -468.678          51.000
> 2020 05 12 00 03 30.0000000  0 12        .000000000000
G04  21669299.125 4 113872934.747 4     -2323.723          29.000
G06  21073953.188 6 110744384.747 6      -307.688          40.000    21073954.320 6  86294316.482 6      -239.756          40.000
G07  22233665.633 8 116838696.252 8      2671.711          50.000    22233664.852 8  91043106.836 8      2081.853          50.000
G09  20291901.031 8 106634655.954 8      -357.832          51.000    20291901.242 8  83091940.086 8      -278.830          51.000
R03  19947123.461 7 106778528.051 7     -1007.492          46.000    19947123.953 6  83049965.985 6      -783.605          37.000
R12  22155515.102 6 118350766.572 6     -2115.578          37.000
R14  22992451.969 5 122562713.390 5      4318.133          34.000
R18  22594776.195 5 120612464.313 5     -4192.453          30.000    22594788.578 6  93809725.542 6     -3260.791          36.000
C19  21573108.555 8 112336835.401 8       166.477          51.000
C20  23957524.914 5 124753099.716 5     -2101.484          30.000
E03                                                                  24797361.984 5  99848697.251 5      1191.880          33.000
E05  23599000.289 8 124013578.957 8      -621.215          51.000    23599001.312 8  95023432.478 8      -475.969          51.000
> 2020 05 12 00 04  0.0000000  0 11        .000000000000
G04  21682572.391 5 113942690.711 5     -2338.793          32.000
G06  21075753.773 6 110753845.748 6      -334.953          40.000    21075755.031 6  86301688.704 6      -261.002          40.000
G07  22218430.023 8 116758632.110 8      2653.734          50.000    22218429.086 8  90980719.217 8      2067.845          51.000
G09  20293964.477 8 106645499.651 8      -377.387          51.000    20293964.844 8  83100389.728 8      -294.065          51.000
R03  19952781.352 7 106808818.060 7     -1024.285          45.000    19952781.742 6  83073524.877 6      -796.666          39.000
R12  22167444.945 6 118414495.946 6     -2145.797          39.000    22167455.008 4  92100206.919 4     -1668.950          29.000
R18  22618339.719 5 120738254.103 5     -4206.191          33.000    22618352.852 5  93907562.110 5     -3271.479          34.000
C19  21572157.508 8 112331883.620 8       151.555          51.000
C20  23969626.664 5 124816120.884 5     -2112.809          30.000
E03                                                                  24788483.375 5  99812936.515 5      1182.822          30.000
E05  23602547.375 8 124032218.575 8      -633.672          51.000    23602548.484 8  95037714.785 8      -485.523          51.000
> 2020 05 12 00 04 30.0000000  0 10        .000000000000
G06  21077675.242 7 110763941.346 7      -342.051          42.000    21077676.648 7  86309555.392 7      -266.533          42.000
G07  22203261.984 8 116678926.141 8      2655.898          50.000    22203261.008 8  90918641.111 8      2069.531          50.000
G09  20296103.641 8 106656741.680 8      -376.527          51.000    20296104.203 8  83109149.761 8      -293.398          51.000
R03  19958498.766 7 106839423.857 7     -1020.551          47.000    19958499.633 6  83097329.361 6      -793.762          40.000
R04  20599149.188 5 110307503.322 5      1885.246          34.000    20599142.172 4  85794703.713 4      1466.306          26.000
R12  22179509.953 6 118478943.539 6     -2155.141          37.000    22179519.797 4  92150332.852 4     -1676.220          28.000
R18  22641948.516 5 120864281.072 5     -4200.270          35.000    22641962.266 5  94005583.108 5     -3266.876          31.000
C19  21571257.266 8 112327196.015 8       156.605          51.000
C20  23981768.516 5 124879324.543 5     -2105.445          32.000
E05  23606130.469 8 124051047.808 8      -625.902          51.000    23606131.828 8  95052142.382 8      -479.593          51.000
> 2020 05 12 00 05  0.0000000  0 10        .000000000000
G06  21079680.852 7 110774478.870 7      -363.312          43.000    21079682.555 7  86317766.414 7      -283.104          43.000
G07  22188125.352 8 116599383.540 8      2644.039          49.000    22188123.875 8  90856659.850 8      2060.290          49.000
G09  20298281.812 8 106668188.641 8      -389.570          51.000    20298282.477 8  83118069.467 8      -303.561          51.000
R03  19964238.844 7 106870148.903 7     -1030.887          47.000    19964239.938 7  83121226.638 7      -801.801          42.000
R04  20588594.812 5 110250988.805 5      1877.703          31.000
R12  22191673.078 6 118543911.060 6     -2178.918          39.000    22191686.820 4  92200891.133 4     -1694.711          27.000
R14  22919587.961 5 122174278.815 5      4310.621          34.000    22919589.875 4  95024463.187 4      3352.714          27.000
R18  22665565.297 5 120990345.009 5     -4206.914          34.000    22665578.375 4  94103639.932 4     -3272.044          28.000
C19  21570371.172 8 112322582.236 8       148.059          51.000
E05  23609712.852 8 124069873.757 8      -631.977          51.000    23609714.570 8  95066567.466 8      -484.266          51.000
> 2020 05 12 00 05 30.0000000  0 11        .000000000000
G04  21722654.891 5 114153321.601 5     -2355.336          31.000
G06  21081866.141 7 110785960.296 7      -391.148          45.000    21081866.789 7  86326712.982 7      -304.788          45.000
G07  22173115.953 7 116520510.903 7      2625.188          47.000    22173114.789 7  90795200.650 7      2045.601          47.000
G09  20300594.438 8 106680341.962 8      -409.691          51.000    20300595.227 8  83127539.587 8      -319.237          51.000
R03  19970096.938 8 106901504.818 8     -1048.355          48.000    19970097.961 7  83145614.580 7      -815.388          43.000
R04  20578161.094 5 110195082.815 5      1861.816          35.000
R12  22204028.820 6 118609906.094 6     -2209.500          37.000    22204042.109 4  92252225.629 4     -1718.503          27.000
R14  22895395.422 6 122045305.607 6      4298.523          38.000    22895399.156 5  94924150.166 5      3343.296          33.000
C05  39774416.812 5 207115817.840 5       -28.867          35.000
C19  21569594.898 8 112318540.353 8       132.398          51.000
E05  23613390.062 8 124089198.368 8      -645.211          51.000    23613392.148 8  95081374.639 8      -494.373          51.000
> 2020 05 12 00 06  0.0000000  0 13        .000000000000
G03  23928882.172 5 125747149.249 5     -3088.391          32.000
G04  21736090.562 6 114223922.674 6     -2354.910          36.000
G06  21084129.102 7 110797851.151 7      -404.750          46.000    21084128.805 7  86335978.549 7      -315.390          46.000
G07  22158132.758 8 116441775.807 8      2620.527          48.000    22158131.312 8  90733848.643 8      2041.972          48.000
G09  20302939.672 8 106692666.383 8      -415.184          51.000    20302940.625 8  83137143.032 8      -323.520          51.000
R02  23141977.438 4 123490024.090 4     -2972.023          27.000
R03  19975971.062 8 106932946.988 8     -1051.000          48.000    19975971.906 7  83170069.616 7      -817.444          43.000
R12  22216474.695 6 118676382.591 6     -2224.859          37.000    22216484.797 4  92303929.532 4     -1730.449          28.000
R14  22871188.805 6 121916266.994 6      4300.699          38.000    22871192.625 5  94823786.782 5      3344.988          35.000
C05  39774555.750 5 207116548.936 5       -21.625          35.000
C19  21568827.016 8 112314541.239 8       130.984          51.000
E05  23617060.406 8 124108486.886 8      -644.039          51.000    23617062.812 8  95096154.158 8      -493.464          51.000
E09  24777589.320 5 130207114.322 5     -2200.867          35.000
> 2020 05 12 00 06 30.0000000  0 13        .000000000000
G03  23946517.734 5 125839782.284 5     -3114.352          31.000
G04  21749502.422 6 114294405.255 6     -2383.355          36.000
G06  21086445.195 7 110810020.589 7      -446.258          46.000    21086444.938 7  86345461.218 7      -347.736          46.000
G07  22143151.641 8 116363049.662 8      2587.879          49.000    22143149.258 8  90672503.637 8      2016.529          49.000
G09  20305292.555 8 106705030.609 8      -448.852          51.000    20305293.336 8  83146777.492 8      -349.754          51.000
R03  19981836.227 8 106964342.335 8     -1082.406          48.000    19981836.805 7  83194488.217 7      -841.872          44.000
R12  22228984.312 6 118743204.947 6     -2269.379          36.000    22228991.758 4  92355902.616 4     -1765.069          28.000
R14  22846948.398 5 121787034.776 5      4274.992          30.000    22846948.352 5  94723272.938 5      3324.997          35.000
C05  39774629.938 5 207116934.617 5       -42.980          35.000
C19  21568042.625 8 112310456.012 8       101.871          51.000
C20  24030537.852 5 125133312.220 5     -2147.324          32.000
E05  23620699.047 8 124127608.438 8      -670.691          51.000    23620701.555 8  95110805.733 8      -513.906          51.000
E09  24790101.562 5 130272866.906 5     -2223.086          34.000
> 2020 05 12 00 07  0.0000000  0 13        .000000000000
G03  23964234.641 5 125932917.873 5     -3099.148          35.000    23964237.289 5  98129544.143 5     -2414.921          34.000
G04  21763089.305 5 114365805.953 5     -2367.617          34.000
G06  21089010.992 7 110823505.877 7      -445.359          44.000    21089011.086 7  86355969.203 7      -347.033          44.000
G07  22128370.391 8 116285372.152 8      2597.840          51.000    22128367.703 8  90611975.763 8      2024.294          51.000
G09  20307850.234 8 106718471.099 8      -439.891          51.000    20307850.758 8  83157250.595 8      -342.772          51.000
R03  19987889.914 7 106996747.503 7     -1070.480          47.000    19987890.250 7  83219692.230 7      -832.596          45.000
R12  22241754.633 5 118811424.700 5     -2270.734          33.000    22241762.797 4  92408962.529 4     -1766.124          24.000
R18  22760561.664 6 121497431.288 6     -4234.422          36.000    22760563.797 5  94498001.037 5     -3293.445          34.000
C05  39774838.836 5 207118022.276 5       -21.910          34.000
C19  21567439.219 8 112307312.989 8       114.910          51.000
C20  24042892.406 5 125197613.602 5     -2131.645          35.000
E05  23624503.344 8 124147600.015 8      -654.723          51.000    23624505.766 8  95126123.946 8      -501.635          51.000
E09                                                                  24802744.406 5  99870371.192 5     -1687.432          32.000
> 2020 05 12 00 07 30.0000000  0 13        .000000000000
G03  23981941.633 6 126025965.802 6     -3105.188          36.000    23981943.508 6  98202049.037 6     -2419.630          36.000
G04  21776636.875 5 114436997.340 5     -2377.566          33.000
G06  21091613.547 7 110837183.411 7      -466.762          45.000    21091614.031 7  86366627.055 7      -363.707          45.000
G07  22113575.484 8 116207621.714 8      2585.316          51.000    22113572.914 8  90551391.052 8      2014.535          51.000
G09  20310398.734 8 106731863.813 8      -453.277          51.000    20310399.477 8  83167686.484 8      -353.203          51.000
R03  19993918.641 8 107029018.109 8     -1081.254          48.000    19993918.734 7  83244791.582 7      -840.972          45.000
R12  22254572.180 5 118879897.324 5     -2294.816          34.000
R14  22798726.070 6 121530070.435 6      4284.578          36.000    22798731.914 5  94523389.294 5      3332.450          34.000
R18  22784373.289 6 121624561.694 6     -4241.340          36.000    22784380.906 5  94596880.209 5     -3298.823          35.000
C05  39774967.945 5 207118694.486 5       -22.812          35.000    39774962.359 5 160157289.853 5       -17.776          35.000
C19  21566803.133 8 112303999.599 8       105.672          51.000
C20  24055188.766 5 125261653.692 5     -2138.582          31.000
E05  23628259.508 8 124167338.154 8      -661.402          51.000    23628261.766 8  95141247.985 8      -506.795          51.000
> 2020 05 12 00 08  0.0000000  0 14        .000000000000
G03  23999687.336 5 126119214.433 5     -3112.051          35.000    23999686.742 5  98274710.368 5     -2424.969          35.000
G04  21790232.953 5 114508445.841 5     -2385.426          31.000
G06  21094340.758 7 110851519.104 7      -489.035          44.000    21094342.773 7  86377797.693 7      -381.066          44.000
G07  22098855.539 8 116130266.937 8      2571.680          50.000    22098853.727 8  90491114.617 8      2003.906          50.000
G09  20313026.680 8 106745674.010 8      -467.516          51.000    20313027.719 8  83178447.677 8      -364.298          51.000
R03  20000010.594 7 107061628.976 7     -1092.934          47.000    20000010.836 7  83270155.588 7      -850.059          46.000
R04  20526395.180 5 109917913.897 5      1827.613          31.000
R12  22267524.859 5 118949093.399 5     -2318.871          34.000
R14  22774635.781 6 121401634.842 6      4277.496          38.000    22774637.055 5  94423494.889 5      3326.941          34.000
R18  22808230.703 5 121751923.321 5     -4248.930          33.000    22808240.641 6  94695939.175 6     -3304.726          36.000
C05  39775106.141 5 207119413.655 5       -25.145          35.000    39775100.906 5 160157846.717 5       -19.326          35.000
C19  21566223.133 8 112300978.143 8        95.613          51.000
C20  24067517.594 5 125325894.153 5     -2144.594          34.000
E05  23632056.078 8 124187288.578 8      -668.832          51.000    23632058.188 8  95156534.683 8      -512.491          51.000
> 2020 05 12 00 08 30.0000000  0 13        .000000000000
G04  21803859.102 4 114580052.581 4     -2389.895          28.000
G06  21097175.945 7 110866421.794 7      -506.477          44.000    21097178.867 7  86389410.219 7      -394.657          45.000
G07  22084193.148 7 116053218.847 7      2562.855          46.000    22084192.797 7  90431077.137 7      1997.030          46.000
G09  20315716.625 8 106759810.079 8      -476.988          51.000    20315717.727 8  83189462.799 8      -371.679          51.000
R03  20006148.531 8 107094487.256 8     -1099.672          48.000    20006149.047 7  83295712.031 7      -855.300          47.000
R12  22280596.148 6 119018918.056 6     -2338.137          37.000    22280603.008 4  92570320.698 4     -1818.551          25.000
R14  22750564.227 6 121273316.664 6      4274.926          38.000    22750564.633 5  94323691.909 5      3324.942          33.000
R18  22832114.875 4 121879378.654 4     -4253.531          29.000    22832124.844 5  94795102.900 5     -3308.305          35.000
C05  39775236.375 5 207120092.394 5       -22.262          35.000    39775231.102 5 160158372.808 5       -17.006          35.000
C19  21565681.984 8 112298159.148 8        90.238          51.000
C20  24079874.039 6 125390244.785 6     -2146.977          36.000
E05  23635875.680 8 124207360.224 8      -671.379          51.000    23635877.773 8  95171914.266 8      -514.409          51.000
E09                                                                  24840517.820 6 100022473.541 6     -1690.440          36.000
> 2020 05 12 00 09  0.0000000  0 13        .000000000000
G06  21100130.148 7 110881948.187 7      -528.844          44.000    21100133.594 7  86401508.716 7      -412.089          44.000
G07  22069600.180 7 115976536.648 7      2549.070          46.000    22069601.039 7  90371324.735 7      1986.289          46.000
G09  20318479.297 8 106774328.115 8      -491.098          51.000    20318480.375 8  83200775.567 8      -382.673          51.000
R02  23242591.422 4 124026919.762 4     -2990.172          29.000
R03  20012343.266 8 107127651.254 8     -1111.430          48.000    20012344.328 7  83321506.258 7      -864.445          47.000
R12  22293795.438 6 119089426.174 6     -2362.441          36.000
R14  22726528.281 6 121145178.158 6      4267.320          36.000    22726526.930 5  94224028.661 5      3319.030          31.000
R18  22856033.164 5 122007063.038 5     -4260.379          32.000    22856045.148 5  94894412.831 5     -3313.631          32.000
C05  39775369.305 5 207120784.210 5       -24.172          35.000    39775363.938 5 160158907.789 5       -18.724          35.000
C19  21565190.492 8 112295599.448 8        80.137          51.000
C20  24092263.109 5 125454762.019 5     -2154.082          33.000
E05  23639729.086 8 124227609.759 8      -678.715          51.000    23639731.289 8  95187430.150 8      -520.021          51.000
E09  24853120.492 5 130604029.414 5     -2208.434          32.000    24853121.344 5 100073216.586 5     -1692.715          35.000
> 2020 05 12 00 09 30.0000000  0 12        .000000000000
G02  22841089.539 6 120030712.398 6      1620.516          36.000
G06  21103209.281 7 110898130.024 7      -548.617          44.000    21103212.570 7  86414117.936 7      -427.494          44.000
G07  22055083.992 7 115900254.007 7      2537.855          47.000    22055085.195 7  90311883.736 7      1977.550          47.000
G09  20321320.656 8 106789259.434 8      -502.871          51.000    20321321.789 8  83212410.364 8      -391.848          51.000
R03  20018601.406 8 107161153.337 8     -1120.684          48.000    20018602.781 7  83347563.424 7      -871.643          47.000
R14  22702533.367 6 121017256.371 6      4261.969          37.000    22702529.812 4  94124534.023 4      3314.865          27.000
R18  22879991.172 6 122134963.604 6     -4265.082          37.000    22880005.602 5  94993890.939 5     -3317.286          30.000
C05  39775511.125 5 207121522.970 5       -23.727          35.000    39775505.633 5 160159478.272 5       -18.401          35.000
C19  21564754.797 8 112293331.317 8        72.375          51.000
C20  24104690.555 5 125519477.525 5     -2159.211          30.000
E05  23643622.359 8 124248068.962 8      -683.762          51.000    23643624.656 8  95203106.695 8      -523.936          51.000
E09  24865738.555 5 130670333.202 5     -2209.984          34.000    24865741.102 5 100124031.888 5     -1692.868          30.000
> 2020 05 12 00 10  0.0000000  0 10        .000000000000
G03  24070948.539 5 126493698.134 5     -3134.695          32.000    24070958.680 4  98566555.972 4     -2442.629          29.000
G06  21106408.648 7 110914941.775 7      -572.535          45.000    21106411.016 7  86427217.958 7      -446.131          45.000
G07  22040639.867 8 115824348.037 8      2522.457          49.000    22040640.445 8  90252736.219 8      1965.551          49.000
G09  20324235.688 8 106804577.937 8      -518.551          51.000    20324236.734 8  83224346.868 8      -404.066          51.000
R03  20024918.156 8 107194967.768 8     -1133.895          49.000    20024919.711 8  83373863.525 8      -881.918          48.000
R18  22903985.078 6 122263050.447 6     -4274.305          38.000
C05  39775656.930 5 207122281.652 5       -26.812          35.000    39775651.422 6 160160064.925 6       -20.954          36.000
C19  21564370.289 8 112291330.258 8        60.820          51.000
E03  24684002.570 5 129715308.172 5      1493.316          34.000
E05  23647550.703 8 124268712.368 8      -692.570          51.000    23647552.914 8  95218924.374 8      -530.710          51.000
> 2020 05 12 00 10 30.0000000  0 11        .000000000000
G06  21109705.898 7 110932266.527 7      -586.754          47.000    21109707.305 7  86440717.742 7      -457.211          46.000
G07  22026245.781 8 115748704.111 8      2516.371          50.000    22026245.234 8  90193792.918 8      1960.809          50.000
G09  20327202.047 8 106820166.376 8      -524.738          51.000    20327202.922 8  83236493.708 8      -408.887          51.000
R03  20031271.547 8 107228975.577 8     -1137.508          50.000    20031273.000 8  83400314.016 8      -884.728          48.000
R04  20475726.836 5 109646568.289 5      1792.082          34.000
R12  22334152.586 6 119305031.899 6     -2425.551          37.000
R18  22927991.250 5 122391200.709 5     -4273.109          35.000
C05  39775784.523 5 207122946.556 5       -21.109          35.000    39775779.078 6 160160578.694 6       -16.371          36.000
C19  21564015.000 8 112289481.288 8        58.383          51.000
E05  23651491.820 8 124289423.225 8      -692.148          51.000    23651493.867 8  95234793.728 8      -530.342          51.000
E31  26956765.844 6 141658760.688 6      -288.434          40.000    26956770.508 5 108543739.261 5      -221.391          35.000
> 2020 05 12 00 11  0.0000000  0 12        .000000000000
G06  21113108.344 7 110950145.507 7      -611.094          46.000    21113109.375 7  86454649.393 7      -476.177          46.000
G07  22011909.867 8 115673365.867 8      2500.355          51.000    22011908.242 8  90135087.793 8      1948.329          51.000
G09  20330227.469 8 106836065.498 8      -540.934          51.000    20330228.320 8  83248882.640 8      -421.507          51.000
R03  20037668.945 8 107263219.493 8     -1151.359          50.000    20037670.016 7  83426948.159 7      -895.502          47.000
R12  22347832.992 6 119378102.028 6     -2451.914          37.000    22347842.219 4  92849686.833 4     -1907.038          27.000
R14  22630701.008 6 120634358.514 6      4242.418          36.000    22630700.602 6  93826727.609 6      3299.664          36.000
R18  22952016.516 5 122519452.578 5     -4283.012          34.000    22952023.625 4  95292913.028 4     -3331.231          25.000
C05  39775901.961 5 207123557.487 5       -25.168          35.000
C19  21563696.859 8 112287826.127 8        46.105          51.000
C20  24142113.781 5 125714303.518 5     -2175.684          30.000
E05  23655453.594 8 124310242.852 8      -701.668          51.000    23655455.555 8  95250746.423 8      -537.639          51.000
E31  26958449.047 6 141667613.712 6      -307.355          38.000    26958457.414 5 108550522.817 5      -235.659          34.000
> 2020 05 12 00 11 30.0000000  0 14        .000000000000
G02  22804752.727 5 119839791.743 5      1560.418          33.000
G06  21116645.883 8 110968734.071 8      -629.395          48.000    21116647.125 8  86469133.991 8      -490.437          48.000
G07  21997662.289 8 115598491.557 8      2490.148          51.000    21997659.828 8  90076744.180 8      1940.375          51.000
G09  20333341.555 8 106852430.333 8      -551.191          51.000    20333342.383 8  83261634.470 8      -429.500          51.000
R03  20044139.891 8 107297857.917 8     -1158.984          50.000    20044140.508 8  83453889.147 8      -901.432          48.000
R12  22361656.227 5 119451929.563 5     -2471.754          35.000    22361659.805 4  92907084.388 4     -1922.472          26.000
R14  22606834.883 6 120507133.148 6      4238.270          37.000    22606833.273 6  93727774.583 6      3296.432          36.000
R18  22976088.453 5 122647959.943 5     -4285.934          30.000    22976097.102 4  95392861.184 4     -3333.498          26.000
C05  39776039.016 5 207124271.436 5       -23.250          35.000    39776033.602 5 160161603.793 5       -18.084          35.000
C19  21563445.734 8 112286519.694 8        39.836          51.000
C20  24154656.336 5 125779601.776 5     -2178.770          31.000
E05  23659465.617 8 124331326.821 8      -705.141          51.000    23659467.750 8  95266901.671 8      -540.315          51.000
E09  24916233.211 6 130935695.017 6     -2213.793          36.000
E31  26960237.094 6 141677013.274 6      -320.242          36.000    26960244.562 5 108557734.106 5      -245.650          31.000
> 2020 05 12 00 12  0.0000000  0 15        .000000000000
G02  22795894.453 5 119793253.275 5      1541.828          31.000
G06  21120301.336 8 110987941.659 8      -650.957          48.000    21120302.969 8  86484100.947 8      -507.239          49.000
G07  21983486.000 8 115523992.081 8      2476.547          51.000    21983483.414 8  90018692.649 8      1929.777          51.000
G09  20336527.008 8 106869169.825 8      -564.637          51.000    20336527.641 8  83274678.240 8      -439.977          51.000
R03  20050667.102 8 107332798.904 8     -1170.250          50.000    20050667.836 8  83481065.455 8      -910.194          48.000
R12  22375603.133 5 119526420.017 5     -2494.680          34.000    22375605.633 3  92965029.790 3     -1940.312          23.000
R14  22583006.750 5 120380111.349 5      4229.793          31.000    22583004.734 6  93628979.953 6      3289.848          37.000
R18  23000190.195 5 122776626.443 5     -4291.590          33.000    23000201.305 4  95492938.186 4     -3337.903          28.000
C05  39776178.250 5 207124997.081 5       -25.102          35.000    39776172.734 6 160162164.518 6       -19.310          36.000
C19  21563244.672 8 112285473.039 8        30.039          51.000
C20  24167225.203 5 125845071.862 5     -2185.637          34.000
E03  24650009.883 5 129536675.593 5      1476.488          34.000    24650019.375 5  99255407.824 5      1131.664          33.000
E05  23663510.766 8 124352584.664 8      -712.051          51.000    23663513.211 8  95283190.143 8      -545.558          51.000
E09  24928873.867 5 131002143.914 5     -2216.379          34.000
E31  26962112.312 6 141686868.952 6      -336.621          36.000
> 2020 05 12 00 12 30.0000000  0 14        .000000000000
G04  21914285.102 4 115160345.426 4     -2444.191          28.000
G06  21124070.867 8 111007748.201 8      -669.258          49.000    21124072.047 8  86499534.643 8      -521.500          49.000
G07  21969377.695 8 115449850.908 8      2466.340          51.000    21969375.336 8  89960920.330 8      1921.826          51.000
G09  20339779.891 8 106886263.627 8      -574.793          51.000    20339780.391 8  83287998.097 8      -447.891          51.000
R03  20057247.117 8 107368022.690 8     -1177.832          50.000    20057248.062 8  83508461.718 8      -916.092          48.000
R14  22559214.812 5 120253277.983 5      4226.055          33.000    22559209.180 6  93530331.909 6      3286.941          38.000
R18  23024318.609 5 122905428.110 5     -4294.645          34.000    23024327.945 4  95593108.202 4     -3340.282          26.000
C05  39776316.094 5 207125714.641 5       -23.355          35.000    39776310.672 6 160162719.770 6       -17.598          36.000
C19  21563090.016 8 112284667.296 8        23.711          51.000
C20  24179830.922 6 125910677.930 6     -2188.203          38.000
E03  24641585.641 5 129492408.286 5      1474.254          32.000
E05  23667585.234 8 124373996.626 8      -715.375          51.000    23667587.922 8  95299596.702 8      -548.133          51.000
E09                                                                  24941524.703 5 100429186.941 5     -1697.723          33.000
E31  26964070.938 6 141697161.244 6      -349.242          37.000
> 2020 05 12 00 13  0.0000000  0 11        .000000000000
G06  21127949.602 8 111028129.541 8      -689.312          49.000    21127950.477 8  86515416.223 8      -537.127          49.000
G07  21955333.023 8 115376046.134 8      2454.109          50.000    21955331.031 8  89903410.153 8      1912.296          50.000
G09  20343095.492 8 106903687.169 8      -586.785          51.000    20343096.109 8  83301574.899 8      -457.232          51.000
R03  20063875.289 8 107403504.942 8     -1187.453          51.000    20063876.539 8  83536059.013 8      -923.575          48.000
R14  22535450.273 6 120126613.391 6      4218.992          39.000    22535446.508 6  93431815.043 6      3281.438          40.000
R18  23048468.344 5 123034336.792 5     -4299.164          35.000    23048472.023 4  95693346.440 4     -3343.794          26.000
C05  39776448.094 5 207126402.162 5       -22.824          35.000    39776442.727 6 160163251.435 6       -17.655          36.000
C19  21562977.266 8 112284079.440 8        15.555          51.000
C20  24192455.211 5 125976404.693 5     -2192.883          31.000
E05  23671684.508 8 124395538.715 8      -720.727          51.000    23671687.203 8  95316102.975 8      -552.251          51.000
E31  26966108.773 5 141707856.373 5      -364.391          34.000
> 2020 05 12 00 13 30.0000000  0 12        .000000000000
G03  24196711.516 5 127154576.688 5     -3163.004          30.000
G06  21131945.344 8 111049126.961 8      -708.352          49.000    21131945.945 8  86531777.849 8      -551.962          49.000
G07  21941360.367 8 115302621.339 8      2443.000          49.000    21941358.789 8  89846196.059 8      1903.636          49.000
G09  20346481.672 8 106921481.479 8      -597.531          51.000    20346482.430 8  83315440.601 8      -465.609          51.000
R03  20070559.695 8 107439288.213 8     -1195.992          51.000    20070561.227 8  83563890.446 8      -930.216          49.000
R14  22511725.430 6 120000164.616 6      4213.219          41.000    22511724.367 6  93333466.002 6      3276.948          41.000
R18  23072645.867 5 123163390.417 5     -4302.547          34.000    23072647.875 4  95793725.358 4     -3346.428          26.000
C05  39776582.203 5 207127099.750 5       -21.875          35.000    39776576.898 6 160163791.644 6       -16.988          36.000
C19  21562914.344 8 112283751.408 8         8.379          51.000
C20  24205103.805 5 126042293.590 5     -2197.359          34.000
E05  23675816.484 8 124417252.501 8      -724.859          51.000    23675819.062 8  95332740.803 8      -555.403          51.000
E31  26968233.203 5 141719021.012 5      -377.918          32.000
> 2020 05 12 00 14  0.0000000  0 14        .000000000000
G03  24214785.258 5 127249567.879 5     -3170.234          32.000    24214784.508 5  99155476.861 5     -2470.312          31.000
G04  21956300.289 5 115381153.592 5     -2464.965          33.000
G06  21136054.938 8 111070723.884 8      -731.922          48.000    21136055.211 8  86548606.622 8      -570.329          48.000
G07  21927457.352 8 115229562.241 8      2427.078          50.000    21927456.188 8  89789266.889 8      1891.230          50.000
G09  20349935.164 8 106939629.674 8      -612.957          51.000    20349935.906 8  83329582.056 8      -477.629          51.000
R03  20077297.422 8 107475356.223 8     -1209.215          51.000    20077298.930 8  83591943.324 8      -940.500          49.000
R12  22432561.617 5 119830685.569 5     -2580.262          30.000
R14  22488037.328 6 119873919.606 6      4202.148          39.000    22488040.016 7  93235275.479 7      3268.338          42.000
R18  23096847.039 5 123292568.535 5     -4310.391          35.000
C05  39776715.422 5 207127793.607 5       -25.082          35.000    39776710.211 6 160164328.165 6       -19.534          36.000
C19  21562898.344 8 112283667.822 8        -3.473          51.000
C20  24217783.539 5 126108328.411 5     -2205.559          34.000
E05  23679978.062 8 124439121.755 8      -733.750          51.000    23679980.570 8  95349497.757 8      -562.203          51.000
E31                                                                  26970444.914 5 108598814.541 5      -303.497          33.000
> 2020 05 12 00 14 30.0000000  0 13        .000000000000
G03  24232894.312 6 127344716.912 6     -3172.891          37.000    24232887.531 5  99229618.962 5     -2472.382          35.000
G04  21970382.391 5 115455139.704 5     -2469.152          32.000
G06  21140282.219 8 111092939.198 8      -749.469          50.000    21140282.109 8  86565917.248 8      -584.002          50.000
G07  21913628.258 8 115156890.322 8      2417.172          51.000    21913627.453 8  89732639.416 8      1883.511          51.000
G09  20353459.414 8 106958150.331 8      -622.242          51.000    20353460.070 8  83344013.737 8      -484.864          51.000
R03  20084092.023 8 107511728.479 8     -1216.094          51.000    20084093.547 8  83620232.853 8      -945.851          49.000
R14  22464393.773 7 119747902.735 7      4197.898          42.000    22464398.555 6  93137262.383 6      3265.035          41.000
C05  39776851.523 5 207128502.586 5       -22.434          35.000    39776846.312 6 160164875.985 6       -17.178          36.000
C19  21562933.031 8 112283848.376 8        -9.105          51.000
C20  24230496.609 6 126174528.239 6     -2207.898          38.000
E05  23684172.914 8 124461165.613 8      -736.434          51.000    23684175.391 8  95366388.498 8      -564.220          51.000
E09  24992167.984 5 131334729.690 5     -2218.754          32.000
E31                                                                  26972734.656 5 108608051.989 5      -312.617          32.000
> 2020 05 12 00 15  0.0000000  0 12        .000000000000
G03  24251028.438 5 127440005.508 5     -3178.316          33.000    24251022.875 5  99303869.736 5     -2476.619          33.000
G04  21984499.047 5 115529320.315 5     -2475.000          35.000
G06  21144624.117 8 111115755.892 8      -770.062          50.000    21144623.586 8  86583696.464 8      -600.049          50.000
G07  21899870.156 8 115084591.326 8      2404.402          51.000    21899869.586 8  89676302.524 8      1873.560          51.000
G09  20357051.312 8 106977026.175 8      -634.625          51.000    20357051.938 8  83358722.194 8      -494.513          51.000
R03  20090940.258 8 107548388.442 8     -1226.285          51.000    20090942.000 8  83648746.147 8      -953.777          49.000
R13  20608177.211 5 110046508.913 5      1249.051          31.000    20608188.477 4  85591755.257 4       971.484          29.000
R14  22440792.500 7 119622101.681 7      4190.309          44.000    22440797.422 6  93039417.176 6      3259.132          41.000
C05  39776987.289 6 207129208.923 6       -22.910          36.000    39776982.008 5 160165423.613 5       -18.123          35.000
C19  21563015.445 8 112284277.316 8       -17.867          51.000
E05  23688397.852 8 124483367.388 8      -742.125          51.000    23688400.273 8  95383400.256 8      -568.650          51.000
E31  26975112.570 5 141755169.425 5      -423.316          34.000    26975110.523 5 108617592.417 5      -324.159          31.000
> 2020 05 12 00 15 30.0000000  0 15        .000000000000
G03  24269181.922 5 127535392.415 5     -3181.953          33.000    24269175.055 5  99378197.002 5     -2479.447          32.000
G04  21998641.867 5 115603644.704 5     -2480.406          33.000
G06  21149072.656 8 111139132.727 8      -789.270          51.000    21149072.102 8  86601912.146 8      -615.015          50.000
G07  21886175.539 8 115012626.448 8      2392.461          50.000    21886174.898 8  89620225.972 8      1864.255          50.000
G09  20360703.016 8 106996215.783 8      -645.551          51.000    20360703.664 8  83373675.146 8      -503.027          51.000
R03  20097834.695 8 107585294.655 8     -1235.070          51.000    20097836.211 8  83677450.984 8      -960.610          49.000
R12  22476528.578 4 120065578.902 4     -2640.738          29.000
R13  20601234.258 5 110009427.149 5      1222.922          30.000    20601244.117 4  85562941.915 4       951.161          29.000
R14  22417225.930 7 119496479.633 7      4183.668          45.000    22417230.672 7  92941711.210 7      3253.964          44.000
R18  23169590.234 5 123680854.002 5     -4318.941          31.000    23169595.211 4  96196226.797 4     -3359.180          29.000
C05  39777114.953 6 207129874.061 6       -22.277          36.000    39777109.758 6 160165936.878 6       -16.876          36.000
C19  21563137.953 8 112284914.883 8       -25.402          51.000
C20  24255997.242 5 126307319.133 5     -2217.816          30.000
E05  23692645.031 8 124505686.306 8      -746.562          51.000    23692647.406 8  95400501.760 8      -572.077          51.000
E31  26977568.266 6 141768066.455 6      -437.266          36.000    26977565.523 5 108627476.540 5      -335.045          32.000
> 2020 05 12 00 16  0.0000000  0 15        .000000000000
G03  24287363.188 5 127630928.877 5     -3186.594          32.000    24287353.578 5  99452641.087 5     -2483.045          31.000
G04  22012821.836 5 115678158.816 5     -2487.262          32.000
G06  21153637.508 8 111163121.238 8      -810.277          51.000    21153637.469 8  86620604.460 8      -631.385          51.000
G07  21872554.914 8 114941049.634 8      2379.012          50.000    21872553.523 8  89564451.819 8      1853.775          50.000
G09  20364424.172 8 107015770.517 8      -658.340          51.000    20364424.773 8  83388912.609 8      -512.992          51.000
R03  20104784.992 8 107622500.151 8     -1245.570          51.000    20104786.398 8  83706388.594 8      -968.777          48.000
R12  22491416.023 6 120145105.794 6     -2661.848          36.000
R13  20594439.289 4 109973155.015 4      1195.090          28.000
R14  22393703.766 7 119371094.238 7      4175.047          45.000    22393709.055 7  92844189.276 7      3247.262          45.000
R18  23193870.156 5 123810485.783 5     -4323.719          35.000    23193880.398 5  96297051.477 5     -3362.895          30.000
C05                                                                  39777239.391 6 160166459.031 6       -17.821          37.000
C19  21563310.562 8 112285813.314 8       -34.699          51.000
C20  24268796.766 4 126373988.454 4     -2221.707          27.000
E05  23696924.336 8 124528174.307 8      -752.773          51.000    23696926.711 8  95417732.824 8      -576.773          51.000
E31  26980109.164 6 141781415.839 6      -452.727          36.000    26980107.023 5 108637705.269 5      -346.867          33.000
> 2020 05 12 00 16 30.0000000  0 12        .000000000000
G04  22027043.000 6 115752892.328 6     -2492.629          36.000
G06  21158322.547 8 111187741.929 8      -829.141          51.000    21158323.297 8  86639789.414 8      -646.081          51.000
G07  21859012.461 8 114869884.140 8      2367.355          49.000    21859010.312 8  89508998.197 8      1844.693          49.000
G09  20368218.562 8 107035710.664 8      -668.988          51.000    20368219.156 8  83404450.392 8      -521.290          51.000
R03  20111795.367 8 107660026.710 8     -1254.156          51.000    20111796.422 8  83735575.921 8      -975.455          48.000
R12  22506427.047 6 120225281.204 6     -2681.102          37.000
R14  22370231.219 7 119245971.228 7      4168.469          46.000    22370236.859 7  92746871.369 7      3242.139          46.000
R18  23218178.961 5 123940256.744 5     -4326.242          33.000    23218187.602 5  96397984.409 5     -3364.858          30.000
C05  39777380.414 6 207131256.663 6       -22.047          36.000    39777375.164 6 160167005.255 6       -16.882          36.000
C19  21563537.391 8 112286994.050 8       -42.008          51.000
E05  23701239.734 8 124550852.325 8      -757.039          51.000    23701242.188 8  95435109.483 8      -580.102          51.000
E31                                                                  26982737.961 6 108648296.737 6      -357.376          36.000
> 2020 05 12 00 17  0.0000000  0 14        .000000000000
G04  22041286.797 5 115827744.640 5     -2498.238          35.000
G06  21163109.617 8 111212899.721 8      -848.641          50.000    21163111.359 8  86659392.888 8      -661.278          51.000
G07  21845530.414 8 114799037.464 8      2355.137          48.000    21845528.391 8  89453793.029 8      1835.171          48.000
G09  20372068.211 8 107055940.986 8      -680.289          51.000    20372068.961 8  83420214.275 8      -530.095          51.000
R03  20118847.625 8 107697778.074 8     -1263.246          51.000    20118848.703 8  83764938.089 8      -982.525          48.000
R12  22521540.023 6 120306009.793 6     -2701.258          37.000
R14  22346790.633 7 119121019.298 7      4161.113          45.000    22346796.625 7  92649686.519 7      3236.421          46.000
R18  23242495.969 5 124070066.657 5     -4328.688          30.000    23242505.594 5  96498947.618 5     -3366.760          33.000
C05  39777504.141 6 207131900.698 6       -21.570          36.000    39777498.828 6 160167503.289 6       -16.535          36.000
C19  21563800.617 8 112288364.015 8       -49.957          51.000
C20  24294469.516 5 126507681.756 5     -2231.777          31.000
E05  23705573.305 8 124573625.725 8      -761.750          51.000    23705575.828 8  95452559.223 8      -583.685          51.000
E09                                                                  25055570.750 5 100888395.538 5     -1703.260          34.000
E31                                                                  26985441.422 6 108659178.346 6      -368.283          37.000
> 2020 05 12 00 17 30.0000000  0 11        .000000000000
G06  21168018.258 8 111238695.607 8      -870.500          51.000    21168020.672 8  86679493.575 8      -678.312          51.000
G07  21832128.812 8 114728613.055 8      2340.285          50.000    21832127.320 8  89398916.888 8      1823.599          50.000
G09  20375992.250 8 107076562.340 8      -693.855          51.000    20375993.305 8  83436282.861 8      -540.667          51.000
R03  20125961.320 8 107735857.693 8     -1274.805          51.000    20125962.555 8  83794555.562 8      -991.515          48.000
R12  22536775.992 6 120387391.338 6     -2723.656          38.000
R14  22323402.406 7 118996346.291 7      4151.125          47.000    22323408.539 7  92552718.590 7      3228.650          45.000
C05  39777635.195 5 207132583.341 5       -23.492          35.000    39777629.977 6 160168031.163 6       -18.241          36.000
C19  21564119.609 8 112290024.509 8       -60.242          51.000
E05  23709944.391 8 124596596.018 8      -768.980          51.000    23709946.867 8  95470159.841 8      -589.252          51.000
E09                                                                  25068272.844 5 100939533.016 5     -1705.475          34.000
E31  26988231.945 6 141824114.703 6      -497.676          36.000    26988236.234 6 108670427.919 6      -380.989          38.000
> 2020 05 12 00 18  0.0000000  0 13        .000000000000
G06  21173040.562 8 111265087.760 8      -888.605          51.000    21173043.008 8  86700058.903 8      -692.417          51.000
G07  21818800.359 8 114658572.067 8      2329.340          50.000    21818799.430 8  89344339.513 8      1815.070          50.000
G09  20379982.711 8 107097532.795 8      -703.867          51.000    20379983.984 8  83452623.485 8      -548.468          51.000
R03  20133128.477 8 107774223.702 8     -1282.617          51.000    20133129.836 7  83824395.777 7      -997.591          47.000
R04  20330295.047 4 108867832.952 4      1671.301          29.000
R12  22552124.805 5 120469380.974 5     -2741.883          33.000
R13  20568770.422 5 109836084.532 5      1089.215          30.000    20568772.664 4  85428076.250 4       847.164          27.000
R14  22300059.711 8 118871914.786 8      4144.680          48.000    22300065.953 7  92455938.488 7      3223.640          43.000
C05  39777766.016 6 207133263.941 6       -21.711          36.000    39777760.672 6 160168557.427 6       -16.556          37.000
C19  21564486.648 8 112291935.300 8       -66.836          51.000
C20  24320255.242 5 126641948.978 5     -2242.117          35.000
E05  23714345.070 8 124619721.885 8      -772.414          51.000    23714347.414 8  95487879.661 8      -591.868          51.000
E31  26991109.867 6 141839235.185 6      -510.301          39.000    26991113.977 6 108682013.788 6      -391.052          38.000
> 2020 05 12 00 18 30.0000000  0 13        .000000000000
G06  21178174.609 8 111292067.466 8      -908.953          51.000    21178176.805 8  86721082.053 8      -708.275          51.000
G07  21805543.836 8 114588907.894 8      2315.867          50.000    21805543.320 8  89290055.754 8      1804.572          50.000
G09  20384038.109 8 107118843.568 8      -715.887          51.000    20384039.289 8  83469229.280 8      -557.834          51.000
R03  20140347.625 8 107812868.021 8     -1292.625          51.000    20140348.938 7  83854452.458 7     -1005.375          47.000
R12  22567584.664 5 120551967.238 5     -2762.293          34.000
R13  20562729.469 5 109803821.111 5      1062.230          32.000    20562734.594 5  85402981.368 5       826.179          33.000
R14  22276761.539 8 118747721.329 8      4135.984          49.000    22276768.906 6  92359343.581 6      3216.877          40.000
C05  39777894.836 6 207133935.787 6       -22.605          36.000    39777889.484 6 160169077.169 6       -17.145          36.000
C19  21564900.297 8 112294089.029 8       -75.734          51.000
C20  24333192.266 5 126709308.856 5     -2247.828          33.000
E03  24542545.008 5 128971943.561 5      1418.129          33.000    24542551.375 5  98822682.014 5      1086.286          31.000
E05  23718773.766 8 124642995.172 8      -778.094          51.000    23718776.055 8  95505712.436 8      -596.187          51.000
E31  26994070.375 6 141854786.356 6      -525.410          40.000    26994073.227 6 108693929.632 6      -402.710          37.000
> 2020 05 12 00 19  0.0000000  0 13        .000000000000
G06  21183428.531 8 111319678.937 8      -930.117          50.000    21183430.555 8  86742597.480 8      -724.770          51.000
G07  21792368.008 8 114519667.431 8      2301.781          51.000    21792367.961 8  89236102.180 8      1793.596          51.000
G09  20388166.742 8 107140538.777 8      -728.656          51.000    20388167.703 8  83486134.641 8      -567.784          51.000
R03  20147627.117 8 107851836.646 8     -1303.434          51.000    20147628.594 7  83884761.382 7     -1013.782          46.000
R12  22583165.109 6 120635192.413 6     -2783.902          37.000    22583164.523 4  93827388.419 4     -2165.260          26.000
R14  22253517.625 8 118623816.061 8      4126.184          51.000    22253529.359 5  92262972.628 5      3209.242          30.000
C05  39778030.414 6 207134641.425 6       -23.055          36.000    39778025.141 6 160169622.840 6       -17.815          36.000
C19  21565369.125 8 112296530.762 8       -85.305          51.000
C20  24346158.625 5 126776852.631 5     -2254.781          33.000
E03  24534470.578 5 128929512.223 5      1411.988          31.000
E05  23723238.969 8 124666460.665 8      -784.496          51.000    23723241.352 8  95523692.489 8      -601.092          51.000
E09                                                                  25106403.148 5 101093093.877 5     -1706.947          31.000
E31  26997120.211 6 141870812.955 6      -541.035          40.000    26997122.164 6 108706209.773 6      -414.907          37.000
> 2020 05 12 00 19 30.0000000  0 12        .000000000000
G06  21188789.414 8 111347852.565 8      -948.957          51.000    21188791.547 8  86764550.939 8      -739.447          51.000
