     3.02           OBSERVATION DATA    M (MIXED)           RINEX VERSION / TYPE
SAVERINEX           SC600               20200509 065930 LCL PGM / RUN BY / DATE
       G = GPS       R = GLONASS       C = COMPASS          COMMENT
       S = SBAS      J = QZSS          E = GALILEO          COMMENT
BEAN                                                        MARKER NAME
1                                                           MARKER NUMBER
GEODETIC                                                    MARKER TYPE
Unige DICCA         GTER                                    OBSERVER / AGENCY
SC60291900056       SC600               2.12(191226)        REC # / TYPE / VERS
                    HEMA45          NONE                    ANT # / TYPE
  4509407.8091   693652.4678  4442337.6214                  APPROX POSITION XYZ
        0.0000        0.0000        0.0000                  ANTENNA: DELTA H/E/N
G    8 C1C L1C D1C S1C C2Y L2Y D2Y S2Y                      SYS / # / OBS TYPES
R    8 C1C L1C D1C S1C C2P L2P D2P S2P                      SYS / # / OBS TYPES
C    8 C1I L1I D1I S1I C7I L7I D7I S7I                      SYS / # / OBS TYPES
E    8 C1C L1C D1C S1C C7Q L7Q D7Q S7Q                      SYS / # / OBS TYPES
DBHZ                                                        COMMENT
     30.000                                                 INTERVAL
  2020    05    09    04    00    0.0000000     GPS         TIME OF FIRST OBS
  2020    05    09    04    59   30.0000000     GPS         TIME OF LAST OBS
     0                                                      RCV CLOCK OFFS APPL
G L1C  0.00000                                              SYS / PHASE SHIFT
G L2Y  0.00000                                              SYS / PHASE SHIFT
R L1C  0.00000                                              SYS / PHASE SHIFT
R L2P  0.25000                                              SYS / PHASE SHIFT
C L1I  0.00000                                              SYS / PHASE SHIFT
C L7I  0.00000                                              SYS / PHASE SHIFT
E L1C  0.50000                                              SYS / PHASE SHIFT
E L7Q -0.25000                                              SYS / PHASE SHIFT
 13 R01  1 R02 -4 R03  5 R07  5 R08  6 R10 -5 R11  0 R12 -1 GLONASS SLOT / FRQ #
    R13 -2 R14 -7 R21  4 R22 -3 R23  3                      GLONASS SLOT / FRQ #
 C1C   71.950 C2C   71.950 C2P   71.950                     GLONASS COD/PHS/BIS
    18                                                      LEAP SECONDS
*** Above antenna height is from mark to ANTENNA BOTTOM.    COMMENT
    17     4        0.0000        ANT MEASURE TYPE/HEIGT    COMMENT
    0.0000    0.0000    0.0458    0.0405    0.0000          COMMENT
                    BASE STATION                            COMMENT
                                                            END OF HEADER
> 2020 05 09 04 00  0.0000000  0 14        .000000000000
G05  21135559.539 8 111068112.845 8     -1930.613          51.000    21135558.992 8  86546579.402 8     -1504.374          51.000
G28  21168566.383 8 111241584.468 8      1361.031          49.000    21168565.484 7  86681762.516 7      1060.544          45.000
G30  21016755.531 8 110443837.001 8     -1679.188          51.000    21016756.992 8  86060143.467 8     -1308.461          51.000
R01  23189094.891 6 123958949.153 6     -3985.285          40.000    23189100.727 5  96412556.586 5     -3099.666          34.000
R02  19114104.375 8 101996510.213 8      -637.305          51.000    19114106.016 8  79330645.213 8      -495.681          49.000
R12  19267907.227 8 102925731.023 8     -1074.098          51.000    19267910.297 8  80053367.332 8      -835.409          50.000
R13  20608573.484 6 110048628.772 6      2961.887          37.000    20608575.469 7  85593345.474 7      2303.690          44.000
C05                                                                  39791923.031 6 160225579.170 6         6.364          40.000
C23  24048244.344 8 125225539.021 8      2638.414          49.000
C25  21719422.500 8 113098785.402 8        96.578          51.000
E03  23560275.547 6 123810104.599 6       827.785          39.000    23560277.898 7  94867488.936 7       634.127          42.000
E05  24516229.781 8 128833645.635 8     -1686.227          51.000    24516233.102 8  98716722.012 8     -1291.990          51.000
E24  23006648.906 7 120900755.769 7     -1583.129          42.000    23006660.547 7  92638305.059 7     -1212.963          42.000
E25  23853139.102 8 125349162.001 8      1328.871          51.000    23853142.109 8  96046744.648 8      1018.223          51.000
> 2020 05 09 04 00 30.0000000  0 14        .000000000000
G05  21146622.914 8 111126248.997 8     -1946.922          51.000    21146621.953 8  86591880.304 8     -1517.082          51.000
G28  21160839.875 8 111200983.166 8      1344.047          48.000    21160839.312 7  86650125.134 7      1047.309          47.000
G30  21026363.945 8 110494329.758 8     -1688.934          51.000    21026365.336 8  86099488.446 8     -1316.055          51.000
R01  23211474.742 7 124078582.615 7     -3992.062          43.000    23211480.258 5  96505604.905 5     -3104.934          33.000
R02  19117743.328 8 102015926.955 8      -658.809          51.000    19117744.594 8  79345747.113 8      -512.407          49.000
R12  19273993.539 8 102958242.287 8     -1095.156          51.000    19273996.438 8  80078653.868 8      -851.788          50.000
R13  20591974.836 6 109959992.472 6      2945.520          39.000    20591977.766 7  85524406.122 7      2290.957          44.000
C05  39791871.422 6 207206716.115 6         8.535          36.000    39791869.648 6 160225364.306 6         6.703          41.000
C23  24033061.070 8 125146475.912 8      2630.852          49.000
C25  21718897.742 8 113096053.333 8        83.848          51.000
E03  23555569.469 6 123785373.235 6       819.387          40.000    23555572.188 7  94848538.876 7       627.970          43.000
E05  24525872.438 8 128884319.734 8     -1693.824          51.000    24525875.719 8  98755550.208 8     -1297.859          51.000
E24  23015711.305 7 120948378.902 7     -1593.539          43.000    23015723.445 7  92674795.476 7     -1220.781          42.000
E25  23845582.430 8 125309453.273 8      1316.688          51.000    23845585.508 8  96016318.463 8      1008.914          51.000
> 2020 05 09 04 01  0.0000000  0 15        .000000000000
G05  21157791.133 8 111184936.155 8     -1965.512          51.000    21157789.758 8  86637610.543 8     -1531.568          51.000
G28  21153222.297 8 111160953.377 8      1324.773          49.000    21153222.336 8  86618933.105 8      1032.291          48.000
G30  21036038.539 8 110545170.438 8     -1700.523          50.000    21036039.711 8  86139104.532 8     -1325.083          50.000
R01  23233904.000 7 124198475.135 7     -4000.910          44.000    23233908.492 5  96598854.651 5     -3111.822          35.000
R02  19121514.312 8 102036049.746 8      -682.582          51.000    19121515.367 8  79361398.165 8      -530.897          48.000
R12  19280208.773 8 102991442.969 8     -1118.254          51.000    19280211.648 8  80104476.631 8      -869.750          50.000
R13  20575479.484 6 109871907.410 6      2926.672          39.000    20575482.852 7  85455895.493 7      2276.300          44.000
C05  39791826.320 6 207206481.206 6         7.148          36.000    39791824.594 6 160225182.650 6         5.383          40.000
C14  25991279.844 5 135343416.246 5     -3340.105          30.000    25991278.711 4 104656111.153 4     -2581.854          26.000
C23  24017932.531 8 125067698.214 8      2621.027          48.000
C25  21718457.461 8 113093760.668 8        69.113          51.000
E03  23550920.062 6 123760938.138 6       809.613          41.000    23550922.359 7  94829815.876 7       620.275          43.000
E05  24535569.758 8 128935278.119 8     -1703.367          51.000    24535572.703 8  98794596.237 8     -1305.201          51.000
E24  23024843.648 7 120996370.644 7     -1605.824          42.000    23024855.914 6  92711568.393 6     -1230.592          41.000
E25  23838106.539 8 125270167.985 8      1302.422          51.000    23838109.391 8  95986216.730 8       997.978          51.000
> 2020 05 09 04 01 30.0000000  0 16        .000000000000
G05  21169039.453 8 111244044.804 8     -1978.629          51.000    21169037.773 8  86683669.221 8     -1541.789          51.000
G28  21145689.688 8 111121369.291 8      1310.691          51.000    21145689.883 8  86588088.367 8      1021.318          48.000
G30  21045754.828 8 110596230.281 8     -1707.012          51.000    21045755.875 8  86178891.396 8     -1330.139          51.000
R01  23256357.305 7 124318495.279 7     -4004.172          44.000    23256360.703 5  96692203.607 5     -3114.359          35.000
R02  19125393.633 8 102056750.100 8      -700.965          51.000    19125394.766 8  79377498.438 8      -545.195          49.000
R11  22381056.258 5 119597564.844 5     -3841.949          33.000    22381056.648 4  93020341.563 4     -2988.189          28.000
R12  19286528.555 8 103025201.331 8     -1135.941          51.000    19286531.453 8  80130733.133 8      -883.510          50.000
R13  20559063.148 6 109784245.394 6      2913.762          38.000    20559066.289 7  85387713.919 7      2266.259          42.000
C05  39791765.188 6 207206163.037 6        10.789          36.000    39791763.461 6 160224936.621 6         8.171          40.000
C23  24002833.945 7 124989080.728 7      2616.602          46.000
C25  21718077.055 8 113091780.622 8        59.414          51.000
E02  26830341.414 6 140994402.018 6      3069.371          40.000    26830343.398 5 108034674.319 5      2351.910          33.000
E03  23546302.898 7 123736673.084 7       804.566          43.000    23546304.461 7  94811223.161 7       616.633          43.000
E05  24545297.047 8 128986393.469 8     -1707.773          51.000    24545299.562 8  98833762.515 8     -1308.512          51.000
E24  23034021.641 7 121044602.286 7     -1613.066          44.000    23034033.758 6  92748525.093 6     -1235.998          41.000
E25  23830687.289 8 125231179.324 8      1293.367          51.000    23830690.039 8  95956342.292 8       990.959          51.000
> 2020 05 09 04 02  0.0000000  0 16        .000000000000
G05  21180393.695 8 111303711.062 8     -1997.277          51.000    21180392.016 8  86730162.395 8     -1556.320          51.000
G28  21138268.461 8 111082369.661 8      1291.035          51.000    21138268.312 8  86557699.027 8      1006.001          48.000
G30  21055538.773 8 110647645.520 8     -1718.973          50.000    21055540.078 8  86218955.196 8     -1339.459          51.000
R01  23278860.039 6 124438780.637 6     -4013.031          41.000    23278861.914 5  96785758.855 5     -3121.247          34.000
R02  19129407.258 8 102078168.049 8      -725.082          51.000    19129409.062 8  79394156.815 8      -563.953          49.000
R11  22402651.938 5 119712966.224 5     -3849.340          33.000    22402650.664 4  93110098.122 4     -2993.931          28.000
R12  19292978.219 8 103059654.814 8     -1159.164          51.000    19292981.078 8  80157530.280 8      -901.572          50.000
R13  20542751.906 6 109697148.862 6      2894.656          36.000    20542754.375 6  85319972.160 6      2251.402          40.000
C05  39791714.195 6 207205897.092 6         8.641          36.000    39791712.555 6 160224731.688 6         7.098          40.000
C23  23987792.172 7 124910760.715 7      2606.457          46.000
C25  21717782.711 8 113090248.888 8        44.453          51.000
E02  26812840.547 6 140902440.006 6      3063.375          38.000    26812843.812 5 107964209.953 5      2347.531          35.000
E03  23541744.359 7 123712716.655 7       794.020          42.000    23541745.602 7  94792866.958 7       608.452          43.000
E05  24555080.328 8 129037803.278 8     -1717.707          51.000    24555082.484 8  98873154.394 8     -1316.162          51.000
E24  23043271.477 7 121093210.035 7     -1625.727          45.000    23043283.812 6  92785769.960 6     -1245.687          41.000
E25  23823350.898 8 125192625.308 8      1278.730          51.000    23823353.375 8  95926800.890 8       979.881          51.000
> 2020 05 09 04 02 30.0000000  0 17        .000000000000
G05  21191844.445 8 111363885.968 8     -2014.727          51.000    21191843.195 8  86777051.934 8     -1569.917          51.000
G28  21130949.812 8 111043908.380 8      1272.586          51.000    21130949.320 8  86527729.177 8       991.625          49.000
G30  21065381.164 8 110699367.393 8     -1729.746          49.000    21065382.438 8  86259257.949 8     -1347.854          49.000
R01  23301402.562 6 124559280.788 6     -4020.742          41.000    23301403.375 5  96879481.157 5     -3127.244          34.000
R02  19133546.531 8 102100256.159 8      -747.875          51.000    19133548.250 8  79411336.460 8      -581.681          48.000
R11  22424280.695 5 119828547.527 5     -3856.270          35.000    22424280.422 4  93199994.621 4     -2999.324          27.000
R12  19299548.664 8 103094752.872 8     -1181.156          51.000    19299551.469 8  80184828.752 8      -918.680          50.000
R13  20526538.430 6 109610571.210 6      2876.711          38.000    20526540.289 7  85252634.015 7      2237.442          43.000
C05  39791664.500 6 207205638.512 6         8.246          36.000    39791662.953 6 160224531.743 6         6.234          41.000
C23  23972800.188 8 124832692.178 8      2597.488          49.000
C24  24304861.258 4 126561790.026 4     -2667.730          28.000
C25  21717565.383 8 113089117.941 8        30.562          51.000
E02  26795364.117 6 140810606.072 6      3058.898          36.000    26795366.867 6 107893843.737 6      2343.601          36.000
E03  23537235.867 7 123689022.598 7       785.121          42.000    23537237.180 7  94774711.753 7       601.547          43.000
E05  24564910.734 8 129089460.113 8     -1726.551          51.000    24564912.453 8  98912735.569 8     -1322.950          51.000
E24  23052583.516 7 121142145.110 7     -1637.074          44.000    23052596.680 6  92823265.640 6     -1254.361          41.000
E25  23816088.305 8 125154459.158 8      1265.215          51.000    23816090.484 8  95897556.688 8       969.465          51.000
> 2020 05 09 04 03  0.0000000  0 18        .000000000000
G05  21203391.383 8 111424568.074 8     -2031.137          51.000    21203390.922 8  86824336.672 8     -1582.704          51.000
G07  23414075.539 5 123041773.756 5     -2735.105          34.000
G28  21123733.891 8 111005987.682 8      1255.004          51.000    21123733.320 8  86498180.585 8       977.925          48.000
G30  21075281.797 8 110751395.526 8     -1739.336          48.000    21075282.727 8  86299799.355 8     -1355.327          48.000
R01  23323984.469 6 124679994.875 6     -4027.371          40.000    23323985.492 5  96973369.860 5     -3132.400          34.000
R02  19137811.602 8 102123015.670 8      -769.812          51.000    19137813.383 8  79429038.279 8      -598.743          48.000
R11  22445942.461 5 119944306.509 5     -3861.020          30.000    22445943.930 4  93290029.229 4     -3003.021          25.000
R12  19306239.266 8 103130494.187 8     -1201.977          51.000    19306242.406 8  80212627.555 8      -934.871          50.000
R13  20510423.352 6 109524515.188 6      2859.898          39.000    20510425.328 7  85185701.596 7      2224.368          44.000
C05  39791616.266 6 207205387.368 6         8.184          36.000    39791614.727 6 160224337.523 6         6.228          40.000
C23  23957857.375 8 124754877.068 8      2589.668          50.000
C24  24320239.172 5 126641867.310 5     -2672.168          32.000
C25  21717425.273 8 113088388.172 8        17.723          51.000
E02  26777912.852 5 140718882.648 5      3054.613          34.000    26777916.000 6 107823577.561 6      2340.530          38.000
E03  23532777.484 7 123665592.961 7       776.688          43.000    23532778.703 7  94756759.186 7       594.992          43.000
E05  24574788.172 8 129141364.916 8     -1734.184          51.000    24574789.375 8  98952506.749 8     -1328.784          51.000
E24  23061957.742 7 121191407.152 7     -1647.465          45.000    23061970.867 6  92861011.886 6     -1262.508          40.000
E25  23808899.570 8 125116682.332 8      1252.824          51.000    23808901.945 8  95868610.798 8       960.022          51.000
> 2020 05 09 04 03 30.0000000  0 19        .000000000000
G05  21215024.883 8 111485705.180 8     -2053.004          51.000    21215024.867 8  86871975.971 8     -1599.743          50.000
G07  23429688.250 6 123123836.151 6     -2743.949          37.000    23429688.000 5  95940654.070 5     -2138.130          34.000
G15  22454211.867 5 117997699.982 5      2894.266          35.000    22454206.461 4  91946230.791 4      2255.266          29.000
G28  21116611.297 8 110968558.471 8      1231.875          50.000    21116610.664 8  86469014.963 8       959.903          48.000
G30  21085230.797 8 110803677.979 8     -1754.559          48.000    21085231.586 8  86340538.945 8     -1367.189          48.000
R01  23346595.781 6 124800868.940 6     -4039.578          39.000    23346597.555 5  97067382.945 5     -3141.897          33.000
R02  19142192.984 8 102146396.285 8      -797.336          51.000    19142195.062 8  79447223.157 8      -620.150          48.000
R11  22467628.227 5 120060188.671 5     -3872.359          33.000
R12  19313040.516 8 103166824.803 8     -1228.531          51.000    19313043.469 8  80240884.678 8      -955.524          50.000
R13  20494396.742 6 109438931.743 6      2837.023          39.000    20494399.047 7  85119136.702 7      2206.574          45.000
C05  39791559.875 6 207205093.542 6         2.996          36.000    39791558.453 6 160224110.280 6         2.362          41.000
C23  23942953.922 8 124677266.155 8      2576.082          51.000
C24  24335638.258 5 126722055.248 5     -2682.238          35.000
C25  21717352.219 8 113088008.698 8         -.734          51.000
E02  26760477.398 6 140627260.528 6      3045.445          37.000    26760480.891 6 107753373.632 6      2333.592          38.000
E03  23528360.039 7 123642378.121 7       762.551          43.000    23528360.602 7  94738971.188 7       584.313          43.000
E05  24584702.938 8 129193466.964 8     -1747.562          51.000    24584703.922 8  98992429.069 8     -1339.047          51.000
E24  23071384.531 7 121240944.082 7     -1663.445          45.000    23071396.203 6  92898968.709 6     -1274.543          40.000
E25  23801775.062 8 125079244.628 8      1234.629          51.000    23801778.047 8  95839924.783 8       946.011          51.000
> 2020 05 09 04 04  0.0000000  0 19        .000000000000
G05  21226753.945 8 111547342.140 8     -2062.867          51.000    21226753.688 8  86920004.785 8     -1607.429          51.000
G07  23445324.789 6 123206004.199 6     -2741.031          37.000    23445318.688 5  96004681.142 5     -2135.865          33.000
G15  22437670.008 5 117910761.394 5      2895.027          33.000    22437692.422 5  91878598.166 5      2255.865          32.000
G28  21109591.023 8 110931667.948 8      1220.871          49.000    21109590.266 7  86440269.062 7       951.325          46.000
G30  21095236.734 8 110856259.459 8     -1757.699          48.000    21095237.547 7  86381511.522 7     -1369.636          47.000
R01  23369245.289 6 124921947.721 6     -4039.176          41.000    23369248.180 5  97161555.241 5     -3141.581          33.000
R02  19146699.586 8 102170445.226 8      -812.715          51.000    19146701.648 8  79465927.865 8      -632.112          48.000
R11  22489345.414 5 120176238.014 5     -3871.270          33.000
R12  19319960.219 8 103203789.226 8     -1242.621          51.000    19319963.227 8  80269634.780 8      -966.483          50.000
R13  20478467.352 6 109353869.863 6      2826.727          38.000    20478470.359 7  85052977.444 7      2198.562          45.000
C05  39791504.094 6 207204802.868 6         9.156          36.000    39791502.570 6 160223885.476 6         7.570          41.000
C23  23928098.164 8 124599906.159 8      2574.484          50.000
C24  24351067.492 4 126802401.545 4     -2680.367          29.000
C25  21717355.062 8 113088024.673 8        -7.047          51.000
E02  26743066.789 6 140535767.327 6      3047.723          39.000    26743069.695 6 107683268.478 6      2335.334          38.000
E03  23523992.531 7 123619425.319 7       760.785          43.000    23523992.859 7  94721383.970 7       582.867          44.000
E05  24594663.711 8 129245812.375 8     -1748.895          51.000    24594665.266 8  99032537.859 8     -1340.059          51.000
E24  23080871.992 7 121290800.675 7     -1667.203          45.000    23080883.117 6  92937170.482 6     -1277.488          40.000
E25  23794724.008 8 125042192.735 8      1228.777          51.000    23794727.633 8  95811534.378 8       941.516          51.000
> 2020 05 09 04 04 30.0000000  0 18        .000000000000
G05  21238584.750 8 111609512.120 8     -2086.133          51.000    21238584.000 8  86968448.939 8     -1625.558          51.000
G07  23460985.961 5 123288308.392 5     -2750.969          35.000
G15  22421169.836 5 117824042.409 5      2881.379          34.000
G28  21102680.023 8 110895352.515 8      1196.012          49.000    21102679.312 7  86411971.268 7       931.957          44.000
G30  21105306.102 7 110909173.994 7     -1774.211          47.000    21105306.758 7  86422743.624 7     -1382.502          47.000
R01  23391940.266 7 125043264.950 7     -4052.785          43.000    23391943.578 5  97255913.063 5     -3152.166          31.000
R02  19151338.188 8 102195198.381 8      -841.840          51.000    19151340.242 8  79485180.293 8      -654.767          48.000
R11  22511098.594 5 120292486.939 5     -3882.785          31.000
R12  19327005.000 8 103241420.794 8     -1270.426          51.000    19327008.000 8  80298903.772 8      -988.109          49.000
R13  20462642.117 6 109269366.453 6      2802.160          37.000    20462645.969 7  84987252.537 7      2179.458          45.000
C05  39791455.789 6 207204551.386 6         2.922          36.000    39791454.078 6 160223690.265 6         2.048          41.000
C23  23913296.641 8 124522833.021 8      2559.445          50.000
C25  21717440.602 8 113088470.440 8       -26.914          51.000
E02  26725688.133 6 140444439.735 6      3036.562          40.000    26725690.164 6 107613290.205 6      2326.765          37.000
E03  23519681.578 7 123596770.935 7       745.086          44.000    23519682.492 7  94704025.399 7       571.024          45.000
E05  24604677.438 8 129298436.346 8     -1763.770          51.000    24604679.898 8  99072860.092 8     -1351.475          51.000
E24  23090426.531 7 121341010.842 7     -1684.566          44.000    23090438.602 6  92975643.179 6     -1290.736          41.000
E25  23787753.320 8 125005562.459 8      1208.910          51.000    23787757.312 8  95783467.019 8       926.317          51.000
> 2020 05 09 04 05  0.0000000  0 17        .000000000000
G05  21250524.383 8 111672253.533 8     -2100.215          51.000    21250522.805 8  87017338.346 8     -1636.531          51.000
G13  20667349.484 5 108607653.815 5      1450.680          31.000
G28  21095886.641 8 110859653.907 8      1180.266          49.000    21095885.953 7  86384154.189 7       919.687          43.000
G30  21115446.352 7 110962460.626 7     -1781.785          45.000    21115446.766 7  86464265.676 7     -1388.401          45.000
R01  23414687.273 7 125164859.733 7     -4057.168          42.000    23414691.422 5  97350486.793 5     -3155.575          31.000
R02  19156116.469 8 102220697.536 8      -861.793          50.000    19156118.844 8  79505012.963 8      -670.283          49.000
R12  19334181.867 8 103279758.226 8     -1289.125          51.000    19334184.875 8  80328721.764 8     -1002.653          50.000
R13  20446929.688 6 109185465.169 6      2787.359          39.000    20446933.680 7  84921995.926 7      2167.946          44.000
C05  39791422.375 6 207204377.350 6         5.039          36.000    39791420.703 6 160223555.632 6         4.017          41.000
C23  23898558.133 8 124446087.746 8      2553.266          51.000
C24  24382039.195 5 126963692.626 5     -2696.102          32.000
C25  21717616.281 8 113089385.378 8       -37.707          51.000
E02  26708349.320 6 140353319.596 6      3034.441          41.000    26708350.680 6 107543470.872 6      2325.082          36.000
E03  23515435.188 7 123574456.382 7       738.809          45.000    23515436.727 7  94686927.246 7       566.013          45.000
E05  24614751.844 8 129351379.217 8     -1769.457          51.000    24614754.781 8  99113426.703 8     -1355.794          51.000
E24  23100055.898 7 121391613.593 7     -1692.762          44.000    23100068.914 6  93014416.703 6     -1296.824          41.000
E25  23780870.453 8 124969394.593 8      1198.520          51.000    23780874.539 8  95755753.983 8       918.340          51.000
> 2020 05 09 04 05 30.0000000  0 18        .000000000000
G05  21262522.703 8 111735303.220 8     -2110.801          51.000    21262520.438 8  87066467.974 8     -1644.780          51.000
G07  23492374.930 5 123453248.550 5     -2749.195          34.000
G15  22388277.742 5 117651196.897 5      2875.465          33.000
G28  21089161.742 8 110824311.935 8      1168.109          51.000    21089159.898 6  86356615.016 6       910.218          41.000
G30  21125607.375 7 111015856.649 7     -1785.848          45.000    21125607.773 7  86505872.991 7     -1391.570          45.000
R01  23437435.789 6 125286463.743 6     -4057.500          40.000    23437440.922 4  97445067.665 4     -3155.833          29.000
R02  19160984.828 8 102246678.151 8      -878.195          49.000    19160987.641 8  79525220.124 8      -683.041          50.000
R12  19341440.648 8 103318533.405 8     -1303.863          51.000    19341443.914 8  80358880.221 8     -1014.116          50.000
R13  20431281.211 6 109101901.894 6      2775.785          40.000    20431284.695 7  84857002.304 7      2158.947          44.000
C05  39791354.281 5 207204022.852 5        10.805          35.000    39791352.602 6 160223281.505 6         8.340          40.000
C23  23883833.000 8 124369412.297 8      2550.699          50.000
C24  24397541.398 5 127044431.060 5     -2694.961          31.000
C25  21717832.188 8 113090509.874 8       -44.949          51.000
E02  26691000.883 7 140262146.983 7      3035.855          42.000    26691001.359 5 107473611.302 5      2326.286          35.000
E03  23511203.953 7 123552221.470 7       735.852          45.000    23511205.414 7  94669890.096 7       563.795          45.000
E05  24624837.141 8 129404379.691 8     -1771.734          51.000    24624840.188 8  99154037.442 8     -1357.575          51.000
E24  23109709.836 7 121442346.224 7     -1697.414          44.000    23109723.180 6  93053289.750 6     -1300.502          41.000
E25  23774025.914 8 124933428.332 8      1191.336          51.000    23774029.930 8  95728195.422 8       912.842          51.000
> 2020 05 09 04 06  0.0000000  0 17        .000000000000
G05  21274631.844 8 111798936.170 8     -2128.320          51.000    21274629.344 8  87116052.089 8     -1658.431          51.000
G15  22371890.125 5 117565089.041 5      2866.699          34.000
G28  21082557.734 8 110789604.823 8      1148.758          51.000    21082554.438 7  86329570.559 7       895.139          42.000
G30  21135841.664 7 111069637.955 7     -1796.816          46.000    21135842.086 7  86547780.500 7     -1400.117          46.000
R01  23460238.547 6 125408356.933 6     -4065.520          40.000    23460243.641 5  97539873.417 5     -3162.074          30.000
R02  19165995.969 8 102273421.637 8      -901.680          50.000    19165999.031 8  79546020.640 8      -701.306          50.000
R12  19348833.562 8 103358025.555 8     -1325.801          51.000    19348836.938 8  80389596.325 8     -1031.178          49.000
R13  20415749.680 6 109018960.113 6      2756.758          40.000    20415752.188 7  84792492.111 7      2144.148          44.000
C05                                                                  39791302.680 6 160223080.290 6         7.234          40.000
C23  23869174.359 8 124293082.239 8      2540.961          51.000
C24  24413090.867 5 127125412.650 5     -2700.574          31.000
C25  21718141.086 8 113092117.990 8       -59.285          51.000
E02  26673695.469 7 140171200.476 7      3030.062          42.000    26673695.484 6 107403924.984 6      2321.727          36.000
E03  23507040.695 7 123530344.416 7       725.746          45.000    23507041.859 7  94653127.160 7       556.019          45.000
E05  24634986.438 8 129457714.795 8     -1781.043          51.000    24634989.562 8  99194904.594 8     -1364.671          51.000
E24  23119441.109 7 121493484.480 7     -1708.859          43.000    23119454.258 6  93092473.595 6     -1309.332          41.000
E25  23767273.141 8 124897941.280 8      1177.410          51.000    23767276.781 8  95701004.040 8       902.124          51.000
> 2020 05 09 04 06 30.0000000  0 17        .000000000000
G05  21286834.281 8 111863061.158 8     -2143.539          51.000    21286832.344 8  87166019.594 8     -1670.290          51.000
G15  22355545.992 5 117479191.930 5      2862.789          34.000    22355538.734 5  91542178.602 5      2230.745          32.000
G28  21076057.617 8 110755443.980 8      1131.672          51.000    21076053.711 7  86302951.766 7       881.822          43.000
G30  21146131.953 7 111123713.393 7     -1805.285          46.000    21146132.414 7  86589917.177 7     -1406.716          47.000
R01  23483078.508 6 125530445.892 6     -4070.848          39.000    23483083.547 5  97634831.431 5     -3166.218          31.000
R02  19171133.414 8 102300837.025 8      -922.883          51.000    19171136.500 8  79567343.711 8      -717.798          49.000
R12  19356343.203 8 103398140.767 8     -1345.379          51.000    19356346.516 8  80420797.040 8     -1046.406          49.000
R13  20400317.594 6 108936550.934 6      2740.305          38.000    20400319.992 7  84728396.109 7      2131.348          45.000
C05  39791255.320 6 207203507.864 6        10.652          36.000    39791253.797 6 160222883.235 6         8.228          40.000
C23  23854565.211 8 124217009.497 8      2533.598          51.000
C24  24428673.477 5 127206546.663 5     -2705.594          30.000
C25  21718525.523 8 113094119.974 8       -71.152          51.000
E02  26656416.281 7 140080391.685 7      3026.781          42.000    26656416.281 6 107334344.161 6      2319.177          36.000
E03  23502928.367 7 123508736.428 7       717.824          44.000    23502929.836 7  94636570.379 7       550.024          46.000
E05  24645182.609 8 129511294.591 8     -1787.879          51.000    24645185.656 8  99235959.239 8     -1369.957          51.000
E24  23129232.188 7 121544937.156 7     -1718.199          43.000    23129245.297 6  93131898.353 6     -1316.473          41.000
E25  23760594.758 8 124862844.063 8      1165.434          51.000    23760597.883 8  95674111.350 8       893.004          51.000
> 2020 05 09 04 07  0.0000000  0 17        .000000000000
G05  21299123.375 8 111927642.558 8     -2156.898          51.000    21299122.414 8  87216342.739 8     -1680.700          51.000
G15  22339232.148 5 117393459.015 5      2857.898          34.000
G28  21069655.219 8 110721797.288 8      1116.418          51.000    21069651.203 7  86276733.599 7       869.939          45.000
G30  21156471.523 7 111178048.094 7     -1812.055          45.000    21156471.953 7  86632255.873 7     -1411.991          45.000
R01  23505948.742 6 125652693.894 6     -4074.277          37.000    23505953.508 5  97729913.144 5     -3168.885          31.000
R02  19176390.953 8 102328891.140 8      -942.211          51.000    19176393.797 8  79589163.554 8      -732.834          48.000
R12  19363962.766 8 103438842.409 8     -1362.895          51.000    19363965.812 8  80452453.858 8     -1060.029          49.000
R13  20384977.516 6 108854641.504 6      2725.645          36.000    20384981.320 7  84664688.712 7      2119.940          44.000
C05  39791201.023 5 207203225.345 5        13.438          35.000    39791199.555 6 160222664.779 6        10.155          40.000
C23  23839999.820 8 124141161.820 8      2527.891          51.000
C24  24444279.883 4 127287768.497 4     -2707.395          28.000
C25  21718979.031 8 113096482.004 8       -81.293          51.000
E02  26639156.984 6 139989688.525 6      3025.152          41.000    26639156.250 6 107264844.274 6      2318.067          36.000
E03  23498861.258 7 123487365.087 7       711.938          46.000    23498863.391 7  94620194.914 7       545.451          46.000
E05  24655418.977 8 129565085.577 8     -1793.176          51.000    24655421.539 8  99277175.689 8     -1373.935          51.000
E24  23139076.305 7 121596669.311 7     -1725.523          42.000    23139089.352 6  93171537.281 6     -1322.220          41.000
E25  23753984.164 8 124828103.542 8      1155.629          51.000    23753986.672 8  95647491.995 8       885.419          51.000
> 2020 05 09 04 07 30.0000000  0 18        .000000000000
G05  21311503.328 8 111992700.515 8     -2178.648          51.000    21311502.867 8  87267037.235 8     -1697.645          51.000
G07  23555321.398 6 123784048.789 6     -2765.539          36.000
G15  22322959.547 5 117307945.065 5      2845.438          31.000
G28  21063354.789 8 110688687.958 8      1092.559          51.000    21063351.023 7  86250934.121 7       851.344          46.000
G30  21166864.516 7 111232663.232 7     -1827.266          45.000    21166864.781 7  86674813.111 7     -1423.843          45.000
R01  23528852.070 6 125775121.981 6     -4085.934          36.000    23528856.773 4  97825134.983 4     -3177.945          29.000
R02  19181772.438 8 102357606.722 8      -970.309          51.000    19181774.625 7  79611497.861 7      -754.688          47.000
R12  19371695.883 8 103480151.020 8     -1389.152          51.000    19371698.992 8  80484582.796 8     -1080.452          49.000
R13  20369736.289 6 108773257.174 6      2701.879          39.000    20369740.445 7  84601389.754 7      2101.461          43.000
C05  39791145.789 5 207202937.603 5         7.629          35.000    39791144.352 6 160222442.230 6         5.926          40.000
C23  23825482.203 8 124065562.458 8      2513.828          51.000
C24  24459913.219 4 127369175.911 4     -2717.328          28.000
C25  21719506.039 8 113099225.721 8       -99.824          51.000
E02  26621922.133 6 139899114.941 6      3015.051          41.000    26621920.352 6 107195443.716 6      2310.159          38.000
E03  23494844.023 7 123466253.990 7       697.328          46.000    23494846.602 7  94604018.865 7       534.394          47.000
E05  24665699.734 8 129619110.195 8     -1806.770          51.000    24665702.070 8  99318571.148 8     -1384.429          51.000
E24  23148977.469 7 121648702.165 7     -1741.570          42.000    23148990.188 6  93211406.567 6     -1334.453          40.000
E25  23747445.945 8 124793742.736 8      1136.945          51.000    23747447.820 8  95621163.564 8       871.184          51.000
> 2020 05 09 04 08  0.0000000  0 16        .000000000000
G05  21323975.586 8 112058242.611 8     -2192.043          51.000    21323975.125 8  87318108.988 8     -1708.085          51.000
G15  22306724.727 5 117222628.730 5      2840.492          32.000
G28  21057158.312 8 110656125.967 8      1076.980          51.000    21057155.094 8  86225561.133 8       839.206          48.000
G30  21177312.148 7 111287566.323 7     -1834.094          44.000    21177312.539 7  86717594.725 7     -1429.164          43.000
R01  23551789.461 5 125897736.832 5     -4089.156          33.000    23551795.242 4  97920502.097 4     -3180.455          28.000
R02  19187279.828 8 102386993.481 8      -989.938          51.000    19187281.469 7  79634354.185 7      -769.951          47.000
R12  19379543.914 8 103522072.870 8     -1406.902          51.000    19379546.727 8  80517188.663 8     -1094.257          49.000
R13  20354596.055 6 108692408.038 6      2686.867          40.000    20354599.531 7  84538507.111 7      2089.786          42.000
C05  39791091.156 6 207202653.436 6        10.043          36.000    39791089.797 6 160222222.462 6         7.793          40.000
C23  23811013.695 8 123990221.045 8      2507.742          50.000
C25  21720107.836 8 113102359.150 8      -110.176          51.000
E02  26604713.680 6 139808681.159 6      3012.828          40.000    26604711.031 6 107126150.245 6      2308.626          38.000
E03  23490878.367 7 123445412.984 7       690.828          45.000    23490881.016 7  94588049.777 7       529.300          47.000
E05  24676026.484 8 129673377.058 8     -1812.133          51.000    24676028.734 8  99360152.243 8     -1388.541          51.000
E24  23158937.492 6 121701043.014 6     -1749.082          40.000    23158949.992 6  93251511.881 6     -1340.197          40.000
E25  23740981.766 8 124759770.833 8      1126.672          51.000    23740983.297 8  95595133.133 8       863.294          51.000
> 2020 05 09 04 08 30.0000000  0 16        .000000000000
G05  21336537.078 8 112124253.905 8     -2208.117          51.000    21336536.617 8  87369546.350 8     -1720.611          51.000
G15  22290530.031 6 117137526.294 6      2833.523          37.000    22290524.305 6  91275958.755 6      2207.943          36.000
G28  21051063.805 8 110624100.103 8      1058.645          51.000    21051061.305 8  86200605.898 8       824.918          49.000
G30  21187811.852 7 111342743.482 7     -1843.676          42.000    21187812.789 7  86760589.882 7     -1436.630          43.000
R01  23574758.711 5 126020594.712 5     -4096.320          30.000    23574765.391 4  98016002.892 4     -3186.027          27.000
R02  19192910.312 8 102417038.504 8     -1012.430          51.000    19192911.828 8  79657722.475 8      -787.448          48.000
R12  19387503.672 8 103564592.690 8     -1427.262          51.000    19387506.625 8  80550259.626 8     -1110.092          49.000
R13  20339553.922 6 108612083.533 6      2668.586          39.000    20339556.617 7  84476032.541 7      2075.570          42.000
C05  39791034.914 6 207202360.492 6         9.945          36.000    39791033.516 6 160221995.918 6         7.757          40.000
C23  23796591.898 8 123915126.084 8      2499.164          49.000
C25  21720781.930 8 113105869.155 8      -123.176          51.000
E02  26587529.078 6 139718375.973 6      3008.148          38.000    26587525.578 6 107056955.347 6      2304.816          38.000
E03  23486961.938 7 123424830.598 7       681.828          46.000    23486964.609 8  94572278.832 8       522.362          48.000
E05  24686396.875 8 129727873.608 8     -1820.305          51.000    24686398.945 8  99401909.326 8     -1394.797          51.000
E24  23168954.047 6 121753677.896 6     -1759.418          40.000    23168966.695 6  93291842.503 6     -1347.991          40.000
E25  23734589.250 8 124726175.661 8      1113.574          51.000    23734590.531 8  95569391.367 8       853.252          51.000
> 2020 05 09 04 09  0.0000000  0 16        .000000000000
G05  21349191.250 8 112190752.115 8     -2223.934          51.000    21349191.008 8  87421363.127 8     -1732.932          51.000
G15  22274378.641 6 117052648.445 6      2826.398          37.000    22274375.383 4  91209842.323 4      2202.404          24.000
G28  21045075.164 8 110592630.572 8      1040.543          51.000    21045073.250 8  86176084.172 8       810.810          49.000
G30  21198367.008 7 111398212.948 7     -1853.047          42.000    21198368.836 7  86803812.858 7     -1443.933          42.000
R01  23597763.602 5 126143570.799 5     -4102.219          32.000    23597769.656 4  98111691.919 4     -3190.618          26.000
R02  19198668.078 8 102447762.190 8     -1034.672          51.000    19198669.875 8  79681618.659 8      -804.745          50.000
R12  19395578.617 8 103607727.674 8     -1447.184          51.000    19395581.625 8  80583809.035 8     -1125.590          49.000
R13  20324613.570 6 108532304.496 6      2651.141          38.000    20324616.570 7  84413982.227 7      2062.001          43.000
C05  39790980.719 6 207202078.336 6         9.727          36.000    39790979.273 6 160221777.723 6         7.766          40.000
C23  23782220.375 8 123840297.857 8      2490.465          48.000
C25  21721532.117 8 113109774.472 8      -135.949          51.000
E02  26570372.516 6 139628220.464 6      3003.621          39.000    26570369.102 6 106987875.103 6      2301.422          39.000
E03  23483098.516 7 123404527.438 7       672.980          47.000    23483101.266 8  94556721.857 8       515.684          48.000
E05  24696814.938 8 129782619.292 8     -1828.141          51.000    24696816.734 8  99443857.304 8     -1400.792          51.000
E24  23179029.523 6 121806625.046 6     -1769.047          41.000    23179042.797 6  93332412.429 6     -1355.884          40.000
E25  23728272.203 8 124692977.208 8      1100.844          51.000    23728273.141 8  95543953.584 8       843.519          51.000
> 2020 05 09 04 09 30.0000000  0 17        .000000000000
G05  21361928.109 8 112257684.262 8     -2238.852          50.000    21361927.836 8  87473518.055 8     -1744.557          50.000
G15  22258261.609 6 116967945.476 6      2820.273          36.000
G28  21039182.820 8 110561667.749 8      1023.148          51.000    21039181.367 8  86151957.291 8       797.262          49.000
G30  21208968.070 7 111453922.651 7     -1861.336          42.000    21208970.508 7  86847223.002 7     -1450.392          42.000
R02  19204543.172 8 102479113.150 8     -1055.949          51.000    19204545.523 8  79706002.753 8      -821.294          51.000
R11  22730117.688 5 121462818.607 5     -3922.324          34.000    22730121.156 5  94471103.548 5     -3050.700          35.000
R12  19403758.500 8 103651423.656 8     -1466.355          51.000    19403761.641 8  80617794.791 8     -1140.499          49.000
R13  20309765.688 6 108453022.125 6      2634.004          37.000    20309770.039 7  84352318.165 7      2048.670          45.000
C05  39790919.008 6 207201756.683 6        10.676          36.000    39790917.602 6 160221528.989 6         8.258          40.000
C23  23767891.547 8 123765686.976 8      2482.824          48.000
C24  24522701.336 5 127696151.650 5     -2732.941          32.000
C25  21722348.461 8 113114024.046 8      -147.859          51.000
E02  26553234.727 6 139538165.201 6      2999.816          38.000    26553232.078 6 106918871.686 6      2298.471          39.000
E03  23479278.859 7 123384453.821 7       664.719          47.000    23479281.438 8  94541340.766 8       509.294          48.000
E05  24707270.672 8 129837563.252 8     -1835.293          51.000    24707272.070 8  99485957.182 8     -1406.260          51.000
E24  23189154.594 6 121859832.270 6     -1778.480          39.000    23189167.102 6  93373181.546 6     -1362.639          40.000
E25  23722020.781 8 124660125.030 8      1088.797          51.000    23722021.617 8  95518781.140 8       834.258          51.000
> 2020 05 09 04 10  0.0000000  0 18        .000000000000
G05  21374759.141 8 112325110.832 8     -2255.594          51.000    21374758.656 8  87526058.233 8     -1757.606          51.000
G07  23634421.297 5 124199728.237 5     -2778.324          33.000
G15  22242190.117 5 116883480.947 5      2811.734          33.000    22242184.188 5  91078034.273 5      2190.968          33.000
G28  21033398.898 8 110531274.866 8      1003.746          51.000    21033397.727 8  86128274.507 8       782.140          48.000
G30  21219626.609 6 111509933.267 6     -1872.141          40.000    21219629.133 6  86890867.622 6     -1458.808          40.000
R02  19210547.453 8 102511154.343 8     -1079.391          51.000    19210550.539 8  79730923.710 8      -839.526          51.000
R11  22752155.531 5 121580580.790 5     -3927.578          34.000    22752159.016 6  94562696.320 6     -3054.789          36.000
R12  19412054.852 8 103695740.982 8     -1487.348          51.000    19412057.844 8  80652263.809 8     -1156.829          48.000
R13  20295023.305 6 108374300.626 6      2614.953          39.000    20295028.461 7  84291090.318 7      2033.849          45.000
C05  39790861.617 5 207201457.164 5        10.121          35.000    39790860.133 6 160221297.356 6         7.500          40.000
C23  23753617.062 8 123691355.662 8      2473.270          49.000
C24  24538461.141 5 127778225.835 5     -2738.887          32.000
C25  21723242.445 8 113118678.627 8      -161.793          51.000
E02  26536128.195 6 139448273.601 6      2993.848          40.000    26536125.312 6 106849993.665 6      2293.775          39.000
E03  23475514.789 8 123364672.764 8       654.648          48.000    23475517.211 8  94526183.852 8       501.572          49.000
E05  24717775.711 8 129892767.335 8     -1844.355          51.000    24717776.695 8  99528256.397 8     -1413.216          51.000
E24  23199340.633 6 121913360.021 6     -1789.559          40.000    23199352.055 6  93414196.329 6     -1371.142          41.000
E25  23715847.070 8 124627681.544 8      1074.754          51.000    23715848.031 8  95493921.842 8       823.468          51.000
> 2020 05 09 04 10 30.0000000  0 16        .000000000000
G05  21387680.641 8 112393012.675 8     -2270.910          51.000    21387679.461 8  87578968.724 8     -1769.540          51.000
G15  22226160.016 5 116799240.581 5      2804.750          32.000    22226152.141 5  91012392.557 5      2185.516          30.000
G28  21027720.375 8 110501436.136 8       985.730          49.000    21027719.555 8  86105023.529 8       768.099          49.000
G30  21230338.977 6 111566226.831 6     -1880.492          39.000    21230341.227 6  86934732.717 6     -1465.319          39.000
R02  19216678.266 8 102543869.372 8     -1101.277          51.000    19216681.766 8  79756368.734 8      -856.549          51.000
R11  22774217.172 6 121698472.631 6     -3931.309          36.000    22774221.531 6  94654389.893 6     -3057.684          37.000
R12  19420463.766 8 103740660.043 8     -1506.891          50.000    19420466.586 7  80687200.860 7     -1172.023          47.000
R13  20280384.055 6 108296124.043 6      2597.219          40.000    20280388.500 7  84230286.287 7      2020.059          44.000
C05  39790805.148 5 207201163.439 5         9.973          35.000    39790803.781 6 160221070.175 6         7.820          40.000
C23  23739393.625 8 123617288.456 8      2464.914          50.000
C25  21724210.836 8 113123721.011 8      -174.191          51.000
E02  26519050.258 6 139358530.466 6      2989.254          41.000    26519046.438 6 106781229.386 6      2290.428          40.000
E03  23471803.266 8 123345168.754 8       645.809          48.000    23471805.648 8  94511239.209 8       494.882          49.000
E05  24728326.930 8 129948214.841 8     -1851.977          51.000    24728327.930 8  99570742.144 8     -1419.038          51.000
E24  23209583.891 7 121967190.449 7     -1799.098          42.000    23209595.867 6  93455442.975 6     -1378.565          41.000
E25  23709747.969 8 124595630.442 8      1062.219          51.000    23709749.195 8  95469363.203 8       813.923          51.000
> 2020 05 09 04 11  0.0000000  0 16        .000000000000
G05  21400697.250 8 112461413.905 8     -2286.059          51.000    21400694.758 8  87632268.360 8     -1781.344          51.000
G28  21022152.305 8 110472178.223 8       967.957          49.000    21022152.078 8  86082225.141 8       754.252          48.000
G30  21241109.898 5 111622827.915 5     -1889.141          33.000    21241111.672 5  86978837.470 5     -1472.055          33.000
R02  19222940.469 8 102577284.594 8     -1123.203          51.000    19222943.836 8  79782358.363 8      -873.599          50.000
R11  22796307.914 6 121816517.445 6     -3934.738          37.000    22796312.109 6  94746202.475 6     -3060.352          36.000
R12  19428989.719 8 103786204.585 8     -1526.207          50.000    19428992.547 7  80722624.394 7     -1187.050          47.000
R13  20265852.234 6 108218521.518 6      2579.098          39.000    20265855.719 7  84169928.763 7      2005.965          43.000
C05  39790754.867 5 207200901.177 5         9.957          35.000    39790753.438 6 160220867.333 6         8.050          40.000
C23  23725226.305 8 123543511.845 8      2456.625          51.000
C24  24570065.812 5 127942680.824 5     -2745.996          32.000
C25  21725258.492 8 113129176.122 8      -186.324          51.000
E02  26502005.836 6 139268962.977 6      2985.133          41.000    26502001.391 6 106712599.734 6      2287.088          40.000
E03  23468149.570 8 123325968.704 8       637.273          48.000    23468152.305 8  94496527.461 8       488.321          50.000
E05  24738929.125 8 130003931.524 8     -1859.352          51.000    24738930.891 8  99613434.120 8     -1424.653          51.000
E24  23219889.531 6 122021347.866 6     -1808.207          41.000    23219903.039 6  93496940.210 6     -1385.599          41.000
E25  23703728.055 8 124563997.979 8      1049.719          51.000    23703729.648 8  95445125.357 8       804.357          51.000
> 2020 05 09 04 11 30.0000000  0 16        .000000000000
G05  21413791.742 8 112530225.015 8     -2303.312          51.000    21413788.297 8  87685887.390 8     -1794.789          51.000
G28  21016678.695 8 110443415.143 8       947.516          48.000    21016678.836 8  86059812.319 8       738.321          48.000
G30  21251922.656 6 111679648.184 6     -1900.738          37.000    21251923.859 6  87023113.004 6     -1481.095          38.000
R02  19229317.117 8 102611311.596 8     -1147.242          51.000    19229320.375 8  79808823.791 8      -892.299          49.000
R11  22818409.844 6 121934623.701 6     -3941.004          38.000    22818413.797 5  94838062.854 5     -3065.228          35.000
R12  19437615.711 8 103832283.340 8     -1547.641          50.000    19437618.266 7  80758463.424 7     -1203.720          47.000
R13  20251410.586 6 108141404.886 6      2559.727          37.000    20251413.812 7  84109949.161 7      1990.898          42.000
C05  39790693.938 5 207200584.238 5         8.734          35.000    39790692.578 6 160220622.272 6         6.642          40.000
C23  23711098.570 8 123469940.375 8      2446.215          51.000
C24  24585904.328 5 128025135.869 5     -2752.777          33.000
C25  21726368.539 8 113134956.877 8      -200.840          51.000
E02  26484979.070 7 139179485.544 7      2978.242          42.000    26484973.695 6 106644039.047 6      2281.985          41.000
E03  23464537.477 8 123306986.520 8       626.215          49.000    23464540.586 8  94481982.650 8       479.893          50.000
E05  24749565.867 8 130059830.157 8     -1869.008          51.000    24749568.203 8  99656265.515 8     -1432.121          51.000
E24  23230240.992 7 122075743.785 7     -1820.078          42.000    23230255.281 6  93538620.184 6     -1394.378          40.000
E25  23697771.250 8 124532697.356 8      1035.141          51.000    23697772.828 8  95421141.767 8       793.103          51.000
> 2020 05 09 04 12  0.0000000  0 17        .000000000000
G05  21426978.461 8 112599523.147 8     -2317.477          51.000    21426975.164 8  87739885.923 8     -1805.826          51.000
G07  23697972.391 5 124533683.634 5     -2789.457          30.000
G28  21011314.844 8 110415226.543 8       930.609          49.000    21011314.914 8  86037847.166 8       725.147          48.000
G30  21262791.570 6 111736764.895 6     -1907.738          37.000    21262792.727 6  87067619.504 6     -1486.549          37.000
R02  19235823.469 8 102646030.487 8     -1168.215          51.000    19235826.727 8  79835827.338 8      -908.612          48.000
R11  22840537.633 6 122052868.560 6     -3943.055          38.000    22840541.469 5  94930031.067 5     -3066.823          33.000
R12  19446356.219 8 103878973.736 8     -1565.941          49.000    19446359.031 7  80794778.164 7     -1217.954          47.000
R13  20237075.180 6 108064857.284 6      2542.836          38.000    20237078.289 6  84050412.108 6      1977.761          41.000
C05  39790637.680 5 207200291.713 5         9.500          35.000    39790636.258 6 160220395.242 6         7.678          41.000
C23  23697025.578 8 123396652.875 8      2438.711          51.000
C24  24601767.773 4 128107863.024 4     -2755.430          27.000
C25  21727556.172 8 113141140.540 8      -212.266          51.000
E02  26467984.898 6 139090178.164 6      2974.617          41.000    26467978.656 6 106575608.667 6      2279.231          41.000
E03  23460982.039 8 123288301.926 8       618.500          50.000    23460985.266 8  94467665.881 8       473.883          51.000
E05  24760252.273 8 130115989.272 8     -1875.703          51.000    24760254.914 8  99699296.533 8     -1437.302          51.000
E24  23240652.586 7 122130455.494 7     -1828.270          42.000    23240666.242 6  93580542.133 6     -1401.121          40.000
E25  23691892.812 8 124501807.598 8      1023.328          51.000    23691894.297 8  95397472.991 8       784.091          51.000
> 2020 05 09 04 12 30.0000000  0 16        .000000000000
G05  21440250.820 8 112669273.040 8     -2332.594          51.000    21440247.812 8  87794236.465 8     -1817.606          50.000
G07  23713909.680 5 124617435.811 5     -2792.590          34.000
G28  21006054.531 8 110387580.702 8       912.422          51.000    21006054.078 8  86016304.956 8       710.978          48.000
G30  21273710.391 5 111794144.245 5     -1916.965          35.000    21273711.664 5  87112330.660 5     -1493.736          35.000
R02  19242452.883 8 102681407.642 8     -1190.371          51.000    19242455.719 7  79863342.861 7      -925.844          47.000
R11  22862684.617 6 122171216.120 6     -3946.727          36.000    22862688.789 5  95022079.109 5     -3069.679          31.000
R12  19455204.492 8 103926239.770 8     -1585.211          48.000    19455207.508 7  80831540.632 7     -1232.942          47.000
R13  20222840.719 6 107988845.728 6      2524.496          40.000    20222843.273 7  83991292.044 7      1963.497          42.000
C05  39790579.523 6 207199989.339 6        10.062          36.000    39790578.234 6 160220161.411 6         7.911          40.000
C23  23683000.492 8 123323617.880 8      2430.230          50.000
C25  21728814.867 8 113147694.027 8      -224.723          51.000
E02  26451017.242 6 139001009.609 6      2970.055          41.000    26451010.273 6 106507284.670 6      2275.601          41.000
E03  23457477.305 8 123269883.430 8       609.340          50.000    23457480.281 8  94453552.985 8       466.939          51.000
E05  24770982.039 8 130172376.149 8     -1883.438          51.000    24770985.023 8  99742502.056 8     -1443.210          51.000
E24  23251117.734 6 122185448.909 6     -1837.875          40.000    23251130.102 6  93622679.901 6     -1408.377          40.000
E25  23686086.453 8 124471296.356 8      1010.730          51.000    23686087.766 8  95374094.264 8       774.423          51.000
> 2020 05 09 04 13  0.0000000  0 16        .000000000000
G05  21453609.188 8 112739474.094 8     -2347.719          50.000    21453606.250 8  87848938.571 8     -1829.391          51.000
G07  23729869.672 6 124701284.274 6     -2794.805          37.000    23729862.188 6  97169823.512 6     -2177.770          36.000
G28  21000897.734 8 110360479.083 8       894.027          51.000    21000896.672 8  85995186.812 8       696.645          48.000
G30  21284678.734 5 111851785.885 5     -1927.281          32.000    21284680.695 5  87157246.281 5     -1501.775          31.000
R02  19249206.125 8 102717444.604 8     -1212.508          51.000    19249208.727 7  79891371.560 7      -943.062          47.000
R11  22884850.781 6 122289664.582 6     -3950.047          36.000    22884855.258 4  95114205.653 4     -3072.262          28.000
R12  19464160.102 8 103974079.915 8     -1604.500          49.000    19464162.961 7  80868749.625 7     -1247.944          46.000
R13  20208707.789 6 107913373.076 6      2506.523          41.000    20208710.141 7  83932591.119 7      1949.518          44.000
C05  39790519.977 5 207199678.368 5        10.172          35.000    39790518.695 6 160219921.705 6         7.875          40.000
C23  23669022.836 7 123250837.397 7      2421.449          46.000
C25  21730144.359 8 113154617.583 8      -237.230          51.000
E02  26434076.625 6 138911982.336 6      2965.008          40.000    26434069.148 6 106439068.907 6      2271.880          41.000
E03  23454023.617 8 123251733.056 8       600.242          51.000    23454026.031 8  94439645.552 8       459.935          51.000
E05  24781755.359 8 130228991.656 8     -1891.152          50.000    24781758.820 8  99785882.769 8     -1449.119          51.000
E24  23261636.492 6 122240723.543 6     -1847.152          39.000    23261648.328 6  93665033.241 6     -1415.776          40.000
E25  23680352.445 8 124441165.058 8       997.703          51.000    23680353.117 8  95351006.648 8       764.462          51.000
> 2020 05 09 04 13 30.0000000  0 15        .000000000000
G05  21467056.203 8 112810139.462 8     -2363.281          50.000    21467053.688 8  87904002.488 8     -1841.518          50.000
G28  20995847.367 8 110333937.993 8       875.121          51.000    20995846.391 8  85974505.469 8       681.913          48.000
G30  21295700.250 6 111909658.761 6     -1935.090          37.000    21295702.477 6  87202377.079 6     -1507.862          37.000
R02  19256085.922 8 102754156.474 8     -1235.145          51.000    19256088.461 8  79919925.189 8      -960.671          48.000
R11  22907038.031 5 122408226.952 5     -3954.047          34.000    22907042.320 4  95206420.794 4     -3075.370          27.000
R12  19473225.867 8 104022506.849 8     -1624.059          49.000    19473228.930 7  80906414.987 7     -1263.157          47.000
R13  20194678.945 6 107838457.020 6      2487.734          39.000    20194681.414 7  83874323.089 7      1934.905          45.000
C05  39790461.992 6 207199376.959 6         9.676          36.000    39790460.609 6 160219687.821 6         7.557          40.000
C23  23655096.375 7 123178327.302 7      2412.254          47.000
C25  21731548.180 8 113161925.633 8      -250.129          51.000
E02  26417165.727 6 138823112.959 6      2959.750          37.000    26417158.031 6 106370974.122 6      2267.798          41.000
E03  23450624.055 8 123233867.085 8       590.734          51.000    23450625.859 8  94425956.047 8       452.593          51.000
E05  24792575.039 8 130285850.942 8     -1899.523          50.000    24792579.203 8  99829450.266 8     -1455.434          51.000
E24  23272211.328 6 122296293.375 6     -1857.184          41.000    23272223.625 6  93707612.681 6     -1423.055          41.000
E25  23674693.930 8 124411429.175 8       984.594          51.000    23674693.953 8  95328222.010 8       754.396          51.000
> 2020 05 09 04 14  0.0000000  0 15        .000000000000
G05  21480589.375 8 112881256.773 8     -2377.906          50.000    21480587.766 8  87959418.561 8     -1852.914          50.000
G28  20990901.789 8 110307948.140 8       857.426          51.000    20990900.906 8  85954253.629 8       668.124          48.000
G30  21306772.156 6 111967841.495 6     -1943.391          37.000    21306774.617 6  87247714.287 6     -1514.330          38.000
R02  19263090.578 8 102791533.375 8     -1256.734          51.000    19263092.805 8  79948996.095 8      -977.460          49.000
R11  22929243.727 5 122526889.688 5     -3956.816          32.000    22929247.969 4  95298714.060 4     -3077.530          28.000
