     3.02           OBSERVATION DATA    M (MIXED)           RINEX VERSION / TYPE
SAVERINEX           SC600               20200517 165930 LCL PGM / RUN BY / DATE
       G = GPS       R = GLONASS       C = COMPASS          COMMENT
       S = SBAS      J = QZSS          E = GALILEO          COMMENT
BEAN                                                        MARKER NAME
1                                                           MARKER NUMBER
GEODETIC                                                    MARKER TYPE
Unige DICCA         GTER                                    OBSERVER / AGENCY
SC60291900056       SC600               2.12(191202)        REC # / TYPE / VERS
                    HEMA45          NONE                    ANT # / TYPE
  4509407.8091   693652.4678  4442337.6214                  APPROX POSITION XYZ
        0.0000        0.0000        0.0000                  ANTENNA: DELTA H/E/N
G    8 C1C L1C D1C S1C C2Y L2Y D2Y S2Y                      SYS / # / OBS TYPES
R    8 C1C L1C D1C S1C C2P L2P D2P S2P                      SYS / # / OBS TYPES
C    4 C1I L1I D1I S1I                                      SYS / # / OBS TYPES
E    8 C1C L1C D1C S1C C7Q L7Q D7Q S7Q                      SYS / # / OBS TYPES
DBHZ                                                        COMMENT
     30.000                                                 INTERVAL
  2020    05    17    14    00    0.0000000     GPS         TIME OF FIRST OBS
  2020    05    17    14    59   30.0000000     GPS         TIME OF LAST OBS
     0                                                      RCV CLOCK OFFS APPL
G L1C  0.00000                                              SYS / PHASE SHIFT
G L2Y  0.00000                                              SYS / PHASE SHIFT
R L1C  0.00000                                              SYS / PHASE SHIFT
R L2P  0.25000                                              SYS / PHASE SHIFT
C L1I  0.00000                                              SYS / PHASE SHIFT
E L1C  0.50000                                              SYS / PHASE SHIFT
E L7Q -0.25000                                              SYS / PHASE SHIFT
 13 R02 -4 R03  5 R04  6 R05  1 R09 -2 R10 -7 R14 -7 R15  0 GLONASS SLOT / FRQ #
    R16 -1 R18 -3 R19  3 R20  2 R21  4                      GLONASS SLOT / FRQ #
 C1C   71.950 C2C   71.950 C2P   71.950                     GLONASS COD/PHS/BIS
    18                                                      LEAP SECONDS
*** Above antenna height is from mark to ANTENNA BOTTOM.    COMMENT
    17     4        0.0000        ANT MEASURE TYPE/HEIGT    COMMENT
    0.0000    0.0000    0.0458    0.0405    0.0000          COMMENT
                    BASE STATION                            COMMENT
                                                            END OF HEADER
> 2020 05 17 14 00  0.0000000  0 13        .000000000000
G10  23893713.297 6 125562306.181 6      3439.051          36.000    23893720.719 6  97840781.142 6      2679.783          36.000
G18  20872212.430 8 109684260.906 8     -1774.652          49.000    20872212.219 7  85468217.264 7     -1382.846          46.000
G20  21783212.641 8 114471585.060 8      2207.172          50.000    21783211.406 7  89198644.843 7      1719.877          46.000
G21  21115817.898 8 110964418.232 8     -1443.633          49.000    21115816.242 8  86465783.292 8     -1124.909          49.000
G26  20411235.398 8 107261775.868 8      -932.773          51.000    20411237.266 8  83580594.229 8      -726.836          51.000
R09  20299907.469 8 108400369.777 8     -2903.500          51.000    20299906.758 7  84311396.955 7     -2258.281          46.000
R21  23627635.680 6 126436245.174 6      3196.090          37.000    23627639.406 4  98339305.296 4      2485.848          26.000
C27  21650078.102 8 112737740.259 8      -636.945          51.000
C28  24854727.984 5 129425093.430 5     -2527.352          34.000
E11  22778062.469 8 119699552.102 8     -1111.137          51.000    22778061.359 8  91717828.542 8      -851.364          50.000
E24  25894897.812 5 136078588.773 5     -3174.547          32.000
E25  24137881.875 8 126845414.592 8     -1710.582          51.000    24137884.039 8  97193225.525 8     -1310.667          51.000
E36  23945658.227 8 125835284.661 8      1361.383          48.000    23945662.578 8  96419266.967 8      1043.194          50.000
> 2020 05 17 14 00 30.0000000  0 14        .000000000000
G10  23874097.453 5 125459221.101 5      3432.656          31.000    23874104.703 4  97760455.188 4      2674.803          29.000
G18  20882390.164 8 109737745.507 8     -1790.859          49.000    20882389.984 7  85509893.561 7     -1395.475          45.000
G20  21770661.609 8 114405629.202 8      2190.043          51.000    21770661.172 7  89147250.698 7      1706.530          46.000
G21  21124098.109 8 111007931.563 8     -1456.887          49.000    21124096.461 8  86499689.745 8     -1135.236          49.000
G26  20416619.570 8 107290068.697 8      -953.160          51.000    20416621.641 8  83602640.591 8      -742.722          51.000
R03  22939487.258 5 122796825.451 5      -403.676          32.000    22939491.391 4  95508641.448 4      -313.970          27.000
R09  20316286.203 8 108487827.871 8     -2926.797          51.000    20316285.508 8  84379419.873 8     -2276.398          49.000
R21  23609739.734 6 126340485.623 6      3187.766          36.000
C27  21653778.641 8 112757010.677 8      -647.551          51.000
C30  23090554.930 4 120238568.532 4      1889.184          28.000
E11  22784434.297 8 119733035.954 8     -1121.090          51.000    22784433.328 8  91743484.999 8      -859.113          50.000
E24  25913035.094 5 136173921.113 5     -3179.617          35.000
E25  24147689.766 8 126896956.198 8     -1725.438          51.000    24147692.102 8  97232718.425 8     -1322.106          51.000
E36  23937917.234 8 125794608.018 8      1350.477          49.000    23937921.258 8  96388099.153 8      1034.742          50.000
> 2020 05 17 14 01  0.0000000  0 14        .000000000000
G10  23854519.461 6 125356334.509 6      3427.523          36.000    23854526.438 5  97680283.998 5      2670.801          35.000
G18  20892661.102 8 109791720.426 8     -1805.508          49.000    20892661.102 7  85551951.933 7     -1406.889          45.000
G20  21758210.273 8 114340195.997 8      2174.156          51.000    21758210.391 7  89096263.817 7      1694.151          46.000
G21  21132455.258 8 111051848.828 8     -1468.762          49.000    21132453.805 8  86533910.979 8     -1144.490          49.000
G26  20422121.305 8 107318978.843 8      -972.188          51.000    20422123.672 8  83625167.966 8      -757.549          51.000
R03  22941828.812 6 122809365.931 6      -430.277          36.000    22941834.062 4  95518450.974 4      -334.660          26.000
R09  20332796.164 8 108575990.392 8     -2948.566          51.000    20332796.688 8  84447990.710 8     -2293.329          50.000
R21  23591891.578 5 126244973.788 5      3181.598          35.000    23591886.141 4  98190525.562 4      2474.579          26.000
C27  21657541.773 8 112776605.379 8      -656.785          51.000
C30  23079685.570 4 120182005.717 4      1882.441          28.000
E11  22790862.719 8 119766817.359 8     -1128.871          51.000    22790861.562 8  91769369.447 8      -864.988          50.000
E24  25931200.781 5 136269384.326 5     -3182.699          35.000
E25  24157582.828 8 126948945.991 8     -1738.613          51.000    24157585.594 8  97272554.740 8     -1332.178          51.000
E36  23930239.352 8 125754260.495 8      1341.199          50.000    23930242.875 8  96357183.534 8      1027.750          50.000
> 2020 05 17 14 01 30.0000000  0 12        .000000000000
G10  23834963.617 6 125253565.740 6      3424.316          36.000    23834970.305 6  97600204.477 6      2668.298          36.000
G18  20903009.047 8 109846099.769 8     -1818.668          48.000    20903009.602 7  85594325.439 7     -1417.144          45.000
G20  21745842.602 8 114275203.981 8      2159.746          50.000    21745843.211 7  89045620.744 7      1682.922          46.000
G21  21140873.078 8 111096084.495 8     -1479.172          49.000    21140871.922 8  86568380.332 8     -1152.601          49.000
G26  20427724.570 8 107348422.004 8      -989.723          51.000    20427726.992 8  83648110.683 8      -771.212          51.000
R09  20349420.266 7 108664768.703 7     -2968.793          47.000    20349423.023 8  84517040.544 8     -2309.058          51.000
R21  23574073.797 6 126149624.861 6      3176.191          36.000    23574075.625 4  98116365.340 4      2470.374          29.000
C27  21661351.164 8 112796440.670 8      -664.508          51.000
E11  22797331.648 8 119800811.535 8     -1136.203          51.000    22797329.992 8  91795416.924 8      -870.540          50.000
E24  25949379.539 6 136364909.188 6     -3184.434          36.000
E25  24167545.055 8 127001299.246 8     -1750.438          51.000    24167548.242 8  97312669.573 8     -1341.262          51.000
E36  23922608.547 8 125714158.100 8      1333.379          50.000    23922611.500 8  96326455.779 8      1021.629          50.000
> 2020 05 17 14 02  0.0000000  0 14        .000000000000
G10  23815415.508 6 125150842.872 6      3420.914          36.000    23815422.391 6  97520160.790 6      2665.650          36.000
G18  20913419.484 7 109900806.967 7     -1830.992          47.000    20913419.820 7  85636954.422 7     -1426.747          45.000
G20  21733544.789 7 114210581.124 7      2145.957          47.000    21733545.719 7  88995265.311 7      1672.174          45.000
G21  21149337.008 8 111140562.164 8     -1488.637          50.000    21149335.828 8  86603038.243 8     -1159.977          49.000
G26  20433414.875 8 107378323.356 8     -1006.320          51.000    20433417.055 8  83671410.428 8      -784.146          51.000
R03  22946921.406 4 122836603.757 4      -479.754          28.000    22946926.758 4  95539638.633 4      -373.142          29.000
R09  20366144.875 8 108754083.531 8     -2987.957          49.000    20366149.250 8  84586507.661 8     -2323.967          51.000
R21  23556272.828 5 126054363.602 5      3172.180          34.000    23556276.617 5  98042273.347 5      2467.254          33.000
C27  21665192.367 8 112816442.202 8      -671.438          51.000
C30  23058063.008 4 120069377.856 4      1871.289          29.000
E11  22803826.727 8 119834942.862 8     -1141.801          51.000    22803824.781 8  91821569.495 8      -874.970          50.000
E24  25967556.406 5 136460429.721 5     -3185.637          34.000    25967571.789 6 104560600.576 6     -2441.038          36.000
E25  24177562.070 8 127053940.637 8     -1761.465          51.000    24177565.750 8  97353005.197 8     -1349.715          51.000
E36  23915010.195 8 125674226.202 8      1326.336          49.000    23915012.828 8  96295858.631 8      1016.274          50.000
> 2020 05 17 14 02 30.0000000  0 13        .000000000000
G10  23795899.000 6 125048289.380 6      3417.301          38.000    23795906.375 6  97440249.006 6      2662.832          36.000
G18  20923914.859 8 109955960.414 8     -1843.840          48.000    20923915.047 7  85679931.146 7     -1436.758          44.000
G20  21721339.969 7 114146449.844 7      2131.480          45.000    21721341.703 7  88945292.917 7      1660.894          45.000
G21  21157869.531 8 111185400.738 8     -1498.691          50.000    21157868.242 8  86637977.385 8     -1167.811          50.000
G26  20439214.984 8 107408802.910 8     -1023.508          51.000    20439216.992 8  83695160.720 8      -797.539          51.000
R03  22949691.953 5 122851401.728 5      -504.523          32.000    22949693.609 4  95551147.613 4      -392.410          29.000
R09  20382993.883 8 108844053.867 8     -3007.770          51.000    20382998.008 8  84656484.563 8     -2339.379          50.000
R21  23538510.406 5 125959313.085 5      3167.016          33.000    23538515.344 5  97968345.184 5      2463.237          33.000
C27  21669088.195 8 112836728.736 8      -678.926          51.000
E11  22810370.602 8 119869330.829 8     -1148.508          51.000    22810368.773 8  91847918.713 8      -879.969          50.000
E24  25985753.805 5 136556057.929 5     -3187.812          34.000    25985769.188 5 104633875.518 5     -2442.223          35.000
E25  24187656.805 8 127106989.733 8     -1773.141          51.000    24187660.914 8  97393653.195 8     -1358.616          51.000
E36  23907466.977 8 125634585.127 8      1318.496          49.000    23907469.945 8  96265484.301 8      1010.321          51.000
> 2020 05 17 14 03  0.0000000  0 13        .000000000000
G10  23776400.086 6 124945827.904 6      3413.445          37.000    23776408.031 6  97360408.939 6      2659.828          37.000
G18  20934479.461 7 110011477.949 7     -1857.262          47.000    20934480.203 7  85723191.574 7     -1447.217          44.000
G20  21709214.117 7 114082732.578 7      2116.430          45.000    21709216.320 7  88895643.093 7      1649.166          44.000
G21  21166455.062 8 111230518.146 8     -1509.184          50.000    21166453.852 8  86673133.818 8     -1175.987          50.000
G26  20445109.695 8 107439780.097 8     -1041.430          51.000    20445111.586 8  83719298.778 8      -811.504          51.000
R03  22952593.492 5 122866926.303 5      -530.832          32.000    22952595.141 4  95563222.163 4      -412.872          29.000
R09  20399950.180 8 108934594.783 8     -3028.102          51.000    20399952.969 8  84726905.216 8     -2355.193          48.000
C27  21673023.266 8 112857220.353 8      -687.051          51.000
C30  23036561.047 4 119957418.017 4      1859.543          27.000
E11  22816947.852 8 119903894.249 8     -1155.750          51.000    22816946.156 8  91874402.367 8      -885.644          50.000
E24                                                                  26003971.742 5 104707172.030 5     -2444.148          34.000
E25  24197813.984 8 127160365.528 8     -1785.168          51.000    24197818.234 8  97434551.510 8     -1367.889          51.000
E36  23899963.602 8 125595154.535 8      1310.238          48.000    23899967.094 8  96235271.242 8      1003.928          51.000
> 2020 05 17 14 03 30.0000000  0 13        .000000000000
G10  23756916.570 6 124843448.962 6      3408.660          36.000    23756925.336 6  97280633.182 6      2656.102          37.000
G18  20945110.516 7 110067345.127 7     -1870.609          46.000    20945111.273 7  85766724.443 7     -1457.618          44.000
G20  21697166.289 8 114019419.164 8      2101.059          48.000    21697167.695 7  88846307.995 7      1637.189          43.000
G21  21175091.008 8 111275900.483 8     -1519.668          50.000    21175089.828 8  86708496.670 8     -1184.157          50.000
G26  20451096.500 8 107471242.105 8     -1059.301          51.000    20451098.375 8  83743814.614 8      -825.429          51.000
R03  22955627.297 4 122883164.270 4      -556.426          27.000    22955627.750 4  95575851.795 4      -432.766          27.000
R09  20417009.953 8 109025690.080 8     -3048.422          51.000    20417010.875 8  84797757.039 8     -2370.998          48.000
C27  21676995.250 8 112877904.253 8      -695.176          51.000
C30  23025866.523 5 119901681.316 5      1853.324          32.000
E11  22823555.891 8 119938619.672 8     -1162.551          51.000    22823554.164 8  91901010.145 8      -890.816          50.000
E24  26022162.820 5 136747387.910 5     -3192.148          31.000    26022176.859 5 104780522.519 5     -2445.600          32.000
E25  24208031.148 8 127214054.817 8     -1797.488          51.000    24208035.094 8  97475690.025 8     -1377.317          51.000
E36  23892497.969 8 125555921.908 8      1301.863          48.000    23892501.820 8  96205209.896 8       997.582          51.000
> 2020 05 17 14 04  0.0000000  0 14        .000000000000
G10  23737469.547 6 124741259.722 6      3407.469          36.000    23737478.781 6  97201005.228 6      2655.170          36.000
G18  20955827.672 7 110123664.256 7     -1880.758          46.000    20955827.953 7  85810609.475 7     -1465.526          43.000
G20  21685216.023 8 113956616.063 8      2088.996          51.000    21685216.312 7  88797370.572 7      1627.789          43.000
G21  21183796.891 8 111321650.232 8     -1527.043          49.000    21183795.750 8  86744145.831 8     -1189.904          49.000
G26  20457195.289 8 107503292.818 8     -1074.074          51.000    20457197.188 8  83768789.187 8      -836.941          51.000
R03  22958809.938 5 122900238.810 5      -578.406          30.000    22958816.352 3  95589114.934 3      -449.865          23.000
R09  20434192.195 8 109117442.084 8     -3065.133          50.000    20434192.617 8  84869119.654 8     -2383.992          48.000
R21  23485404.453 5 125675071.781 5      3153.129          34.000    23485379.430 5  97747271.148 5      2452.437          32.000
C27  21681024.031 8 112898883.289 8      -700.215          51.000
C30  23015206.711 5 119846179.147 5      1850.418          31.000
E11  22830214.375 8 119973610.475 8     -1166.887          51.000    22830212.719 8  91927821.285 8      -894.084          50.000
E24                                                                  26040405.234 5 104853919.812 5     -2445.223          30.000
E25  24218327.750 8 127268160.970 8     -1806.320          51.000    24218331.125 8  97517147.969 8     -1384.100          51.000
E36  23885089.914 8 125516991.384 8      1296.754          48.000    23885093.625 8  96175380.069 8       993.527          50.000
> 2020 05 17 14 04 30.0000000  0 12        .000000000000
G10  23718061.625 6 124639273.860 6      3404.953          36.000    23718070.938 6  97121535.730 6      2653.210          36.000
G18  20966632.680 7 110180444.031 7     -1891.516          45.000    20966632.922 7  85854853.454 7     -1473.908          44.000
G20  21673365.445 8 113894336.397 8      2076.125          51.000    21673365.062 7  88748841.022 7      1617.763          44.000
G21  21192574.445 8 111367776.498 8     -1534.867          49.000    21192573.406 8  86780088.384 8     -1196.000          49.000
G26  20463407.977 8 107535942.499 8     -1089.473          51.000    20463410.148 8  83794230.484 8      -848.940          51.000
R03  22962150.930 5 122918126.516 5      -600.902          34.000
R09  20451497.305 8 109209857.766 8     -3082.598          48.000    20451500.703 8  84940999.414 8     -2397.576          49.000
R21  23467772.219 5 125580729.053 5      3149.555          32.000    23467750.320 5  97673893.532 5      2449.654          32.000
C27  21685111.438 8 112920167.580 8      -705.730          51.000
E11  22836925.273 8 120008876.373 8     -1171.094          51.000    22836923.766 8  91954843.213 8      -897.409          51.000
E25  24228705.391 8 127322693.871 8     -1815.977          51.000    24228708.266 8  97558932.907 8     -1391.457          51.000
E36  23877740.938 7 125478373.627 7      1291.000          47.000    23877744.711 8  96145789.865 8       989.178          50.000
> 2020 05 17 14 05  0.0000000  0 13        .000000000000
G10  23698656.273 6 124537297.405 6      3404.414          36.000    23698664.875 6  97042073.585 6      2652.790          37.000
G18  20977487.484 7 110237485.586 7     -1900.574          45.000    20977487.445 7  85899301.412 7     -1480.967          44.000
G20  21661577.195 8 113832385.795 8      2064.633          51.000    21661576.672 7  88700567.882 7      1608.805          45.000
G21  21201385.812 8 111414080.407 8     -1541.266          50.000    21201384.859 8  86816169.348 8     -1200.986          50.000
G26  20469697.180 8 107568993.899 8     -1103.312          51.000    20469699.570 8  83819984.817 8      -859.724          51.000
R03  22965610.195 5 122936643.509 5      -622.551          34.000
R09  20468890.594 8 109302737.994 8     -3098.234          48.000    20468894.367 8  85013244.357 8     -2409.738          50.000
R21  23450145.883 5 125486422.131 5      3148.273          34.000    23450127.102 5  97600543.726 5      2448.657          32.000
C27  21689219.922 8 112941561.612 8      -709.836          51.000
C30  22993993.500 4 119735801.299 4      1844.566          29.000
E11  22843650.914 8 120044219.579 8     -1174.148          51.000    22843649.406 8  91981924.363 8      -899.669          50.000
E25  24239126.281 8 127377455.831 8     -1824.027          51.000    24239128.820 8  97600893.360 8     -1397.661          51.000
E36  23870413.273 7 125439871.693 7      1286.656          47.000    23870417.828 8  96116288.374 8       985.859          49.000
> 2020 05 17 14 05 30.0000000  0 12        .000000000000
G10  23679283.070 6 124435484.182 6      3391.945          36.000    23679290.094 6  96962738.645 6      2643.074          37.000
G18  20988420.391 7 110294937.711 7     -1921.180          46.000    20988419.930 7  85944069.296 7     -1497.023          44.000
G20  21649880.328 8 113770917.289 8      2041.742          51.000    21649879.961 7  88652670.388 7      1590.971          45.000
G21  21210259.398 8 111460711.223 8     -1558.898          50.000    21210258.445 8  86852505.045 8     -1214.726          50.000
G26  20476091.602 8 107602597.310 8     -1128.363          51.000    20476094.062 8  83846169.299 8      -879.244          51.000
R03  22969216.914 5 122955942.760 5      -655.871          34.000    22969216.055 4  95632454.251 4      -510.128          28.000
R09  20486399.039 8 109396234.994 8     -3125.480          50.000    20486402.539 8  85085961.976 8     -2430.929          50.000
R21  23432556.898 5 125392305.292 5      3135.418          33.000    23432538.805 4  97527341.816 4      2438.661          29.000
C27  21693378.102 8 112963214.297 8      -725.262          51.000
E11  22850419.750 8 120079789.921 8     -1188.777          51.000    22850418.070 8  92009179.552 8      -910.878          50.000
E25  24249618.797 8 127432596.736 8     -1843.465          51.000    24249621.453 8  97643144.176 8     -1412.534          51.000
E36  23863136.492 7 125401636.168 7      1270.996          47.000    23863141.867 8  96086991.020 8       973.790          49.000
> 2020 05 17 14 06  0.0000000  0 12        .000000000000
G10  23659942.102 6 124333837.512 6      3389.621          38.000    23659946.766 6  96883533.529 6      2641.266          38.000
G18  20999431.117 7 110352798.974 7     -1930.746          47.000    20999430.891 7  85989155.987 7     -1504.477          44.000
G20  21638275.508 8 113709933.592 8      2029.277          51.000    21638275.359 7  88605150.669 7      1581.258          44.000
G21  21219195.148 8 111507668.401 8     -1565.879          51.000    21219194.086 8  86889095.045 8     -1220.165          51.000
G26  20482591.156 8 107636752.847 8     -1143.016          51.000    20482593.805 8  83872784.007 8      -890.662          51.000
R03  22972969.984 5 122976024.352 5      -677.262          32.000    22972972.047 4  95648073.217 4      -526.762          29.000
R09  20504020.648 8 109490325.079 8     -3141.766          51.000    20504023.094 8  85159144.740 8     -2443.595          49.000
R10  19917867.664 5 106173444.154 5      -155.398          33.000
C27  21697585.984 8 112985125.725 8      -730.109          51.000
E11  22857231.695 8 120115586.925 8     -1192.078          51.000    22857229.859 8  92036608.437 8      -913.437          50.000
E25  24260183.062 8 127488116.307 8     -1852.336          50.000    24260186.422 8  97685685.145 8     -1419.331          51.000
E36  23855911.273 8 125363667.547 8      1265.770          48.000    23855916.922 8  96057898.164 8       969.929          50.000
> 2020 05 17 14 06 30.0000000  0 11        .000000000000
G10  23640629.305 6 124232339.399 6      3381.066          36.000    23640631.242 6  96804444.300 6      2634.606          37.000
G18  21010515.250 8 110411046.303 8     -1947.551          48.000    21010515.148 7  86034543.514 7     -1517.575          44.000
G20  21626759.055 8 113649416.355 8      2009.816          50.000    21626759.273 7  88557994.412 7      1566.091          44.000
G21  21228188.648 8 111554928.992 8     -1579.945          51.000    21228187.539 8  86925921.475 8     -1231.126          51.000
G26  20489191.711 8 107671439.011 8     -1164.645          51.000    20489194.672 8  83899812.169 8      -907.515          51.000
R09  20521749.805 8 109584996.254 8     -3165.070          50.000    20521751.469 8  85232777.722 8     -2461.724          48.000
R10  19918842.125 5 106178637.666 5      -187.156          31.000
C27  21701839.406 8 113007274.597 8      -741.883          51.000
E11  22864082.609 8 120151588.744 8     -1203.230          51.000    22864080.695 8  92064194.261 8      -921.965          50.000
E25  24270815.234 8 127543992.609 8     -1868.016          50.000    24270819.500 8  97728499.455 8     -1431.346          51.000
E36  23848732.969 8 125325944.657 8      1253.715          48.000    23848738.883 8  96028993.622 8       960.645          50.000
> 2020 05 17 14 07  0.0000000  0 12        .000000000000
G10  23621309.289 6 124130804.087 6      3379.887          36.000    23621309.969 5  96725326.051 5      2633.684          35.000
G18  21021636.680 8 110469489.043 8     -1956.699          48.000    21021636.320 7  86080083.285 7     -1524.701          45.000
G20  21615295.922 8 113589179.046 8      1997.836          50.000    21615296.352 7  88511056.285 7      1556.758          43.000
G21  21237203.445 8 111602301.659 8     -1586.270          51.000    21237202.305 8  86962835.231 8     -1236.054          51.000
G26  20495857.227 8 107706466.594 8     -1178.621          51.000    20495860.352 8  83927106.365 8      -918.406          51.000
R03  22980862.992 5 123018308.887 5      -728.711          33.000
R09  20539551.234 8 109680059.427 8     -3180.570          50.000    20539551.891 7  85306715.678 7     -2473.780          46.000
C27  21706102.461 8 113029473.457 8      -746.137          51.000
C28  25059788.289 4 130492907.616 4     -2551.746          29.000
E11  22870936.328 8 120187605.603 8     -1206.039          51.000    22870934.414 8  92091791.598 8      -924.135          50.000
E25  24281479.695 8 127600036.097 8     -1876.277          51.000    24281484.375 8  97771441.856 8     -1437.592          51.000
E36  23841565.375 8 125288278.667 8      1249.359          48.000    23841571.062 8  96000132.684 8       957.271          48.000
> 2020 05 17 14 07 30.0000000  0 13        .000000000000
G10  23602048.148 6 124029584.850 6      3369.090          37.000    23602049.219 6  96646453.941 6      2625.265          36.000
G18  21032861.586 7 110528475.341 7     -1974.727          47.000    21032861.312 7  86126046.626 7     -1538.748          47.000
G20  21603953.328 8 113529574.055 8      1976.664          50.000    21603954.102 7  88464610.888 7      1540.258          45.000
G21  21246306.023 8 111650135.815 8     -1601.707          51.000    21246304.734 8  87000108.587 8     -1248.083          50.000
G26  20502654.336 8 107742185.319 8     -1201.680          51.000    20502657.195 8  83954939.114 8      -936.374          51.000
R03  22985035.727 5 123040642.560 5      -759.422          35.000
R09  20557491.250 8 109775861.421 8     -3205.258          49.000    20557491.133 7  85381228.285 7     -2492.981          46.000
R21  23362479.141 5 125017415.708 5      3109.746          30.000
C27  21710441.656 8 113052068.963 8      -759.340          51.000
C30  22941521.180 5 119462537.351 5      1802.582          33.000
E11  22877859.328 8 120223986.891 8     -1218.277          51.000    22877857.516 8  92119668.175 8      -933.482          50.000
E25  24292242.875 8 127656596.141 8     -1893.562          51.000    24292247.422 8  97814780.060 8     -1450.921          51.000
E36  23834475.562 8 125251019.762 8      1235.613          49.000    23834479.602 7  95971583.648 7       946.808          46.000
> 2020 05 17 14 08  0.0000000  0 12        .000000000000
G10  23582828.039 6 123928594.164 6      3364.012          36.000    23582831.570 6  96567759.905 6      2621.311          36.000
G18  21044172.148 8 110587912.866 8     -1987.262          49.000    21044172.250 7  86172361.569 7     -1548.516          46.000
G20  21592714.516 8 113470513.127 8      1960.953          51.000    21592715.375 7  88418589.443 7      1528.015          46.000
G21  21255478.812 8 111698339.326 8     -1611.531          51.000    21255477.352 8  87037669.767 8     -1255.739          50.000
G26  20509565.719 8 107778504.244 8     -1219.305          51.000    20509568.117 8  83983239.550 8      -950.111          51.000
R09  20575551.883 8 109872307.061 8     -3224.070          48.000    20575553.250 7  85456241.502 7     -2507.613          47.000
R21  23345059.305 4 124924170.580 4      3103.531          28.000
C27  21714839.680 8 113074971.035 8      -767.168          51.000
C30  22931148.125 5 119408543.971 5      1797.473          30.000
E11  22884834.430 8 120260641.310 8     -1225.145          51.000    22884832.633 8  92147754.015 8      -938.714          51.000
E25  24303087.203 8 127713581.389 8     -1905.078          51.000    24303091.273 8  97858444.051 8     -1459.705          51.000
E36  23827446.227 8 125214077.376 8      1227.531          50.000    23827447.977 7  95943277.128 7       940.594          45.000
> 2020 05 17 14 08 30.0000000  0 12        .000000000000
G10  23563616.688 5 123827655.922 5      3362.207          35.000    23563623.711 5  96489106.796 5      2619.908          34.000
G18  21055534.109 8 110647620.667 8     -1996.082          50.000    21055534.156 7  86218887.102 7     -1555.389          46.000
G20  21581545.680 8 113411819.854 8      1948.875          50.000    21581546.609 7  88372854.461 7      1518.604          46.000
G21  21264687.430 8 111746731.362 8     -1617.547          51.000    21264685.984 8  87075377.846 8     -1260.426          50.000
G26  20516556.961 8 107815243.834 8     -1233.074          50.000    20516559.055 8  84011867.790 8      -960.837          50.000
R03  22993818.047 5 123087612.045 5      -805.789          33.000    22993809.859 4  95734809.330 4      -626.722          26.000
R09  20593699.789 8 109969204.604 8     -3239.086          48.000    20593702.953 8  85531599.419 8     -2519.289          48.000
R21  23327661.586 5 124831037.283 5      3101.500          31.000
C27  21719262.445 8 113098001.917 8      -771.188          51.000
E11  22891827.398 8 120297388.918 8     -1227.730          51.000    22891825.508 8  92175911.261 8      -940.714          51.000
E25  24313978.289 8 127770812.025 8     -1913.223          51.000    24313981.719 8  97902296.062 8     -1465.958          51.000
E36  23820442.828 8 125177272.426 8      1223.141          50.000    23820443.203 7  95915075.959 7       937.188          45.000
> 2020 05 17 14 09  0.0000000  0 14        .000000000000
G10  23544434.297 6 123726839.047 6      3361.492          36.000    23544441.578 6  96410561.554 6      2619.351          36.000
G18  21066962.867 8 110707679.638 8     -2004.457          49.000    21066962.812 7  86265686.282 7     -1561.915          46.000
G20  21570462.852 8 113353579.371 8      1937.227          49.000    21570463.586 7  88327472.275 7      1509.527          47.000
G21  21273947.469 8 111795393.273 8     -1623.215          51.000    21273946.055 8  87113296.212 8     -1264.843          50.000
G26  20523643.664 8 107852486.507 8     -1246.449          50.000    20523645.742 8  84040888.024 8      -971.259          50.000
R03  22998400.508 5 123112157.104 5      -826.875          33.000
R09  20611948.414 8 110066646.683 8     -3253.477          50.000    20611951.609 8  85607400.655 8     -2530.482          50.000
R10  19926039.094 6 106217065.560 6      -320.672          37.000
R21  23310294.531 5 124738051.418 5      3100.594          30.000
C27  21723725.633 8 113121243.358 8      -774.906          51.000
C28  25118732.234 4 130799830.251 4     -2556.836          29.000
E11  22898853.547 8 120334311.726 8     -1230.379          51.000    22898851.742 8  92204202.760 8      -942.704          51.000
E25  24324931.617 8 127828370.049 8     -1920.707          51.000    24324934.523 8  97946398.930 8     -1471.675          51.000
E36  23813481.375 8 125140687.780 8      1219.137          50.000    23813480.961 7  95887043.597 7       934.284          46.000
> 2020 05 17 14 09 30.0000000  0 14        .000000000000
G10  23525276.414 6 123626160.668 6      3352.715          38.000    23525282.555 6  96332110.899 6      2612.505          38.000
G18  21078454.172 8 110768067.763 8     -2019.812          48.000    21078454.422 7  86312741.958 7     -1573.880          47.000
G20  21559462.648 8 113295773.858 8      1918.133          49.000    21559463.703 7  88282429.050 7      1494.649          47.000
G21  21283254.734 8 111844303.309 8     -1635.793          51.000    21283252.992 8  87151407.917 8     -1274.644          49.000
G26  20530822.359 8 107890211.691 8     -1266.824          51.000    20530824.336 8  84070284.265 8      -987.136          51.000
R03  23003119.211 5 123137412.749 5      -855.066          32.000
R09  20630293.758 8 110164625.264 8     -3275.133          51.000    20630296.758 8  85683596.556 8     -2547.326          50.000
R10  19927938.930 5 106227183.900 5      -351.812          34.000
R21  23292947.117 5 124645193.361 5      3091.008          31.000
C27  21728225.453 8 113144675.119 8      -785.582          51.000
C28  25133481.633 4 130876632.661 4     -2560.852          29.000
E11  22905908.953 8 120371388.855 8     -1239.973          51.000    22905907.445 8  92232612.506 8      -950.115          51.000
E25  24335943.117 8 127886234.586 8     -1935.395          51.000    24335945.562 8  97990736.653 8     -1482.968          51.000
E36  23806558.070 8 125104303.329 8      1208.059          50.000    23806557.102 7  95859164.617 7       925.670          45.000
> 2020 05 17 14 10  0.0000000  0 11        .000000000000
G18  21090024.398 8 110828870.247 8     -2020.062          50.000    21090024.992 7  86360120.521 7     -1574.075          45.000
G20  21548562.195 8 113238492.534 8      1914.199          49.000    21548563.547 8  88237794.272 8      1491.584          48.000
G21  21292625.406 8 111893547.046 8     -1633.477          51.000    21292623.578 8  87189779.652 8     -1272.839          50.000
G26  20538109.719 8 107928505.930 8     -1272.391          51.000    20538111.672 8  84100123.932 8      -991.473          51.000
R09  20648750.219 8 110263178.323 8     -3281.410          51.000    20648753.258 8  85760251.731 8     -2552.208          48.000
R10  19930002.328 6 106238184.604 6      -367.500          36.000
R21  23275639.992 5 124552552.558 5      3098.289          33.000
C27  21732778.508 8 113168383.159 8      -781.430          51.000
E11  22913010.188 8 120408706.512 8     -1234.176          51.000    22913008.969 8  92261206.546 8      -945.724          51.000
E25  24347029.164 8 127944491.881 8     -1934.965          51.000    24347031.234 8  98035375.326 8     -1482.629          51.000
E36  23799689.000 8 125068206.072 8      1212.000          49.000    23799688.062 7  95831505.684 7       928.589          46.000
> 2020 05 17 14 10 30.0000000  0 10        .000000000000
G18  21101689.461 8 110890170.411 8     -2059.188          50.000    21101689.852 7  86407886.860 7     -1604.562          45.000
G20  21537778.281 8 113181823.214 8      1870.996          49.000    21537779.398 7  88193636.367 7      1457.919          47.000
G21  21302075.492 8 111943208.560 8     -1670.008          50.000    21302074.039 8  87228476.930 8     -1301.305          50.000
G26  20545521.383 8 107967453.938 8     -1316.844          51.000    20545523.602 8  84130473.009 8     -1026.115          51.000
R09  20667333.109 8 110362416.881 8     -3327.098          51.000    20667336.820 7  85837436.755 7     -2587.743          46.000
R10  19932248.117 6 106250154.145 6      -422.859          36.000
C27  21737400.680 8 113192451.569 8      -815.945          51.000
E11  22920173.305 8 120446349.185 8     -1268.027          51.000    22920172.312 8  92290049.616 8      -971.557          51.000
E25  24358205.766 8 128003226.243 8     -1973.336          51.000    24358208.125 8  98080379.563 8     -1512.070          51.000
E36  23792890.336 8 125032481.201 8      1176.953          49.000    23792890.523 7  95804132.070 7       901.818          47.000
> 2020 05 17 14 11  0.0000000  0 12        .000000000000
G10  23468033.961 6 123325312.320 6      3335.426          38.000    23468041.273 6  96097684.901 6      2599.036          37.000
G18  21113393.906 8 110951677.745 8     -2056.781          50.000    21113393.922 7  86455814.639 7     -1602.684          45.000
G20  21527056.148 7 113125479.317 7      1869.590          47.000    21527056.773 7  88149732.053 7      1456.823          46.000
G21  21311549.742 8 111992997.001 8     -1664.793          50.000    21311548.461 8  87267273.110 8     -1297.241          49.000
G26  20553002.344 8 108006766.630 8     -1319.520          51.000    20553004.805 8  84161106.244 8     -1028.197          51.000
R09  20685987.586 8 110462040.659 8     -3330.371          49.000    20685991.180 7  85914921.901 7     -2590.289          44.000
R10  19934619.500 5 106262799.531 5      -436.262          34.000
R21  23241108.164 5 124367842.479 5      3073.941          35.000
C27  21742036.875 8 113216594.067 8      -809.012          51.000
E11  22927343.148 8 120484027.364 8     -1259.422          51.000    22927342.250 8  92318919.899 8      -965.009          51.000
E25  24369417.992 8 128062148.289 8     -1970.289          51.000    24369421.133 8  98125527.615 8     -1509.675          51.000
E36  23786108.000 8 124996840.081 8      1183.609          50.000    23786109.117 8  95776822.664 8       906.909          48.000
> 2020 05 17 14 11 30.0000000  0 14        .000000000000
G10  23448997.188 7 123225264.951 7      3330.309          44.000    23449002.305 7  96019726.007 7      2595.049          43.000
G18  21125154.156 8 111013478.378 8     -2067.855          51.000    21125154.164 7  86503970.951 7     -1611.316          45.000
G20  21516413.086 8 113069551.206 8      1854.277          48.000    21516413.375 7  88106151.745 7      1444.891          45.000
G21  21321064.695 8 112042998.918 8     -1673.203          50.000    21321063.391 8  87306235.634 8     -1303.795          50.000
G26  20560569.555 8 108046531.417 8     -1335.867          51.000    20560572.188 8  84192091.780 8     -1040.935          51.000
R09  20704730.578 8 110562135.715 8     -3347.359          49.000    20704733.953 7  85992773.581 7     -2603.502          43.000
R10  19937134.484 5 106276209.879 5      -462.543          35.000
R21  23223875.172 6 124275619.475 6      3069.660          38.000    23223871.312 4  96658841.621 4      2387.520          25.000
C27  21746704.023 8 113240897.551 8      -815.691          51.000
C28  25192592.961 5 131184403.377 5     -2567.031          30.000
C30  22859392.859 5 119034858.204 5      1759.242          31.000
E11  22934536.375 8 120521828.335 8     -1264.934          51.000    22934535.375 8  92347884.272 8      -969.142          51.000
E25  24380682.617 8 128121345.181 8     -1980.574          51.000    24380686.648 8  98170886.280 8     -1517.592          51.000
E36  23779358.703 8 124961370.788 8      1176.570          50.000    23779360.242 8  95749644.913 8       901.504          48.000
> 2020 05 17 14 12  0.0000000  0 13        .000000000000
G10  23430011.469 7 123125486.379 7      3323.180          46.000    23430014.086 7  95941976.559 7      2589.494          45.000
G18  21137000.430 8 111075730.732 8     -2080.703          51.000    21137000.523 7  86552479.256 7     -1621.327          45.000
G20  21505880.406 8 113014201.637 8      1837.293          49.000    21505880.273 7  88063022.256 7      1431.660          45.000
G21  21330650.641 8 112093373.459 8     -1683.363          50.000    21330649.398 8  87345488.514 8     -1311.712          50.000
G26  20568253.133 8 108086908.140 8     -1354.195          51.000    20568256.055 8  84223554.136 8     -1055.217          51.000
R09  20723593.508 8 110662861.403 8     -3366.016          51.000    20723596.500 7  86071115.702 7     -2618.015          44.000
R10  19939820.477 5 106290503.861 5      -491.148          32.000
R21  23206692.719 6 124183662.068 6      3062.891          36.000
C27  21751432.648 8 113265520.615 8      -824.207          51.000
C28  25207387.086 5 131261465.044 5     -2569.539          35.000
E11  22941783.422 8 120559911.682 8     -1272.418          51.000    22941782.211 8  92377065.012 8      -974.967          51.000
E25  24392030.211 8 128180976.429 8     -1993.195          51.000    24392034.781 8  98216577.750 8     -1527.185          51.000
E36  23772672.164 8 124926233.555 8      1167.617          48.000    23772674.414 8  95722721.603 8       894.647          49.000
> 2020 05 17 14 12 30.0000000  0 13        .000000000000
G10  23411052.672 8 123025852.494 8      3316.613          48.000    23411052.719 7  95864339.882 7      2584.377          47.000
G18  21148908.094 8 111138305.701 8     -2093.254          51.000    21148908.227 7  86601238.960 7     -1631.107          45.000
G20  21495434.312 8 112959305.491 8      1820.184          50.000    21495433.586 7  88020246.069 7      1418.328          44.000
G21  21340283.164 8 112143992.150 8     -1693.469          51.000    21340282.023 8  87384931.645 8     -1319.586          50.000
G26  20576028.664 8 108127769.000 8     -1372.270          51.000    20576031.656 8  84255393.746 8     -1069.301          51.000
R09  20742550.609 8 110764084.716 8     -3384.531          51.000    20742552.258 7  86149844.864 7     -2632.416          45.000
R10  19942659.938 5 106305639.405 5      -519.781          35.000
R21  23189535.453 5 124091841.334 5      3055.875          33.000
C27  21756198.328 8 113290336.897 8      -832.551          51.000
C28  25222186.844 5 131338539.382 5     -2571.105          35.000
E11  22949059.828 8 120598149.306 8     -1279.062          51.000    22949058.594 8  92406363.969 8      -980.112          51.000
E25  24403436.242 8 128240913.976 8     -2005.133          51.000    24403440.992 8  98262503.930 8     -1536.421          51.000
E36  23766023.859 7 124891301.174 7      1158.840          47.000    23766027.531 8  95695955.260 8       887.957          49.000
> 2020 05 17 14 13  0.0000000  0 11        .000000000000
G10  23392146.406 8 122926495.957 8      3300.594          49.000    23392144.117 8  95786919.347 8      2571.897          48.000
G18  21160901.469 8 111201331.014 8     -2114.789          51.000    21160901.625 7  86650349.578 7     -1647.888          46.000
G20  21485099.695 8 112904994.492 8      1794.043          50.000    21485098.586 7  87977925.843 7      1397.956          45.000
G21  21349986.375 8 112194982.393 8     -1712.469          50.000    21349985.195 8  87424664.310 8     -1334.391          50.000
G26  20583921.086 8 108169242.997 8     -1399.336          51.000    20583923.984 8  84287711.145 8     -1090.392          51.000
R09  20761625.070 8 110865933.485 8     -3412.059          51.000    20761625.812 7  86229060.476 7     -2653.826          46.000
R10  19945673.703 6 106321704.633 6      -557.801          36.000
C27  21761025.641 8 113315474.498 8      -849.852          51.000
E11  22956390.141 8 120636670.168 8     -1295.414          51.000    22956389.031 8  92435879.949 8      -992.539          51.000
E25  24414924.969 8 128301286.528 8     -2026.094          51.000    24414929.656 8  98308763.412 8     -1552.440          51.000
E36  23759439.391 7 124856703.229 7      1141.102          47.000    23759444.203 8  95669445.162 8       874.395          48.000
> 2020 05 17 14 13 30.0000000  0 12        .000000000000
G10  23373265.188 8 122827271.819 8      3312.805          50.000    23373262.469 8  95709601.941 8      2581.409          50.000
G18  21172952.031 8 111264656.750 8     -2108.238          51.000    21172952.312 7  86699694.285 7     -1642.783          46.000
G20  21474848.609 8 112851122.922 8      1796.070          51.000    21474847.406 7  87935948.043 7      1399.538          46.000
G21  21359731.828 8 112246194.935 8     -1703.152          51.000    21359730.406 8  87464570.179 8     -1327.132          49.000
G26  20591901.844 8 108211181.472 8     -1397.910          51.000    20591904.852 8  84320390.468 8     -1089.281          51.000
R09  20780787.219 8 110968253.798 8     -3410.727          51.000    20780788.039 8  86308642.875 8     -2652.787          48.000
R10  19948834.180 5 106338548.597 5      -566.289          34.000
C27  21765886.469 8 113340786.437 8      -839.062          51.000
C28  25251838.883 4 131492948.265 4     -2565.840          29.000
E11  22963746.008 8 120675325.319 8     -1283.055          51.000    22963744.961 8  92465498.828 8      -983.219          51.000
E25  24426468.133 8 128361945.202 8     -2019.211          51.000    24426472.383 8  98355242.140 8     -1547.170          51.000
E36  23752891.070 8 124822291.658 8      1151.547          48.000    23752895.992 8  95643077.865 8       882.309          49.000
> 2020 05 17 14 14  0.0000000  0 13        .000000000000
G10  23354390.906 8 122728084.115 8      3298.945          50.000    23354388.828 8  95632312.891 8      2570.607          50.000
G18  21185040.484 8 111328181.874 8     -2127.453          51.000    21185040.711 7  86749194.388 7     -1657.756          47.000
G20  21464662.594 8 112797593.978 8      1772.020          51.000    21464661.289 7  87894237.216 7      1380.794          46.000
G21  21369500.430 8 112297529.052 8     -1719.820          51.000    21369498.930 8  87504570.790 8     -1340.120          49.000
G26  20599951.883 8 108253484.787 8     -1422.875          51.000    20599954.961 8  84353354.066 8     -1108.737          51.000
R03  23051929.555 4 123398721.405 4     -1079.297          29.000    23051936.164 4  95976857.722 4      -839.444          27.000
R09  20800017.016 8 111070941.303 8     -3435.746          50.000    20800019.211 8  86388510.909 8     -2672.247          49.000
R10  19952121.461 5 106356070.571 5      -602.016          34.000
C27  21770761.961 8 113366174.261 8      -854.043          51.000
C28  25266655.867 4 131570052.691 4     -2575.949          28.000
E11  22971108.406 8 120714014.956 8     -1296.676          51.000    22971107.383 8  92495144.128 8      -993.515          51.000
E25  24438046.602 8 128422790.032 8     -2037.672          51.000    24438050.219 8  98401863.488 8     -1561.294          51.000
E36  23746359.344 7 124787967.326 7      1136.230          47.000    23746364.250 8  95616777.411 8       870.546          48.000
> 2020 05 17 14 14 30.0000000  0 13        .000000000000
G10  23335597.180 8 122629319.868 8      3305.254          49.000    23335595.719 8  95555353.785 8      2575.523          49.000
G18  21197239.547 8 111392288.498 8     -2126.426          51.000    21197239.523 7  86799147.598 7     -1656.955          47.000
G20  21454615.156 8 112744793.845 8      1767.922          51.000    21454613.727 7  87853094.271 7      1377.601          46.000
G21  21379365.039 8 112349367.652 8     -1716.227          51.000    21379363.797 8  87544964.522 8     -1337.316          49.000
G26  20608144.508 8 108296536.244 8     -1427.355          51.000    20608147.414 8  84386900.632 8     -1112.225          51.000
R03  23058067.898 5 123431541.813 5     -1090.934          31.000    23058074.602 5  96002324.845 5      -848.501          31.000
R09  20819387.273 8 111174382.015 8     -3440.125          49.000    20819390.859 8  86468964.799 8     -2675.653          49.000
R10  19955608.906 5 106374659.154 5      -617.148          33.000
C27  21775725.000 8 113392018.172 8      -849.156          51.000
C30  22799267.750 4 118721778.576 4      1733.758          28.000
E11  22978550.359 8 120753122.309 8     -1290.516          51.000    22978549.328 8  92525109.507 8      -988.867          51.000
E25  24449733.148 8 128484204.113 8     -2036.453          51.000    24449736.102 8  98448921.017 8     -1560.417          51.000
E36  23739917.031 7 124754114.200 7      1140.723          47.000    23739922.047 8  95590838.001 8       874.060          48.000
> 2020 05 17 14 15  0.0000000  0 13        .000000000000
G10  23316800.328 7 122530541.261 7      3285.684          45.000    23316799.547 7  95478383.465 7      2560.273          45.000
G18  21209465.031 8 111456533.788 8     -2151.184          51.000    21209464.898 7  86849208.848 7     -1676.247          47.000
G20  21444622.812 8 112692283.786 8      1738.160          51.000    21444621.484 7  87812177.345 7      1354.411          46.000
G21  21389241.305 8 112401267.589 8     -1738.328          51.000    21389240.312 8  87585406.035 8     -1354.541          49.000
G26  20616395.633 8 108339894.246 8     -1457.766          51.000    20616398.367 8  84420686.074 8     -1135.921          51.000
R03  23064307.516 5 123464932.175 5     -1128.906          35.000    23064309.508 4  96028295.228 4      -878.035          29.000
R09  20838814.883 8 111278124.380 8     -3470.535          51.000    20838818.570 8  86549653.300 8     -2699.305          49.000
R10  19959211.711 6 106393866.741 6      -657.930          38.000
C27  21780691.586 8 113417880.936 8      -869.723          51.000
C30  22789340.266 4 118670097.623 4      1714.145          29.000
E11  22985987.742 8 120792205.621 8     -1309.531          51.000    22985986.703 8  92555056.455 8     -1003.470          51.000
E25  24461443.938 8 128545745.607 8     -2060.840          51.000    24461446.273 8  98496076.176 8     -1579.145          51.000
E36  23733480.734 8 124720291.260 8      1119.527          48.000    23733485.680 8  95564921.726 8       857.829          49.000
> 2020 05 17 14 15 30.0000000  0 13        .000000000000
G10  23298063.969 6 122432085.950 6      3278.711          41.000    23298064.383 6  95401665.024 6      2554.840          41.000
G18  21221780.250 8 111521250.322 8     -2162.871          51.000    21221780.195 7  86899637.307 7     -1685.354          47.000
G20  21434749.570 8 112640400.310 8      1721.129          50.000    21434748.570 7  87771748.689 7      1341.139          47.000
G21  21399192.695 8 112453562.043 8     -1747.566          51.000    21399191.492 8  87626154.958 8     -1361.740          49.000
G26  20624768.375 8 108383892.621 8     -1475.184          51.000    20624771.172 8  84454970.484 8     -1149.497          51.000
R03  23070707.547 5 123499190.600 5     -1154.066          33.000    23070708.117 4  96054940.703 4      -897.607          24.000
R09  20858362.625 8 111382504.611 8     -3487.668          51.000    20858365.453 8  86630837.879 8     -2712.631          49.000
R10  19962995.453 6 106414032.530 6      -686.039          38.000
C27  21785725.250 8 113444093.740 8      -877.469          51.000
C30  22779475.906 5 118618720.339 5      1708.125          31.000
E11  22993484.086 8 120831598.599 8     -1316.191          51.000    22993483.000 8  92585240.678 8     -1008.441          51.000
E25  24473242.602 8 128607748.054 8     -2072.090          51.000    24473244.328 8  98543584.525 8     -1587.753          51.000
E36  23727114.359 8 124686832.975 8      1111.289          49.000    23727119.055 8  95539284.862 8       851.612          49.000
> 2020 05 17 14 16  0.0000000  0 13        .000000000000
G10  23279359.391 7 122333814.500 7      3268.805          43.000    23279363.883 7  95325089.815 7      2547.117          43.000
G18  21234157.602 8 111586293.749 8     -2177.371          51.000    21234157.570 7  86950320.502 7     -1696.653          46.000
G20  21424968.930 8 112589003.115 8      1701.336          51.000    21424968.008 7  87731698.951 7      1325.716          46.000
G21  21409191.812 8 112506107.119 8     -1759.512          51.000    21409190.297 8  87667099.168 8     -1371.048          48.000
G26  20633235.719 8 108428388.192 8     -1495.273          51.000    20633238.523 8  84489642.325 8     -1165.148          51.000
R09  20878001.797 8 111487374.164 8     -3507.547          51.000    20878003.984 8  86712403.030 8     -2728.095          49.000
R10  19966931.789 6 106435010.770 6      -716.668          38.000
C27  21790799.008 8 113470515.095 8      -887.930          51.000
C28  25326065.820 5 131879474.753 5     -2584.898          33.000
C30  22769645.547 4 118567548.957 4      1698.906          28.000
E11  23001012.070 8 120871158.039 8     -1325.254          51.000    23001010.984 8  92615552.457 8     -1015.514          51.000
E25  24485101.984 8 128670068.141 8     -2086.543          51.000    24485103.008 8  98591336.242 8     -1598.768          51.000
E36  23720790.242 8 124653596.829 8      1100.320          49.000    23720794.695 8  95513818.210 8       843.127          49.000
> 2020 05 17 14 16 30.0000000  0 14        .000000000000
G10  23260696.867 7 122235750.109 7      3266.895          47.000    23260702.203 7  95248676.053 7      2545.635          47.000
G16  20566942.391 6 108080029.971 6       816.348          37.000    20566947.867 5  84218191.708 5       636.115          32.000
G18  21246600.648 8 111651682.447 8     -2183.852          51.000    21246600.586 7  87001272.719 7     -1701.703          46.000
G20  21415285.156 8 112538114.493 8      1689.387          51.000    21415283.969 7  87692045.499 7      1316.405          46.000
G21  21419242.117 8 112558921.447 8     -1763.348          51.000    21419240.641 8  87708253.187 8     -1374.037          49.000
G26  20641801.430 8 108473400.475 8     -1507.430          51.000    20641804.141 8  84524716.820 8     -1174.621          51.000
R09  20897735.039 8 111592749.927 8     -3519.324          49.000    20897737.648 8  86794361.919 8     -2737.252          49.000
R10  19971024.734 6 106456821.553 6      -739.164          38.000
C27  21795916.883 8 113497164.806 8      -890.574          51.000
C28  25340941.305 5 131956940.552 5     -2581.578          33.000
C30  22759854.539 5 118516567.883 5      1698.359          32.000
E11  23008575.336 8 120910903.394 8     -1326.215          51.000    23008574.383 8  92646006.684 8     -1016.235          51.000
E25  24497025.609 8 128732725.119 8     -2092.574          51.000    24497025.500 8  98639346.083 8     -1603.437          49.000
E36  23714511.719 8 124620603.058 8      1097.281          49.000    23714515.680 8  95488537.261 8       840.741          48.000
> 2020 05 17 14 17  0.0000000  0 14        .000000000000
G10  23242060.477 8 122137814.756 8      3260.754          49.000    23242064.273 8  95172362.897 8      2540.850          49.000
G16  20562326.117 5 108055774.878 5       798.793          34.000    20562329.508 5  84199299.569 5       622.430          30.000
G18  21259093.617 8 111717333.293 8     -2194.293          51.000    21259093.648 7  87052429.206 7     -1709.839          46.000
G20  21405682.945 8 112487655.589 8      1673.188          50.000    21405681.953 7  87652726.900 7      1303.782          47.000
G21  21429327.875 8 112611922.467 8     -1771.430          51.000    21429326.602 8  87749552.666 8     -1380.335          49.000
G26  20650449.430 8 108518847.595 8     -1523.828          51.000    20650452.148 8  84560130.160 8     -1187.399          51.000
R09  20917546.461 8 111698545.246 8     -3535.191          48.000    20917550.086 8  86876647.130 8     -2749.593          49.000
R10  19975257.867 6 106479382.317 6      -766.336          38.000
C27  21801063.375 8 113523962.126 8      -897.344          51.000
C28  25355812.305 5 132034374.181 5     -2581.840          35.000
C30  22750088.320 5 118465697.327 5      1691.809          35.000
E11  23016158.438 8 120950752.808 8     -1331.844          51.000    23016157.500 8  92676540.647 8     -1020.468          51.000
E25  24508997.719 8 128795636.934 8     -2102.957          51.000    24508996.094 8  98687551.177 8     -1611.351          48.000
E36  23708263.711 8 124587770.410 8      1090.121          49.000    23708266.820 8  95463379.763 8       835.246          48.000
> 2020 05 17 14 17 30.0000000  0 14        .000000000000
G10  23223468.273 8 122040109.020 8      3253.508          50.000    23223470.914 8  95096228.672 8      2535.204          50.000
G16  20557815.469 5 108032081.491 5       780.855          32.000    20557819.875 5  84180833.289 5       608.468          32.000
G18  21271654.648 8 111783341.952 8     -2205.617          51.000    21271654.781 7  87103864.513 7     -1718.663          46.000
G20  21396181.430 8 112437725.808 8      1656.004          50.000    21396180.797 7  87613820.604 7      1290.393          47.000
G21  21439467.445 8 112665206.040 8     -1780.258          51.000    21439466.031 8  87791072.307 8     -1387.217          49.000
G26  20659198.195 8 108564826.276 8     -1540.828          49.000    20659201.094 8  84595957.710 8     -1200.642          49.000
R09  20937454.438 7 111804855.473 7     -3551.691          47.000    20937458.602 8  86959332.850 8     -2762.427          49.000
R10  19979650.031 6 106502790.923 6      -793.711          38.000
C27  21806256.789 8 113551003.427 8      -904.840          51.000
C28  25370697.172 6 132111872.246 6     -2583.867          38.000
C30  22740361.148 5 118415027.112 5      1685.508          31.000
E11  23023779.773 8 120990802.926 8     -1337.586          51.000    23023778.664 8  92707228.398 8     -1024.939          51.000
E25  24521036.516 8 128858900.137 8     -2114.047          51.000    24521034.266 8  98736025.513 8     -1619.869          49.000
E36  23702065.273 8 124555196.338 8      1082.055          50.000    23702067.867 8  95438420.406 8       829.146          49.000
> 2020 05 17 14 18  0.0000000  0 13        .000000000000
G10  23204912.180 8 121942591.548 8      3247.062          51.000    23204915.320 8  95020241.101 8      2530.179          51.000
G16  20553405.383 5 108008874.464 5       763.105          32.000    20553407.141 4  84162756.723 4       594.628          27.000
G18  21284274.938 8 111849662.052 8     -2216.320          51.000    21284275.086 7  87155542.489 7     -1727.003          45.000
G20  21386772.469 8 112388282.735 8      1639.625          50.000    21386772.016 7  87575293.575 7      1277.633          47.000
G21  21449651.984 8 112718726.219 8     -1788.297          50.000    21449650.281 8  87832776.322 8     -1393.478          50.000
G26  20668039.711 8 108611291.356 8     -1557.254          49.000    20668042.672 8  84632164.258 8     -1213.445          50.000
R09  20957450.227 8 111911631.707 8     -3567.340          48.000    20957454.477 8  87042381.008 8     -2774.598          49.000
R10  19984192.219 6 106527001.623 6      -820.809          38.000
C27  21811488.359 8 113578244.402 8      -911.703          51.000
C28  25385585.219 6 132189390.420 6     -2584.457          39.000
E11  23031430.625 8 121031008.661 8     -1343.180          51.000    23031429.367 8  92738035.362 8     -1029.130          51.000
E25  24533133.117 8 128922469.296 8     -2124.371          51.000    24533132.078 8  98784734.305 8     -1627.777          50.000
E36  23695907.602 8 124522836.338 8      1074.734          50.000    23695910.047 8  95413625.083 8       823.498          48.000
> 2020 05 17 14 18 30.0000000  0 14        .000000000000
G10  23186399.125 8 121845300.437 8      3239.840          51.000    23186402.727 8  94944429.886 8      2524.554          51.000
G16  20549101.297 5 107986255.128 5       745.055          35.000    20549100.484 4  84145115.459 4       580.562          29.000
G18  21296960.797 8 111916326.647 8     -2227.383          51.000    21296960.867 7  87207488.908 7     -1735.623          45.000
