     3.02           OBSERVATION DATA    M (MIXED)           RINEX VERSION / TYPE
SAVERINEX           SC600               20200510 155930 LCL PGM / RUN BY / DATE
       G = GPS       R = GLONASS       C = COMPASS          COMMENT
       S = SBAS      J = QZSS          E = GALILEO          COMMENT
BEAN                                                        MARKER NAME
1                                                           MARKER NUMBER
GEODETIC                                                    MARKER TYPE
Unige DICCA         GTER                                    OBSERVER / AGENCY
SC60291900056       SC600               2.12(191226)        REC # / TYPE / VERS
                    HEMA45          NONE                    ANT # / TYPE
  4509407.8091   693652.4678  4442337.6214                  APPROX POSITION XYZ
        0.0000        0.0000        0.0000                  ANTENNA: DELTA H/E/N
G    8 C1C L1C D1C S1C C2Y L2Y D2Y S2Y                      SYS / # / OBS TYPES
R    8 C1C L1C D1C S1C C2P L2P D2P S2P                      SYS / # / OBS TYPES
C    8 C1I L1I D1I S1I C7I L7I D7I S7I                      SYS / # / OBS TYPES
E    8 C1C L1C D1C S1C C7Q L7Q D7Q S7Q                      SYS / # / OBS TYPES
DBHZ                                                        COMMENT
     30.000                                                 INTERVAL
  2020    05    10    13    00    0.0000000     GPS         TIME OF FIRST OBS
  2020    05    10    13    59   30.0000000     GPS         TIME OF LAST OBS
     0                                                      RCV CLOCK OFFS APPL
G L1C  0.00000                                              SYS / PHASE SHIFT
G L2Y  0.00000                                              SYS / PHASE SHIFT
R L1C  0.00000                                              SYS / PHASE SHIFT
R L2P  0.25000                                              SYS / PHASE SHIFT
C L1I  0.00000                                              SYS / PHASE SHIFT
C L7I  0.00000                                              SYS / PHASE SHIFT
E L1C  0.50000                                              SYS / PHASE SHIFT
E L7Q -0.25000                                              SYS / PHASE SHIFT
 13 R04  6 R05  1 R06 -4 R07  5 R09 -2 R10 -7 R11  0 R15  0 GLONASS SLOT / FRQ #
    R16 -1 R18 -3 R19  3 R20  2 R21  4                      GLONASS SLOT / FRQ #
 C1C   71.950 C2C   71.950 C2P   71.950                     GLONASS COD/PHS/BIS
    18                                                      LEAP SECONDS
*** Above antenna height is from mark to ANTENNA BOTTOM.    COMMENT
    17     4        0.0000        ANT MEASURE TYPE/HEIGT    COMMENT
    0.0000    0.0000    0.0458    0.0405    0.0000          COMMENT
                    BASE STATION                            COMMENT
                                                            END OF HEADER
> 2020 05 10 13 00  0.0000000  0 15        .000000000000
G18  20544118.062 8 107960067.311 8      1212.488          49.000    20544119.188 8  84124808.402 8       944.796          49.000
G21  20777646.930 8 109187335.422 8       812.062          51.000    20777645.984 8  85081025.511 8       632.776          50.000
G25  23476806.102 7 123371446.718 7     -3259.508          43.000    23476808.562 7  96133600.849 7     -2539.876          43.000
G31  21795341.742 8 114535289.648 8     -2013.004          51.000    21795341.477 8  89248260.361 8     -1568.574          51.000
R09  20052153.883 8 107077393.870 8     -2751.598          51.000    20052154.320 8  83282438.391 8     -2140.132          48.000
R10  19298762.094 8 102873281.333 8       363.957          49.000
R20  19371639.812 6 103588891.828 6        60.500          38.000    19371643.492 7  80569152.564 7        47.056          45.000
R21  22313579.000 8 119404481.018 8      3389.719          48.000    22313580.414 7  92870144.902 7      2636.451          42.000
C05  39624763.859 5 206336543.548 5        16.434          35.000    39624765.445 6 159552511.240 6        12.430          38.000
C27  21806946.578 8 113554484.459 8      1036.551          51.000
C28  22407851.117 8 116683600.036 8     -1797.449          51.000
C30  25520986.508 7 132894478.277 7      2814.258          42.000
E11  23392942.195 8 122930730.689 8     -1608.535          51.000    23392941.078 8  94193666.965 8     -1232.487          49.000
E25  24226506.312 8 127311139.229 8     -1704.098          51.000    24226510.766 8  97550136.815 8     -1305.758          51.000
E36  23398575.656 8 122960361.389 8      1132.770          51.000    23398579.156 8  94216392.597 8       867.924          51.000
> 2020 05 10 13 00 30.0000000  0 15        .000000000000
G18  20537246.703 8 107923958.730 8      1194.285          50.000    20537247.820 8  84096671.834 8       930.612          50.000
G21  20773056.820 8 109163214.027 8       795.613          51.000    20773055.594 8  85062229.625 8       619.958          50.000
G25  23495429.906 7 123469314.861 7     -3265.430          43.000    23495431.414 7  96209861.670 7     -2544.491          43.000
G31  21806875.805 8 114595901.956 8     -2028.164          51.000    21806875.930 8  89295490.738 8     -1580.388          51.000
R09  20067666.188 8 107160230.093 8     -2771.320          50.000    20067667.969 8  83346866.547 8     -2155.471          50.000
R10  19296782.930 8 102862731.907 8       339.043          49.000
R20  19371354.570 6 103587366.003 6        40.996          37.000    19371358.227 7  80567965.803 7        31.886          45.000
R21  22294602.367 8 119302933.348 8      3379.742          48.000    22294602.836 6  92791163.458 6      2628.688          41.000
C05  39624669.898 5 206336054.228 5        16.164          35.000    39624671.547 6 159552132.861 6        12.478          38.000
C27  21801003.680 8 113523540.310 8      1026.094          51.000
C28  22418225.750 8 116737623.047 8     -1804.480          51.000
C30  25504783.789 7 132810103.911 7      2810.273          42.000
E11  23402147.867 8 122979106.845 8     -1616.797          51.000    23402146.727 8  94230734.414 8     -1238.874          49.000
E25  24236261.555 8 127362401.848 8     -1713.805          51.000    24236265.789 8  97589415.969 8     -1313.217          51.000
E36  23392139.484 8 122926538.313 8      1121.770          51.000    23392142.555 8  94190476.224 8       859.544          51.000
> 2020 05 10 13 01  0.0000000  0 17        .000000000000
G18  20530479.977 8 107888399.568 8      1176.262          51.000    20530481.273 8  84068963.387 8       916.568          51.000
G21  20768560.641 8 109139586.151 8       779.484          51.000    20768559.203 8  85043818.326 8       607.390          50.000
G25  23514086.625 7 123567355.851 7     -3270.809          42.000    23514087.703 7  96286257.167 7     -2548.685          42.000
G26  20959295.867 5 110141833.051 5      1839.516          31.000
G29  21499286.508 6 112979559.055 6     -2128.207          37.000    21499284.930 6  88035982.097 6     -1658.343          37.000
G31  21818495.695 8 114656964.968 8     -2042.781          51.000    21818495.578 8  89343072.316 8     -1591.778          51.000
R09  20083288.516 8 107243654.673 8     -2790.508          51.000    20083291.273 8  83411752.294 8     -2170.398          50.000
R10  19294944.281 8 102852931.046 8       314.336          49.000
R20  19371177.594 6 103586422.019 6        21.734          37.000    19371181.898 7  80567231.604 7        16.905          46.000
R21  22275681.930 8 119201688.102 8      3369.914          49.000    22275682.703 7  92712417.208 7      2621.047          43.000
C05  39624574.617 5 206335558.336 5        17.035          35.000    39624576.359 6 159551749.405 6        12.895          38.000
C27  21795121.594 8 113492910.643 8      1015.871          51.000
C28  22428640.711 8 116791857.079 8     -1811.188          51.000
C30  25488602.750 6 132725844.946 6      2806.719          41.000
E11  23411401.438 8 123027734.400 8     -1625.238          51.000    23411400.242 8  94267994.483 8     -1245.309          49.000
E25  24246072.812 8 127413959.645 8     -1723.527          51.000    24246076.836 8  97628921.281 8     -1320.667          51.000
E36  23385766.023 8 122893046.176 8      1110.980          51.000    23385768.930 8  94164813.449 8       851.208          51.000
> 2020 05 10 13 01 30.0000000  0 16        .000000000000
G18  20523825.375 8 107853429.552 8      1156.645          51.000    20523826.719 8  84041714.030 8       901.281          51.000
G21  20764165.625 8 109116490.529 8       761.805          51.000    20764164.234 8  85025821.746 8       593.614          50.000
G25  23532783.203 6 123665607.525 6     -3277.559          41.000    23532784.523 6  96362816.853 6     -2553.945          39.000
G29  21511463.016 6 113043548.105 6     -2136.035          36.000    21511461.688 6  88085843.665 6     -1664.443          36.000
G31  21830208.578 8 114718515.725 8     -2059.004          51.000    21830207.922 8  89391033.937 8     -1604.419          51.000
R09  20099028.484 8 107327704.891 8     -2811.273          51.000    20099031.391 8  83477124.674 8     -2186.546          50.000
R10  19293253.531 8 102843919.586 8       288.004          49.000
R20  19371117.070 6 103586097.835 6         1.855          36.000    19371121.398 7  80566979.446 7         1.443          45.000
R21  22256825.820 8 119100786.427 8      3358.414          49.000    22256828.391 7  92633938.191 7      2612.103          45.000
C05  39624485.562 6 206335093.562 6        15.855          36.000    39624487.242 6 159551390.813 6        12.167          37.000
C27  21789307.344 8 113462633.924 8      1004.188          51.000
C28  22439103.258 8 116846339.456 8     -1819.363          51.000
C30  25472450.945 6 132641740.589 6      2801.406          41.000
E11  23420710.000 8 123076650.898 8     -1634.594          51.000    23420708.844 8  94305475.948 8     -1252.403          49.000
E25  24255947.422 8 127465851.183 8     -1734.410          51.000    24255950.844 8  97668682.323 8     -1328.943          51.000
E36  23379463.203 8 122859924.026 8      1098.707          51.000    23379465.859 8  94139434.153 8       841.845          51.000
> 2020 05 10 13 02  0.0000000  0 16        .000000000000
G18  20517275.414 8 107819009.049 8      1138.242          51.000    20517276.531 8  84014892.875 8       886.942          51.000
G21  20759864.203 8 109093886.882 8       745.438          51.000    20759862.891 8  85008208.510 8       580.860          49.000
G25  23551511.906 6 123764028.350 6     -3283.754          41.000    23551513.633 7  96439508.335 7     -2558.772          42.000
G29  21523676.789 6 113107738.004 6     -2142.867          39.000    21523675.484 6  88135861.742 6     -1669.767          39.000
G31  21842006.242 8 114780511.416 8     -2073.812          51.000    21842005.023 8  89439342.264 8     -1615.958          51.000
R09  20114877.719 8 107412337.174 8     -2830.609          51.000    20114880.234 8  83542949.763 8     -2201.585          49.000
R10  19291703.555 8 102835658.198 8       262.957          48.000
R20  19371164.305 6 103586350.870 6       -18.000          37.000    19371168.688 7  80567176.282 7       -14.000          45.000
R21  22238026.500 8 119000188.700 8      3348.332          49.000    22238031.211 7  92555695.559 7      2604.258          44.000
C05  39624395.023 5 206334622.971 5        16.367          35.000    39624396.648 6 159551026.140 6        12.418          38.000
C27  21783553.219 8 113432669.975 8       993.730          51.000
C28  22449605.805 8 116901028.862 8     -1826.281          51.000
C30  25456321.180 6 132557751.362 6      2797.621          40.000
E11  23430065.539 8 123125814.505 8     -1642.621          51.000    23430064.531 8  94343146.756 8     -1258.614          49.000
E25  24265877.891 8 127518035.751 8     -1744.383          51.000    24265880.664 8  97708667.880 8     -1336.506          51.000
E36  23373223.039 8 122827131.476 8      1087.688          51.000    23373225.586 8  94114307.396 8       833.420          51.000
> 2020 05 10 13 02 30.0000000  0 16        .000000000000
G18  20510831.836 8 107785146.571 8      1119.531          51.000    20510832.453 8  83988506.548 8       872.362          50.000
G21  20755657.680 8 109071782.783 8       728.672          51.000    20755656.672 8  84990984.552 8       567.799          50.000
G25  23570274.258 7 123862624.899 7     -3289.562          42.000    23570276.547 7  96516336.746 7     -2563.298          42.000
G29  21535930.633 5 113172135.482 5     -2150.230          34.000    21535929.898 5  88186041.617 5     -1675.507          34.000
G31  21853889.609 8 114842957.908 8     -2088.910          51.000    21853887.914 8  89488001.872 8     -1627.722          51.000
R09  20130836.852 8 107497557.054 8     -2850.328          51.000    20130838.969 8  83609231.872 8     -2216.922          49.000
R10  19290295.883 8 102828155.858 8       237.496          49.000
R20  19371321.078 6 103587187.610 6       -37.539          36.000    19371325.062 7  80567827.086 7       -29.197          44.000
R21  22219285.188 8 118899904.251 8      3337.727          48.000    22219291.695 7  92477696.549 7      2596.010          43.000
C05  39624304.281 5 206334150.280 5        15.957          35.000    39624305.992 6 159550661.388 6        12.466          38.000
C27  21777860.781 8 113403026.330 8       982.887          51.000
C28  22460149.500 8 116955931.725 8     -1833.523          51.000
C30  25440215.773 6 132473885.622 6      2793.387          40.000
E11  23439469.312 8 123175231.686 8     -1651.391          51.000    23439468.203 8  94381011.871 8     -1265.399          49.000
E25  24275865.469 8 127570520.767 8     -1754.316          51.000    24275868.086 8  97748883.635 8     -1344.234          51.000
E36  23367046.891 8 122794676.312 8      1076.363          51.000    23367049.617 8  94089439.160 8       824.743          51.000
> 2020 05 10 13 03  0.0000000  0 16        .000000000000
G18  20504493.922 8 107751840.569 8      1100.816          50.000    20504494.109 8  83962553.848 8       857.782          50.000
G21  20751545.727 8 109050176.128 8       711.809          50.000    20751545.078 8  84974148.201 8       554.656          49.000
G25  23589069.352 7 123961393.770 7     -3295.273          42.000    23589071.945 7  96593299.423 7     -2567.746          42.000
G29  21548223.570 5 113236737.170 5     -2157.137          34.000    21548223.547 5  88236380.675 5     -1680.883          33.000
G31  21865857.594 8 114905850.642 8     -2103.980          49.000    21865855.898 8  89537009.209 8     -1639.468          49.000
R09  20146904.820 8 107583359.867 8     -2869.906          50.000    20146906.727 8  83675967.381 8     -2232.149          49.000
R10  19289030.797 8 102821411.764 8       211.961          49.000
R20  19371585.891 6 103588604.199 6       -56.887          37.000    19371589.648 7  80568928.895 7       -44.245          44.000
R21  22200602.422 7 118799932.173 7      3327.027          45.000    22200608.359 6  92399940.537 6      2587.691          41.000
C05  39624213.148 5 206333675.234 5        15.723          35.000    39624214.977 6 159550293.854 6        12.176          37.000
C27  21772229.320 8 113373700.563 8       972.086          51.000
C28  22470733.391 8 117011044.525 8     -1840.672          51.000
C30  25424134.414 7 132390141.632 7      2789.336          42.000
E11  23448920.641 8 123224898.758 8     -1659.977          51.000    23448919.211 8  94419068.453 8     -1271.906          49.000
E25  24285909.898 8 127623303.564 8     -1764.516          51.000    24285912.125 8  97789327.574 8     -1352.037          51.000
E36  23360934.695 8 122762556.265 8      1064.984          51.000    23360937.484 8  94064827.709 8       815.994          51.000
> 2020 05 10 13 03 30.0000000  0 16        .000000000000
G18  20498262.531 8 107719094.675 8      1082.184          50.000    20498262.281 8  83937037.597 8       843.260          50.000
G21  20747529.250 8 109029069.878 8       695.160          50.000    20747528.578 8  84957701.783 8       541.686          48.000
G25  23607897.445 7 124060336.728 7     -3301.105          43.000    23607899.781 7  96670397.800 7     -2572.290          43.000
G29  21560556.539 4 113301544.872 4     -2164.125          29.000    21560557.078 5  88286880.145 5     -1686.334          30.000
G31  21877910.352 8 114969190.367 8     -2118.875          49.000    21877908.867 8  89586364.809 8     -1651.071          49.000
R09  20163081.773 8 107669746.009 8     -2889.340          49.000    20163083.961 8  83743156.602 8     -2247.264          49.000
R10  19287908.617 8 102815429.696 8       186.633          49.000
R20  19371959.781 6 103590602.756 6       -76.613          36.000    19371963.336 7  80570483.332 7       -59.588          44.000
R21  22181980.023 7 118700276.947 7      3316.473          47.000    22181982.602 6  92322431.023 6      2579.482          40.000
C05  39624122.312 5 206333202.807 5        16.266          35.000    39624123.898 6 159549927.784 6        12.037          37.000
C27  21766659.188 8 113344695.415 8       961.402          51.000
C28  22481357.719 8 117066368.866 8     -1847.762          51.000
C30  25408077.531 7 132306522.949 7      2785.031          43.000
E11  23458419.766 8 123274817.220 8     -1668.035          51.000    23458418.281 8  94457317.654 8     -1278.105          49.000
E25  24296011.492 8 127676386.738 8     -1774.457          51.000    24296013.812 8  97830001.684 8     -1359.700          51.000
E36  23354887.094 8 122730774.293 8      1053.707          51.000    23354889.883 8  94040475.297 8       807.407          51.000
> 2020 05 10 13 04  0.0000000  0 16        .000000000000
G18  20492137.594 8 107686908.037 8      1063.777          49.000    20492137.258 8  83911957.112 8       828.917          49.000
G21  20743607.734 8 109008462.305 8       678.934          50.000    20743606.992 8  84941643.954 8       529.039          49.000
G25  23626758.047 7 124159451.041 7     -3306.457          43.000    23626759.938 7  96747629.690 7     -2576.460          43.000
G29  21572928.406 5 113366501.798 5     -2170.262          33.000    21572928.969 5  88337534.065 5     -1691.110          33.000
G31  21890047.805 8 115032973.181 8     -2133.137          50.000    21890046.289 8  89636065.681 8     -1662.184          50.000
R09  20179367.094 8 107756711.310 8     -2908.176          48.000    20179369.633 8  83810796.275 8     -2261.914          49.000
R10  19286929.508 8 102810209.698 8       161.602          49.000
R20  19372441.719 5 103593179.203 5       -95.203          35.000    19372444.938 7  80572487.242 7       -74.047          43.000
R21  22163417.172 7 118600938.456 7      3306.301          47.000    22163417.148 6  92245167.854 6      2571.570          40.000
C05  39624031.203 6 206332727.612 6        15.641          36.000    39624032.617 6 159549561.040 6        12.698          37.000
C27  21761150.492 8 113316009.148 8       951.113          51.000
C28  22492022.047 8 117121901.907 8     -1854.320          51.000
C30  25392044.625 7 132223028.544 7      2781.410          43.000
E11  23467966.164 8 123324984.160 8     -1676.086          51.000    23467964.992 8  94495757.253 8     -1284.354          49.000
E25  24306169.742 8 127729768.289 8     -1784.035          51.000    24306171.875 8  97870904.433 8     -1367.021          51.000
E36  23348903.234 8 122699328.800 8      1042.832          51.000    23348906.422 8  94016380.710 8       799.002          51.000
> 2020 05 10 13 04 30.0000000  0 16        .000000000000
G18  20486118.883 7 107655282.351 7      1045.238          47.000    20486119.250 7  83887313.704 7       814.471          47.000
G21  20739781.305 8 108988354.510 8       662.352          50.000    20739780.516 8  84925975.584 8       516.118          48.000
G25  23645651.516 7 124258736.594 7     -3312.074          45.000    23645653.055 7  96824995.020 7     -2580.837          44.000
G29  21585338.625 5 113431716.201 5     -2177.480          33.000    21585338.750 5  88388350.524 5     -1696.741          33.000
G31  21902269.578 8 115097198.264 8     -2147.898          51.000    21902267.914 8  89686111.176 8     -1673.687          51.000
R09  20195760.375 7 107844254.590 7     -2927.480          47.000    20195763.516 8  83878885.452 8     -2276.932          48.000
R10  19286093.484 8 102805753.749 8       136.098          48.000
R20  19373031.688 5 103596334.005 5      -114.516          35.000    19373034.945 7  80574940.969 7       -89.068          43.000
R21  22144913.328 7 118501918.997 7      3295.672          45.000    22144913.594 6  92168152.777 6      2563.300          41.000
C05  39623940.070 6 206332253.494 6        16.000          36.000    39623941.500 6 159549194.425 6        12.596          37.000
C27  21755703.273 8 113287642.614 8       940.523          51.000
C28  22502726.461 8 117177643.444 8     -1861.191          51.000
C30  25376035.406 7 132139660.118 7      2777.055          42.000
E11  23477559.883 8 123375399.248 8     -1684.668          51.000    23477558.859 8  94534386.986 8     -1290.826          49.000
E25  24316384.883 8 127783448.920 8     -1794.270          51.000    24316386.492 8  97912036.339 8     -1374.845          50.000
E36  23342983.227 8 122668220.832 8      1031.465          51.000    23342987.008 8  93992544.752 8       790.241          51.000
> 2020 05 10 13 05  0.0000000  0 16        .000000000000
G18  20480208.672 7 107624227.203 7      1025.559          47.000    20480209.938 7  83863114.885 7       799.137          47.000
G21  20736051.727 8 108968755.114 8       644.895          51.000    20736050.797 8  84910703.353 8       502.515          48.000
G25  23664579.250 7 124358201.293 7     -3318.727          45.000    23664581.125 7  96902499.907 7     -2586.021          45.000
G29  21597788.836 6 113497141.626 6     -2184.285          36.000    21597789.562 5  88439331.377 5     -1702.043          35.000
G31  21914576.586 8 115161872.185 8     -2163.215          51.000    21914575.094 8  89736506.422 8     -1685.622          51.000
R09  20212263.367 8 107932382.138 8     -2947.203          48.000    20212266.609 7  83947429.098 7     -2292.269          47.000
R10  19285402.633 7 102802072.139 7       109.762          47.000
R20  19373731.562 5 103600074.546 5      -133.949          35.000    19373734.195 7  80577850.258 7      -104.183          42.000
R21  22126468.891 7 118403229.509 7      3284.094          43.000    22126472.227 6  92091394.232 6      2554.292          41.000
C05  39623850.820 6 206331788.537 6        15.402          36.000    39623852.195 6 159548834.922 6        12.028          37.000
C27  21750318.867 8 113259604.529 8       929.062          51.000
C28  22513472.500 8 117233601.144 8     -1868.934          51.000
C30  25360050.812 6 132056427.072 6      2772.344          40.000
E11  23487202.250 8 123426069.989 8     -1693.109          51.000    23487200.945 8  94573212.609 8     -1297.345          49.000
E25  24326658.523 8 127837437.202 8     -1804.641          51.000    24326659.352 8  97953403.966 8     -1382.750          50.000
E36  23337129.312 8 122637459.387 8      1019.680          51.000    23337133.320 8  93968974.294 8       781.298          51.000
> 2020 05 10 13 05 30.0000000  0 16        .000000000000
G18  20474406.695 8 107593737.441 8      1006.848          49.000    20474408.055 8  83839356.619 8       784.560          49.000
G21  20732417.844 8 108949658.246 8       628.199          51.000    20732416.758 8  84895822.714 8       489.506          49.000
G25  23683539.922 7 124457838.069 7     -3323.777          46.000    23683541.953 7  96980138.899 7     -2589.956          46.000
G29  21610277.773 6 113562771.397 6     -2191.148          37.000    21610278.852 6  88490471.440 6     -1707.394          37.000
G31  21926967.352 8 115226987.114 8     -2177.824          51.000    21926966.250 8  89787245.316 8     -1697.006          51.000
R09  20228875.156 8 108021085.938 8     -2966.398          50.000    20228877.961 8  84016420.945 8     -2307.199          48.000
R10  19284856.234 8 102799159.996 8        84.234          48.000
R20  19374539.031 5 103604393.201 5      -153.359          35.000    19374541.781 6  80581209.222 6      -119.280          41.000
R21  22108088.695 7 118304865.174 7      3273.395          45.000    22108091.773 7  92014888.620 7      2545.974          43.000
C05  39623761.992 5 206331326.067 5        15.172          35.000    39623763.688 6 159548478.097 6        11.717          37.000
C27  21744996.328 8 113231888.936 8       918.516          51.000
C28  22524258.750 8 117289767.943 8     -1875.652          51.000
C30  25344091.250 6 131973324.232 6      2767.895          40.000
E11  23496891.867 8 123476989.281 8     -1701.359          51.000    23496890.227 8  94612228.678 8     -1303.567          49.000
E25  24336989.539 8 127891727.009 8     -1814.789          51.000    24336989.414 8  97995002.606 8     -1390.448          49.000
E36  23331340.422 8 122607038.633 8      1008.398          51.000    23331344.219 8  93945664.891 8       772.684          51.000
> 2020 05 10 13 06  0.0000000  0 16        .000000000000
G18  20468711.281 8 107563806.702 8       988.395          50.000    20468712.336 8  83816033.963 8       770.181          50.000
G21  20728878.297 8 108931057.114 8       611.793          51.000    20728876.922 8  84881328.354 8       476.725          49.000
G25  23702531.664 7 124557638.888 7     -3329.531          45.000    23702533.977 7  97057905.711 7     -2594.440          45.000
G29  21622804.227 6 113628597.318 6     -2197.465          39.000    21622804.266 6  88541764.374 6     -1712.307          38.000
G31  21939440.312 8 115292533.724 8     -2192.090          51.000    21939439.648 8  89838320.577 8     -1708.122          51.000
R09  20245593.461 8 108110356.192 8     -2985.016          51.000    20245595.586 8  84085853.330 8     -2321.679          48.000
R10  19284453.234 8 102797011.626 8        58.895          48.000
R20  19375452.992 5 103609281.689 5      -172.387          35.000    19375455.594 6  80585011.377 6      -134.079          41.000
R21  22089769.125 7 118206820.357 7      3262.785          47.000    22089770.719 7  91938631.609 7      2537.725          43.000
C05  39623672.773 5 206330861.256 5        15.711          35.000    39623674.484 6 159548118.689 6        11.844          37.000
C27  21739734.234 8 113204488.819 8       908.137          51.000
C28  22535083.680 8 117346135.750 8     -1882.289          51.000
C30  25328156.531 6 131890345.363 6      2763.895          40.000
E11  23506627.219 8 123528148.819 8     -1709.516          51.000    23506625.578 8  94651428.848 8     -1309.928          49.000
E25  24347376.750 8 127946310.914 8     -1824.297          51.000    24347375.742 8  98036826.609 8     -1397.910          49.000
E36  23325614.898 8 122576951.592 8       997.273          51.000    23325618.422 8  93922611.210 8       764.106          51.000
> 2020 05 10 13 06 30.0000000  0 16        .000000000000
G18  20463123.781 8 107534442.577 8       969.215          51.000    20463124.695 8  83793152.837 8       755.232          51.000
G21  20725434.406 8 108912958.484 8       594.820          51.000    20725432.789 8  84867225.539 8       463.496          49.000
G25  23721555.211 7 124657609.443 7     -3335.324          43.000    23721558.141 7  97135804.805 7     -2598.957          43.000
G29  21635369.281 6 113694625.382 6     -2204.562          38.000    21635369.055 6  88593214.781 6     -1717.835          38.000
G31  21951996.508 8 115358517.080 8     -2206.773          51.000    21951996.328 8  89889736.170 8     -1719.564          51.000
R09  20262418.344 8 108200197.155 8     -3004.320          51.000    20262420.172 8  84155729.598 8     -2336.697          48.000
R10  19284195.172 8 102795634.935 8        32.898          49.000
R20  19376474.938 5 103614745.286 5      -191.793          35.000    19376477.516 6  80589260.864 6      -149.172          41.000
R21  22071509.273 7 118109103.502 7      3251.586          47.000    22071509.867 7  91862629.662 7      2529.011          43.000
C05  39623584.211 6 206330401.066 6        15.473          36.000    39623585.836 6 159547762.061 6        11.702          37.000
C27  21734533.945 8 113177410.836 8       897.098          51.000
C28  22545948.336 8 117402710.233 8     -1889.316          51.000
C30  25312246.516 6 131807497.912 6      2759.133          39.000
E11  23516409.312 8 123579554.092 8     -1717.637          51.000    23516407.969 8  94690817.301 8     -1316.129          49.000
E25  24357821.328 8 128001195.538 8     -1834.652          51.000    24357819.906 8  98078881.030 8     -1405.767          50.000
E36  23319954.523 8 122547205.197 8       985.805          51.000    23319957.789 8  93899818.531 8       755.336          51.000
> 2020 05 10 13 07  0.0000000  0 16        .000000000000
G18  20457646.438 8 107505656.973 8       949.988          51.000    20457647.250 8  83770722.524 8       740.254          51.000
G21  20722088.109 8 108895373.208 8       577.773          50.000    20722086.156 8  84853522.717 8       450.213          49.000
G25  23740612.695 7 124757760.040 7     -3341.164          43.000    23740615.945 7  97213844.161 7     -2603.508          43.000
G29  21647974.305 6 113760865.584 6     -2211.066          38.000    21647974.188 6  88644830.521 6     -1722.906          37.000
G31  21964637.367 8 115424945.773 8     -2221.625          50.000    21964637.383 8  89941498.800 8     -1731.136          49.000
R09  20279351.648 8 108290618.206 8     -3023.582          51.000    20279353.445 8  84226057.062 8     -2351.675          48.000
R10  19284084.570 8 102795042.532 8         6.773          49.000
R20  19377605.836 5 103620793.834 5      -211.035          35.000    19377608.664 6  80593965.316 6      -164.138          40.000
R21  22053311.273 7 118011727.546 7      3240.273          45.000    22053311.469 7  91786892.860 7      2520.213          42.000
C05  39623498.469 5 206329953.806 5        14.730          35.000    39623500.016 6 159547416.994 6        11.342          37.000
C27  21729397.906 8 113150666.062 8       886.055          51.000
C28  22556854.625 8 117459501.422 8     -1896.570          51.000
C30  25296362.492 6 131724793.714 6      2754.406          38.000
E11  23526240.062 8 123631215.165 8     -1726.102          51.000    23526238.914 8  94730401.756 8     -1322.627          49.000
E25  24368325.039 8 128056391.801 8     -1844.922          51.000    24368323.656 8  98121174.239 8     -1413.680          50.000
E36  23314361.305 8 122517810.781 8       973.996          51.000    23314364.539 8  93877295.543 8       746.267          51.000
> 2020 05 10 13 07 30.0000000  0 16        .000000000000
G18  20452275.992 8 107477434.061 8       931.375          51.000    20452276.492 8  83748730.669 8       725.750          50.000
G21  20718836.266 8 108878285.085 8       561.199          50.000    20718834.125 8  84840207.288 8       437.298          49.000
G25  23759701.469 7 124858073.094 7     -3346.320          44.000    23759704.359 7  97292010.107 7     -2607.525          44.000
G29  21660616.227 5 113827301.107 5     -2217.539          35.000    21660617.625 5  88696598.465 5     -1727.956          35.000
G31  21977359.219 7 115491801.358 7     -2235.656          47.000    21977359.656 7  89993594.037 7     -1742.070          47.000
R09  20296390.133 8 108381600.014 8     -3042.047          51.000    20296391.703 8  84296820.678 8     -2366.036          48.000
R10  19284117.945 8 102795218.641 8       -18.648          49.000
R20  19378842.352 5 103627409.386 5      -229.961          34.000    19378845.930 6  80599110.722 6      -178.859          41.000
R21  22035173.125 7 117914677.251 7      3229.648          45.000    22035173.609 7  91711409.313 7      2511.949          42.000
C05  39623412.430 5 206329506.368 5        15.188          35.000    39623414.023 6 159547068.012 6        11.572          37.000
C27  21724322.227 8 113124238.122 8       875.621          51.000
C28  22567799.180 8 117516491.864 8     -1903.059          51.000
C30  25280503.352 6 131642217.110 6      2750.328          41.000
E11  23536116.156 8 123683114.296 8     -1734.086          51.000    23536114.852 8  94770168.601 8     -1328.661          49.000
E25  24378884.750 8 128111882.941 8     -1854.707          51.000    24378883.867 8  98163693.391 8     -1421.121          51.000
E36  23308831.773 8 122488751.911 8       963.047          51.000    23308835.047 8  93855029.665 8       737.898          51.000
> 2020 05 10 13 08  0.0000000  0 16        .000000000000
G18  20447012.719 8 107449774.990 8       912.410          51.000    20447012.766 8  83727178.176 8       710.969          49.000
G21  20715679.117 8 108861694.610 8       544.590          50.000    20715676.797 8  84827279.661 8       424.356          49.000
G25  23778821.375 7 124958548.082 7     -3351.992          44.000    23778823.656 7  97370302.233 7     -2611.942          44.000
G29  21673295.047 6 113893931.128 6     -2224.109          36.000    21673297.008 5  88748517.914 5     -1733.072          34.000
G31  21990162.008 7 115559082.240 7     -2249.812          47.000    21990162.445 7  90046020.668 7     -1753.104          47.000
R09  20313533.609 8 108473140.203 8     -3060.859          51.000    20313534.719 8  84368018.564 8     -2380.671          48.000
R10  19284295.836 8 102796164.834 8       -44.566          49.000
R20  19380185.516 5 103634590.697 5      -248.535          34.000    19380189.047 6  80604696.200 6      -193.305          41.000
R21  22017098.039 8 117817954.518 8      3218.559          48.000    22017098.500 7  91636180.553 7      2503.326          44.000
C05  39623326.406 6 206329058.378 6        14.617          36.000    39623328.195 6 159546721.574 6        11.587          38.000
C27  21719307.344 8 113098127.342 8       864.996          51.000
C28  22578781.922 8 117573680.910 8     -1909.734          51.000
C30  25264669.703 7 131559769.268 7      2745.855          43.000
E11  23546037.414 8 123735250.675 8     -1742.020          51.000    23546035.977 8  94810117.253 8     -1334.716          50.000
E25  24389500.547 8 128167669.109 8     -1864.562          51.000    24389500.633 8  98206438.633 8     -1428.670          51.000
E36  23303366.188 8 122460029.154 8       951.762          51.000    23303369.219 8  93833021.316 8       729.251          51.000
> 2020 05 10 13 08 30.0000000  0 17        .000000000000
G18  20441856.547 8 107422678.542 8       893.848          51.000    20441856.547 8  83706064.092 8       696.505          50.000
G20  24507085.320 6 128785631.959 6      3333.059          36.000
G21  20712616.453 8 108845599.606 8       528.223          50.000    20712613.766 8  84814738.080 8       411.602          49.000
G25  23797971.609 7 125059182.019 7     -3357.105          45.000    23797974.164 7  97448718.208 7     -2615.929          45.000
G29  21686010.477 5 113960752.610 5     -2230.367          33.000    21686012.672 5  88800586.563 5     -1737.955          34.000
G31  22003045.320 8 115626784.565 8     -2263.730          50.000    22003045.617 8  90098775.691 8     -1763.949          50.000
R09  20330780.625 8 108565234.884 8     -3079.039          51.000    20330781.266 8  84439647.726 8     -2394.808          48.000
R10  19284617.484 8 102797880.359 8       -70.059          48.000
R20  19381633.844 5 103642334.749 5      -267.684          34.000    19381637.008 7  80610719.345 7      -208.198          42.000
R21  21999084.797 7 117721558.979 7      3207.762          47.000    21999085.922 7  91561206.306 7      2494.929          45.000
C05  39623239.875 5 206328607.134 5        14.340          35.000    39623241.922 6 159546373.428 6        11.357          38.000
C27  21714353.664 8 113072331.787 8       854.516          51.000
C28  22589802.109 8 117631065.629 8     -1916.148          51.000
C30  25248861.156 7 131477449.024 7      2741.879          45.000
E11  23556003.195 8 123787621.130 8     -1749.469          51.000    23556001.891 8  94850245.276 8     -1340.502          50.000
E25  24400171.922 8 128223748.135 8     -1874.273          51.000    24400172.781 8  98249408.274 8     -1436.114          51.000
E36  23297964.203 8 122431640.721 8       940.586          51.000    23297967.008 8  93811269.142 8       720.733          51.000
> 2020 05 10 13 09  0.0000000  0 17        .000000000000
G18  20436806.062 8 107396138.111 8       875.586          51.000    20436806.016 8  83685383.275 8       682.278          50.000
G20  24488052.594 5 128685626.022 5      3334.426          35.000
G21  20709646.508 8 108829993.013 8       512.223          50.000    20709643.789 8  84802577.112 8       399.135          48.000
G25  23817150.273 7 125159966.681 7     -3361.848          44.000    23817153.523 7  97527251.647 7     -2619.622          44.000
G29  21698761.086 5 114027757.781 5     -2236.605          34.000    21698763.734 5  88852798.419 5     -1742.812          32.000
G31  22016007.344 8 115694898.739 8     -2277.191          51.000    22016007.141 8  90151851.636 8     -1774.435          50.000
R09  20348128.500 8 108657873.865 8     -3096.938          51.000    20348129.656 7  84511700.231 7     -2408.729          47.000
R10  19285082.125 8 102800358.634 8       -95.191          48.000
R20  19383185.211 5 103650632.565 5      -285.293          34.000    19383189.086 6  80617173.184 6      -221.898          41.000
R21  21981129.953 7 117625484.749 7      3197.328          45.000    21981132.938 7  91486481.930 7      2486.811          45.000
C05  39623151.727 5 206328148.679 5        15.742          35.000    39623153.758 6 159546018.174 6        12.200          37.000
C27  21709459.445 8 113046844.297 8       844.531          51.000
C28  22600858.148 8 117688637.821 8     -1921.938          51.000
C30  25233075.945 7 131395250.050 7      2738.059          45.000
E11  23566011.945 8 123840217.399 8     -1756.832          51.000    23566010.859 8  94890546.313 8     -1346.246          49.000
E25  24410897.578 8 128280112.581 8     -1883.402          51.000    24410898.859 8  98292596.608 8     -1443.183          51.000
E36  23292624.297 8 122403579.479 8       930.035          51.000    23292627.055 8  93789767.690 8       712.591          51.000
> 2020 05 10 13 09 30.0000000  0 18        .000000000000
G18  20431866.266 8 107370179.839 8       856.074          51.000    20431866.078 8  83665156.066 8       667.074          50.000
G20  24469019.336 5 128585572.564 5      3333.820          33.000
G21  20706774.453 8 108814900.223 8       495.020          51.000    20706771.742 8  84790816.509 8       385.730          49.000
G25  23836362.188 7 125260926.589 7     -3367.910          44.000    23836366.188 7  97605921.671 7     -2624.346          44.000
G29  21711551.867 5 114094971.229 5     -2243.883          33.000    21711553.531 5  88905172.450 5     -1748.483          33.000
G31  22029052.305 8 115763448.100 8     -2291.699          51.000    22029051.586 8  90205266.703 8     -1785.740          51.000
R09  20365582.523 8 108751080.727 8     -3115.844          51.000    20365584.461 8  84584194.418 8     -2423.437          48.000
R10  19285695.227 8 102803626.550 8      -121.582          49.000
R20  19384844.766 5 103659508.592 5      -304.953          33.000    19384849.055 6  80624076.765 6      -237.186          41.000
R21  21963239.578 7 117529759.415 7      3185.633          45.000    21963244.484 7  91412028.859 7      2477.714          45.000
C05  39623066.695 5 206327705.634 5        15.383          35.000    39623068.688 6 159545675.619 6        11.445          37.000
C27  21704628.898 8 113021690.056 8       833.367          51.000
C28  22611954.789 8 117746421.676 8     -1929.312          51.000
C30  25217318.648 7 131313198.265 7      2733.066          45.000
E02  23542564.820 7 123717012.041 7       837.125          42.000
E11  23576068.328 8 123893063.640 8     -1765.391          51.000    23576067.188 8  94931038.881 8     -1352.654          49.000
E25  24421682.359 8 128336787.595 8     -1893.867          51.000    24421683.898 8  98336022.899 8     -1451.139          51.000
E36  23287351.438 8 122375871.001 8       918.168          51.000    23287353.898 8  93768536.528 8       703.546          51.000
> 2020 05 10 13 10  0.0000000  0 17        .000000000000
G18  20427035.172 8 107344792.965 8       836.738          50.000    20427035.023 8  83645374.075 8       652.004          50.000
G21  20703998.039 8 108800309.632 8       478.109          51.000    20703995.461 8  84779447.243 8       372.553          49.000
G25  23855605.297 7 125362049.347 7     -3373.434          46.000    23855609.688 7  97684718.572 7     -2628.653          45.000
G29  21724380.141 5 114162385.493 5     -2249.742          31.000    21724382.047 5  88957699.125 5     -1753.052          31.000
G31  22042177.375 8 115832419.238 8     -2305.945          51.000    22042176.672 8  90259010.432 8     -1796.841          50.000
R09  20383140.977 8 108844841.123 8     -3134.434          51.000    20383142.859 7  84657119.138 7     -2437.893          46.000
R10  19286454.656 8 102807673.600 8      -147.809          48.000
R20  19386610.523 5 103668949.775 5      -323.410          32.000    19386614.531 6  80631419.872 6      -251.541          41.000
R21  21945414.352 8 117434372.804 8      3173.977          48.000    21945418.727 7  91337839.316 7      2468.648          44.000
C05  39622982.789 5 206327268.893 5        15.070          35.000    39622984.625 6 159545337.117 6        11.285          37.000
C27  21699859.977 8 112996857.743 8       822.410          51.000
C28  22623089.727 8 117804404.889 8     -1936.078          50.000
C30  25201587.742 7 131231283.110 7      2728.273          46.000
E02  23537818.594 7 123692071.868 7       825.609          42.000    23537814.633 6  94777026.034 6       632.777          38.000
E11  23586169.836 8 123946147.268 8     -1773.266          51.000    23586168.453 8  94971713.349 8     -1358.754          49.000
E25  24432524.133 8 128393761.537 8     -1904.191          51.000    24432526.180 8  98379678.232 8     -1459.071          51.000
E36  23282143.477 8 122348503.992 8       906.590          51.000    23282145.594 8  93747567.010 8       694.630          51.000
> 2020 05 10 13 10 30.0000000  0 17        .000000000000
G18  20422309.852 8 107319962.415 8       818.531          50.000    20422309.961 8  83626025.588 8       637.817          50.000
G21  20701314.000 8 108786205.635 8       462.098          51.000    20701311.977 8  84768457.138 8       360.076          50.000
G25  23874876.648 8 125463318.266 8     -3377.984          48.000    23874880.969 8  97763629.353 8     -2632.196          48.000
G29  21737242.445 5 114229974.576 5     -2255.676          31.000    21737244.695 5  89010365.887 5     -1757.672          31.000
G31  22055379.156 8 115901794.163 8     -2319.160          51.000    22055378.445 8  90313068.788 8     -1807.138          51.000
R09  20400799.414 8 108939136.825 8     -3152.105          51.000    20400801.117 7  84730460.179 7     -2451.641          46.000
R10  19287357.383 8 102812484.927 8      -173.105          49.000
R20  19388478.133 5 103678938.575 5      -342.109          34.000    19388482.422 6  80639188.964 6      -266.085          41.000
R21  21927650.320 8 117339310.355 8      3163.402          50.000    21927653.344 7  91263901.904 7      2460.424          45.000
C05  39622896.812 5 206326821.272 5        14.926          35.000    39622898.711 6 159544990.964 6        11.714          37.000
C27  21695150.398 8 112972331.771 8       812.539          51.000
C28  22634259.797 8 117862570.920 8     -1941.816          50.000
C30  25185880.766 8 131149489.827 8      2724.414          48.000
E02  23533131.453 6 123667450.513 6       815.379          40.000    23533129.750 6  94758160.328 6       624.810          38.000
E11  23596313.266 8 123999451.515 8     -1780.391          51.000    23596311.805 8  95012556.854 8     -1364.204          49.000
E25  24443419.656 8 128451018.435 8     -1913.129          51.000    24443421.984 8  98423550.375 8     -1465.910          51.000
E36  23276997.461 8 122321462.865 8       895.992          51.000    23276999.609 8  93726847.195 8       686.557          51.000
> 2020 05 10 13 11  0.0000000  0 17        .000000000000
G18  20417692.211 8 107295697.178 8       799.285          50.000    20417692.289 8  83607117.599 8       622.817          50.000
G21  20698724.125 8 108772596.412 8       445.309          50.000    20698722.492 8  84757852.568 8       346.994          50.000
G25  23894177.234 8 125564740.769 8     -3383.367          48.000    23894181.266 8  97842659.807 8     -2636.393          48.000
G29  21750140.508 5 114297750.495 5     -2262.535          35.000    21750142.000 5  89063178.243 5     -1763.017          35.000
G31  22068658.891 8 115971579.307 8     -2332.988          49.000    22068657.930 8  90367446.820 8     -1817.916          49.000
R09  20418558.688 8 109033973.614 8     -3170.227          51.000    20418560.352 7  84804222.101 7     -2465.732          46.000
R10  19288405.258 8 102818070.011 8      -199.117          49.000
R20  19390450.234 5 103689482.051 5      -360.664          34.000    19390453.789 6  80647389.414 6      -280.516          41.000
R21  21909948.320 8 117244581.987 8      3151.938          49.000    21909950.820 7  91190224.313 7      2451.507          45.000
C05  39622810.633 6 206326372.183 6        14.848          36.000    39622812.492 6 159544643.697 6        11.759          37.000
C27  21690501.328 8 112948120.449 8       801.793          51.000
C28  22645466.594 8 117920927.068 8     -1948.418          51.000
C30  25170199.141 8 131067827.440 8      2719.875          49.000
E02  23528506.195 6 123643157.747 6       804.293          38.000    23528508.352 6  94739546.356 6       616.282          39.000
E11  23606499.977 8 124052983.568 8     -1788.398          51.000    23606498.719 8  95053574.912 8     -1370.289          48.000
E25  24454370.375 8 128508566.467 8     -1923.207          51.000    24454373.094 8  98467645.595 8     -1473.599          51.000
E36  23271915.211 8 122294756.141 8       884.652          51.000    23271917.758 8  93706383.629 8       677.824          51.000
> 2020 05 10 13 11 30.0000000  0 18        .000000000000
G18  20413184.070 8 107272006.650 8       780.977          51.000    20413183.852 8  83588657.447 8       608.553          50.000
G20  24392884.430 5 128185465.723 5      3335.746          30.000
G21  20696230.055 8 108759490.669 8       429.469          50.000    20696228.586 8  84747640.307 8       334.651          50.000
G25  23913508.266 7 125666324.694 7     -3387.863          47.000    23913512.016 7  97921816.051 7     -2639.893          47.000
G29  21763075.297 6 114365721.557 6     -2268.402          37.000    21763075.125 6  89116142.701 6     -1767.586          37.000
G31  22082017.672 8 116041781.519 8     -2346.211          48.000    22082016.969 8  90422149.840 8     -1828.216          48.000
R09  20436421.086 8 109129357.830 8     -3187.625          51.000    20436422.266 7  84878409.835 7     -2479.264          47.000
R10  19289599.539 7 102824438.719 7      -224.480          47.000
R20  19392527.625 5 103700587.904 5      -378.891          35.000    19392531.117 6  80656027.317 6      -294.693          41.000
R21  21892310.672 8 117150198.552 8      3141.250          49.000    21892313.305 7  91116814.981 7      2443.194          47.000
C05  39622725.875 5 206325930.807 5        15.391          35.000    39622727.641 6 159544302.414 6        12.046          37.000
C27  21685913.859 8 112924232.501 8       791.801          51.000
C28  22656711.562 8 117979481.167 8     -1954.133          50.000
C30  25154544.352 8 130986305.540 8      2715.965          48.000
E02  23523946.375 6 123619203.848 6       793.426          39.000    23523951.195 6  94721191.999 6       608.279          39.000
E11  23616731.531 8 124106751.084 8     -1795.098          51.000    23616730.406 8  95094773.391 8     -1375.497          48.000
E25  24465377.781 8 128566414.175 8     -1932.234          50.000    24465381.406 8  98511970.452 8     -1480.537          51.000
E36  23266898.234 8 122268392.788 8       873.992          51.000    23266901.188 8  93686183.151 8       669.703          51.000
> 2020 05 10 13 12  0.0000000  0 18        .000000000000
G18  20408782.398 8 107248875.733 8       761.215          51.000    20408782.109 8  83570633.368 8       593.154          51.000
G20  24373841.648 5 128085412.406 5      3334.609          33.000
G21  20693828.852 8 108746872.942 8       411.988          50.000    20693827.680 8  84737808.318 8       321.033          50.000
G25  23932866.562 7 125768053.349 7     -3393.957          45.000    23932870.164 7  98001085.086 7     -2644.642          45.000
G29  21776043.602 5 114433871.392 5     -2275.027          34.000    21776043.641 5  89169246.468 5     -1772.755          34.000
G31  22095452.625 8 116112382.989 8     -2360.613          49.000    22095452.188 8  90477163.989 8     -1839.439          49.000
R09  20454382.812 8 109225271.298 8     -3206.453          51.000    20454384.000 8  84953009.165 8     -2493.911          48.000
R10  19290938.211 8 102831575.770 8      -251.133          48.000
R20  19394706.688 5 103712238.652 5      -398.148          33.000    19394710.234 6  80665089.015 6      -309.671          41.000
R21  21874735.359 8 117056145.364 8      3129.012          50.000    21874737.406 7  91043662.548 7      2433.679          46.000
C05  39622639.508 5 206325481.805 5        14.934          35.000    39622641.242 6 159543955.231 6        11.276          37.000
C27  21681385.070 8 112900652.334 8       780.297          51.000
C28  22667991.359 8 118038216.606 8     -1961.363          50.000
C30  25138913.547 8 130904909.283 8      2710.566          49.000
E02  23519449.352 6 123595574.381 6       781.383          40.000    23519454.398 6  94703086.300 6       598.964          40.000
E11  23627004.781 8 124160737.208 8     -1803.574          51.000    23627003.500 7  95136139.372 7     -1381.989          47.000
E25  24476439.086 8 128624545.631 8     -1943.094          49.000    24476443.469 8  98556512.729 8     -1488.837          51.000
E36  23261943.406 8 122242357.156 8       861.902          51.000    23261946.602 8  93666233.781 8       660.332          51.000
> 2020 05 10 13 12 30.0000000  0 17        .000000000000
G18  20404493.773 8 107226338.277 8       741.855          51.000    20404493.492 8  83553071.712 8       578.069          51.000
G20  24354807.914 5 127985387.286 5      3334.238          30.000
G21  20691526.758 8 108734775.940 8       395.066          50.000    20691525.734 8  84728382.094 8       307.847          50.000
G25  23952258.227 7 125869959.051 7     -3399.461          44.000    23952262.070 7  98080492.069 7     -2648.931          44.000
G31  22108969.867 8 116183414.531 8     -2374.324          50.000    22108969.031 8  90532513.235 8     -1850.126          51.000
R09  20472449.367 8 109321745.171 8     -3224.594          51.000    20472450.953 8  85028044.358 8     -2508.020          48.000
R10  19292427.625 7 102839515.594 7      -277.453          47.000
R20  19396993.383 5 103724466.389 5      -416.520          34.000    19396996.672 6  80674599.473 6      -323.960          41.000
R21  21857227.805 8 116962457.820 8      3117.340          50.000    21857228.852 7  90970794.491 7      2424.598          45.000
C05                                                                  39622559.797 6 159543628.889 6        10.823          37.000
C27  21676922.219 8 112877412.861 8       769.418          51.000
C28  22679311.969 8 118097165.397 8     -1967.969          49.000
C30  25123313.227 8 130823672.424 8      2705.684          49.000
E02  23515021.570 6 123572303.998 6       770.094          41.000    23515025.492 6  94685255.777 6       590.236          40.000
E11  23637325.805 8 124214974.121 8     -1811.652          50.000    23637324.258 7  95177697.511 7     -1388.134          47.000
E25  24487561.047 8 128682993.801 8     -1952.965          50.000    24487565.984 8  98601297.686 8     -1496.383          51.000
E36  23257057.531 8 122216682.633 8       850.340          51.000    23257060.875 8  93646561.099 8       651.586          51.000
> 2020 05 10 13 13  0.0000000  0 18        .000000000000
G18  20400312.148 8 107204363.394 8       723.555          51.000    20400311.852 8  83535948.443 8       563.812          50.000
G20  24335773.750 5 127885350.978 5      3333.520          31.000
G21  20689318.094 8 108723168.367 8       379.145          51.000    20689316.531 8  84719337.209 8       295.437          50.000
G25  23971677.047 7 125972009.443 7     -3404.008          42.000    23971681.867 7  98160011.799 7     -2652.474          42.000
G29  21802095.094 4 114570782.666 4     -2285.734          29.000
G31  22122562.656 8 116254842.790 8     -2387.141          51.000    22122561.094 8  90588171.580 8     -1860.113          51.000
R09  20490614.141 8 109418744.882 8     -3241.660          50.000    20490616.062 8  85103488.539 8     -2521.291          48.000
R10  19294061.797 8 102848227.423 8      -302.902          48.000
R20  19399381.375 5 103737237.853 5      -434.152          34.000    19399385.289 7  80684532.875 7      -337.674          42.000
R21  21839781.773 8 116869105.393 8      3106.547          49.000    21839782.727 7  90898187.066 7      2416.203          43.000
C05  39622475.609 5 206324627.974 5        14.863          35.000    39622477.375 6 159543297.561 6        11.472          37.000
C27  21672519.062 8 112854482.971 8       759.566          51.000
C28  22690666.922 7 118156295.499 7     -1973.566          47.000
C30  25107737.578 8 130742564.621 8      2701.844          48.000
E02  23510656.969 7 123549362.836 7       759.672          42.000    23510659.695 6  94667677.485 6       582.086          40.000
E11  23647688.398 8 124269429.252 8     -1818.441          51.000    23647686.703 7  95219422.863 7     -1393.279          47.000
E25  24498737.719 8 128741727.046 8     -1962.121          51.000    24498742.750 8  98646301.096 8     -1503.479          51.000
E36  23252234.719 8 122191337.977 8       839.723          51.000    23252238.453 8  93627141.159 8       643.460          51.000
> 2020 05 10 13 13 30.0000000  0 16        .000000000000
G18  20396242.797 8 107182979.087 8       704.090          51.000    20396242.516 8  83519285.362 8       548.641          49.000
G21  20687207.758 8 108712077.409 8       362.176          51.000    20687205.961 8  84710694.900 8       282.215          50.000
G25  23991128.516 6 126074230.983 6     -3409.301          41.000    23991134.133 6  98239664.909 6     -2656.598          41.000
G31  22136235.609 8 116326692.889 8     -2400.828          51.000    22136233.047 8  90644158.618 8     -1870.775          51.000
R09  20508881.656 8 109516295.739 8     -3259.711          49.000    20508884.008 7  85179361.406 7     -2535.331          47.000
R10  19295846.594 8 102857739.877 8      -329.125          50.000
R20  19401876.836 5 103750579.279 5      -453.031          34.000    19401879.984 7  80694909.515 7      -352.358          42.000
R21  21822404.867 8 116776117.522 8      3094.695          51.000    21822404.812 7  90825863.154 7      2406.985          43.000
C05  39622397.578 5 206324221.815 5        14.523          35.000    39622399.469 6 159542983.503 6        10.892          37.000
C27  21668180.195 8 112831889.872 8       748.598          51.000
C28  22702061.523 7 118215633.152 7     -1980.062          46.000
C30  25092191.961 8 130661613.867 8      2696.855          48.000
E02  23506360.516 7 123526779.703 7       747.781          42.000    23506362.016 6  94650373.517 6       573.128          41.000
E11  23658097.492 8 124324128.895 8     -1826.031          51.000    23658095.828 7  95261335.571 7     -1399.203          46.000
E25  24509973.953 8 128800772.599 8     -1972.266          51.000    24509978.734 8  98691543.772 8     -1511.214          51.000
E36  23247479.914 8 122166350.679 8       828.059          51.000    23247483.852 8  93607995.053 8       634.489          51.000
> 2020 05 10 13 14  0.0000000  0 18        .000000000000
G18  20392272.836 8 107162116.642 8       685.500          51.000    20392272.547 8  83503028.918 8       534.159          49.000
G20  24297703.773 5 127685294.803 5      3333.715          31.000
G21  20685182.500 8 108701433.705 8       346.098          51.000    20685180.664 8  84702401.116 8       269.686          50.000
G25  24010599.625 6 126176553.467 6     -3413.492          41.000    24010605.539 6  98319396.677 6     -2659.864          40.000
G29  21828282.820 5 114708393.457 5     -2299.922          32.000    21828281.438 5  89383154.955 5     -1792.147          32.000
G31  22149975.086 8 116398893.645 8     -2413.715          51.000    22149971.844 8  90700418.916 8     -1880.817          51.000
R09  20527238.930 8 109614324.750 8     -3276.812          49.000    20527241.219 7  85255606.170 7     -2548.632          47.000
R10  19297768.320 8 102867982.866 8      -354.855          48.000
R20  19404464.664 5 103764418.640 5      -470.508          34.000    19404468.305 7  80705673.497 7      -365.951          43.000
R21  21805083.727 8 116683425.229 8      3083.590          50.000    21805083.617 7  90753769.208 7      2398.351          44.000
C05  39622310.719 5 206323768.768 5        14.363          35.000    39622312.727 6 159542633.957 6        10.959          37.000
C27  21663892.859 8 112809564.934 8       738.418          51.000
C28  22713482.977 7 118275108.828 7     -1985.977          45.000
C30  25076662.930 8 130580752.359 8      2692.496          48.000
E02  23502118.594 7 123504486.708 7       737.012          42.000    23502119.805 7  94633291.893 7       564.672          42.000
E11  23668539.648 8 124379002.789 8     -1833.289          50.000    23668538.227 7  95303381.787 7     -1404.740          46.000
E25  24521256.508 8 128860060.866 8     -1981.574          51.000    24521260.742 8  98736972.435 8     -1518.328          51.000
E36  23242780.078 8 122141651.596 8       817.238          51.000    23242783.516 8  93589069.775 8       626.187          51.000
> 2020 05 10 13 14 30.0000000  0 18        .000000000000
G18  20388416.852 8 107141853.939 8       666.508          50.000    20388416.891 8  83487239.826 8       519.357          50.000
G20  24278675.898 5 127585300.190 5      3333.809          33.000
G21  20683257.164 8 108691314.608 8       329.664          51.000    20683254.594 8  84694516.107 8       256.881          48.000
G25  24030104.891 7 126279053.373 7     -3418.512          42.000    24030110.203 7  98399266.675 7     -2663.778          42.000
G29  21841429.719 5 114777494.192 5     -2305.285          35.000    21841434.609 5  89437022.245 5     -1796.329          32.000
G31  22163795.227 8 116471520.240 8     -2426.848          51.000    22163792.359 8  90757011.041 8     -1891.050          51.000
R09  20545700.539 8 109712908.125 8     -3294.219          50.000    20545702.281 7  85332282.104 7     -2562.173          46.000
R10  19299841.477 8 102879036.282 8      -380.852          48.000
R20  19407160.617 5 103778833.340 5      -488.703          34.000    19407164.164 7  80716884.912 7      -380.102          42.000
R21  21787832.242 8 116591108.783 8      3072.062          50.000    21787832.617 7  90681967.569 7      2389.382          44.000
