     3.04           OBSERVATION DATA    M (MIXED)           RINEX VERSION / TYPE
Convert 2.6.2       NovAtel             20200515 182109 UTC PGM / RUN BY / DATE 
Rinex Version 3.04 Observation File                         COMMENT             
                                                            MARKER NAME         
                                                            MARKER NUMBER       
                                                            MARKER TYPE         
                                                            OBSERVER / AGENCY   
                    NovAtel GPSCard                         REC # / TYPE / VERS 
                                                            ANT # / TYPE        
        0.0000        0.0000        0.0000                  APPROX POSITION XYZ 
        0.0000        0.0000        0.0000                  ANTENNA: DELTA H/E/N
G    8 C1C L1C D1C S1C C2W L2W D2W S2W                      SYS / # / OBS TYPES 
R    8 C1C L1C D1C S1C C2P L2P D2P S2P                      SYS / # / OBS TYPES 
E    8 C1C L1C D1C S1C C7Q L7Q D7Q S7Q                      SYS / # / OBS TYPES 
C    4 C2I L2I D2I S2I                                      SYS / # / OBS TYPES 
DBHZ                                                        SIGNAL STRENGTH UNIT
    30.000                                                  INTERVAL            
  2020    05    15    14    00    0.0000000     GPS         TIME OF FIRST OBS   
  2020    05    15    14    59   30.0000000     GPS         TIME OF LAST OBS    
G L1C  0.00000  09 G18 G21 G26 G20 G27 G31 G10 G29 G16      SYS / PHASE SHIFT   
G L2W  0.00000  08 G18 G21 G26 G20 G27 G31 G10 G16          SYS / PHASE SHIFT   
R L1C  0.00000  06 R17 R15 R18 R16 R02 R03                  SYS / PHASE SHIFT   
R L2P  0.25000  06 R17 R15 R18 R16 R02 R03                  SYS / PHASE SHIFT   
E L1C  0.50000  05 E01 E33 E26 E21 E13                      SYS / PHASE SHIFT   
E L7Q -0.25000  05 E01 E33 E21 E26 E13                      SYS / PHASE SHIFT   
C L2I  0.00000  07 C29 C26 C05 C30 C13 C19 C20              SYS / PHASE SHIFT   
  6 R17  4 R15  0 R18 -3 R16 -1 R02 -4 R03  5               GLONASS SLOT / FRQ #
 C1C  -71.950 C2C  -71.950 C2P  -71.950                     GLONASS COD/PHS/BIS 
     0     0     0     0GPS                                 LEAP SECONDS        
                                                            END OF HEADER       
> 2020 05 15 14 00  0.0000000  0 15      -0.000000000000
G18  20719827.242 8 108883509.658 8     -1552.586          49.000    20719827.500 8  84844288.457 8     -1209.808          48.000  
G21  21040598.180 8 110569100.522 8     -1341.430          50.000    21040596.281 8  86157797.896 8     -1045.270          49.000  
G26  20337269.633 8 106873061.251 8      -642.461          51.000    20337271.156 8  83277710.222 8      -500.619          51.000  
G20  22000991.797 8 115616015.499 8      2429.914          51.000    22000989.633 7  90090415.824 7      1893.440          43.000  
G27  22565188.938 5 118580909.007 5      2588.633          34.000    22565196.711 4  92400707.082 4      2017.117          29.000  
R17  20165318.836 5 107908327.162 5     -2075.020          31.000    20165322.820 6  83928695.260 6     -1613.904          36.000  
R15  20618583.656 8 110179062.491 8     -3338.223          51.000    20618587.828 8  85694812.239 8     -2596.396          49.000  
R18  19861739.469 5 106022977.087 5      1013.141          33.000    19861744.688 4  82462294.081 4       788.005          26.000  
E01  23866567.211 8 125419672.574 8      -976.031          51.000    23866569.727 8  96100773.515 8      -747.946          51.000  
E33  25030827.039 8 131537891.499 8      1862.781          51.000    25030828.727 8 100788794.406 8      1427.327          51.000  
E21                                                                  26442451.555 7 106472747.422 7     -2295.150          46.000  
E26  22348194.727 8 117440592.506 8      -457.953          51.000    22348198.281 8  89986915.860 8      -350.890          51.000  
C29  21981096.031 8 114461321.744 8     -1145.734          51.000  
C26  23080641.703 6 120187025.958 6       191.727          36.000  
C05  39620957.844 5 206316723.94525         6.012          35.000  
> 2020 05 15 14 00 30.0000000  0 13      -0.000000000000
G18  20728731.617 8 108930301.456 8     -1567.176          48.000    20728731.328 8  84880749.579 8     -1221.176          48.000  
G21  21048288.547 8 110609513.600 8     -1352.797          51.000    21048286.883 8  86189288.600 8     -1054.131          49.000  
G26  20340987.805 8 106892599.678 8      -660.258          51.000    20340989.383 8  83292934.958 8      -514.487          51.000  
G20  21987157.312 8 115543314.121 8      2416.773          51.000    21987155.375 7  90033765.425 7      1883.201          44.000  
R17  20176973.078 6 107970691.612 6     -2083.359          39.000    20176977.359 5  83977200.862 5     -1620.394          35.000  
R15  20637376.391 8 110279481.648 8     -3356.387          51.000    20637380.117 8  85772915.983 8     -2610.527          48.000  
E01  23872177.883 8 125449155.815 8      -989.617          51.000    23872180.820 8  96123364.538 8      -758.252          51.000  
E33  25020212.906 8 131482115.899 8      1855.477          51.000    25020214.750 8 100746057.274 8      1421.694          50.000  
E21  26459568.570 5 139045975.852 5     -3000.895          35.000    26459565.102 6 106541658.509 6     -2298.993          41.000  
E26  22350833.000 8 117454456.955 8      -466.535          50.000    22350836.609 8  89997539.263 8      -357.454          51.000  
C29  21987717.117 8 114495799.850 8     -1152.906          51.000  
C26  23079585.586 5 120181530.470 5       174.875          33.000  
C05  39620925.297 5 206316553.890 5         5.445          35.000  
> 2020 05 15 14 01  0.0000000  0 13      -0.000000000000
G18  20737714.758 8 108977507.604 8     -1582.969          49.000    20737714.281 8  84917533.598 8     -1233.479          48.000  
G21  21056039.320 8 110650243.702 8     -1365.516          50.000    21056037.789 8  86221026.344 8     -1064.038          49.000  
G26  20344803.547 8 106912650.661 8      -679.605          51.000    20344805.023 8  83308559.095 8      -529.563          51.000  
G20  21973393.891 8 115470986.548 8      2402.027          51.000    21973392.164 7  89977406.295 7      1871.710          45.000  
R17  20188674.430 6 108033301.292 6     -2093.973          38.000    20188677.359 5  84025897.239 5     -1628.649          34.000  
R15  20656266.367 8 110380418.677 8     -3375.887          51.000    20656268.906 7  85851422.476 7     -2625.693          47.000  
E01  23877861.570 8 125479021.839 8     -1004.551          51.000    23877864.539 8  96146248.873 8      -769.733          51.000  
E33  25009636.398 8 131426536.486 8      1846.746          51.000    25009637.961 8 100703470.476 8      1415.028          50.000  
E21  26476704.586 7 139136043.652 7     -3007.094          43.000    26476704.289 5 106610716.479 5     -2304.010          31.000  
E26  22353515.758 8 117468555.756 8      -476.469          50.000    22353519.398 8  90008342.258 8      -365.102          51.000  
C29  21994374.867 8 114530468.651 8     -1161.395          51.000  
C26  23078624.008 5 120176528.976 5       156.141          34.000  
C05  39620889.703 5 206316368.610 5         3.824          35.000  
> 2020 05 15 14 01 30.0000000  0 14      -0.000000000000
G18  20746776.281 8 109025125.705 8     -1594.828          49.000    20746776.094 8  84954638.612 8     -1242.724          48.000  
G31  24516926.633 5 128837335.948 5     -3364.680          35.000                                                                  
G21  21063850.023 8 110691288.828 8     -1374.133          51.000    21063848.102 8  86253009.536 8     -1070.753          49.000  
G26  20348716.711 8 106933213.548 8      -694.672          51.000    20348718.102 8  83324582.125 8      -541.303          51.000  
G20  21959701.734 8 115399034.697 8      2391.434          50.000    21959700.703 7  89921339.942 7      1863.458          47.000  
R17  20200419.578 6 108096153.550 6     -2099.879          39.000    20200422.422 5  84074782.351 5     -1633.236          35.000  
R15  20675252.102 8 110481869.035 8     -3390.859          51.000    20675253.672 7  85930328.212 7     -2637.339          46.000  
E01  23883618.023 8 125509269.815 8     -1015.348          51.000    23883620.625 8  96169425.878 8      -777.979          51.000  
E33  24999097.391 8 131371152.764 8      1842.191          51.000    24999098.422 8 100661033.624 8      1411.544          49.000  
E21  26493866.742 7 139226242.325 7     -3009.535          45.000                                                                  
E26  22356242.945 8 117482887.528 8      -482.266          50.000    22356246.461 8  90019323.742 8      -369.516          51.000  
C29  22001069.039 8 114565326.971 8     -1165.828          51.000  
C26  23077757.852 5 120172020.850 5       141.359          33.000  
C05  39620850.695 5 206316165.107 5         6.246          35.000  
> 2020 05 15 14 02  0.0000000  0 15      -0.000000000000
G18  20755925.695 8 109073205.979 8     -1610.004          49.000    20755925.367 8  84992103.753 8     -1254.549          48.000  
G31  24536137.898 6 128938292.366 6     -3365.516          36.000                                                                  
G21  21071730.227 8 110732699.265 8     -1386.086          50.000    21071727.898 8  86285277.400 8     -1080.067          49.000  
G26  20352737.133 8 106954340.561 8      -713.391          51.000    20352738.734 8  83341044.721 8      -555.892          51.000  
G20  21946091.062 7 115327513.356 7      2377.230          47.000    21946091.367 7  89865609.061 7      1852.391          46.000  
R17  20212219.273 6 108159300.078 6     -2109.406          40.000    20212221.367 5  84123896.238 5     -1640.656          35.000  
R15  20694342.250 8 110583882.143 8     -3409.418          49.000    20694343.961 7  86009671.680 7     -2651.770          46.000  
R18  19839565.633 4 105904556.44824       958.699          29.000    19839572.094 5  82370242.91125       745.655          33.000  
E01  23889456.875 8 125539951.697 8     -1029.609          51.000    23889459.156 8  96192935.350 8      -788.928          51.000  
E33  24988605.602 8 131316017.168 8      1834.043          51.000    24988606.453 8 100618786.884 8      1405.294          49.000  
E21  26511064.352 7 139316622.757 7     -3015.332          46.000    26511065.812 6 106749088.541 6     -2310.654          37.000  
E26  22359024.422 8 117497503.637 8      -491.648          51.000    22359027.773 8  90030523.093 8      -376.727          51.000  
C29  22007809.445 8 114600425.863 8     -1173.676          51.000  
C26  23076999.055 4 120168009.376 4       122.125          29.000  
C05  39620818.211 5 206315997.138 5         5.531          35.000  
> 2020 05 15 14 02 30.0000000  0 13      -0.000000000000
G18  20765155.875 8 109121711.358 8     -1623.688          49.000    20765155.422 8  85029900.144 8     -1265.211          49.000  
G31  24555350.414 5 129039258.882 5     -3365.535          35.000    24555367.938 5 100550120.204 5     -2622.496          34.000  
G21  21079672.820 8 110774437.820 8     -1396.426          49.000    21079670.531 8  86317800.960 8     -1088.124          49.000  
G26  20356858.000 8 106975996.455 8      -730.328          51.000    20356859.828 8  83357919.431 8      -569.087          51.000  
G20  21932555.492 7 115256389.946 7      2364.359          44.000    21932557.297 7  89810188.232 7      1842.359          44.000  
R17  20224068.391 6 108222703.212 6     -2117.586          40.000    20224068.461 6  84173209.754 6     -1647.012          37.000  
R15  20713528.961 8 110686418.524 8     -3426.266          49.000    20713532.359 7  86089422.212 7     -2664.874          46.000  
E01  23895371.273 8 125571032.050 8     -1042.348          51.000    23895373.727 8  96216750.138 8      -798.718          51.000  
E33  24978153.805 8 131261094.588 8      1827.504          50.000    24978155.461 8 100576703.365 8      1400.275          49.000  
E21  26528289.641 7 139407148.379 7     -3019.566          46.000    26528290.781 6 106818452.245 6     -2313.713          41.000  
E26  22361853.094 8 117512368.021 8      -499.359          51.000    22361856.523 8  90041912.673 8      -382.614          51.000  
C29  22014589.273 8 114635729.950 8     -1179.902          51.000  
C05  39620785.805 5 206315827.935 5         5.812          35.000  
> 2020 05 15 14 03  0.0000000  0 14      -0.000000000000
G18  20774467.828 8 109170646.017 8     -1637.902          48.000    20774467.789 8  85068031.021 8     -1276.291          48.000  
G31  24574565.312 6 129140238.224 6     -3365.043          36.000    24574581.664 5 100628801.407 5     -2622.124          32.000  
G21  21087678.625 8 110816509.093 8     -1407.512          50.000    21087676.438 8  86350583.772 8     -1096.763          48.000  
G26  20361080.625 8 106998187.222 8      -748.180          51.000    20361082.703 8  83375210.927 8      -582.997          51.000  
G20  21919097.031 7 115185673.139 7      2350.785          43.000    21919100.523 7  89755084.207 7      1831.781          43.000  
R17  20235966.531 6 108286367.212 6     -2126.141          37.000    20235966.359 6  84222726.154 6     -1653.662          38.000  
R15  20732815.141 8 110789480.698 8     -3443.598          51.000    20732819.086 7  86169581.695 7     -2678.354          47.000  
R18  19828943.109 5 105847852.954 5       932.531          34.000    19828940.906 4  82326121.366 4       725.302          27.000  
E01  23901362.422 8 125602516.643 8     -1055.801          51.000    23901365.148 8  96240874.657 8      -808.964          51.000  
E33  24967743.383 8 131206391.203 8      1820.332          49.000    24967746.102 8 100534787.790 8      1394.717          49.000  
E21  26545543.852 7 139497823.844 7     -3024.547          46.000    26545545.914 7 106887930.752 7     -2317.385          44.000  
E26  22364729.883 8 117527485.888 8      -507.656          51.000    22364733.492 8  90053496.504 8      -389.011          51.000  
C29  22021409.508 8 114671244.624 8     -1186.824          51.000  
C05  39620754.398 5 206315664.503 5         5.660          35.000  
> 2020 05 15 14 03 30.0000000  0 13      -0.000000000000
G18  20783875.492 8 109220084.013 8     -1654.336          48.000    20783875.727 8  85106554.127 8     -1289.093          48.000  
G21  21095761.891 8 110858987.448 8     -1420.707          50.000    21095759.555 8  86383683.789 8     -1107.045          48.000  
G10  24078319.812 6 126532427.366 6      3463.770          37.000    24078312.516 5  98596663.276 5      2699.048          34.000  
G26  20365419.523 8 107020988.849 8      -768.242          51.000    20365422.078 8  83392978.400 8      -598.630          51.000  
G20  21905732.094 8 115115441.707 8      2334.840          48.000    21905735.734 7  89700358.385 7      1819.353          46.000  
R17  20247926.922 6 108350367.797 6     -2137.125          37.000    20247927.008 6  84272504.419 6     -1662.206          38.000  
R15  20752214.578 8 110893142.255 8     -3463.328          51.000    20752218.680 8  86250207.315 8     -2693.703          49.000  
E01  23907444.805 8 125634481.250 8     -1071.406          51.000    23907447.445 8  96265366.997 8      -820.993          51.000  
E33  24957389.445 8 131151983.199 8      1810.723          50.000    24957392.695 8 100493098.568 8      1387.417          49.000  
E21  26562841.281 7 139588723.839 7     -3031.715          46.000    26562844.469 7 106957581.322 7     -2322.950          45.000  
E26  22367669.391 8 117542932.521 8      -518.324          51.000    22367672.852 8  90065332.237 8      -397.176          51.000  
C29  22028284.562 8 114707044.711 8     -1196.109          51.000  
C05  39620738.500 5 206315581.256 5         3.258          35.000  
> 2020 05 15 14 04  0.0000000  0 15      -0.000000000000
G18  20793327.375 7 109269753.795 7     -1669.875          47.000    20793327.391 7  85145257.815 7     -1301.202          47.000  
G21  21103871.016 8 110901601.773 8     -1433.070          49.000    21103868.805 8  86416889.738 8     -1116.678          49.000  
G10  24058521.016 6 126428389.369 6      3459.305          37.000    24058516.531 5  98515594.802 5      2695.566          34.000  
G26  20369823.328 8 107044131.543 8      -787.543          51.000    20369826.125 8  83411011.646 8      -613.670          51.000  
G20  21892409.656 8 115045428.382 8      2319.691          51.000    21892412.352 7  89645802.556 7      1807.552          45.000  
R17  20259896.852 6 108414428.483 6     -2147.023          37.000    20259898.125 6  84322329.458 6     -1669.907          38.000  
R15  20771674.352 8 110997125.442 8     -3481.992          51.000    20771678.219 8  86331083.068 8     -2708.220          49.000  
E13  26184425.578 6 137600084.896 6     -2439.449          36.000                                                                  
E01  23913567.273 8 125666655.867 8     -1086.355          51.000    23913569.695 8  96290020.255 8      -832.406          51.000  
E33  24947040.633 8 131097601.056 8      1801.934          50.000    24947043.625 8 100451429.155 8      1380.715          48.000  
E21  26580130.188 7 139679577.339 7     -3038.121          45.000    26580134.078 7 107027196.271 7     -2327.885          46.000  
E26  22370619.836 8 117558437.346 8      -528.219          51.000    22370623.211 8  90077212.546 8      -404.679          51.000  
C29  22035163.117 8 114742862.385 8     -1204.543          51.000  
C26  23074931.688 5 120157234.469 5        51.949          33.000  
C05  39620687.023 5 206315313.046 5         1.188          35.000  
> 2020 05 15 14 04 30.0000000  0 16      -0.000000000000
G18  20802865.148 7 109319875.258 7     -1678.469          47.000    20802865.359 7  85184313.508 7     -1307.898          47.000  
G21  21112047.805 8 110944571.811 8     -1438.691          48.000    21112046.047 8  86450372.884 8     -1121.059          48.000  
G10  24038744.891 6 126324466.201 6      3461.746          39.000    24038744.617 5  98434615.919 5      2697.474          35.000  
G26  20374334.164 8 107067837.062 8      -799.918          51.000    20374336.820 8  83429483.465 8      -623.313          51.000  
G20  21879171.742 8 114975857.422 8      2311.312          51.000    21879172.398 7  89591591.424 7      1801.023          43.000  
R17  20271920.859 6 108478773.466 6     -2149.918          41.000    20271923.031 6  84372375.546 6     -1672.159          37.000  
R15  20791235.133 8 111101652.018 8     -3493.598          51.000    20791238.742 8  86412381.481 8     -2717.243          49.000  
R18  19813556.680 6 105765716.187 6       892.902          36.000                                                                  
E13  26198322.336 5 137673117.147 5     -2435.938          35.000                                                                  
E01  23919771.898 8 125699262.077 8     -1094.422          51.000    23919774.266 8  96315004.211 8      -838.640          51.000  
E33  24936739.031 8 131043466.750 8      1799.867          50.000    24936741.672 8 100409949.645 8      1379.207          48.000  
E21  26597452.398 7 139770604.835 7     -3037.559          43.000    26597456.898 7 107096944.533 7     -2327.484          47.000  
E26  22373623.227 8 117574221.415 8      -531.180          51.000    22373626.805 8  90089306.835 8      -407.011          51.000  
C29  22042087.156 8 114778916.938 8     -1206.105          51.000  
C26  23074654.562 5 120155761.991 5        39.117          34.000  
C05  39620641.992 6 206315078.768 6         6.812          36.000  
> 2020 05 15 14 05  0.0000000  0 15      -0.000000000000
G18  20812508.594 8 109370552.172 8     -1699.898          48.000    20812508.938 7  85223802.011 7     -1324.597          47.000  
G21  21120312.000 8 110988001.538 8     -1456.711          49.000    21120310.555 8  86484214.234 8     -1135.100          48.000  
G10  24019011.477 6 126220766.354 6      3451.609          38.000    24019015.422 5  98353811.039 5      2689.573          35.000  
G26  20378972.180 8 107092210.920 8      -824.977          51.000    20378974.703 8  83448476.069 8      -642.842          51.000  
G20  21866038.711 8 114906836.985 8      2290.082          51.000    21866037.023 7  89537809.305 7      1784.483          42.000  
R17  20284018.695 6 108543508.741 6     -2165.629          38.000    20284019.922 5  84422725.186 5     -1684.381          34.000  
R15  20810915.547 8 111206825.493 8     -3517.891          49.000    20810919.945 8  86494183.062 8     -2736.138          48.000  
R18  19808599.672 5 105739248.936 5       871.770          35.000    19808605.211 5  82241665.773 5       678.049          30.000  
E01  23926078.648 8 125732405.211 8     -1115.051          51.000    23926080.883 8  96340399.566 8      -854.414          51.000  
E33  24926504.820 8 130989686.047 8      1785.539          49.000    24926507.328 8 100368741.067 8      1368.132          48.000  
E21  26614828.039 7 139861910.604 7     -3049.422          42.000    26614833.203 8 107166905.991 8     -2336.670          48.000  
E26  22376699.914 8 117590389.517 8      -546.754          51.000    22376703.523 8  90101695.376 8      -418.900          51.000  
C29  22049076.680 8 114815312.489 8     -1220.203          51.000  
C26  23074500.531 5 120154939.277 5        15.355          33.000  
C05  39620623.492 5 206314983.128 5        -0.633          35.000  
> 2020 05 15 14 05 30.0000000  0 16      -0.000000000000
G18  20822220.953 7 109421590.791 7     -1702.367          47.000    20822221.039 7  85263572.351 7     -1326.517          47.000  
G21  21128626.977 8 111031697.561 8     -1456.008          49.000    21128625.492 8  86518263.057 8     -1134.552          49.000  
G10  23999284.695 6 126117101.049 6      3459.836          37.000    23999290.664 5  98273032.844 5      2695.974          35.000  
G26  20383700.977 8 107117061.190 8      -831.297          51.000    20383703.406 8  83467839.894 8      -647.764          51.000  
G20  21852974.500 8 114838178.081 8      2287.578          51.000    21852970.531 7  89484308.905 7      1782.532          42.000  
G29  24013722.656 5 126192965.67425     -2893.398          33.000                                                                  
R17  20296151.953 6 108608437.153 6     -2162.531          39.000    20296150.211 5  84473224.975 5     -1681.975          32.000  
R15  20830680.875 8 111312447.227 8     -3523.105          51.000    20830684.961 7  86576333.259 7     -2740.197          47.000  
R18  19803708.148 5 105713130.947 5       869.848          35.000    19803712.633 4  82221351.851 4       676.548          28.000  
E01  23932451.203 8 125765893.194 8     -1116.980          51.000    23932453.055 8  96366059.167 8      -855.857          51.000  
E33  24916301.766 8 130936067.260 8      1789.652          51.000    24916303.961 8 100327656.548 8      1371.284          49.000  
E21  26632220.867 6 139953301.459 6     -3042.516          40.000    26632225.727 7 107236932.661 7     -2331.507          47.000  
E26  22379813.047 8 117606749.092 8      -543.477          51.000    22379816.648 8  90114230.623 8      -416.370          51.000  
C29  22056095.031 8 114851858.475 8     -1215.793          51.000  
C26  23074433.398 5 120154576.454 5         9.445          32.000  
C05  39620595.273 5 206314836.200 5        11.102          35.000  
> 2020 05 15 14 06  0.0000000  0 15      -0.000000000000
G18  20832012.523 8 109473045.655 8     -1723.539          48.000    20832012.375 7  85303667.051 7     -1343.018          47.000  
G21  21137003.188 8 111075714.928 8     -1474.086          49.000    21137001.797 8  86552562.291 8     -1148.639          49.000  
G10  23979575.344 6 126013529.573 6      3449.219          36.000    23979581.539 5  98192327.918 5      2687.704          35.000  
G26  20388531.188 8 107142444.204 8      -856.531          51.000    20388533.094 8  83487618.848 8      -667.427          51.000  
G20  21839989.828 8 114769939.557 8      2265.984          51.000    21839984.586 7  89431136.089 7      1765.706          42.000  
R17  20308331.797 6 108673614.504 6     -2178.816          37.000    20308331.297 5  84523918.362 5     -1694.635          35.000  
R15  20850541.492 8 111418570.927 8     -3547.367          51.000    20850543.898 7  86658873.836 7     -2759.067          46.000  
R18  19798890.484 4 105687419.213 4       848.039          29.000    19798891.719 4  82201344.81424       659.586          26.000  
E01  23938900.375 8 125799782.140 8     -1137.898          51.000    23938901.891 8  96392026.014 8      -871.879          51.000  
E33  24906140.531 8 130882667.045 8      1774.832          51.000    24906142.680 8 100286739.523 8      1359.892          49.000  
E21  26649641.234 6 140044832.595 6     -3054.773          37.000    26649644.328 7 107307066.782 7     -2340.705          47.000  
E26  22382973.055 8 117623355.756 8      -559.176          51.000    22382976.750 8  90126955.212 8      -428.496          51.000  
C29  22063152.758 8 114888610.283 8     -1230.020          51.000  
C26  23074464.344 5 120154729.555 5       -15.406          32.000  
C05  39620568.070 5 206314694.002 5         3.254          35.000  
> 2020 05 15 14 06 30.0000000  0 15      -0.000000000000
G18  20841871.203 8 109524852.969 8     -1741.078          48.000    20841871.023 8  85344036.372 8     -1356.685          48.000  
G21  21145428.477 8 111119989.842 8     -1488.504          49.000    21145427.234 8  86587062.221 8     -1159.874          49.000  
G10  23959871.750 6 125909992.947 6      3442.184          36.000    23959880.055 6  98111650.112 6      2682.222          36.000  
G26  20393450.883 8 107168297.896 8      -878.051          51.000    20393451.992 8  83507764.572 8      -684.199          51.000  
G20  21827073.234 8 114702062.083 8      2248.152          50.000    21827067.336 7  89378244.593 7      1751.807          42.000  
R17  20320546.562 5 108738975.775 5     -2190.340          34.000    20320548.234 6  84574755.032 6     -1703.586          37.000  
R15  20870483.523 8 111525129.838 8     -3567.668          51.000    20870484.805 7  86741752.887 7     -2774.856          46.000  
R18  19794135.891 5 105662036.069 5       831.133          31.000    19794144.922 4  82181612.88624       646.437          26.000  
E01  23945413.906 8 125834009.782 8     -1154.930          51.000    23945415.352 8  96418252.386 8      -884.959          51.000  
E33  24896009.281 8 130829423.567 8      1763.805          51.000    24896010.578 8 100245942.596 8      1351.461          48.000  
E21  26667077.195 5 140136440.677 5     -3062.980          33.000    26667077.094 7 107377259.862 7     -2347.065          46.000  
E26  22386168.328 8 117640146.751 8      -571.137          51.000    22386171.969 8  90139821.026 8      -437.663          51.000  
C30  25911601.211 4 134928507.89024     -2695.594          28.000  
C29  22070238.117 8 114925506.046 8     -1240.582          51.000  
C05  39620530.109 5 206314496.274 5        -0.816          35.000  
> 2020 05 15 14 07  0.0000000  0 13      -0.000000000000
G18  20851849.352 8 109577288.162 8     -1745.617          49.000    20851849.086 8  85384894.946 8     -1360.222          48.000  
G21  21153955.336 8 111164798.041 8     -1489.848          49.000    21153953.961 8  86621977.687 8     -1160.921          49.000  
G10  23940228.312 5 125806771.560 5      3448.535          34.000    23940237.977 5  98031217.879 5      2687.171          32.000  
G26  20398512.961 8 107194899.450 8      -886.477          51.000    20398514.047 8  83528493.032 8      -690.761          51.000  
G20  21814277.961 8 114634825.662 8      2243.148          49.000    21814272.656 7  89325852.586 7      1747.908          43.000  
R17  20332846.211 6 108804802.251 6     -2188.898          39.000    20332851.625 6  84625953.429 6     -1702.480          37.000  
R15  20890558.523 8 111632402.320 8     -3574.680          51.000    20890559.273 7  86825186.963 7     -2780.310          46.000  
E01  23952044.562 8 125868853.259 8     -1159.094          51.000    23952045.953 8  96444950.618 8      -888.110          51.000  
E33  24885960.633 8 130776614.386 8      1765.773          51.000    24885960.781 8 100205478.450 8      1352.999          48.000  
E21                                                                  26684577.055 7 107447723.384 7     -2343.557          45.000  
E26  22389451.461 8 117657398.704 8      -570.117          51.000    22389455.047 8  90153040.047 8      -436.849          51.000  
C29  22077403.781 8 114962820.124 8     -1238.258          51.000  
C05  39620533.844 5 206314515.961 5         8.086          35.000  
> 2020 05 15 14 07 30.0000000  0 13      -0.000000000000
G18  20861853.211 8 109629858.680 8     -1750.328          49.000    20861852.742 7  85425858.970 7     -1363.892          47.000  
G21  21162489.859 8 111209647.002 8     -1491.289          49.000    21162488.547 8  86656924.930 8     -1162.044          49.000  
G26  20403624.078 8 107221758.049 8      -895.211          51.000    20403625.594 8  83549421.778 8      -697.567          51.000  
G20  21801511.391 8 114567742.007 8      2237.848          49.000    21801507.531 7  89273579.628 7      1743.778          44.000  
R17  20345140.570 6 108870592.325 6     -2187.832          40.000    20345146.602 5  84677123.476 5     -1701.651          35.000  
R15  20910671.977 8 111739885.542 8     -3581.895          50.000    20910673.391 7  86908784.972 7     -2785.922          45.000  
E01  23958699.023 8 125903821.553 8     -1163.387          51.000    23958700.039 8  96471744.506 8      -891.367          51.000  
E33  24875900.984 8 130723749.014 8      1767.418          50.000    24875899.797 7 100164971.238 7      1354.280          47.000  
E21                                                                  26702050.375 7 107518080.412 7     -2340.124          44.000  
E26  22392728.680 8 117674620.164 8      -569.223          51.000    22392732.352 8  90166235.706 8      -436.098          51.000  
C29  22084556.383 8 115000065.864 8     -1236.098          51.000  
C26  23075143.000 4 120158323.68224       -52.727          26.000  
C05  39620486.188 5 206314267.988 5        16.941          35.000  
> 2020 05 15 14 08  0.0000000  0 13      -0.000000000000
G18  20871968.734 8 109683015.909 8     -1782.426          49.000    20871968.352 7  85467280.171 7     -1388.904          46.000  
G21  21171118.039 8 111254988.452 8     -1520.316          49.000    21171116.930 8  86692255.931 8     -1184.662          49.000  
G10  23900932.898 5 125600249.83925      3431.316          30.000                                                                  
G26  20408870.422 8 107249326.815 8      -931.410          51.000    20408871.953 8  83570903.921 8      -725.774          51.000  
G20  21788861.359 8 114501267.001 8      2204.816          50.000    21788858.461 7  89221780.926 7      1718.039          46.000  
R17  20357515.289 5 108936806.092 5     -2215.398          33.000    20357517.422 5  84728622.975 5     -1723.088          33.000  
R15  20930909.922 8 111848036.726 8     -3616.938          50.000    20930912.383 7  86992902.535 7     -2813.174          44.000  
E01  23965463.453 8 125939367.649 8     -1195.246          51.000    23965463.906 8  96498981.131 8      -915.835          51.000  
E33  24865916.359 8 130671280.836 8      1741.613          48.000    24865914.648 7 100124768.380 7      1334.394          47.000  
E21  26719569.617 5 140412299.843 5     -3076.902          34.000    26719582.867 7 107588677.205 7     -2357.786          42.000  
E26  22396086.109 8 117692263.640 8      -595.891          51.000    22396089.828 8  90179754.736 8      -456.577          51.000  
C29  22091782.102 8 115037691.928 8     -1261.254          51.000  
C05  39620473.508 5 206314201.626 5        -1.281          35.000  
> 2020 05 15 14 08 30.0000000  0 14      -0.000000000000
G18  20882143.352 8 109736483.904 8     -1788.863          50.000    20882142.938 7  85508943.526 7     -1393.920          46.000  
G21  21179787.523 8 111300546.851 8     -1523.496          49.000    21179786.398 8  86727755.971 8     -1187.140          49.000  
G10  23881314.078 5 125497151.855 5      3435.492          30.000    23881322.852 5  97790014.219 5      2677.014          31.000  
G26  20414199.812 8 107277331.471 8      -942.137          51.000    20414201.258 8  83592725.741 8      -734.133          51.000  
G20  21776275.617 8 114435129.075 8      2197.598          51.000    21776273.516 7  89170244.914 7      1712.417          46.000  
R17  20369914.023 5 109003162.567 5     -2215.680          34.000    20369915.375 5  84780233.642 5     -1723.304          34.000  
R15  20951220.586 8 111956573.436 8     -3625.617          51.000    20951223.281 7  87077319.909 7     -2819.928          43.000  
R18  19775949.352 5 105564967.31025       785.129          30.000                                                                  
E01  23972285.602 8 125975217.157 8     -1201.395          51.000    23972285.766 8  96526450.221 8      -920.547          51.000  
E33  24855955.219 8 130618935.979 8      1741.383          49.000    24855953.766 7 100084660.021 7      1334.250          47.000  
E21  26737106.609 5 140504472.311 5     -3074.598          35.000    26737122.062 6 107659302.744 6     -2355.673          39.000  
E26  22399471.562 8 117710054.319 8      -596.836          51.000    22399475.133 8  90193386.549 8      -457.325          51.000  
C29  22099028.656 8 115075426.248 8     -1260.980          51.000  
C05  39620443.484 6 206314045.447 6         5.137          36.000  
> 2020 05 15 14 09  0.0000000  0 13      -0.000000000000
G18  20892394.562 8 109790355.022 8     -1799.516          49.000    20892394.102 7  85550921.003 7     -1402.220          44.000  
G21  21188515.930 8 111346414.753 8     -1531.250          49.000    21188514.688 8  86763497.193 8     -1193.182          49.000  
G10  23861719.523 5 125394166.146 5      3434.090          35.000    23861724.625 5  97709756.265 5      2675.918          35.000  
G26  20419630.047 8 107305866.136 8      -957.105          51.000    20419631.789 8  83614960.534 8      -745.800          51.000  
G20  21763772.680 8 114369424.848 8      2185.707          51.000    21763771.148 7  89119046.839 7      1703.152          46.000  
R17  20382357.875 6 109069756.423 6     -2220.828          38.000    20382360.336 5  84832028.788 5     -1727.311          33.000  
R15  20971621.594 8 112065587.909 8     -3638.758          51.000    20971624.180 7  87162108.875 7     -2830.149          44.000  
E01  23979183.203 8 126011464.037 8     -1211.961          51.000    23979183.180 8  96554223.780 8      -928.670          51.000  
E33  24846035.766 8 130566808.896 8      1736.832          50.000    24846034.453 7 100044718.507 7      1330.832          47.000  
E21  26754671.008 5 140596744.303 5     -3076.047          35.000    26754685.492 5 107730028.328 5     -2357.047          34.000  
E26  22402902.836 8 117728085.708 8      -602.141          51.000    22402906.164 8  90207202.794 8      -461.378          51.000  
C29  22106313.742 8 115113361.829 8     -1264.996          51.000  
C05  39620414.266 5 206313892.999 5         7.789          35.000  
> 2020 05 15 14 09 30.0000000  0 13      -0.000000000000
G18  20902724.203 8 109844638.204 8     -1817.148          49.000    20902724.062 7  85593219.576 7     -1415.960          45.000  
G21  21197305.023 8 111392601.368 8     -1545.672          49.000    21197303.758 8  86799486.765 8     -1204.420          49.000  
G10  23842143.219 6 125291302.465 6      3425.934          39.000    23842149.234 6  97629602.756 6      2669.560          39.000  
G26  20425163.266 8 107334941.429 8      -979.098          51.000    20425165.047 8  83637616.598 8      -762.933          51.000  
G20  21751354.836 8 114304167.977 8      2166.852          51.000    21751353.625 7  89068197.359 7      1688.456          46.000  
R17  20394849.359 5 109136597.023 5     -2233.164          35.000    20394852.352 5  84884015.901 5     -1736.909          33.000  
R15  20992113.453 8 112175087.286 8     -3658.855          51.000    20992116.766 7  87247275.020 7     -2845.777          45.000  
E01  23986158.281 8 126048118.763 8     -1229.355          51.000    23986157.922 8  96582309.852 8      -941.947          51.000  
E33  24836159.914 8 130514910.638 8      1725.352          50.000    24836158.734 8 100004952.308 8      1322.032          48.000  
E21  26772264.047 6 140689187.277 6     -3084.473          36.000    26772277.250 5 107800861.235 5     -2363.596          33.000  
E26  22406381.750 8 117746367.889 8      -614.410          51.000    22406385.086 8  90221211.211 8      -470.701          51.000  
C29  22113639.336 8 115151508.962 8     -1275.938          51.000  
C05  39620387.805 5 206313755.185 5         3.449          35.000  
> 2020 05 15 14 10  0.0000000  0 14      -0.000000000000
G18  20913129.672 8 109899319.425 8     -1831.645          48.000    20913129.359 7  85635828.319 7     -1427.256          44.000  
G21  21206152.242 8 111439093.192 8     -1557.051          49.000    21206150.922 8  86835714.149 8     -1213.290          49.000  
G10  23822589.141 6 125188553.332 6      3420.816          38.000    23822595.242 6  97549538.567 6      2665.575          38.000  
G26  20430797.008 8 107364544.968 8      -997.863          51.000    20430798.648 8  83660684.283 8      -777.556          51.000  
G20  21739019.734 8 114239348.764 8      2151.020          50.000    21739018.891 7  89017688.933 7      1676.123          45.000  
R17  20407384.609 6 109203670.462 6     -2242.027          36.000    20407387.820 5  84936184.146 5     -1743.799          33.000  
R15  21012692.648 8 112285055.366 8     -3675.691          50.000    21012696.586 7  87332805.749 7     -2858.872          45.000  
R18  19763061.703 5 105496158.598 5       741.770          31.000    19763067.438 4  82052593.934 4       576.926          28.000  
E01  23993208.336 8 126085168.880 8     -1243.926          51.000    23993208.078 8  96610698.879 8      -953.127          51.000  
E33  24826325.180 8 130463229.214 8      1716.789          50.000    24826324.086 7  99965352.258 7      1315.424          47.000  
E21  26789882.164 6 140781756.836 6     -3090.039          37.000                                                                  
E26  22409906.047 8 117764887.930 8      -623.562          51.000    22409909.430 8  90235401.903 8      -477.831          51.000  
C29  22121003.125 8 115189855.158 8     -1283.766          50.000  
C05  39620361.828 5 206313620.101 5         1.992          35.000  
> 2020 05 15 14 10 30.0000000  0 13      -0.000000000000
G18  20923613.906 8 109954414.582 8     -1844.062          48.000    20923613.406 7  85678759.614 7     -1436.932          44.000  
G21  21215060.586 8 111485906.208 8     -1566.578          51.000    21215059.070 8  86872191.813 8     -1220.711          50.000  
G10  23803060.688 6 125085939.623 6      3417.527          37.000    23803067.602 6  97469579.906 6      2663.012          37.000  
G26  20436534.414 8 107394694.318 8     -1014.898          51.000    20436535.969 8  83684177.269 8      -790.830          51.000  
G20  21726771.250 7 114174987.235 7      2136.953          46.000    21726770.750 7  88967537.116 7      1665.159          45.000  
R17  20419966.047 6 109270993.174 6     -2248.930          37.000    20419969.820 5  84988546.233 5     -1749.165          32.000  
R15  21033362.219 8 112395506.440 8     -3690.453          50.000    21033366.312 7  87418712.114 7     -2870.353          45.000  
E01  24000336.656 8 126122631.872 8     -1256.449          51.000    24000337.148 8  96639404.243 8      -962.728          51.000  
E33  24816535.352 8 130411782.540 8      1710.184          51.000    24816534.148 7  99925932.100 7      1310.362          47.000  
E21  26807528.273 6 140874469.474 6     -3093.922          37.000                                                                  
E26  22413479.039 8 117783662.942 8      -630.891          51.000    22413482.180 8  90249787.950 8      -483.386          51.000  
C29  22128408.562 8 115228417.629 8     -1289.805          50.000  
C05  39620339.875 5 206313505.562 5         2.910          35.000  
> 2020 05 15 14 11  0.0000000  0 13      -0.000000000000
G18  20934170.359 7 110009889.448 7     -1855.590          47.000    20934170.391 7  85721986.809 7     -1445.915          44.000  
G21  21224023.578 8 111533006.255 8     -1574.961          51.000    21224021.898 8  86908893.126 8     -1227.246          50.000  
G10  23783552.906 6 124983432.099 6      3415.086          38.000    23783560.500 6  97389703.937 6      2661.107          39.000  
G26  20442369.297 8 107425356.811 8     -1030.855          51.000    20442370.758 8  83708070.104 8      -803.267          51.000  
G20  21714603.844 7 114111053.878 7      2123.770          45.000    21714604.398 7  88917718.904 7      1654.883          45.000  
R17  20432587.250 6 109338530.715 6     -2255.117          40.000    20432590.766 5  85041075.421 5     -1753.983          30.000  
R15  21054115.094 8 112506403.877 8     -3704.113          49.000    21054119.133 7  87504965.633 7     -2880.978          45.000  
E01  24007537.570 8 126160474.917 8     -1267.953          51.000    24007538.688 8  96668400.830 8      -971.528          51.000  
E33  24806784.367 8 130360538.393 8      1704.523          51.000    24806783.383 7  99886667.138 7      1306.076          47.000  
E21  26825195.062 6 140967291.388 6     -3096.066          36.000    26825197.367 5 108013953.059 5     -2372.426          31.000  
E26  22417094.141 8 117802659.747 8      -637.168          51.000    22417097.039 8  90264343.937 8      -488.166          51.000  
C29  22135849.469 8 115267163.844 8     -1294.844          49.000  
C05  39620315.688 5 206313379.616 5         4.250          35.000  
> 2020 05 15 14 11 30.0000000  0 13      -0.000000000000
G18  20944801.281 7 110065756.115 7     -1868.730          47.000    20944801.516 7  85765519.285 7     -1456.154          44.000  
G21  21233043.484 8 111580405.766 8     -1585.078          51.000    21233041.875 8  86945827.817 8     -1235.126          51.000  
G10  23764068.492 6 124881047.681 6      3410.875          38.000    23764077.078 6  97309923.931 6      2657.825          36.000  
G26  20448304.281 8 107456546.232 8     -1048.512          51.000    20448305.688 8  83732373.537 8      -817.022          51.000  
G20  21702522.102 7 114047565.246 7      2108.801          46.000    21702522.625 7  88868247.217 7      1643.222          44.000  
R17  20445252.023 6 109406295.905 6     -2262.762          38.000    20445250.992 4  85093781.55224     -1759.932          26.000  
R15  21074953.062 8 112617758.240 8     -3719.309          49.000    21074957.828 7  87591574.527 7     -2892.796          45.000  
E01  24014813.695 8 126198711.699 8     -1281.207          51.000    24014815.320 8  96697699.120 8      -981.684          51.000  
E33  24797074.547 8 130309510.987 8      1697.293          50.000    24797073.930 7  99847568.262 7      1300.458          47.000  
E21  26842883.867 5 141060235.394 5     -3100.055          35.000    26842885.164 5 108085172.785 5     -2375.413          34.000  
E26  22420753.773 8 117821891.665 8      -644.957          51.000    22420756.836 8  90279080.082 8      -494.218          51.000  
C29  22143328.141 8 115306107.320 8     -1301.535          49.000  
C05  39620292.000 5 206313256.315 5         4.570          35.000  
> 2020 05 15 14 12  0.0000000  0 14      -0.000000000000
G18  20955505.031 7 110122004.881 7     -1881.035          47.000    20955504.953 7  85809349.498 7     -1465.742          44.000  
G21  21242118.586 8 111628095.572 8     -1593.934          51.000    21242117.094 8  86982988.693 8     -1242.027          51.000  
G10  23744607.148 6 124778781.678 6      3407.488          37.000    23744616.219 6  97230236.135 6      2655.187          38.000  
G26  20454337.922 8 107488254.489 8     -1065.012          51.000    20454339.391 8  83757081.258 8      -829.880          51.000  
G20  21690524.641 8 113984515.195 8      2094.684          50.000    21690524.180 7  88819117.355 7      1632.224          43.000  
R17  20457959.023 5 109474279.208 5     -2268.973          35.000    20457951.133 4  85146629.359 4     -1764.760          26.000  
R15  21095874.516 8 112729557.660 8     -3733.531          49.000    21095879.266 7  87678529.563 7     -2903.861          44.000  
R18  19746949.266 5 105410146.64925       692.000          34.000                                                                  
E01  24022163.242 8 126237334.072 8     -1293.363          51.000    24022165.289 8  96727292.865 8      -991.043          51.000  
E33  24787403.602 7 130258692.724 7      1690.961          47.000    24787404.305 7  99808629.604 7      1295.705          47.000  
E21  26860592.773 5 141153292.388 5     -3103.234          35.000    26860593.852 5 108156476.141 5     -2377.694          35.000  
E26  22424456.570 8 117841350.156 8      -651.848          51.000    22424459.891 8  90293989.833 8      -499.534          51.000  
C29  22150843.125 8 115345239.864 8     -1306.957          48.000  
C05  39620267.406 5 206313128.139 5         4.457          35.000  
> 2020 05 15 14 12 30.0000000  0 13      -0.000000000000
G18  20966283.250 7 110178643.976 7     -1895.523          47.000    20966283.133 7  85853483.862 7     -1477.032          44.000  
G21  21251250.453 8 111676084.105 8     -1605.570          51.000    21251248.961 8  87020382.346 8     -1251.094          50.000  
G10  23725171.352 6 124676647.200 6      3401.348          38.000    23725180.359 6  97150650.841 6      2650.402          39.000  
G26  20460472.109 8 107520491.422 8     -1084.426          51.000    20460473.672 8  83782200.936 8      -845.007          51.000  
G20  21678613.328 8 113921917.182 8      2078.020          51.000    21678611.719 7  88770339.736 7      1619.236          42.000  
R17  20470705.398 5 109542495.406 5     -2278.703          30.000    20470705.852 4  85199681.719 4     -1772.334          27.000  
R15  21116880.461 7 112841808.639 7     -3750.211          47.000    21116884.609 7  87765835.811 7     -2916.834          44.000  
E01  24029588.188 8 126276351.751 8     -1308.199          51.000    24029590.375 8  96757189.508 8     -1002.387          51.000  
E33  24777773.773 7 130208093.932 7      1681.949          47.000    24777775.992 8  99769859.109 8      1288.743          48.000  
E21  26878323.656 5 141246471.154 5     -3108.918          34.000    26878325.117 5 108227872.815 5     -2382.432          35.000  
E26  22428204.250 8 117861044.571 8      -661.453          51.000    22428207.734 8  90309080.341 8      -506.831          51.000  
C29  22158396.508 8 115384571.141 8     -1315.348          48.000  
C05  39620243.805 5 206313005.225 5         2.957          35.000  
> 2020 05 15 14 13  0.0000000  0 14      -0.000000000000
G18  20977136.805 7 110235679.214 7     -1907.145          46.000    20977136.547 7  85897926.894 7     -1486.087          44.000  
G21  21260440.297 8 111724377.429 8     -1614.172          51.000    21260438.680 8  87058013.504 8     -1257.797          50.000  
G10  23705763.445 6 124574654.908 6      3398.055          39.000    23705771.453 6  97071176.386 6      2647.839          39.000  
G26  20466708.297 8 107553264.372 8     -1100.754          51.000    20466710.141 8  83807738.275 8      -857.731          51.000  
G20  21666789.883 8 113859781.229 8      2064.273          51.000    21666787.727 7  88721922.143 7      1608.525          43.000  
R17  20483495.914 4 109610938.738 4     -2284.816          29.000    20483499.453 4  85252915.379 4     -1777.080          28.000  
R15  21137970.938 7 112954515.207 7     -3763.785          46.000    21137975.305 7  87853496.437 7     -2927.389          45.000  
E01  24037090.016 8 126315772.079 8     -1320.008          51.000    24037092.273 8  96787394.681 8     -1011.453          51.000  
E33  24768188.359 8 130157722.375 8      1676.074          48.000    24768190.414 8  99731262.727 8      1284.161          48.000  
E21  26896079.352 6 141339778.124 6     -3111.719          36.000    26896079.617 5 108299367.707 5     -2384.584          35.000  
E26  22431998.039 8 117880981.930 8      -667.926          51.000    22432001.719 8  90324357.009 8      -511.785          51.000  
C29  22165989.492 8 115424108.369 8     -1320.590          48.000  
C13  39993911.328 4 208258790.60024     -1049.906          27.000  
C05  39620222.766 5 206312895.468 5         4.078          35.000  
> 2020 05 15 14 13 30.0000000  0 12      -0.000000000000
G18  20988024.477 7 110292893.913 7     -1931.207          47.000    20988023.773 7  85942509.757 7     -1504.837          45.000  
G21  21269647.008 8 111772759.450 8     -1635.551          51.000    21269645.469 8  87095713.770 8     -1274.456          51.000  
G10  23686343.102 6 124472593.198 6      3381.801          40.000    23686349.469 6  96991647.819 6      2635.170          40.000  
G26  20473005.672 8 107586358.242 8     -1129.844          51.000    20473007.641 8  83833525.693 8      -880.398          51.000  
G20  21655013.531 8 113797894.703 8      2037.391          51.000    21655011.625 7  88673698.916 7      1587.578          44.000  
R15  21159105.711 8 113067455.142 8     -3790.180          48.000    21159110.180 7  87941338.586 7     -2947.921          46.000  
E01  24044627.531 8 126355379.817 8     -1344.758          51.000    24044630.008 8  96817743.458 8     -1030.414          51.000  
E33  24758605.641 8 130107363.431 8      1656.918          48.000    24758607.391 8  99692676.042 8      1269.584          48.000  
E21  26913818.641 6 141432997.162 6     -3127.191          39.000    26913818.055 5 108370795.179 5     -2395.910          35.000  
E26  22435797.141 8 117900946.687 8      -687.453          51.000    22435801.023 8  90339654.678 8      -526.651          51.000  
C29  22173580.758 8 115463638.325 8     -1338.633          48.000  
C13  39999940.992 4 208290185.275 4     -1060.145          29.000  
> 2020 05 15 14 14  0.0000000  0 15      -0.000000000000
G18  20999057.484 7 110350872.180 7     -1926.305          47.000    20999056.906 7  85987687.613 7     -1501.017          44.000  
G21  21278981.758 8 111821814.049 8     -1627.113          51.000    21278980.195 8  87133938.127 8     -1267.881          50.000  
G10  23667022.000 6 124371050.984 6      3395.387          39.000    23667026.141 6  96912524.059 6      2645.760          39.000  
G26  20479475.688 8 107620358.612 8     -1129.273          51.000    20479477.562 8  83860019.492 8      -879.954          51.000  
G20  21643396.297 8 113736845.850 8      2040.234          51.000    21643395.062 7  88626128.408 7      1589.797          44.000  
R15  21180396.297 8 113181220.501 8     -3786.367          51.000    21180400.344 7  88029822.658 7     -2944.956          47.000  
E13  26464080.195 5 139069677.178 5     -2454.023          32.000                                                                  
E01  24052312.016 8 126395760.534 8     -1339.664          51.000    24052314.766 8  96848684.516 8     -1026.484          51.000  
E33  24749136.688 7 130057603.234 7      1668.000          47.000    24749138.617 8  99654548.128 8      1278.013          48.000  
E21  26931652.555 6 141526712.920 6     -3112.996          41.000    26931651.680 5 108442603.247 5     -2384.982          34.000  
E26  22439713.047 8 117921524.054 8      -676.922          51.000    22439716.930 8  90355421.747 8      -518.630          51.000  
C29  22181282.023 7 115503741.228 7     -1327.258          47.000  
C13  40006017.703 4 208321823.660 4     -1040.527          28.000  
C19  25611453.719 6 133365559.694 6      3091.301          39.000  
C05  39620177.086 5 206312657.943 5        10.109          35.000  
> 2020 05 15 14 14 30.0000000  0 16      -0.000000000000
G18  21010087.836 7 110408836.884 7     -1942.855          47.000    21010087.562 7  86032854.917 7     -1513.914          45.000  
G21  21288296.711 8 111870764.594 8     -1640.871          51.000    21288294.805 8  87172081.389 8     -1278.604          50.000  
G10  23647652.414 5 124269256.262 5      3385.578          34.000    23647654.734 5  96833203.615 5      2638.123          35.000  
G26  20485970.625 8 107654490.013 8     -1150.938          51.000    20485972.617 8  83886615.389 8      -896.835          51.000  
G20  21631791.344 8 113675862.483 8      2020.750          50.000    21631790.602 7  88578608.914 7      1574.614          44.000  
R17  20522071.367 4 109817387.761 4     -2304.859          28.000                                                                  
R15  21201693.656 8 113295019.041 8     -3804.949          51.000    21201696.812 8  88118332.550 8     -2959.406          48.000  
E13  26478093.438 5 139143303.112 5     -2459.023          35.000                                                                  
E01  24059995.859 8 126436138.710 8     -1356.848          51.000    24059998.859 8  96879623.632 8     -1039.645          51.000  
E33  24739634.062 7 130007666.885 7      1656.465          46.000    24739636.406 8  99616285.226 8      1269.270          49.000  
E21  26949433.039 6 141620148.977 6     -3120.867          40.000    26949431.586 5 108514197.028 5     -2391.342          32.000  
E26  22443597.844 8 117941938.209 8      -688.723          51.000    22443601.711 8  90371063.766 8      -527.672          51.000  
C29  22188945.961 7 115543648.657 7     -1337.883          47.000  
C13  40012014.469 4 208353057.685 4     -1044.176          28.000  
C19  25593646.234 7 133272831.763 7      3085.926          42.000  
C05  39620116.633 5 206312343.114 5         6.062          35.000  
> 2020 05 15 14 15  0.0000000  0 16      -0.000000000000
G18  21021230.719 8 110467392.359 8     -1956.543          48.000    21021230.258 7  86078482.520 7     -1524.582          45.000  
G21  21297706.836 8 111920215.912 8     -1651.645          50.000    21297705.117 8  87210614.871 8     -1286.996          50.000  
G10  23628349.789 5 124167815.030 5      3379.484          34.000    23628352.164 5  96754161.026 5      2633.371          35.000  
G26  20492605.695 8 107689358.213 8     -1169.469          51.000    20492608.109 8  83913785.382 8      -911.278          51.000  
G20  21620314.547 8 113615552.873 8      2004.141          50.000    21620314.055 7  88531614.433 7      1561.668          44.000  
R17  20535018.680 5 109886703.004 5     -2311.875          32.000    20535021.711 4  85467390.940 4     -1798.141          25.000  
R15  21223111.242 8 113409463.469 8     -3820.301          51.000    21223114.344 8  88207344.814 8     -2971.349          49.000  
E13  26492154.586 6 139217189.108 6     -2461.016          36.000                                                                  
E01  24067794.430 8 126477120.006 8     -1370.988          51.000    24067797.523 8  96911024.876 8     -1050.486          51.000  
E33  24730213.523 7 129958160.632 7      1648.141          46.000    24730215.523 8  99578351.868 8      1262.877          48.000  
E21  26967274.531 6 141713910.182 6     -3125.746          39.000    26967272.234 4 108586029.869 4     -2394.907          29.000  
E26  22447566.633 8 117962794.528 8      -697.469          51.000    22447570.711 8  90387044.582 8      -534.406          51.000  
C29  22196687.531 7 115583960.822 7     -1345.371          47.000  
C13  40018047.492 4 208384473.760 4     -1045.254          29.000  
C19  25575886.531 7 133180349.183 7      3083.590          44.000  
C05  39620097.281 5 206312242.447 5         4.520          35.000  
> 2020 05 15 14 15 30.0000000  0 17      -0.000000000000
G18  21032430.516 8 110526246.726 8     -1975.238          48.000    21032430.078 7  86124343.044 7     -1539.147          46.000  
G21  21307156.688 8 111969876.223 8     -1667.312          51.000    21307155.383 8  87249311.217 8     -1299.205          50.000  
G10  23609059.453 5 124066446.689 5      3368.797          35.000    23609063.227 6  96675172.741 6      2625.037          36.000  
G26  20499325.758 8 107724672.841 8     -1193.125          51.000    20499328.344 8  83941303.245 8      -929.708          51.000  
G20  21608911.484 8 113555629.463 8      1982.336          51.000    21608910.914 7  88484920.879 7      1544.678          43.000  
R17  20547997.273 6 109956154.856 6     -2326.078          37.000                                                                  
R15  21244592.570 8 113524255.096 8     -3840.797          49.000    21244596.680 8  88296627.149 8     -2987.287          49.000  
E13  26506205.492 5 139291006.704 5     -2468.020          34.000                                                                  
E01  24075652.398 8 126518414.111 8     -1390.105          51.000    24075655.258 8  96942665.786 8     -1065.170          51.000  
E33  24720819.742 7 129908794.698 7      1634.555          45.000    24720820.273 7  99540526.062 7      1252.485          46.000  
E21  26985122.602 6 141807705.260 6     -3135.547          41.000                                                                  
E26  22451564.328 8 117983802.403 8      -711.340          51.000    22451568.500 8  90403141.517 8      -544.975          51.000  
C29  22204451.672 7 115624390.091 7     -1357.941          47.000  
C26  23093648.227 5 120254716.662 5      -342.539          31.000  
C13  40024062.023 4 208415793.32824     -1050.973          27.000  
C19  25558118.391 7 133087827.302 7      3076.199          44.000  
C05  39620063.938 5 206312068.757 5        -1.359          35.000  
> 2020 05 15 14 16  0.0000000  0 16      -0.000000000000
G18  21043754.734 8 110585755.992 8     -1981.668          49.000    21043754.641 7  86170713.901 7     -1544.157          46.000  
G21  21316714.273 8 112020102.110 8     -1670.754          50.000    21316712.914 8  87288448.242 8     -1301.887          49.000  
G10  23589849.172 5 123965509.002 5      3369.348          35.000    23589855.438 5  96596520.031 5      2625.467          35.000  
G26  20506198.961 8 107760791.444 8     -1204.488          51.000    20506201.203 8  83969447.591 8      -938.563          51.000  
G20  21597650.594 8 113496452.608 8      1972.836          50.000    21597650.109 7  88438809.094 7      1537.278          44.000  
R17  20561068.273 6 110026106.231 6     -2326.691          36.000                                                                  
R15  21266204.984 7 113639753.845 7     -3848.734          47.000    21266210.617 8  88386459.485 8     -2993.464          48.000  
E13  26520312.367 5 139365181.224 5     -2462.406          31.000                                                                  
