     3.02           OBSERVATION DATA    M (MIXED)           RINEX VERSION / TYPE
SAVERINEX           SC600               20200502 115931 LCL PGM / RUN BY / DATE
       G = GPS       R = GLONASS       C = COMPASS          COMMENT
       S = SBAS      J = QZSS          E = GALILEO          COMMENT
BEAN                                                        MARKER NAME
1                                                           MARKER NUMBER
GEODETIC                                                    MARKER TYPE
Unige DICCA         GTER                                    OBSERVER / AGENCY
SC60291900056       SC600               2.12(191226)        REC # / TYPE / VERS
                    HEMA45          NONE                    ANT # / TYPE
  4509407.8091   693652.4678  4442337.6214                  APPROX POSITION XYZ
        0.0000        0.0000        0.0000                  ANTENNA: DELTA H/E/N
G    8 C1C L1C D1C S1C C2Y L2Y D2Y S2Y                      SYS / # / OBS TYPES
R    8 C1C L1C D1C S1C C2P L2P D2P S2P                      SYS / # / OBS TYPES
C    8 C1I L1I D1I S1I C7I L7I D7I S7I                      SYS / # / OBS TYPES
E    8 C1C L1C D1C S1C C7Q L7Q D7Q S7Q                      SYS / # / OBS TYPES
DBHZ                                                        COMMENT
     30.000                                                 INTERVAL
  2020    05    02    09    00    0.0000000     GPS         TIME OF FIRST OBS
  2020    05    02    09    59   30.0000000     GPS         TIME OF LAST OBS
     0                                                      RCV CLOCK OFFS APPL
G L1C  0.00000                                              SYS / PHASE SHIFT
G L2Y  0.00000                                              SYS / PHASE SHIFT
R L1C  0.00000                                              SYS / PHASE SHIFT
R L2P  0.25000                                              SYS / PHASE SHIFT
C L1I  0.00000                                              SYS / PHASE SHIFT
C L7I  0.00000                                              SYS / PHASE SHIFT
E L1C  0.50000                                              SYS / PHASE SHIFT
E L7Q -0.25000                                              SYS / PHASE SHIFT
 13 R02 -4 R03  5 R04  6 R05  1 R06 -4 R10 -5 R12 -1 R13 -2 GLONASS SLOT / FRQ #
    R14 -7 R15  0 R17  4 R18 -3 R23  3                      GLONASS SLOT / FRQ #
 C1C   71.950 C2C   71.950 C2P   71.950                     GLONASS COD/PHS/BIS
    18                                                      LEAP SECONDS
*** Above antenna height is from mark to ANTENNA BOTTOM.    COMMENT
    17     4        0.0000        ANT MEASURE TYPE/HEIGT    COMMENT
    0.0000    0.0000    0.0458    0.0405    0.0000          COMMENT
                    BASE STATION                            COMMENT
                                                            END OF HEADER
> 2020 05 02 09 00  0.0000000  0 14        .000000000000
G12  20145632.484 8 105866011.605 8       663.180          48.000    20145630.742 8  82492998.045 8       516.763          48.000
G15  24541883.711 5 128968474.450 5     -3717.602          33.000
G17  24531366.984 5 128913201.281 5     -3092.195          33.000    24531366.648 5 100451841.545 5     -2409.503          32.000
G24  20361379.258 8 106999749.620 8     -1024.426          51.000    20361380.797 8  83376442.627 8      -798.257          51.000
G25  21690874.195 5 113986328.590 5      2407.355          31.000    21690886.562 5  88820543.021 5      1875.867          32.000
R15  20175532.523 7 107811917.607 7     -1413.785          47.000    20175536.023 6  83853720.639 6     -1099.608          40.000
R17  20481805.906 6 109602306.798 6       772.832          39.000    20481806.727 5  85246210.966 5       601.092          35.000
R18  21846134.266 8 116616149.240 8      4006.109          51.000    21846137.352 8  90701472.583 8      3115.866          48.000
R24  22759236.031 4 121703845.211 4     -2830.402          27.000
C11  25072787.547 5 130560578.008 5     -2092.113          33.000    25072787.820 5 100957704.826 5     -1617.676          32.000
C20  25329024.172 7 131894916.440 7     -2295.453          46.000
C28  23019713.781 7 119869707.847 7      2161.656          46.000
E07  25366698.586 8 133302896.089 8     -2243.555          51.000    25366700.789 8 102141168.420 8     -1719.072          51.000
E30  22308761.148 8 117233318.140 8      -542.133          51.000    22308763.719 8  89828118.257 8      -415.400          51.000
> 2020 05 02 09 00 30.0000000  0 11        .000000000000
G12  20141901.320 7 105846404.488 7       649.734          47.000    20141899.594 7  82477719.752 7       506.287          47.000
G17  24549054.820 5 129006152.733 5     -3098.891          31.000    24549054.000 5 100524268.955 5     -2414.714          31.000
G24  20367282.945 8 107030774.793 8     -1037.980          51.000    20367284.531 8  83400618.049 8      -808.816          51.000
R15  20183510.742 7 107854550.095 7     -1422.512          47.000    20183513.859 6  83886879.284 6     -1106.398          38.000
R17  20477567.922 6 109579623.335 6       745.328          36.000    20477569.875 5  85228568.311 5       579.700          34.000
R18  21823668.727 8 116496223.274 8      3994.824          51.000    21823671.422 8  90608196.869 8      3107.086          48.000
C11  25084895.172 5 130623620.201 5     -2104.613          32.000    25084894.312 5 101006453.046 5     -1627.372          32.000
C20  25342289.500 7 131963992.388 7     -2303.680          45.000
C28  23007311.789 7 119805131.162 7      2149.148          44.000
E07  25379547.711 8 133370421.627 8     -2252.426          51.000    25379550.109 8 102192908.732 8     -1725.936          51.000
E30  22311886.289 8 117249741.401 8      -546.977          51.000    22311888.750 8  89840702.300 8      -419.139          51.000
> 2020 05 02 09 01  0.0000000  0 14        .000000000000
G12  20138243.648 8 105827183.772 8       632.562          48.000    20138242.117 8  82462742.561 8       492.906          48.000
G17  24566778.062 5 129099288.189 5     -3109.715          30.000    24566777.781 4 100596840.215 4     -2423.167          26.000
G24  20373261.086 8 107062190.932 8     -1055.258          51.000    20373262.469 8  83425098.137 8      -822.279          51.000
R15  20191536.453 7 107897437.004 7     -1435.539          46.000    20191540.508 6  83920235.778 6     -1116.530          37.000
R17  20473478.578 6 109557741.722 6       714.602          40.000    20473479.859 5  85211549.356 5       555.798          34.000
R18  21801263.648 8 116376623.031 8      3979.645          51.000    21801266.656 8  90515174.515 8      3095.282          48.000
R24  22791230.977 6 121874903.130 6     -2871.648          36.000
C11  25097071.562 5 130687024.052 5     -2121.293          31.000    25097071.023 5 101055480.861 5     -1640.131          31.000
C20  25355599.641 7 132033301.676 7     -2315.645          46.000
C23  23441349.125 6 122065233.562 6     -1911.594          36.000
C28  22994980.141 8 119740915.146 8      2133.027          49.000
E07  25392444.133 8 133438195.755 8     -2264.863          51.000    25392446.555 8 102244839.534 8     -1735.430          50.000
E27  24803071.875 5 130341019.405 5      1595.734          33.000
E30  22315036.086 8 117266294.465 8      -555.520          51.000    22315038.508 8  89853385.797 8      -425.646          51.000
> 2020 05 02 09 01 30.0000000  0 14        .000000000000
G12  20134643.023 8 105808262.468 8       616.820          49.000    20134641.297 8  82447998.682 8       480.639          49.000
G15  24605563.352 5 129303096.033 5     -3722.191          30.000    24605565.422 4 100755673.774 4     -2900.415          29.000
G24  20379297.203 8 107093911.537 8     -1071.449          51.000    20379298.734 8  83449815.482 8      -834.895          51.000
G25  21649904.453 5 113771028.789 5      2374.062          32.000
R15  20199593.195 7 107940489.721 7     -1446.832          45.000    20199597.664 5  83953721.192 5     -1125.317          34.000
R18  21778903.641 8 116257265.002 8      3965.367          49.000    21778906.656 7  90422340.556 7      3084.178          46.000
R24  22807366.742 6 121961192.252 6     -2893.121          38.000    22807366.719 4  94858741.579 4     -2250.205          28.000
C11  25109300.062 5 130750701.322 5     -2136.020          32.000    25109299.523 4 101104720.264 4     -1651.488          28.000
C20  25368937.617 7 132102755.613 7     -2326.336          46.000
C23  23452351.570 6 122122519.032 6     -1919.754          40.000
C28  22982702.273 8 119676975.583 8      2117.848          50.000
E07  25405371.523 8 133506129.831 8     -2276.086          51.000    25405374.133 8 102296892.879 8     -1744.029          50.000
E27  24793944.789 5 130293050.902 5      1590.000          33.000
E30  22318194.039 8 117282890.082 8      -562.820          51.000    22318196.367 8  89866101.900 8      -431.291          51.000
> 2020 05 02 09 02  0.0000000  0 14        .000000000000
G12  20131145.797 8 105789884.054 8       607.727          49.000    20131143.984 8  82433677.820 8       473.553          49.000
G24  20385437.555 8 107126180.108 8     -1080.566          51.000    20385439.328 8  83474959.811 8      -842.000          51.000
G25  21636368.805 5 113699887.384 5      2368.250          35.000    21636385.047 5  88597341.105 5      1845.390          35.000
R05  23263116.430 5 124354632.000 5     -4267.754          31.000
R15  20207727.562 7 107983956.337 7     -1451.527          45.000    20207731.391 5  83987528.508 5     -1128.966          33.000
R17  20465754.852 6 109516358.577 6       661.312          36.000    20465741.766 4  85179360.370 4       514.345          27.000
R18  21756636.414 8 116138401.791 8      3957.980          48.000    21756638.789 7  90329891.503 7      3078.435          43.000
R24  22823637.023 6 122048192.207 6     -2907.336          37.000    22823638.508 5  94926408.198 5     -2261.261          33.000
C11  25121626.500 5 130814892.238 5     -2144.297          30.000    25121627.148 5 101154356.738 5     -1657.880          32.000
C20  25382349.070 7 132172593.800 7     -2330.297          45.000
C23  23463412.695 6 122180120.535 6     -1921.305          38.000
C28  22970524.523 8 119613556.387 8      2109.461          51.000
E07  25418375.875 8 133574466.346 8     -2280.477          51.000    25418378.836 8 102349254.592 8     -1747.381          50.000
E30  22321406.539 8 117299772.151 8      -563.379          51.000    22321408.703 8  89879037.489 8      -431.647          51.000
> 2020 05 02 09 02 30.0000000  0 16        .000000000000
G02  24397430.312 6 128209357.198 6      2408.469          36.000
G12  20127740.844 8 105771990.430 8       590.395          49.000    20127739.312 8  82419734.750 8       460.048          49.000
G15  24648052.328 5 129526397.342 5     -3722.035          35.000    24648051.867 6 100929646.632 6     -2900.293          36.000
G19  22434527.617 5 117894226.600 5     -2426.145          33.000
G24  20391671.258 8 107158938.983 8     -1098.148          51.000    20391673.078 8  83500486.201 8      -855.700          51.000
G25  21622901.102 5 113629129.162 5      2354.613          34.000    21622913.602 5  88542216.739 5      1834.758          34.000
R15  20215928.273 7 108027777.748 7     -1464.703          45.000    20215932.094 5  84021611.785 5     -1139.214          32.000
R17  20462138.680 6 109497062.391 6       630.152          38.000    20462145.555 5  85164352.451 5       490.125          31.000
R18  21734451.883 8 116019978.951 8      3942.039          48.000    21734453.953 7  90237784.976 7      3066.033          44.000
R24  22840029.031 5 122135840.506 5     -2930.715          31.000    22840029.828 5  94994579.010 5     -2279.451          30.000
C11                                                                  25134040.586 4 101204344.303 4     -1670.708          28.000
C20  25395822.508 7 132242756.128 7     -2342.254          45.000
C23  23474523.047 6 122237980.241 6     -1931.008          40.000
C28  22958435.453 8 119550601.825 8      2092.582          51.000
E07  25431445.320 8 133643145.477 8     -2293.047          50.000    25431448.852 8 102401878.848 8     -1757.037          51.000
E30  22324662.445 8 117316882.305 8      -572.230          51.000    22324664.445 8  89892147.854 8      -438.423          51.000
> 2020 05 02 09 03  0.0000000  0 14        .000000000000
G02  24383691.398 5 128137170.179 5      2402.516          33.000    24383695.008 5  99847136.639 5      1872.093          33.000
G12  20124405.789 8 105754465.143 8       577.348          49.000    20124404.430 8  82406078.688 8       449.878          49.000
G15  24669289.750 5 129638019.694 5     -3720.102          30.000    24669292.172 4 101016625.064 4     -2898.783          29.000
G17  24638077.883 5 129473972.679 5     -3137.207          30.000
G24  20397976.172 8 107192072.030 8     -1111.426          51.000    20397977.789 8  83526304.140 8      -866.049          51.000
R15  20224173.039 7 108071835.894 7     -1473.387          45.000    20224176.945 5  84055879.177 5     -1145.967          31.000
R17  20458679.328 5 109478556.150 5       603.066          33.000
R18  21712328.312 7 115901883.762 7      3930.051          44.000    21712331.852 7  90145933.210 7      3056.706          46.000
C20  25409335.711 7 132313125.450 7     -2349.691          45.000
C23  23485662.008 6 122295983.185 6     -1936.363          39.000
C28  22946413.312 8 119487999.069 8      2080.223          50.000
E02  26466602.914 5 139082936.540 5     -2150.141          33.000
E07  25444557.359 8 133712049.727 8     -2301.285          49.000    25444562.148 8 102454675.596 8     -1763.254          51.000
E30  22327939.742 8 117334104.470 8      -576.609          51.000    22327941.609 8  89905344.046 8      -441.791          51.000
> 2020 05 02 09 03 30.0000000  0 11        .000000000000
G02  24369994.047 5 128065192.882 5      2382.316          31.000    24369997.312 5  99791050.517 5      1856.350          31.000
G12  20121154.734 8 105737381.423 8       548.645          49.000    20121153.414 8  82392766.675 8       427.515          49.000
G24  20404366.484 8 107225652.754 8     -1140.191          51.000    20404367.766 8  83552470.929 8      -888.464          51.000
R15  20232475.961 7 108116205.501 7     -1497.793          43.000    20232479.484 4  84090388.855 4     -1164.950          29.000
R17  20455382.734 6 109460915.547 6       559.930          40.000    20455391.781 4  85136264.181 4       435.501          25.000
R18  21690279.625 6 115784195.056 6      3902.785          41.000    21690286.016 8  90054397.497 8      3035.493          49.000
C20  25422902.438 7 132383772.247 7     -2372.809          45.000
C23  23496842.391 5 122354202.184 5     -1957.883          33.000
C28  22934472.758 8 119425822.934 8      2052.031          50.000
E07  25457725.844 8 133781250.908 8     -2324.988          49.000    25457731.688 8 102507699.870 8     -1781.505          51.000
E30  22331252.336 8 117351511.921 8      -596.691          51.000    22331254.172 8  89918682.215 8      -457.223          51.000
> 2020 05 02 09 04  0.0000000  0 14        .000000000000
G02  24356348.992 5 127993490.004 5      2395.203          34.000    24356351.969 5  99735178.185 5      1866.383          30.000
G12  20117999.453 8 105720801.075 8       553.680          49.000    20117998.578 8  82379846.925 8       431.439          49.000
G15  24711798.117 5 129861357.806 5     -3716.574          34.000    24711801.625 5 101190689.438 5     -2896.029          33.000
G24  20410853.883 8 107259743.018 8     -1135.441          51.000    20410854.797 8  83579034.736 8      -884.760          51.000
R05  23359139.820 5 124867970.207 5     -4277.527          30.000
R15  20240849.547 7 108160949.715 7     -1487.938          44.000
R17  20452259.992 6 109444204.660 6       551.223          37.000    20452266.008 4  85123256.116 4       428.732          28.000
R18  21668319.000 7 115666980.958 7      3908.781          45.000    21668328.523 7  89963230.901 7      3040.160          47.000
R24  22889803.398 5 122402063.984 5     -2981.824          30.000
C20  25436534.211 7 132454755.630 7     -2362.293          47.000
C23  23508074.516 5 122412698.686 5     -1945.125          35.000
C28  22922626.125 8 119364136.867 8      2057.352          51.000
E07  25470962.453 8 133850809.514 8     -2315.055          48.000    25470968.836 8 102560998.016 8     -1773.867          51.000
E30  22334611.930 8 117369166.603 8      -583.121          51.000    22334613.875 8  89932209.813 8      -446.801          51.000
> 2020 05 02 09 04 30.0000000  0 15        .000000000000
G02  24342702.844 5 127921779.166 5      2385.754          32.000
G12  20114885.727 8 105704438.712 8       537.047          49.000    20114885.320 8  82367097.017 8       418.478          49.000
G15  24733019.438 5 129972882.745 5     -3719.500          32.000    24733023.719 5 101277591.974 5     -2898.312          31.000
G24  20417384.078 8 107294057.946 8     -1152.285          51.000    20417384.648 8  83605773.600 8      -897.888          51.000
G25  21569568.164 4 113348845.682 4      2316.551          28.000
R05  23383168.594 5 124996433.279 5     -4282.789          35.000
R15  20249239.391 7 108205778.441 7     -1500.441          45.000    20249255.422 5  84160060.859 5     -1167.010          34.000
R17  20449257.477 5 109428134.637 5       520.074          33.000    20449264.891 4  85110756.730 4       404.502          29.000
R18  21646395.766 7 115549956.142 7      3892.758          46.000    21646405.742 7  89872211.582 7      3027.701          47.000
C20  25450176.031 7 132525790.686 7     -2373.293          47.000
C23  23519307.797 5 122471189.973 5     -1954.617          30.000
C28  22910819.930 8 119302660.219 8      2041.074          51.000
E07  25484212.359 7 133920438.767 7     -2326.797          47.000    25484219.305 8 102614350.254 8     -1782.807          51.000
E27  24739858.211 5 130008833.579 5      1568.684          31.000
E30  22337964.273 8 117386783.150 8      -591.199          51.000    22337966.344 8  89945708.196 8      -452.988          51.000
> 2020 05 02 09 05  0.0000000  0 11        .000000000000
G02  24329108.531 5 127850342.276 5      2378.598          33.000    24329109.992 5  99623637.541 5      1853.453          31.000
G12  20111866.609 8 105688573.372 8       522.379          49.000    20111866.281 8  82354734.399 8       407.048          49.000
G24  20424010.070 8 107328876.228 8     -1167.148          51.000    20424010.609 8  83632904.673 8      -909.466          51.000
R05  23407225.516 5 125124999.360 5     -4286.555          34.000
R15  20257697.438 7 108250975.630 7     -1510.789          44.000    20257708.602 5  84195214.169 5     -1175.061          33.000
R17  20446428.219 6 109412990.435 6       491.082          37.000    20446429.695 5  85098977.711 5       381.947          31.000
R18  21624562.695 7 115433409.091 7      3878.863          47.000    21624572.008 7  89781563.884 7      3016.894          45.000
C20  25463880.477 8 132597151.696 8     -2382.203          48.000
C28  22899107.531 8 119241671.623 8      2026.547          51.000
E07  25497528.469 8 133990416.172 8     -2336.488          48.000    25497535.180 8 102667969.247 8     -1790.260          50.000
E30  22341362.516 8 117404640.602 8      -597.418          51.000    22341364.672 8  89959391.177 8      -457.768          51.000
> 2020 05 02 09 05 30.0000000  0 12        .000000000000
G02  24315543.836 6 127779058.482 6      2372.484          38.000    24315543.727 5  99568096.720 5      1848.689          30.000
G12  20108918.477 8 105673080.704 8       509.555          49.000    20108918.109 8  82342662.182 8       397.056          49.000
G15  24775486.375 5 130196048.102 5     -3718.031          33.000
G24  20430708.188 8 107364073.906 8     -1180.219          51.000    20430708.820 8  83660331.395 8      -919.651          51.000
R05  23431276.195 5 125253576.143 5     -4287.512          33.000
R15  20266200.656 7 108296415.226 7     -1519.379          45.000    20266210.055 4  84230556.037 4     -1181.739          29.000
R17  20443749.680 5 109398646.716 5       463.953          31.000    20443752.789 5  85087821.505 5       360.859          34.000
R18  21602796.234 7 115317218.500 7      3866.324          46.000    21602804.812 7  89691193.445 7      3007.144          45.000
C20  25477623.422 7 132668713.535 7     -2389.426          47.000
C28  22887466.273 8 119181050.276 8      2013.910          51.000
E07  25510886.898 8 134060616.212 8     -2344.355          48.000    25510892.219 8 102721758.839 8     -1796.342          49.000
E30  22344783.000 8 117422614.927 8      -601.820          51.000    22344785.234 8  89973163.710 8      -461.090          51.000
> 2020 05 02 09 06  0.0000000  0 11        .000000000000
G02  24302016.453 5 127707969.319 5      2366.594          35.000    24302018.438 5  99512702.564 5      1844.090          34.000
G12  20106048.586 8 105657998.875 8       496.059          50.000    20106048.047 8  82330910.114 8       386.539          50.000
G24  20437485.820 8 107399689.965 8     -1194.027          51.000    20437486.562 8  83688084.137 8      -930.411          51.000
R15  20274756.805 7 108342136.454 7     -1528.594          45.000    20274759.969 4  84266138.031 4     -1188.909          28.000
R17  20441229.438 5 109385137.086 5       436.297          32.000    20441227.328 5  85077311.299 5       339.333          35.000
R18  21581105.391 8 115201428.371 8      3853.078          49.000    21581113.117 7  89601134.520 7      2996.842          45.000
C20  25491411.672 7 132740512.088 7     -2397.141          46.000
C23  23553289.266 5 122648037.219 5     -1973.418          31.000
C28  22875903.250 8 119120836.359 8      2000.418          51.000
E07  25524294.938 8 134131075.902 8     -2352.723          48.000    25524298.680 8 102775747.374 8     -1802.709          49.000
E30  22348233.000 8 117440744.594 8      -606.785          51.000    22348235.305 8  89987055.271 8      -464.915          51.000
> 2020 05 02 09 06 30.0000000  0  9        .000000000000
G02  24288525.586 5 127637076.497 5      2360.840          34.000    24288528.914 4  99457461.553 4      1839.628          29.000
G12  20103256.430 8 105643326.565 8       483.473          49.000    20103255.992 8  82319477.147 8       376.732          49.000
G24  20444342.672 8 107435723.046 8     -1206.902          51.000    20444343.664 8  83716161.840 8      -940.443          51.000
R15  20283365.375 7 108388138.190 7     -1536.895          46.000    20283369.102 4  84301914.143 4     -1195.362          25.000
R18  21559491.008 8 115086042.274 8      3840.539          51.000    21559497.305 7  89511389.849 7      2987.089          45.000
C20  25505244.727 7 132812543.984 7     -2403.730          46.000
C28  22864418.477 8 119061030.736 8      1987.758          51.000
E07  25537751.992 8 134201792.524 8     -2360.320          49.000    25537755.359 8 102829932.790 8     -1808.617          50.000
E30  22351712.242 8 117459028.392 8      -610.902          51.000    22351714.734 8  90001064.932 8      -468.076          51.000
> 2020 05 02 09 07  0.0000000  0  9        .000000000000
G12  20100544.828 8 105629076.720 8       462.508          49.000    20100544.398 8  82308373.360 8       360.396          49.000
G24  20451281.219 8 107472186.061 8     -1228.016          51.000    20451282.594 8  83744574.561 8      -956.895          51.000
R15  20292028.672 7 108434433.818 7     -1553.520          43.000    20292054.938 4  84337913.065 4     -1208.290          28.000
R18  21537955.422 8 114971078.248 8      3819.625          51.000    21537960.156 7  89421973.457 7      2970.822          44.000
C20  25519124.734 7 132884819.845 7     -2418.617          47.000
C23  23576056.578 5 122766711.662 5     -1991.469          30.000
C28  22853014.461 8 119001648.369 8      1967.027          51.000
E07  25551259.984 8 134272777.636 8     -2375.910          49.000    25551264.055 8 102884323.903 8     -1820.524          50.000
E30  22355223.250 8 117477479.355 8      -623.148          51.000    22355225.961 8  90015202.667 8      -477.486          51.000
> 2020 05 02 09 07 30.0000000  0 12        .000000000000
G12  20097877.320 8 105615058.531 8       476.535          49.000    20097876.867 8  82297450.105 8       371.326          49.000
G24  20458265.312 8 107508888.602 8     -1214.203          51.000    20458267.016 8  83773173.943 8      -946.129          51.000
R15  20300710.914 7 108480829.362 7     -1534.566          45.000    20300731.125 4  84373998.265 4     -1193.552          26.000
R17  20434571.594 5 109349534.372 5       373.441          33.000    20434574.648 6  85049637.509 6       290.457          39.000
R18  21516463.172 8 114856347.553 8      3833.773          51.000    21516466.383 7  89332738.561 7      2981.827          43.000
C11  25262026.719 5 131546007.165 5     -2261.410          32.000    25262031.938 6 101719734.860 6     -1748.587          36.000
C20  25533014.656 7 132957148.385 7     -2398.660          46.000
C23  23587490.562 5 122826203.644 5     -1970.023          34.000
C28  22841655.359 8 118942502.231 8      1980.637          50.000
E07  25564782.336 8 134343838.843 8     -2356.770          49.000    25564787.078 8 102938773.358 8     -1805.824          51.000
E27  24686530.102 5 129728587.420 5      1565.789          35.000
E30  22358729.742 8 117495906.666 8      -600.715          51.000    22358732.602 8  90029322.281 8      -460.285          51.000
> 2020 05 02 09 08  0.0000000  0 13        .000000000000
G02  24248271.281 5 127425564.883 5      2327.125          32.000
G12  20095331.656 8 105601681.297 8       429.098          49.000    20095331.398 8  82287026.314 8       334.365          49.000
G19  22592277.555 5 118723221.390 5     -2609.961          31.000
G24  20465372.922 8 107546240.383 8     -1262.031          51.000    20465375.055 8  83802279.229 8      -983.401          51.000
R15  20309490.055 7 108527741.797 7     -1578.582          42.000
R17  20432690.469 6 109339468.944 6       311.375          39.000    20432692.891 6  85041808.703 6       242.174          39.000
R18  21495092.555 8 114742270.800 8      3785.383          49.000    21495094.758 7  89244012.289 7      2944.190          43.000
C11  25275225.297 5 131614737.226 5     -2307.617          33.000    25275229.445 5 101772881.217 5     -1783.913          35.000
C20  25546991.945 7 133029933.383 7     -2439.797          46.000
C28  22830420.203 8 118884000.275 8      1933.238          50.000
E07  25578397.258 8 134415384.355 8     -2398.980          50.000    25578402.086 8 102993593.919 8     -1838.219          51.000
E27  24677742.070 5 129682407.613 5      1527.730          32.000
E30  22362309.750 8 117514720.062 8      -639.664          51.000    22362312.633 8  90043737.729 8      -490.114          51.000
> 2020 05 02 09 08 30.0000000  0 12        .000000000000
G02  24234951.727 5 127355583.535 5      2327.500          32.000
G12  20092869.445 8 105588741.783 8       422.004          49.000    20092869.406 8  82276943.556 8       328.831          49.000
G24  20472565.367 8 107584037.890 8     -1269.336          51.000    20472567.938 8  83831731.810 8      -989.093          51.000
R15  20318327.680 7 108574964.431 7     -1581.406          43.000
R17  20430972.383 5 109330277.037 5       289.758          35.000    20430976.094 6  85034659.541 6       225.370          39.000
R18  21473805.508 7 114628646.594 7      3777.695          43.000    21473807.844 7  89155638.002 7      2938.211          42.000
C11  25288497.766 5 131683855.977 5     -2312.613          32.000    25288500.523 5 101826328.166 5     -1788.114          34.000
C20  25561017.828 7 133102971.211 7     -2440.898          47.000
C23  23610532.891 5 122946242.004 5     -2009.934          30.000
C28  22819270.578 8 118825943.191 8      1925.801          51.000
E07  25592065.852 8 134487209.461 8     -2400.824          51.000    25592070.430 8 103048628.692 8     -1839.533          51.000
E30  22365924.578 8 117533716.358 8      -638.195          51.000    22365927.445 8  90058293.317 8      -489.043          51.000
> 2020 05 02 09 09  0.0000000  0 13        .000000000000
G12  20090430.109 8 105575922.262 8       429.254          49.000    20090429.867 8  82266954.316 8       334.484          48.000
G24  20479782.234 8 107621963.776 8     -1262.398          51.000    20479784.836 8  83861284.447 8      -983.687          51.000
G25  21452785.523 5 112735124.141 5      2242.633          32.000    21452775.641 5  87845545.934 5      1747.509          32.000
R15  20327162.359 7 108622175.038 7     -1569.613          42.000
R17  20429359.547 5 109321636.860 5       282.445          32.000    20429361.977 6  85027939.296 6       219.680          37.000
R18  21452541.414 6 114515157.621 6      3784.707          40.000    21452546.555 7  89067368.720 7      2943.658          44.000
R24  23062416.656 5 123325088.790 5     -3151.066          31.000    23062426.016 4  95919539.004 4     -2450.829          29.000
C11  25301784.734 5 131753047.341 5     -2304.137          33.000    25301784.500 5 101879831.236 5     -1781.276          33.000
C20  25575031.734 7 133175945.324 7     -2427.430          46.000
C23  23622064.969 5 123006264.518 5     -1995.516          34.000
C28  22808146.555 8 118768018.675 8      1932.434          51.000
E07  25605726.977 8 134558995.444 8     -2388.152          51.000    25605731.055 8 103103633.495 8     -1829.895          51.000
E30  22369513.820 8 117552578.387 8      -622.488          51.000    22369516.844 8  90072746.015 8      -476.945          51.000
> 2020 05 02 09 09 30.0000000  0 11        .000000000000
G12  20088104.961 8 105563703.153 8       392.641          49.000    20088104.547 8  82257432.941 8       305.954          49.000
G24  20487115.117 8 107660498.977 8     -1299.312          51.000    20487117.594 8  83891311.854 8     -1012.451          51.000
R15  20336085.750 6 108669862.175 6     -1602.219          39.000
R17  20427937.789 6 109314037.892 6       231.652          38.000    20427941.742 5  85022029.002 5       180.168          35.000
R18  21431398.531 8 114402296.553 8      3746.879          48.000    21431404.523 7  88979587.887 7      2914.239          46.000
C11  25315176.828 5 131822785.710 5     -2338.039          31.000    25315174.734 5 101933757.357 5     -1808.370          32.000
C20  25589124.422 7 133249329.643 7     -2457.512          47.000
C23  23633664.977 5 123066663.525 5     -2024.551          34.000
C28  22797139.719 8 118710704.824 8      1895.641          51.000
E07  25619471.516 8 134631221.298 8     -2419.449          51.000    25619475.117 8 103158975.344 8     -1853.876          51.000
E30  22373168.961 8 117571786.637 8      -650.621          51.000    22373172.164 8  90087464.013 8      -498.537          51.000
> 2020 05 02 09 10  0.0000000  0 13        .000000000000
G02  24195179.594 5 127146527.452 5      2306.125          31.000
G12  20085875.281 8 105551985.483 8       382.246          49.000    20085874.695 8  82248302.278 8       297.854          49.000
G15  24966297.578 5 131198778.319 5     -3714.719          30.000
G24  20494545.367 8 107699544.791 8     -1310.234          51.000    20494547.742 8  83921737.124 8     -1020.962          51.000
R15  20345080.469 6 108717925.615 6     -1608.398          41.000
R18  21410357.586 8 114289967.632 8      3735.094          51.000    21410363.312 8  88892220.966 8      2905.073          49.000
C11  25328654.734 5 131892951.321 5     -2347.004          31.000    25328652.820 5 101988029.323 5     -1814.886          32.000
C20  25603276.750 7 133323023.826 7     -2461.949          47.000
C23  23645314.367 4 123127359.881 4     -2027.781          27.000
C28  22786232.203 8 118653905.549 8      1884.414          51.000
E02                                                                  26639081.242 5 107264539.227 5     -1663.688          34.000
E07  25633280.273 8 134703786.492 8     -2424.832          51.000    25633284.195 8 103214577.197 8     -1857.916          51.000
E30  22376871.203 8 117591242.195 8      -652.871          51.000    22376874.500 8  90102371.504 8      -500.312          51.000
> 2020 05 02 09 10 30.0000000  0 12        .000000000000
G12  20083703.805 8 105540574.813 8       372.922          49.000    20083703.227 8  82239410.848 8       290.588          49.000
G24  20502035.867 8 107738906.785 8     -1319.625          51.000    20502038.047 8  83952408.763 8     -1028.282          51.000
G25  21414898.477 5 112536030.689 5      2196.664          35.000    21414906.328 6  87690448.948 6      1711.689          36.000
R15  20354108.883 7 108766167.555 7     -1613.426          43.000    20354121.602 5  84595933.192 5     -1254.887          30.000
R17  20425596.805 6 109301436.613 6       182.445          39.000    20425595.000 5  85012254.953 5       141.893          33.000
R18  21389380.016 8 114177978.491 8      3724.895          51.000    21389385.547 8  88805118.314 8      2897.143          51.000
C11  25342181.695 5 131963388.887 5     -2354.199          31.000    25342180.617 5 102042496.831 5     -1820.332          32.000
C20  25617451.023 7 133396833.206 7     -2464.379          46.000
C28  22775387.062 8 118597430.411 8      1874.863          51.000
E02                                                                  26651451.117 5 107314340.429 5     -1661.099          34.000
E07  25647116.016 8 134776495.289 8     -2428.301          51.000    25647120.844 8 103270289.083 8     -1860.655          51.000
E30  22380583.594 8 117610750.875 8      -653.469          51.000    22380586.867 8  90117319.700 8      -500.716          51.000
> 2020 05 02 09 11  0.0000000  0 12        .000000000000
G02  24168880.727 5 127008327.642 5      2292.301          32.000
G12  20081616.133 8 105529604.611 8       355.980          49.000    20081615.766 8  82230862.639 8       277.387          49.000
G24  20509611.906 8 107778718.084 8     -1336.863          51.000    20509613.812 8  83983430.515 8     -1041.712          51.000
G25  21402387.758 6 112470290.501 6      2183.453          36.000    21402399.961 5  87639222.657 5      1701.377          33.000
R15  20363194.781 6 108814724.504 6     -1625.625          37.000    20363199.523 4  84633699.602 4     -1264.387          29.000
R18  21368491.547 8 114066469.591 8      3706.562          50.000    21368497.586 8  88718389.210 8      2882.885          50.000
C11  25355783.289 5 132034211.147 5     -2369.504          32.000    25355782.398 5 102097261.008 5     -1832.148          32.000
C20  25631671.891 7 133470887.950 7     -2474.738          45.000
C28  22764629.570 8 118541413.778 8      1857.297          51.000
E02                                                                  26663830.914 5 107364197.618 5     -1664.879          30.000
E07  25661004.227 8 134849479.836 8     -2439.777          51.000    25661009.492 8 103326212.272 8     -1869.428          51.000
E30  22384331.547 8 117630446.368 8      -662.000          51.000    22384334.750 8  90132411.042 8      -507.244          51.000
> 2020 05 02 09 11 30.0000000  0 14        .000000000000
G12  20079589.797 8 105518955.291 8       349.000          48.000    20079589.406 8  82222564.462 8       271.948          48.000
G15  25029788.508 5 131532425.689 5     -3702.512          32.000
G24  20517250.836 8 107818860.148 8     -1344.203          51.000    20517252.602 8  84014710.001 8     -1047.431          51.000
G25  21389919.914 5 112404769.292 5      2179.660          33.000    21389939.242 5  87588166.936 5      1698.430          34.000
R15  20372317.656 6 108863475.034 6     -1628.852          40.000    20372322.680 5  84671616.691 5     -1266.885          31.000
R17  20423855.383 5 109292122.182 5       128.875          34.000    20423853.039 5  85005007.788 5       100.230          35.000
R18  21347670.203 8 113955324.738 8      3698.117          48.000    21347677.016 8  88631943.252 8      2876.313          48.000
C11  25369435.359 5 132105297.093 5     -2374.500          34.000    25369434.516 5 102152229.087 5     -1835.730          31.000
C20  25645916.828 7 133545067.674 7     -2475.309          45.000
C23  23680426.398 5 123310193.906 5     -2038.859          31.000
C28  22753937.484 8 118485739.478 8      1849.473          49.000
E07  25674922.141 8 134922619.353 8     -2441.102          51.000    25674927.062 8 103382254.216 8     -1870.517          51.000
E27  24616749.461 6 129361879.858 6      1514.363          38.000
E30  22388092.383 8 117650209.492 8      -660.516          51.000    22388095.602 8  90147554.199 8      -506.127          51.000
> 2020 05 02 09 12  0.0000000  0 13        .000000000000
G02  24142773.633 5 126871156.863 5      2272.715          33.000
G12  20077687.664 8 105508959.257 8       324.777          48.000    20077687.047 8  82214775.358 8       253.073          48.000
G24  20525015.844 8 107859665.239 8     -1368.691          51.000    20525017.695 8  84046506.144 8     -1066.513          51.000
G25  21377556.914 5 112339800.876 5      2158.945          33.000    21377572.867 5  87537542.066 5      1682.289          33.000
R15  20381541.039 6 108912758.102 6     -1649.184          40.000    20381543.750 5  84709948.005 5     -1282.692          31.000
R18  21326981.102 8 113844886.859 8      3671.902          48.000    21326987.523 7  88546047.180 7      2855.924          43.000
C11  25383201.141 5 132176974.892 5     -2396.125          32.000    25383200.102 5 102207654.878 5     -1853.129          32.000
C20  25660248.977 7 133619700.111 7     -2492.754          45.000
C23  23692241.297 5 123371706.788 5     -2054.445          34.000
C28  22743374.812 8 118430739.411 8      1824.582          49.000
E07  25688932.680 8 134996245.294 8     -2459.879          51.000    25688937.352 8 103438668.861 8     -1884.797          51.000
E27  24608168.836 6 129316777.166 6      1499.809          37.000
E30  22391929.547 8 117670373.284 8      -676.375          51.000    22391932.797 8  90163004.363 8      -518.282          51.000
> 2020 05 02 09 12 30.0000000  0 11        .000000000000
G02  24129775.883 6 126802864.955 6      2273.051          36.000
G12  20075830.148 8 105499197.564 8       319.184          49.000    20075829.234 8  82207168.838 8       248.714          50.000
G24  20532827.195 8 107900714.313 8     -1374.734          51.000    20532829.367 8  84078492.415 8     -1071.222          51.000
R15  20390783.617 5 108962147.674 5     -1650.418          35.000    20390788.969 5  84748362.009 5     -1283.664          34.000
R18  21306345.633 7 113734735.053 7      3664.711          47.000    21306350.289 6  88460373.596 6      2850.334          41.000
C11  25396999.805 5 132248827.554 5     -2399.719          31.000    25396999.586 5 102263215.836 5     -1855.669          32.000
C20  25674588.102 7 133694367.741 7     -2491.824          45.000
C23  23704057.047 6 123433235.635 6     -2053.559          37.000
C28  22732862.164 8 118376000.213 8      1817.910          48.000
E07  25702955.242 8 135069936.985 8     -2459.848          50.000    25702960.406 8 103495133.891 8     -1884.764          51.000
E30  22395763.289 8 117690518.703 8      -673.555          51.000    22395766.461 8  90178440.439 8      -516.052          51.000
> 2020 05 02 09 13  0.0000000  0 11        .000000000000
G02  24116806.516 5 126734719.710 5      2250.863          35.000
G12  20074033.352 8 105489754.075 8       291.582          49.000    20074032.438 8  82199810.268 8       227.207          49.000
G24  20540700.875 8 107942092.141 8     -1402.715          50.000    20540703.609 8  84110734.873 8     -1093.025          50.000
R15  20400062.453 5 109011729.504 5     -1673.820          35.000    20400067.367 5  84786925.683 5     -1301.863          33.000
R18  21285780.664 8 113624959.686 8      3634.605          49.000    21285783.891 7  88374992.769 7      2826.912          43.000
C11  25410847.422 5 132320936.779 5     -2425.691          30.000    25410847.953 5 102318975.182 5     -1875.801          34.000
C20  25688949.453 7 133769151.749 7     -2512.441          44.000
C23  23715892.547 5 123494863.398 5     -2073.449          34.000
C28  22722416.266 8 118321607.212 8      1789.461          49.000
E07  25717005.969 8 135143777.146 8     -2481.672          50.000    25717011.406 8 103551712.686 8     -1901.571          51.000
E30  22399609.539 8 117710730.037 8      -692.699          51.000    22399612.594 8  90193927.033 8      -530.782          51.000
> 2020 05 02 09 13 30.0000000  0 13        .000000000000
G02  24103892.344 6 126666859.379 6      2269.480          36.000    24103910.219 4  98701457.724 4      1768.457          29.000
G12  20072322.594 8 105480763.893 8       304.246          48.000    20072321.734 8  82192804.943 8       237.075          48.000
G19  22760583.742 5 119607657.782 5     -2748.516          32.000
G24  20548662.883 8 107983933.480 8     -1390.336          51.000    20548665.672 8  84143338.518 8     -1083.376          51.000
R15  20409403.133 6 109061641.477 6     -1656.648          36.000    20409406.508 5  84825746.068 5     -1288.507          32.000
R18  21265313.750 8 113515702.846 8      3645.422          51.000    21265316.688 7  88290015.215 7      2835.328          46.000
C11  25424770.172 4 132393448.589 4     -2410.906          29.000    25424771.203 6 102375035.041 6     -1864.528          36.000
C20  25703358.438 7 133844183.933 7     -2493.043          44.000
C23  23727771.070 4 123556724.214 4     -2053.609          27.000
C28  22712063.398 8 118267696.302 8      1801.035          50.000
E02  26725819.891 5 140445122.915 5     -2162.398          34.000
E07  25731110.875 8 135217899.465 8     -2463.453          51.000    25731115.664 8 103608507.674 8     -1887.515          49.000
E30  22403493.875 8 117731142.593 8      -671.703          51.000    22403496.961 8  90209567.803 8      -514.700          51.000
> 2020 05 02 09 14  0.0000000  0 14        .000000000000
G02  24091018.531 5 126599213.414 5      2249.086          32.000
G12  20070683.781 8 105472153.276 8       278.422          48.000    20070682.992 8  82186095.369 8       216.952          48.000
G19  22776377.875 5 119690642.646 5     -2774.914          35.000
G24  20556699.273 8 108026164.708 8     -1416.461          51.000    20556702.156 8  84176245.960 8     -1103.736          51.000
R15  20418791.297 5 109111808.460 5     -1679.211          35.000    20418793.484 5  84864764.905 5     -1306.050          32.000
R17  20422314.844 5 109283925.346 5       -15.543          33.000    20422308.508 6  84998575.861 6       -12.095          38.000
R18  21244930.547 8 113406894.232 8      3617.137          51.000    21244934.250 8  88205386.290 8      2813.332          48.000
C11                                                                  25438754.898 6 102431337.659 6     -1882.495          37.000
C20  25717800.695 7 133919389.063 7     -2511.828          43.000
C23  23739680.719 4 123618740.367 4     -2071.062          28.000
C28  22701789.969 8 118214196.553 8      1774.207          51.000
E02  26738229.242 5 140510342.093 5     -2176.621          30.000
E07  25745255.312 8 135292228.855 8     -2483.340          51.000    25745259.477 8 103665461.331 8     -1902.828          49.000
E30  22407402.391 8 117751682.911 8      -689.094          51.000    22407405.555 8  90225306.454 8      -528.007          51.000
> 2020 05 02 09 14 30.0000000  0 13        .000000000000
G02  24078198.516 5 126531843.636 5      2241.293          35.000
G12  20069128.602 8 105463980.964 8       265.355          49.000    20069128.047 8  82179727.320 8       206.770          49.000
G19  22792258.898 5 119774088.848 5     -2789.035          33.000
G24  20564821.367 8 108068845.144 8     -1429.938          51.000    20564824.195 8  84209503.437 8     -1114.240          51.000
R15  20428237.750 6 109162291.196 6     -1687.906          39.000    20428239.914 5  84904029.140 5     -1312.816          30.000
R17  20422468.820 6 109284752.830 6       -43.188          39.000    20422471.258 6  84999257.965 6       -33.596          37.000
R18  21224642.883 8 113298598.739 8      3601.531          50.000    21224647.859 8  88121156.532 8      2801.194          48.000
C11                                                                  25452809.719 6 102487926.875 6     -1890.789          36.000
C20  25732287.352 7 133994823.404 7     -2517.996          42.000
C23  23751630.555 5 123680976.029 5     -2078.547          31.000
C28  22691607.148 8 118161168.177 8      1759.984          51.000
E07  25759449.961 8 135366822.672 8     -2490.469          51.000    25759454.219 8 103722617.579 8     -1908.311          49.000
E30  22411346.375 8 117772409.935 8      -693.754          51.000    22411349.703 8  90241188.171 8      -531.530          51.000
> 2020 05 02 09 15  0.0000000  0 12        .000000000000
G02  24065430.047 5 126464741.914 5      2233.031          34.000
G12  20067654.844 8 105456235.481 8       252.078          50.000    20067654.438 8  82173691.897 8       196.428          50.000
G19  22808224.359 5 119857982.474 5     -2802.312          33.000
G24  20573026.656 8 108111962.790 8     -1443.473          51.000    20573029.266 8  84243101.576 8     -1124.787          51.000
R15  20437741.711 6 109213078.330 6     -1696.887          38.000    20437744.711 5  84943530.177 5     -1319.801          31.000
R17  20422794.328 5 109286492.292 5       -71.645          32.000    20422792.961 5  85000610.920 5       -55.702          35.000
R18  21204450.188 8 113190809.973 8      3585.609          51.000    21204455.641 7  88037320.926 7      2788.810          47.000
C11                                                                  25466932.875 5 102544792.818 5     -1899.204          33.000
C20  25746815.203 6 134070473.775 6     -2524.246          40.000
C28  22681512.758 8 118108602.173 8      1745.480          51.000
E07  25773692.742 8 135441668.387 8     -2497.852          51.000    25773697.016 8 103779966.835 8     -1913.938          49.000
E30  22415323.938 8 117793312.786 8      -698.578          51.000    22415327.422 8  90257204.615 8      -535.235          51.000
> 2020 05 02 09 15 30.0000000  0 14        .000000000000
G02  24052706.359 6 126397873.984 6      2224.699          37.000
G12  20066255.109 8 105448879.186 8       238.129          49.000    20066254.188 8  82167959.730 8       185.555          49.000
G19  22824266.477 5 119942283.858 5     -2817.539          31.000
G24  20581308.172 8 108155480.808 8     -1457.812          51.000    20581310.430 8  84277011.674 8     -1135.961          51.000
G25  21292379.062 6 111892237.477 6      2094.672          36.000    21292398.477 5  87188726.328 5      1632.209          35.000
R15  20447295.875 5 109264132.173 5     -1706.664          34.000    20447298.375 5  84983238.568 5     -1327.418          32.000
R17  20423275.375 6 109289066.853 6      -100.371          38.000    20423275.359 5  85002613.299 5       -78.066          35.000
R18  21184347.031 8 113083494.610 8      3568.699          51.000    21184351.891 7  87953853.507 7      2775.658          47.000
C11                                                                  25481116.766 5 102601905.489 5     -1907.759          30.000
C20  25761376.734 6 134146300.870 6     -2530.797          39.000
C23  23775651.648 5 123806029.420 5     -2090.383          35.000
C28  22671500.188 8 118056463.369 8      1730.277          51.000
E07  25787976.297 8 135516727.042 8     -2506.039          51.000    25787979.820 8 103837479.263 8     -1920.212          48.000
E30  22419327.984 8 117814354.171 8      -704.238          51.000    22419331.555 8  90273327.220 8      -539.644          51.000
> 2020 05 02 09 16  0.0000000  0 14        .000000000000
G02  24040038.906 5 126331301.198 5      2217.812          35.000
G12  20064940.391 8 105441970.492 8       226.793          50.000    20064939.008 8  82162576.317 8       176.719          50.000
G19  22840390.953 5 120027081.959 5     -2829.027          33.000
G24  20589677.047 8 108199457.950 8     -1469.559          51.000    20589678.758 8  84311279.543 8     -1145.114          51.000
G25  21280457.445 5 111829586.441 5      2085.531          33.000    21280475.562 4  87139907.259 4      1625.080          28.000
R15  20456912.531 6 109315512.053 6     -1713.977          36.000    20456913.711 5  85023200.688 5     -1333.090          33.000
R17  20423923.375 6 109292535.986 6      -126.371          36.000    20423923.328 5  85005311.541 5       -98.289          31.000
R18  21164344.680 8 112976716.693 8      3554.277          51.000    21164348.406 7  87870804.044 7      2764.438          47.000
C11                                                                  25495372.570 5 102659308.362 5     -1914.987          30.000
C20  25775983.383 6 134222360.387 6     -2535.219          39.000
C23  23787723.242 6 123868877.093 6     -2095.211          36.000
C28  22661581.039 8 118004811.539 8      1717.520          51.000
E07  25802311.352 8 135592055.543 8     -2511.441          51.000    25802313.711 8 103895198.457 8     -1924.345          48.000
E30  22423369.555 8 117835592.643 8      -707.211          51.000    22423373.094 8  90289600.840 8      -541.925          51.000
> 2020 05 02 09 16 30.0000000  0 12        .000000000000
G02  24027440.969 5 126265096.378 5      2206.246          35.000
G12  20063724.102 8 105435578.565 8       210.277          50.000    20063722.656 8  82157595.585 8       163.852          50.000
G24  20598146.266 8 108243963.107 8     -1486.621          51.000    20598147.672 8  84345958.830 8     -1158.409          51.000
R15  20466600.773 4 109367289.190 4     -1725.895          28.000    20466602.539 5  85063471.764 5     -1342.362          33.000
R17  20424751.047 6 109296970.818 6      -158.168          37.000    20424754.656 4  85008760.993 4      -123.010          27.000
R18  21144456.133 8 112870551.666 8      3534.500          48.000    21144459.523 7  87788231.237 7      2749.056          47.000
C11                                                                  25509713.906 5 102717053.090 5     -1926.045          31.000
C20  25790647.492 6 134298718.946 6     -2544.254          39.000
C23  23799847.539 5 123932022.831 5     -2104.605          34.000
C28  22651768.539 8 117953717.278 8      1699.539          50.000
E07  25816710.695 8 135667721.823 8     -2522.043          51.000    25816712.750 8 103953176.447 8     -1932.504          48.000
E30  22427461.906 8 117857097.783 8      -715.559          51.000    22427465.258 8  90306078.791 8      -548.294          51.000
> 2020 05 02 09 17  0.0000000  0 12        .000000000000
G02  24014858.438 5 126198970.389 5      2201.266          34.000
G12  20062550.438 8 105429411.145 8       200.297          48.000    20062549.031 8  82152789.804 8       156.075          48.000
G24  20606660.258 8 108288704.484 8     -1496.730          51.000    20606661.375 8  84380822.185 8     -1166.287          51.000
R15  20476310.266 6 109419184.880 6     -1732.363          37.000    20476312.086 5  85103821.058 5     -1347.388          35.000
R17  20425704.836 6 109302074.339 6      -182.469          38.000    20425732.469 5  85012778.483 5      -141.920          30.000
R18  21124625.602 7 112764707.767 7      3521.406          44.000    21124630.969 7  87705908.192 7      2738.872          46.000
C11                                                                  25524083.867 5 102774914.830 5     -1931.307          31.000
C20  25805312.930 6 134375085.300 6     -2547.148          39.000
C23  23811975.508 6 123995177.377 6     -2107.055          36.000
C28  22642008.195 8 117902893.458 8      1688.215          50.000
E07  25831118.523 8 135743432.600 8     -2525.812          51.000    25831121.336 8 104011188.532 8     -1935.330          49.000
E30  22431549.617 8 117878577.971 8      -717.012          51.000    22431552.703 8  90322537.617 8      -549.366          51.000
> 2020 05 02 09 17 30.0000000  0 11        .000000000000
G02  24002327.648 5 126133114.589 5      2190.402          35.000
G12  20061455.203 8 105423656.909 8       184.926          48.000    20061454.008 8  82148305.978 8       144.098          48.000
G24  20615254.727 8 108333870.259 8     -1512.789          51.000    20615255.922 8  84416016.231 8     -1178.800          51.000
R17  20426819.344 5 109308038.719 5      -213.477          35.000    20426840.680 4  85017417.148 4      -166.040          25.000
R18  21104892.180 7 112659381.437 7      3502.066          45.000    21104899.609 7  87623987.728 7      2723.832          46.000
C11                                                                  25538518.102 5 102833036.779 5     -1942.462          30.000
C20  25820015.445 6 134451644.186 6     -2554.988          40.000
C23  23824140.102 4 124058528.067 4     -2114.816          28.000
C28  22632336.250 8 117852528.900 8      1671.066          49.000
E07  25845570.359 8 135819375.047 8     -2535.352          51.000    25845574.211 8 104069378.144 8     -1942.666          50.000
E30  22435668.602 8 117900222.090 8      -724.371          51.000    22435671.484 8  90339122.061 8      -554.981          51.000
> 2020 05 02 09 18  0.0000000  0 14        .000000000000
G02  23989826.102 5 126067377.336 5      2179.652          33.000
G12  20060416.688 8 105418199.449 8       168.887          49.000    20060415.594 8  82144053.405 8       131.600          49.000
G24  20623907.648 8 108379344.945 8     -1529.004          48.000    20623909.500 8  84451451.021 8     -1191.432          48.000
G25  21233336.930 5 111581919.275 5      2040.352          34.000    21233336.445 5  86946971.795 5      1589.881          34.000
R15  20495894.086 5 109523766.989 5     -1756.566          31.000    20495870.633 5  85185126.148 5     -1366.215          35.000
R17  20428072.352 5 109314745.643 5      -244.188          33.000    20428075.875 4  85022582.546 4      -189.918          29.000
R18  21085236.586 8 112554459.509 8      3482.344          50.000    21085243.992 7  87542381.831 7      2708.490          45.000
C11                                                                  25552993.469 4 102891316.535 4     -1951.895          27.000
C20  25834732.570 7 134528278.331 7     -2563.770          42.000
C23  23836318.289 5 124121946.920 5     -2124.234          34.000
C28  22622729.852 7 117802510.307 7      1653.383          46.000
E02  26837817.352 5 141033681.917 5     -2187.980          34.000
E07  25860043.750 8 135895431.522 8     -2545.133          51.000    25860048.055 8 104127655.148 8     -1950.268          50.000
E30  22439796.633 8 117921914.134 8      -731.941          51.000    22439799.430 8  90355743.229 8      -560.898          51.000
> 2020 05 02 09 18 30.0000000  0 12        .000000000000
G02  23977406.672 5 126002122.331 5      2175.988          33.000
G12  20059478.062 8 105413266.716 8       161.402          49.000    20059476.961 8  82140209.696 8       125.768          49.000
G24  20632662.328 8 108425355.613 8     -1536.906          48.000    20632665.070 8  84487303.498 8     -1197.586          48.000
R15  20505740.430 5 109576489.824 5     -1759.246          31.000    20505742.617 5  85226142.679 5     -1368.296          34.000
R18  21065702.281 8 112450178.041 8      3471.047          51.000    21065708.008 7  87461274.034 7      2699.703          46.000
C11                                                                  25567554.242 4 102949949.422 4     -1955.973          29.000
C20  25849506.992 7 134605211.305 7     -2563.766          42.000
C23  23848563.625 6 124185685.726 6     -2123.707          37.000
C28  22613233.289 7 117753065.342 7      1644.277          47.000
E02  26850299.234 6 141099265.702 6     -2183.391          36.000
E07  25874581.906 8 135971828.406 8     -2546.535          51.000    25874586.141 8 104186192.993 8     -1951.208          50.000
E30  22443977.047 8 117943882.161 8      -731.109          51.000    22443979.805 8  90372575.857 8      -560.162          51.000
> 2020 05 02 09 19  0.0000000  0 10        .000000000000
G12  20058605.266 8 105408680.681 8       143.805          48.000    20058604.234 8  82136636.175 8       112.056          48.000
G24  20641485.891 8 108471725.479 8     -1554.789          50.000    20641489.156 8  84523435.857 8     -1211.524          50.000
R18  21046255.039 8 112346361.784 8      3449.484          51.000    21046260.172 7  87380528.112 7      2682.935          47.000
C11                                                                  25582166.547 4 103008784.041 4     -1967.119          29.000
C20  25864304.469 7 134682265.207 7     -2573.645          43.000
C23  23860830.539 6 124249556.159 6     -2134.504          37.000
C28  22603814.352 8 117704020.077 8      1624.926          48.000
E02                                                                  26862782.266 5 108165290.897 5     -1677.313          34.000
E07  25889150.438 8 136048386.803 8     -2557.844          49.000    25889154.992 8 104244854.592 8     -1959.888          51.000
E30  22448176.172 8 117965948.986 8      -740.461          51.000    22448178.914 8  90389484.193 8      -567.366          51.000
> 2020 05 02 09 19 30.0000000  0 11        .000000000000
G12  20057817.586 8 105404541.807 8       132.219          49.000    20057816.664 8  82133411.064 8       103.028          49.000
G24  20650397.320 8 108518554.647 8     -1567.055          50.000    20650401.008 8  84559926.100 8     -1221.082          50.000
R17  20432852.797 4 109340285.901 4      -326.008          29.000    20432844.773 5  85042445.398 5      -253.568          33.000
R18  21026914.070 8 112243117.543 8      3433.520          48.000    21026919.836 8  87300227.080 8      2670.518          49.000
C11                                                                  25596849.633 5 103067906.313 5     -1974.344          30.000
C20  25879143.766 7 134759537.556 7     -2577.477          43.000
C23  23873141.242 6 124313657.910 6     -2138.887          37.000
C28  22594492.266 8 117655475.988 8      1611.465          50.000
E02                                                                  26875274.562 5 108215593.114 5     -1676.624          31.000
E07  25903767.570 7 136125205.792 7     -2563.277          47.000    25903773.523 8 104303715.885 8     -1964.130          50.000
E30  22452413.305 8 117988215.362 8      -743.840          51.000    22452415.953 8  90406545.427 8      -569.946          51.000
> 2020 05 02 09 20  0.0000000  0 12        .000000000000
G02  23940418.156 5 125807739.431 5      2147.832          34.000
G12  20057107.914 8 105400812.913 8       120.070          48.000    20057107.094 8  82130505.416 8        93.561          49.000
G24  20659389.219 8 108565806.266 8     -1579.516          51.000    20659392.961 8  84596745.533 8     -1230.791          51.000
R15  20535664.953 6 109736365.799 6     -1788.762          36.000    20535665.828 5  85350505.907 5     -1391.256          34.000
R17  20434751.109 5 109350489.762 5      -352.559          34.000    20434759.883 5  85050412.930 5      -274.212          34.000
R18  21007673.844 8 112140412.342 8      3417.055          49.000    21007680.688 8  87220345.297 8      2657.712          49.000
C11                                                                  25611595.430 4 103127280.398 4     -1981.472          29.000
C20  25894017.812 7 134836989.533 7     -2582.297          43.000
C23  23885488.453 6 124377954.499 6     -2143.781          37.000
C28  22585259.875 8 117607398.194 8      1597.297          50.000
