     3.02           OBSERVATION DATA    M (MIXED)           RINEX VERSION / TYPE
SAVERINEX           SC600               20200501 155930 LCL PGM / RUN BY / DATE
       G = GPS       R = GLONASS       C = COMPASS          COMMENT
       S = SBAS      J = QZSS          E = GALILEO          COMMENT
BEAN                                                        MARKER NAME
1                                                           MARKER NUMBER
GEODETIC                                                    MARKER TYPE
Unige DICCA         GTER                                    OBSERVER / AGENCY
SC60291900056       SC600               2.12(191226)        REC # / TYPE / VERS
                    HEMA45          NONE                    ANT # / TYPE
  4509407.8091   693652.4678  4442337.6214                  APPROX POSITION XYZ
        0.0000        0.0000        0.0000                  ANTENNA: DELTA H/E/N
G    8 C1C L1C D1C S1C C2Y L2Y D2Y S2Y                      SYS / # / OBS TYPES
R    8 C1C L1C D1C S1C C2P L2P D2P S2P                      SYS / # / OBS TYPES
C    8 C1I L1I D1I S1I C7I L7I D7I S7I                      SYS / # / OBS TYPES
E    8 C1C L1C D1C S1C C7Q L7Q D7Q S7Q                      SYS / # / OBS TYPES
DBHZ                                                        COMMENT
     30.000                                                 INTERVAL
  2020    05    01    13    00    0.0000000     GPS         TIME OF FIRST OBS
  2020    05    01    13    59   30.0000000     GPS         TIME OF LAST OBS
     0                                                      RCV CLOCK OFFS APPL
G L1C  0.00000                                              SYS / PHASE SHIFT
G L2Y  0.00000                                              SYS / PHASE SHIFT
R L1C  0.00000                                              SYS / PHASE SHIFT
R L2P  0.25000                                              SYS / PHASE SHIFT
C L1I  0.00000                                              SYS / PHASE SHIFT
C L7I  0.00000                                              SYS / PHASE SHIFT
E L1C  0.50000                                              SYS / PHASE SHIFT
E L7Q -0.25000                                              SYS / PHASE SHIFT
 14 R02 -4 R03  5 R04  6 R05  1 R09 -2 R10 -5 R13 -2 R14 -7 GLONASS SLOT / FRQ #
    R15  0 R16 -1 R17  4 R18 -3 R19  3 R20  2               GLONASS SLOT / FRQ #
 C1C   71.950 C2C   71.950 C2P   71.950                     GLONASS COD/PHS/BIS
    18                                                      LEAP SECONDS
*** Above antenna height is from mark to ANTENNA BOTTOM.    COMMENT
    17     4        0.0000        ANT MEASURE TYPE/HEIGT    COMMENT
    0.0000    0.0000    0.0458    0.0405    0.0000          COMMENT
                    BASE STATION                            COMMENT
                                                            END OF HEADER
> 2020 05 01 13 00  0.0000000  0 16        .000000000000
G18  21205413.875 8 111435245.734 8      2309.234          51.000    21205415.445 8  86832689.635 8      1799.403          49.000
G21  21311429.633 8 111992340.663 8      1924.285          51.000    21311431.609 8  87266713.241 8      1499.443          49.000
G25  22174833.203 6 116529513.197 6     -2685.727          40.000    22174833.547 6  90802216.474 6     -2092.774          41.000
G29  20699687.266 8 108777607.620 8     -1443.750          51.000    20699686.703 8  84761767.341 8     -1125.000          51.000
G31  21211869.688 7 111469118.823 7      -686.145          43.000    21211867.477 7  86859030.849 7      -534.658          43.000
R16  19694743.375 7 105205791.504 7     -1987.312          47.000    19694746.367 7  81826728.924 7     -1545.687          42.000
R18  20085691.016 6 107218902.443 6     -2521.453          37.000    20085694.672 5  83392473.089 5     -1961.133          31.000
R19  19439582.219 7 103988680.035 7      1195.613          42.000    19439583.773 7  80880082.895 7       929.921          45.000
C05  39628992.719 5 206358564.199 5        30.688          35.000    39628992.000 6 159569528.837 6        23.748          38.000
C29  21824861.102 8 113647797.552 8      1113.047          51.000
C30  22453442.219 8 116920951.326 8     -1865.965          51.000
E01  25547069.328 8 134250711.906 8     -2232.156          51.000    25547070.695 8 102867436.560 8     -1710.330          51.000
E12  23775310.023 8 124940104.883 8      2658.887          49.000    23775308.312 8  95733275.634 8      2037.395          49.000
E26  24526236.609 5 128886201.150 5     -2226.645          35.000
E31  23384232.539 8 122884978.842 8       164.031          51.000    23384237.500 8  94158627.029 8       125.764          51.000
E33  23481121.828 8 123394187.458 8       294.871          51.000    23481123.688 8  94548795.118 8       225.934          51.000
> 2020 05 01 13 00 30.0000000  0 16        .000000000000
G18  21192334.156 8 111366511.743 8      2283.344          50.000    21192335.750 8  86779130.689 8      1779.229          48.000
G21  21300547.203 8 111935149.617 8      1898.797          51.000    21300548.414 8  87222148.810 8      1479.585          49.000
G25  22190249.758 6 116610528.978 6     -2704.320          38.000    22190251.133 6  90865345.626 6     -2107.263          38.000
G29  20708017.750 8 108821384.913 8     -1464.371          51.000    20708017.172 8  84795879.527 8     -1141.071          51.000
G31  21215899.992 7 111490299.256 7      -715.387          42.000    21215898.094 7  86875535.102 7      -557.441          42.000
R16  19706021.375 7 105266038.668 7     -2018.695          46.000    19706023.859 6  81873587.757 6     -1570.099          40.000
R18  20099963.000 6 107295084.262 6     -2546.621          40.000    20099968.094 6  83451725.607 6     -1980.702          36.000
R19  19432997.484 7 103953456.259 7      1163.547          42.000    19432999.539 7  80852686.677 7       904.984          44.000
C05  39628873.195 6 206357941.903 6        21.262          36.000    39628872.445 6 159569047.680 6        16.100          37.000
C29  21818540.438 8 113614886.262 8      1091.340          50.000
C30  22464274.312 8 116977357.077 8     -1884.148          51.000
E01  25559891.484 8 134318093.164 8     -2249.434          51.000    25559892.242 8 102919066.316 8     -1723.577          50.000
E12  23760209.398 8 124860754.481 8      2641.516          48.000    23760208.609 8  95672474.702 8      2024.024          49.000
E26  24539028.047 6 128953413.030 6     -2243.664          37.000
E31  23383384.203 8 122880520.070 8       143.641          51.000    23383388.742 8  94155210.562 8       110.068          51.000
E33  23479534.523 8 123385844.891 8       271.754          51.000    23479536.367 8  94542402.760 8       208.266          51.000
> 2020 05 01 13 01  0.0000000  0 16        .000000000000
G18  21179339.492 7 111298227.679 7      2268.145          47.000    21179341.234 7  86725922.345 7      1767.385          46.000
G21  21289747.805 8 111878395.439 8      1883.996          51.000    21289748.352 8  87177924.813 8      1468.052          49.000
G25  22205710.977 5 116691782.303 5     -2713.070          35.000    22205713.711 5  90928659.921 5     -2114.081          35.000
G29  20716403.562 8 108865452.717 8     -1474.324          51.000    20716402.867 8  84830218.060 8     -1148.824          51.000
G31  21220034.141 7 111512027.683 7      -734.098          42.000    21220033.375 7  86892466.348 7      -572.024          42.000
R16  19717414.406 8 105326897.961 8     -2039.336          48.000    19717416.227 6  81920922.706 6     -1586.150          41.000
R18  20114312.023 6 107371679.171 6     -2560.566          39.000    20114319.703 5  83511299.490 5     -1991.549          35.000
R19  19426529.570 6 103918858.236 6      1142.312          41.000    19426531.922 7  80825777.126 7       888.468          44.000
C05  39628749.906 6 206357299.702 6        21.254          36.000    39628749.109 6 159568551.075 6        16.426          37.000
C29  21812282.328 8 113582302.858 8      1080.297          49.000
C30  22475148.531 8 117033983.045 8     -1891.594          51.000
E01  25572749.844 8 134385669.256 8     -2256.164          49.000    25572751.148 8 102970845.394 8     -1728.827          50.000
E12  23745145.906 8 124781599.791 8      2634.754          49.000    23745145.992 8  95611823.743 8      2018.798          49.000
E26  24551854.727 6 129020814.559 6     -2249.984          36.000
E31  23382591.047 8 122876351.559 8       133.676          51.000    23382595.273 8  94152016.504 8       102.424          51.000
E33  23478016.883 8 123377868.271 8       259.371          51.000    23478018.570 8  94536290.808 8       198.718          51.000
> 2020 05 01 13 01 30.0000000  0 16        .000000000000
G18  21166436.633 7 111230426.262 7      2252.566          47.000    21166438.344 7  86673090.116 7      1755.247          46.000
G21  21279037.234 8 111822110.065 8      1868.785          51.000    21279037.547 8  87134066.134 8      1456.199          48.000
G25  22221222.023 6 116773303.014 6     -2721.406          38.000    22221226.898 6  90992182.635 6     -2120.573          39.000
G29  20724850.273 8 108909840.583 8     -1484.402          51.000    20724849.516 8  84864805.987 8     -1156.677          51.000
G31  21224278.789 7 111534334.208 7      -752.738          45.000    21224278.336 7  86909848.048 7      -586.546          45.000
R16  19728928.164 8 105388399.546 8     -2060.344          48.000    19728929.609 7  81968757.247 7     -1602.490          43.000
R18  20128743.430 7 107448715.019 7     -2574.699          42.000    20128748.406 5  83571216.204 5     -2002.553          31.000
R19  19420184.312 6 103884916.976 6      1121.070          41.000    19420187.188 7  80799378.401 7       871.944          45.000
C05  39628628.523 6 206356667.929 6        21.543          36.000    39628627.773 6 159568062.568 6        16.583          37.000
C29  21806093.188 8 113550077.681 8      1068.711          50.000
C30  22486070.719 8 117090858.205 8     -1899.449          51.000
E01  25585650.391 8 134453470.463 8     -2263.160          48.000    25585653.688 8 103022796.954 8     -1734.176          50.000
E12  23730126.078 8 124702672.674 8      2627.719          49.000    23730126.641 8  95551347.168 8      2013.348          48.000
E26  24564722.172 5 129088486.037 5     -2257.207          35.000    24564731.195 5  98911991.250 5     -1729.381          32.000
E31  23381859.219 8 122872504.876 8       123.484          51.000    23381863.266 8  94149069.031 8        94.591          51.000
E33  23476574.492 8 123370287.944 8       246.648          51.000    23476576.008 8  94530482.500 8       189.041          51.000
> 2020 05 01 13 02  0.0000000  0 16        .000000000000
G18  21153622.617 8 111163087.812 8      2236.531          49.000    21153623.602 7  86620618.622 7      1742.755          45.000
G21  21268411.656 8 111766273.145 8      1853.305          50.000    21268411.992 7  87090556.908 7      1444.137          47.000
G25  22236781.375 6 116855068.697 6     -2730.066          40.000    22236787.008 6  91055896.193 6     -2127.321          41.000
G29  20733353.367 8 108954525.096 8     -1494.879          51.000    20733352.508 8  84899625.086 8     -1164.841          51.000
G31  21228629.695 7 111557196.553 7      -771.664          46.000    21228628.570 7  86927662.876 7      -601.297          46.000
R16  19740557.648 8 105450519.538 8     -2081.488          48.000    19740559.211 7  82017072.768 7     -1618.935          44.000
R18  20143253.188 6 107526166.253 6     -2589.035          41.000    20143255.922 5  83631455.992 5     -2013.694          34.000
R19  19413958.016 7 103851610.580 7      1099.180          42.000    19413961.164 7  80773473.453 7       854.918          45.000
C05  39628505.016 6 206356024.207 6        21.137          36.000    39628504.336 6 159567565.568 6        16.504          37.000
C29  21799968.984 8 113518189.072 8      1057.027          50.000
C30  22497036.430 8 117147959.534 8     -1907.488          51.000
E01  25598590.227 8 134521474.627 8     -2270.645          49.000    25598595.078 8 103074904.027 8     -1739.788          50.000
E12  23715145.883 8 124623952.417 8      2620.254          49.000    23715146.750 8  95491029.096 8      2007.655          48.000
E26  24577626.992 5 129156300.972 5     -2263.918          32.000    24577635.023 5  98963954.114 5     -1734.789          33.000
E31  23381184.680 8 122868959.089 8       112.812          51.000    23381188.438 8  94146352.130 8        86.390          51.000
E33  23475203.266 8 123363081.776 8       233.559          51.000    23475204.625 8  94524960.897 8       178.952          51.000
> 2020 05 01 13 02 30.0000000  0 16        .000000000000
G18  21140899.922 8 111096227.639 8      2219.430          50.000    21140900.281 7  86568519.820 7      1729.426          45.000
G21  21257873.914 8 111710899.164 8      1836.957          49.000    21257874.430 8  87047408.379 8      1431.395          48.000
G25  22252390.414 6 116937091.931 6     -2739.762          41.000    22252396.375 6  91119810.305 6     -2134.885          41.000
G29  20741915.164 8 108999518.327 8     -1506.117          51.000    20741914.273 8  84934684.741 8     -1173.598          51.000
G31  21233088.492 7 111580627.294 7      -791.840          45.000    21233086.711 7  86945920.564 7      -617.018          46.000
R16  19752305.109 8 105513270.542 8     -2103.508          48.000    19752306.859 7  82065879.113 7     -1636.062          43.000
R18  20157841.883 6 107604043.182 6     -2604.391          37.000    20157845.992 5  83692027.052 5     -2025.631          33.000
R19  19407852.805 6 103818952.393 6      1076.645          41.000    19407856.102 7  80748072.647 7       837.390          46.000
C05  39628382.016 5 206355383.793 5        20.219          35.000    39628381.320 6 159567070.396 6        15.589          37.000
C29  21793912.180 8 113486650.240 8      1044.211          50.000
C30  22508047.859 8 117205298.831 8     -1916.508          51.000
E01  25611572.156 8 134589694.620 8     -2278.805          51.000    25611577.844 8 103127176.489 8     -1746.055          51.000
E12  23700207.719 8 124545453.467 8      2611.766          48.000    23700209.023 8  95430880.595 8      2001.268          48.000
E26  24590571.859 5 129224324.345 5     -2272.188          34.000    24590576.828 5  99016070.900 5     -1741.015          33.000
E31  23380569.914 8 122865728.364 8       101.234          51.000    23380573.500 8  94143876.637 8        77.560          51.000
E33  23473905.703 8 123356262.703 8       219.633          51.000    23473907.016 8  94519735.901 8       168.305          51.000
> 2020 05 01 13 03  0.0000000  0 16        .000000000000
G18  21128270.516 8 111029857.523 8      2204.633          50.000    21128270.680 7  86516802.881 7      1717.896          47.000
G21  21247426.227 8 111655999.354 8      1822.586          49.000    21247427.359 8  87004629.318 8      1420.200          48.000
G25  22268050.180 6 117019381.750 6     -2746.645          39.000    22268053.891 6  91183932.104 6     -2140.249          39.000
G29  20750537.367 8 109044828.814 8     -1515.152          51.000    20750536.586 8  84969991.606 8     -1180.638          51.000
G31  21237657.016 7 111604635.511 7      -809.453          45.000    21237654.828 7  86964628.250 7      -630.743          45.000
R16  19764171.695 7 105576661.391 7     -2123.383          46.000    19764174.242 7  82115183.095 7     -1651.520          43.000
R18  20172512.023 6 107682352.508 6     -2616.816          40.000    20172513.797 5  83752934.247 5     -2035.308          32.000
R19  19401870.883 6 103786952.611 6      1056.078          41.000    19401874.078 7  80723183.938 7       821.394          45.000
C05  39628261.211 6 206354754.604 6        21.172          36.000    39628260.703 6 159566584.632 6        16.677          37.000
C29  21787925.078 8 113455470.950 8      1033.852          51.000
C30  22519106.664 8 117262884.446 8     -1923.152          51.000
E01  25624597.227 8 134658140.018 8     -2284.703          51.000    25624602.844 8 103179621.636 8     -1750.587          50.000
E12  23685313.688 7 124467186.911 7      2605.512          47.000    23685315.461 7  95370910.145 7      1996.473          47.000
E26  24603558.562 5 129292563.379 5     -2277.305          35.000    24603559.836 5  99068339.986 5     -1744.580          30.000
E31  23380017.070 8 122862823.510 8        91.969          51.000    23380020.516 8  94141650.826 8        70.488          51.000
E33  23472683.531 8 123349840.249 8       208.012          51.000    23472684.828 8  94514814.811 8       159.404          51.000
> 2020 05 01 13 03 30.0000000  0 16        .000000000000
G18  21115714.680 8 110963875.201 8      2190.027          50.000    21115715.203 8  86465388.142 8      1706.518          48.000
G21  21237049.477 8 111601470.499 8      1808.449          50.000    21237051.000 8  86962139.293 8      1409.181          49.000
G25  22283740.422 6 117101832.911 6     -2753.641          38.000    22283741.945 6  91248179.653 6     -2145.697          38.000
G29  20759199.945 8 109090350.877 8     -1523.832          51.000    20759199.289 8  85005463.341 8     -1187.402          51.000
G31  21242315.109 7 111629116.163 7      -826.715          44.000    21242312.969 7  86983704.041 7      -644.193          44.000
R16  19776137.312 7 105640584.446 7     -2142.574          44.000    19776141.438 7  82164900.957 7     -1666.450          42.000
R18  20187242.352 6 107760984.696 6     -2629.492          36.000    20187243.758 5  83814092.644 5     -2045.155          35.000
R19  19395992.297 6 103755504.336 6      1036.012          41.000    19395994.492 7  80698724.172 7       805.787          44.000
C05  39628123.039 6 206354035.218 6        22.246          36.000    39628122.594 6 159566028.346 6        17.649          37.000
C29  21781987.508 8 113424547.607 8      1023.688          51.000
C30  22530192.688 8 117320611.463 8     -1929.465          51.000
E01  25637645.156 8 134726705.870 8     -2290.383          51.000    25637649.758 8 103232159.080 8     -1754.972          48.000
E12  23670444.578 7 124389049.278 7      2599.562          47.000    23670446.312 7  95311038.497 7      1991.920          46.000
E26  24616566.336 5 129360912.162 5     -2282.578          35.000    24616564.953 5  99120706.229 5     -1748.893          32.000
E31  23379506.500 8 122860140.842 8        82.902          51.000    23379509.930 8  94139595.274 8        63.508          51.000
E33  23471516.789 8 123343709.555 8       196.672          51.000    23471518.023 8  94510117.276 8       150.703          51.000
> 2020 05 01 13 04  0.0000000  0 16        .000000000000
G18  21103288.289 8 110898574.000 8      2168.262          50.000    21103289.320 8  86414504.144 8      1689.555          49.000
G21  21226799.500 8 111547605.439 8      1787.383          51.000    21226800.734 8  86920166.535 8      1392.769          48.000
G25  22299515.695 6 117184735.947 6     -2767.766          36.000    22299517.883 5  91312779.408 5     -2156.700          34.000
G29  20767957.945 8 109136374.405 8     -1539.586          51.000    20767957.406 8  85041325.827 8     -1199.677          51.000
G31  21247118.438 7 111654359.685 7      -851.031          47.000    21247116.805 7  87003374.316 7      -663.141          47.000
R16  19788257.875 7 105705334.574 7     -2169.203          45.000    19788263.031 7  82215262.105 7     -1687.158          43.000
R18  20202088.438 6 107840232.756 6     -2649.109          41.000    20202091.156 6  83875730.062 6     -2060.421          37.000
R19  19390272.016 6 103724904.372 6      1008.773          40.000    19390273.805 7  80674924.235 7       784.605          45.000
C05  39628022.836 6 206353514.304 6        16.828          36.000    39628022.391 6 159565624.813 6        13.233          37.000
C29  21776154.273 8 113394168.840 8      1006.449          51.000
C30  22541360.789 8 117378767.161 8     -1942.793          51.000
E01  25650771.195 8 134795683.109 8     -2303.102          51.000    25650774.383 8 103285011.713 8     -1764.750          48.000
E12  23655656.180 8 124311333.030 8      2586.477          48.000    23655657.148 7  95251489.749 7      1981.867          46.000
E26                                                                  24629648.070 5  99173383.536 5     -1758.022          32.000
E31  23379093.820 8 122857972.571 8        66.676          51.000    23379097.500 8  94137933.867 8        51.107          51.000
E33  23470461.000 8 123338161.592 8       178.133          51.000    23470462.016 8  94505866.244 8       136.518          51.000
> 2020 05 01 13 04 30.0000000  0 16        .000000000000
G18  21090933.633 8 110833650.269 8      2156.324          50.000    21090935.188 8  86363914.258 8      1680.256          48.000
G21  21216618.055 8 111494099.794 8      1775.980          51.000    21216618.750 8  86878473.837 8      1383.881          48.000
G25  22315319.312 6 117267784.650 6     -2772.305          40.000    22315321.703 6  91377492.657 6     -2160.237          40.000
G29  20776753.016 8 109182592.714 8     -1545.434          51.000    20776752.516 8  85077340.094 8     -1204.234          51.000
G31  21252009.234 8 111680060.093 8      -865.902          48.000    21252007.812 8  87023400.622 8      -674.729          48.000
R16  19800475.242 7 105770599.685 7     -2185.621          43.000    19800481.219 7  82266023.844 7     -1699.931          44.000
R18  20216991.227 6 107919782.883 6     -2658.133          37.000    20216992.922 6  83937602.348 6     -2067.437          36.000
R19  19384651.695 6 103694841.674 6       991.598          39.000    19384653.703 7  80651542.138 7       771.243          44.000
C05  39627902.461 5 206352886.397 5        21.176          35.000    39627902.023 6 159565140.056 6        16.380          37.000
C29  21770367.250 8 113364031.814 8       999.039          51.000
C30  22552552.656 8 117437047.346 8     -1946.270          51.000
E01  25663917.430 8 134864765.749 8     -2305.980          51.000    25663919.281 8 103337945.117 8     -1766.911          48.000
E12  23640890.148 8 124233733.728 8      2583.172          48.000    23640890.023 7  95192030.608 7      1979.436          46.000
E26                                                                  24642749.148 5  99226138.870 5     -1760.641          30.000
E31  23378721.039 8 122856014.031 8        60.320          51.000    23378724.891 8  94136433.161 8        46.204          51.000
E33  23469457.789 8 123332890.399 8       169.605          51.000    23469458.617 8  94501827.286 8       129.990          51.000
> 2020 05 01 13 05  0.0000000  0 16        .000000000000
G18  21078670.391 8 110769206.869 8      2140.215          50.000    21078672.312 8  86313698.625 8      1667.700          48.000
G21  21206524.281 8 111441055.653 8      1760.449          50.000    21206524.484 7  86837140.756 7      1371.779          47.000
G25  22331170.430 7 117351079.050 7     -2780.652          43.000    22331171.797 7  91442397.371 7     -2166.745          42.000
G29  20785604.125 8 109229105.203 8     -1555.281          51.000    20785603.617 8  85113583.587 8     -1211.907          51.000
G31  21257006.000 8 111706317.283 8      -884.375          48.000    21257004.578 8  87043860.760 8      -689.123          48.000
R16  19812807.773 7 105836480.968 7     -2206.082          43.000    19812814.820 7  82317264.829 7     -1715.842          46.000
R18  20231968.781 6 107999734.105 6     -2671.660          39.000    20231969.773 6  83999786.681 6     -2077.961          38.000
R19  19379151.086 6 103665418.538 6       970.246          40.000    19379153.352 7  80628657.469 7       754.636          45.000
C05  39627781.141 6 206352254.360 6        21.453          36.000    39627780.656 6 159564651.364 6        16.220          37.000
C29  21764645.492 8 113334236.435 8       987.469          51.000
C30  22563787.547 8 117495550.555 8     -1953.738          51.000
E01  25677102.922 8 134934054.274 8     -2313.008          51.000    25677104.422 8 103391036.264 8     -1772.320          49.000
E12  23626165.648 8 124156353.359 8      2575.742          48.000    23626164.578 7  95132739.241 7      1973.558          47.000
E26                                                                  24655886.078 5  99279035.229 5     -1766.139          31.000
E31  23378407.508 8 122854366.916 8        49.773          51.000    23378411.398 8  94135171.079 8        38.129          51.000
E33  23468526.242 8 123327996.445 8       156.895          51.000    23468527.102 8  94498077.386 8       120.248          51.000
> 2020 05 01 13 05 30.0000000  0 16        .000000000000
G18  21066500.258 8 110705253.331 8      2123.875          49.000    21066502.344 8  86263864.719 8      1654.968          48.000
G21  21196520.016 8 111388481.923 8      1744.824          50.000    21196519.539 7  86796174.221 7      1359.603          46.000
G25  22347069.578 7 117434625.996 7     -2788.781          42.000    22347070.875 6  91507498.810 6     -2173.079          41.000
G29  20794512.492 8 109275918.462 8     -1565.172          51.000    20794511.992 8  85150061.449 8     -1219.614          51.000
G31  21262109.828 7 111733138.456 7      -903.051          46.000    21262108.562 7  87064760.329 7      -703.679          46.000
R16  19825257.422 7 105902984.779 7     -2226.848          44.000    19825264.414 7  82368990.042 7     -1731.990          46.000
R18  20247022.656 6 108080091.198 6     -2685.070          38.000    20247025.258 6  84062286.585 6     -2088.388          39.000
R19  19373771.984 6 103636642.522 6       948.750          40.000    19373774.258 7  80606276.130 7       737.917          45.000
C05  39627660.164 6 206351625.924 6        21.488          36.000    39627659.773 6 159564164.662 6        16.263          38.000
C29  21758990.180 8 113304790.126 8       975.988          50.000
C30  22575066.719 8 117554282.976 8     -1961.324          51.000
E01  25690329.242 8 135003555.836 8     -2320.008          51.000    25690330.836 8 103444290.668 8     -1777.686          51.000
E12  23611484.070 7 124079200.647 7      2568.172          47.000    23611482.602 7  95073622.287 7      1967.811          47.000
E26                                                                  24669060.969 5  99332085.294 5     -1771.101          32.000
E31  23378154.969 8 122853039.681 8        39.164          51.000    23378159.023 8  94134154.098 8        29.976          51.000
E33  23467667.914 8 123323486.937 8       144.164          51.000    23467668.750 8  94494622.059 8       110.463          51.000
> 2020 05 01 13 06  0.0000000  0 16        .000000000000
G18  21054423.484 8 110641791.062 8      2107.832          48.000    21054425.289 8  86214413.633 8      1642.470          48.000
G21  21186605.375 8 111336378.818 8      1729.617          51.000    21186603.828 7  86755574.409 7      1347.754          45.000
G25  22363016.359 7 117518424.105 7     -2796.824          42.000    22363017.695 7  91572795.995 7     -2179.344          42.000
G29  20803477.656 8 109323030.104 8     -1574.719          51.000    20803477.086 8  85186771.832 8     -1227.054          51.000
G31  21267320.625 7 111760521.740 7      -921.477          47.000    21267319.266 7  87086097.937 7      -718.034          47.000
R16  19837823.789 7 105970109.083 7     -2247.004          46.000    19837829.859 7  82421197.860 7     -1747.670          46.000
R18  20262150.750 6 108160849.925 6     -2698.129          38.000    20262153.648 6  84125098.953 6     -2098.545          36.000
R19  19368513.219 6 103608512.848 6       927.465          38.000    19368515.438 7  80584397.498 7       721.362          44.000
C05  39627539.656 6 206350997.648 6        21.738          36.000    39627539.375 6 159563679.591 6        16.976          37.000
C29  21753401.547 8 113275692.303 8       964.750          50.000
C30  22586389.492 8 117613242.677 8     -1968.426          51.000
E01  25703596.039 8 135073269.483 8     -2326.605          51.000    25703597.867 8 103497707.579 8     -1782.745          51.000
E12  23596845.734 7 124002276.107 7      2561.074          47.000    23596844.195 7  95014680.168 7      1962.340          47.000
E26                                                                  24682272.570 5  99385283.477 5     -1775.397          30.000
E31  23377963.359 8 122852032.610 8        28.930          51.000    23377967.469 8  94133382.441 8        22.179          51.000
E33  23466882.516 8 123319360.874 8       131.832          51.000    23466883.211 8  94491460.536 8       100.993          51.000
> 2020 05 01 13 06 30.0000000  0 15        .000000000000
G18  21042440.281 8 110578820.172 8      2090.914          49.000    21042441.758 7  86165345.443 7      1629.284          47.000
G21  21176780.336 8 111284746.224 8      1713.340          51.000    21176777.648 7  86715341.271 7      1335.073          44.000
G25  22379009.672 6 117602470.915 6     -2805.688          40.000    22379011.625 6  91638286.947 6     -2186.253          41.000
G29  20812499.031 8 109370437.406 8     -1585.055          51.000    20812498.352 8  85223712.586 8     -1235.108          51.000
G31  21272637.922 7 111788464.472 7      -940.613          47.000    21272636.273 7  87107871.501 7      -732.945          47.000
R16  19850505.898 7 106037850.720 7     -2268.246          46.000    19850510.922 7  82473885.780 7     -1764.191          45.000
R18  20277354.281 6 108242005.427 6     -2711.625          37.000    20277354.609 6  84188219.783 6     -2109.045          37.000
R19  19363375.031 6 103581027.474 6       905.594          39.000    19363377.234 7  80563019.985 7       704.351          45.000
C05  39627419.453 6 206350371.851 6        20.801          36.000    39627418.930 6 159563194.914 6        16.278          37.000
C29  21747879.430 8 113246941.123 8       952.762          49.000
C30  22597755.117 8 117672426.469 8     -1976.340          51.000
E01  25716902.508 8 135143192.980 8     -2334.113          51.000    25716904.930 8 103551285.286 8     -1788.530          51.000
E12  23582250.719 7 123925579.059 7      2552.938          47.000    23582249.016 7  94955912.347 7      1956.129          47.000
E31  23377832.391 8 122851344.739 8        17.691          51.000    23377836.492 8  94132855.375 8        13.559          51.000
E33  23466169.594 8 123315616.082 8       118.637          51.000    23466170.328 8  94488591.167 8        90.847          51.000
> 2020 05 01 13 07  0.0000000  0 15        .000000000000
G18  21030554.453 8 110516359.349 8      2074.348          51.000    21030555.602 8  86116674.712 8      1616.375          48.000
G21  21167048.141 8 111233601.915 8      1697.473          51.000    21167044.961 7  86675488.627 7      1322.709          45.000
G25  22395052.945 6 117686782.235 6     -2813.727          38.000    22395055.820 6  91703984.087 6     -2192.514          38.000
G29  20821579.594 8 109418155.963 8     -1594.934          51.000    20821578.992 8  85260895.878 8     -1242.805          51.000
G31  21278064.750 7 111816982.962 7      -959.281          47.000    21278063.211 7  87130093.687 7      -747.492          47.000
R16  19863306.625 8 106106225.196 8     -2288.742          49.000    19863310.523 7  82527065.897 7     -1780.133          44.000
R18  20292633.812 5 108323571.440 5     -2724.812          33.000    20292636.852 6  84251660.108 6     -2119.296          38.000
R19  19358360.719 6 103554203.085 6       884.160          41.000    19358362.992 7  80542156.604 7       687.683          45.000
C05  39627302.336 6 206349762.164 6        20.582          36.000    39627301.867 6 159562723.520 6        16.163          37.000
C29  21742427.125 8 113218553.060 8       941.180          49.000
C30  22609166.562 8 117731849.561 8     -1983.895          51.000
E01  25730251.609 8 135213342.649 8     -2341.285          51.000    25730255.070 8 103605036.299 8     -1793.933          51.000
E12  23567702.383 7 123849127.294 7      2545.160          46.000    23567700.367 7  94897332.492 7      1950.149          46.000
E31  23377765.594 8 122850993.701 8         6.902          51.000    23377769.672 8  94132586.394 8         5.337          51.000
E33  23465532.461 8 123312268.842 8       105.812          51.000    23465533.422 8  94486026.413 8        81.065          51.000
> 2020 05 01 13 07 30.0000000  0 15        .000000000000
G18  21018762.391 8 110454390.010 8      2057.434          51.000    21018763.344 7  86068386.961 7      1603.195          47.000
G21  21157405.117 8 111182926.748 8      1681.316          51.000    21157401.984 7  86636001.556 7      1310.120          44.000
G25  22411141.953 6 117771336.889 6     -2822.613          37.000    22411146.578 6  91769870.899 6     -2199.442          36.000
G29  20830715.172 8 109466163.799 8     -1605.059          51.000    20830714.805 8  85298304.573 8     -1250.695          51.000
G31  21283597.148 8 111846055.717 8      -978.410          48.000    21283595.930 8  87152747.765 8      -762.398          48.000
R16  19876221.641 8 106175210.149 8     -2309.668          50.000    19876224.328 7  82580720.814 7     -1796.408          42.000
R18  20307985.961 5 108405524.016 5     -2738.574          35.000    20307991.523 6  84315400.973 6     -2130.002          37.000
R19  19353465.883 6 103528018.953 6       861.945          40.000    19353468.195 7  80521791.176 7       670.402          45.000
C05  39627184.742 6 206349149.708 6        20.176          36.000    39627184.234 6 159562249.909 6        15.843          37.000
C29  21737040.859 8 113190507.815 8       929.141          49.000
C30  22620619.766 8 117791490.364 8     -1991.656          51.000
E01  25743639.070 8 135283697.572 8     -2348.590          48.000    25743644.195 8 103658944.605 8     -1799.536          51.000
E12  23553196.625 7 123772901.570 7      2536.980          45.000    23553194.828 7  94838925.806 7      1944.034          46.000
E31  23377759.234 8 122850959.862 8        -4.113          51.000    23377763.383 8  94132560.475 8        -3.179          51.000
E33  23464967.156 8 123309298.379 8        92.727          51.000    23464968.141 8  94483750.337 8        71.098          51.000
> 2020 05 01 13 08  0.0000000  0 16        .000000000000
G18  21007065.242 8 110392919.477 8      2040.805          51.000    21007065.969 8  86020487.872 8      1590.237          48.000
G21  21147852.438 8 111132727.352 8      1665.449          51.000    21147849.672 7  86596885.209 7      1297.756          45.000
G25  22427278.750 6 117856139.663 6     -2831.016          37.000    22427284.078 6  91835950.972 6     -2205.986          37.000
G29  20839906.617 8 109514465.173 8     -1614.812          51.000    20839906.344 8  85335941.987 8     -1258.295          51.000
G31  21289235.938 7 111875687.361 7      -996.914          47.000    21289234.891 8  87175837.346 8      -776.816          48.000
R16  19889251.438 8 106244809.725 8     -2330.109          49.000    19889253.172 7  82634853.771 7     -1812.310          42.000
R18  20323411.398 6 108487865.293 6     -2751.469          36.000    20323416.023 5  84379444.203 5     -2140.031          33.000
R19  19348691.602 6 103502479.940 6       840.793          40.000    19348693.867 7  80501927.520 7       653.950          44.000
C05  39627067.484 6 206348538.752 6        20.102          36.000    39627067.141 6 159561778.266 6        15.746          37.000
C29  21731721.953 8 113162810.651 8       917.559          50.000
C30  22632115.617 8 117851352.898 8     -1999.035          51.000
E01  25757065.719 7 135354262.847 7     -2355.676          46.000    25757072.945 8 103713014.082 8     -1804.962          51.000
E12  23538734.047 7 123696908.359 7      2529.430          42.000    23538733.969 7  94780697.257 7      1938.027          46.000
E26  24735491.602 5 129985874.355 5     -2343.168          35.000    24735493.016 5  99599576.038 5     -1795.666          34.000
E31  23377814.445 8 122851249.520 8       -14.996          51.000    23377818.586 8  94132782.417 8       -11.482          51.000
E33  23464474.258 8 123306709.566 8        80.020          51.000    23464475.328 8  94481766.702 8        61.308          51.000
> 2020 05 01 13 08 30.0000000  0 16        .000000000000
G18  20995461.367 8 110331939.088 8      2024.246          51.000    20995461.438 8  85972970.696 8      1577.335          49.000
G21  21138388.500 8 111082994.248 8      1649.750          51.000    21138386.617 7  86558132.177 7      1285.523          45.000
G25  22443461.570 6 117941179.048 6     -2839.043          40.000    22443466.102 6  91902215.407 6     -2212.238          39.000
G29  20849151.648 8 109563048.286 8     -1624.410          51.000    20849151.297 8  85373798.937 8     -1265.774          51.000
G31  21294978.648 7 111905866.383 7     -1015.309          47.000    21294977.484 8  87199353.457 8      -791.150          48.000
R16  19902393.539 8 106315011.859 8     -2350.426          49.000    19902395.375 7  82689455.373 7     -1828.109          43.000
R18  20338906.773 5 108570581.335 5     -2763.066          33.000    20338909.930 5  84443778.797 5     -2149.052          34.000
R19  19344036.312 6 103477575.295 6       819.305          41.000    19344037.953 7  80482557.252 7       637.240          44.000
C05  39626948.930 6 206347921.053 6        20.289          36.000    39626948.461 6 159561300.653 6        15.674          37.000
C29  21726468.172 8 113135451.021 8       906.047          51.000
C30  22643651.969 8 117911425.324 8     -2006.234          51.000
E01  25770530.430 7 135425027.381 7     -2362.484          46.000    25770539.180 8 103767236.246 8     -1810.123          51.000
E12  23524314.109 7 123621138.150 7      2521.730          42.000    23524315.938 7  94722639.579 7      1932.157          46.000
E26  24748887.844 6 130056256.084 6     -2349.617          36.000    24748887.625 5  99653504.898 5     -1800.063          33.000
E31  23377929.383 8 122851852.874 8       -25.570          51.000    23377933.367 8  94133244.723 8       -19.599          51.000
E33  23464052.039 8 123304491.397 8        67.586          51.000    23464053.273 8  94480067.070 8        51.754          51.000
> 2020 05 01 13 09  0.0000000  0 16        .000000000000
G18  20983953.523 8 110271464.086 8      2007.980          51.000    20983953.242 8  85925847.338 8      1564.660          50.000
G21  21129016.047 8 111033742.003 8      1634.297          51.000    21129015.008 7  86519753.824 7      1273.481          45.000
G25  22459691.992 6 118026467.712 6     -2846.566          38.000    22459692.695 6  91968674.116 6     -2218.104          38.000
G29  20858452.648 8 109611925.127 8     -1633.531          51.000    20858452.234 8  85411884.763 8     -1272.885          51.000
G31  21300827.750 8 111936605.259 8     -1033.359          48.000    21300826.375 8  87223305.834 8      -805.215          48.000
R16  19915650.320 7 106385828.251 7     -2370.195          47.000    19915652.492 7  82744534.760 7     -1843.488          44.000
R18  20354474.461 5 108653682.486 5     -2776.109          35.000    20354478.648 5  84508413.060 5     -2159.199          34.000
R19  19339501.984 6 103453317.905 6       798.547          41.000    19339503.305 7  80463690.430 7       621.095          46.000
C05  39626831.406 6 206347310.057 6        20.801          36.000    39626831.000 6 159560827.388 6        16.226          38.000
C29  21721281.547 8 113108442.097 8       895.035          50.000
C30  22655231.023 8 117971719.549 8     -2012.871          51.000
E01  25784036.320 7 135496004.251 7     -2368.949          46.000    25784045.625 8 103821621.082 8     -1815.085          51.000
E12  23509941.039 7 123545605.370 7      2514.391          45.000    23509943.398 7  94664763.841 7      1926.590          46.000
E26  24762318.766 5 130126827.785 5     -2354.824          35.000    24762318.102 5  99707592.312 5     -1804.558          31.000
E31  23378106.852 8 122852784.213 8       -35.949          51.000    23378110.531 8  94133958.347 8       -27.513          51.000
E33  23463703.000 8 123302656.900 8        55.309          51.000    23463704.344 8  94478661.416 8        42.412          51.000
> 2020 05 01 13 09 30.0000000  0 16        .000000000000
G18  20972540.008 8 110211486.816 8      1991.250          50.000    20972539.922 8  85879111.823 8      1551.623          49.000
G21  21119733.281 8 110984962.064 8      1618.504          51.000    21119732.633 7  86481743.491 7      1261.172          46.000
G25  22475967.844 6 118111995.398 6     -2854.746          39.000    22475968.391 6  92035319.014 6     -2224.477          39.000
G29  20867807.547 8 109661084.988 8     -1643.039          51.000    20867807.094 8  85450191.126 8     -1280.290          51.000
G31  21306781.578 8 111967893.402 8     -1051.629          49.000    21306780.195 8  87247686.199 8      -819.454          48.000
R16  19929019.711 7 106457247.677 7     -2390.309          46.000    19929022.438 7  82800083.174 7     -1859.129          44.000
R18  20370112.172 5 108737156.046 5     -2788.020          35.000    20370115.078 5  84573336.835 5     -2168.463          34.000
R19  19335086.477 6 103429698.070 6       777.078          39.000    19335088.172 7  80445319.445 7       604.394          46.000
C05  39626713.164 6 206346693.357 6        20.379          36.000    39626712.734 6 159560351.317 6        16.272          37.000
C29  21716160.430 8 113081774.338 8       883.668          51.000
C30  22666850.547 8 118032224.819 8     -2019.926          51.000
E01  25797581.016 7 135567183.398 7     -2375.664          47.000    25797589.945 8 103876160.935 8     -1820.281          51.000
E12  23495612.336 7 123470301.630 7      2506.648          47.000    23495614.594 7  94607063.611 7      1920.703          46.000
E26  24775783.391 5 130197578.506 5     -2361.168          35.000
E31  23378345.055 8 122854034.804 8       -46.684          51.000    23378348.492 8  94134916.596 8       -35.774          51.000
E33  23463425.023 8 123301196.059 8        42.848          51.000    23463426.344 8  94477542.079 8        32.816          51.000
> 2020 05 01 13 10  0.0000000  0 16        .000000000000
G18  20961221.766 8 110152010.607 8      1974.016          51.000    20961222.008 8  85832766.721 8      1538.194          49.000
G21  21110540.633 8 110936657.178 8      1602.051          50.000    21110540.328 7  86444103.333 7      1248.351          47.000
G25  22492289.945 6 118197762.793 6     -2863.281          41.000    22492290.547 6  92102150.700 6     -2231.131          41.000
G29  20877216.344 8 109710528.152 8     -1652.965          51.000    20877215.750 8  85488718.251 8     -1288.025          51.000
G31  21312840.133 8 111999731.686 8     -1070.590          49.000    21312839.055 8  87272495.219 8      -834.229          49.000
R16  19942502.453 7 106529270.107 7     -2410.891          47.000    19942505.102 7  82856100.620 7     -1875.137          43.000
R18  20385818.617 5 108821000.107 5     -2800.941          34.000    20385823.055 6  84638548.932 6     -2178.510          37.000
R19  19330790.297 6 103406716.995 6       755.098          40.000    19330792.336 7  80427445.268 7       587.298          45.000
C05  39626594.492 6 206346075.648 6        20.562          36.000    39626594.070 6 159559873.712 6        15.894          37.000
C29  21711105.445 8 113055449.117 8       871.688          51.000
C30  22678510.594 8 118092941.272 8     -2027.523          51.000
E01  25811164.883 8 135638565.883 8     -2382.898          49.000    25811172.797 8 103930856.603 8     -1825.905          51.000
E12  23481327.766 8 123395229.497 8      2498.320          48.000    23481329.656 7  94549540.859 7      1914.303          47.000
E26  24789281.320 5 130268508.275 5     -2367.254          34.000
E31  23378644.242 8 122855607.007 8       -57.922          51.000    23378647.578 8  94136121.266 8       -44.328          51.000
E33  23463218.391 8 123300109.878 8        29.879          51.000    23463219.562 8  94476709.814 8        22.876          51.000
> 2020 05 01 13 10 30.0000000  0 15        .000000000000
G18  20950001.125 8 110093046.433 8      1957.172          51.000    20950001.406 7  85786820.601 7      1525.069          47.000
G21  21101440.547 8 110888837.787 8      1586.184          50.000    21101440.453 8  86406841.468 8      1235.987          48.000
G25  22508658.984 7 118283778.330 7     -2870.902          43.000    22508659.508 7  92169175.704 7     -2237.070          43.000
G29  20886680.445 8 109760262.490 8     -1662.402          51.000    20886679.711 8  85527472.268 8     -1295.378          51.000
G31  21319005.047 8 112032128.233 8     -1088.855          50.000    21319004.539 8  87297739.264 8      -848.459          50.000
R16  19956099.367 7 106601903.117 7     -2430.973          47.000    19956102.000 7  82912592.932 7     -1890.760          43.000
R18  20401596.781 5 108905220.780 5     -2813.391          32.000    20401601.953 6  84704053.927 6     -2188.193          38.000
R19  19326615.352 6 103384383.127 6       733.945          39.000    19326617.156 7  80410074.498 7       570.849          45.000
C05  39626477.320 6 206345465.153 6        20.453          36.000    39626476.773 6 159559401.654 6        15.894          37.000
C29  21706117.750 8 113029475.419 8       860.188          51.000
C30  22690212.750 8 118153876.670 8     -2034.547          51.000
E01  25824789.531 8 135710160.435 8     -2389.684          51.000    25824795.930 8 103985714.770 8     -1831.110          50.000
E12  23467088.992 8 123320399.180 8      2490.539          48.000    23467090.305 7  94492203.394 7      1908.380          47.000
E31  23379006.641 8 122857510.769 8       -68.730          51.000    23379009.836 8  94137579.989 8       -52.616          51.000
E33  23463084.820 8 123299407.048 8        17.336          51.000    23463085.961 8  94476171.286 8        13.232          51.000
> 2020 05 01 13 11  0.0000000  0 15        .000000000000
G18  20938876.781 8 110034587.733 8      1939.621          51.000    20938876.547 7  85741268.381 7      1511.393          46.000
G21  21092431.734 8 110841496.463 8      1569.508          51.000    21092431.258 8  86369952.141 8      1222.993          48.000
G25  22525073.594 7 118370032.747 7     -2879.660          44.000    22525073.922 7  92236386.962 7     -2243.891          43.000
G29  20896198.070 8 109810278.414 8     -1672.457          51.000    20896197.406 8  85566445.704 8     -1303.216          51.000
G31  21325274.562 8 112065073.708 8     -1107.914          50.000    21325274.891 8  87323411.055 8      -863.310          50.000
R16  19969808.398 7 106675136.965 7     -2451.645          46.000    19969811.469 7  82969552.543 7     -1906.835          42.000
R18  20417436.812 5 108989683.428 5     -2825.949          30.000    20417443.945 6  84769765.357 6     -2197.961          36.000
R19  19322558.938 6 103362687.727 6       712.246          38.000    19322561.273 7  80393200.329 7       553.969          45.000
C05  39626359.883 6 206344853.732 6        20.246          36.000    39626359.289 6 159558928.888 6        15.381          37.000
C29  21701195.742 8 113003844.885 8       848.047          51.000
C30  22701955.062 8 118215021.433 8     -2042.273          50.000
E01  25838453.250 8 135781958.317 8     -2397.223          51.000    25838458.000 8 104040728.722 8     -1836.818          49.000
E12  23452894.539 8 123245803.484 8      2482.062          48.000    23452895.078 7  94435045.697 7      1901.879          47.000
E31  23379430.812 8 122859738.647 8       -80.156          51.000    23379433.898 8  94139287.069 8       -61.451          51.000
E33  23463022.531 8 123299078.795 8         4.137          51.000    23463023.805 8  94475919.782 8         3.206          51.000
> 2020 05 01 13 11 30.0000000  0 15        .000000000000
G18  20927851.352 8 109976648.262 8      1923.359          51.000    20927850.344 7  85696120.778 7      1498.722          46.000
G21  21083516.453 8 110794645.977 8      1554.230          51.000    21083515.523 8  86333445.305 8      1211.089          48.000
G25  22541535.219 6 118456537.290 6     -2886.891          41.000    22541535.977 6  92303793.039 6     -2249.528          41.000
G29  20905771.312 8 109860586.734 8     -1681.059          51.000    20905770.867 8  85605646.974 8     -1309.919          51.000
G31  21331650.555 8 112098579.077 8     -1125.484          50.000    21331651.289 8  87349519.123 8      -877.001          50.000
R16  19983631.852 7 106748981.741 7     -2470.926          43.000    19983635.312 6  83026987.316 6     -1921.831          41.000
R18  20433361.258 6 109074643.327 6     -2837.457          36.000    20433361.133 6  84835844.707 6     -2206.911          36.000
R19  19318624.078 6 103341642.733 6       691.559          38.000    19318627.000 7  80376831.963 7       537.876          45.000
C05  39626244.508 6 206344253.412 6        20.672          36.000    39626244.039 6 159558464.710 6        16.003          38.000
C29  21696342.094 8 112978569.184 8       837.336          51.000
C30  22713739.445 8 118276386.031 8     -2048.422          49.000
E01  25852158.180 8 135853971.034 8     -2403.273          51.000    25852161.070 8 104095907.242 8     -1841.454          48.000
E12  23438746.898 8 123171455.366 8      2474.934          48.000    23438746.766 8  94378077.691 8      1896.372          48.000
E31  23379918.891 8 122862303.336 8       -90.434          51.000    23379922.008 8  94141252.204 8       -69.272          51.000
E33  23463033.547 8 123299136.567 8        -7.594          51.000    23463034.828 8  94475964.058 8        -5.837          51.000
> 2020 05 01 13 12  0.0000000  0 15        .000000000000
G18  20916923.711 8 109919222.268 8      1905.391          51.000    20916922.500 7  85651373.314 7      1484.720          47.000
G21  21074693.453 8 110748279.737 8      1537.254          51.000    21074692.461 8  86297315.805 8      1197.860          49.000
G25  22558041.992 6 118543283.636 6     -2895.742          40.000    22558044.047 6  92371387.511 6     -2256.426          40.000
G29  20915398.555 8 109911178.690 8     -1691.395          51.000    20915398.250 8  85645069.263 8     -1317.970          51.000
G31  21338131.422 8 112132635.397 8     -1144.609          50.000    21338131.578 8  87376056.511 8      -891.903          50.000
R16  19997567.383 6 106823428.262 6     -2491.547          41.000    19997571.547 6  83084890.170 6     -1937.870          41.000
R18  20449344.547 5 109159966.236 5     -2850.535          32.000    20449350.203 6  84902207.060 6     -2217.080          39.000
R19  19314809.758 6 103321239.655 6       669.109          38.000    19314812.719 7  80360962.905 7       520.418          46.000
C05  39626129.688 6 206343655.898 6        19.668          36.000    39626129.555 6 159558003.469 6        15.091          38.000
C29  21691555.141 8 112953640.816 8       824.945          51.000
C30  22725564.305 8 118337961.782 8     -2056.230          48.000
E01  25865902.352 8 135926190.635 8     -2411.008          51.000    25865902.680 7 104151244.276 7     -1847.435          47.000
E12  23424644.977 8 123097348.437 8      2465.922          48.000    23424644.219 8  94321294.500 8      1889.443          48.000
E31  23380469.727 8 122865198.178 8      -102.258          51.000    23380472.938 8  94143470.322 8       -78.371          51.000
E33  23463116.484 8 123299572.386 8       -21.023          51.000    23463117.508 8  94476298.001 8       -16.142          51.000
> 2020 05 01 13 12 30.0000000  0 15        .000000000000
G18  20906093.820 8 109862309.893 8      1888.914          51.000    20906092.609 7  85607026.059 7      1471.884          46.000
G21  21065962.680 8 110702397.565 8      1521.848          51.000    21065961.914 8  86261563.481 8      1185.858          50.000
G25  22574594.367 6 118630269.337 6     -2902.895          41.000    22574595.953 7  92439168.515 7     -2261.999          42.000
G29  20925079.211 8 109962051.331 8     -1699.918          51.000    20925079.000 8  85684710.278 8     -1324.611          51.000
G31  21344716.594 8 112167240.404 8     -1162.117          50.000    21344715.148 8  87403021.431 8      -905.549          50.000
R16  20011614.844 7 106898473.271 7     -2510.840          43.000    20011620.031 7  83143258.518 7     -1952.875          42.000
R18  20465396.781 6 109245647.718 6     -2861.688          38.000    20465403.781 6  84968848.172 6     -2225.757          38.000
R19  19311115.445 6 103301476.600 6       648.766          39.000    19311118.195 7  80345591.650 7       504.595          46.000
C05  39626015.539 6 206343060.735 6        20.340          36.000    39626015.508 6 159557544.067 6        15.571          38.000
C29  21686834.125 8 112929057.996 8       814.164          51.000
C30  22737429.211 8 118399745.739 8     -2062.434          49.000
E01  25879685.281 8 135998614.964 8     -2417.004          51.000    25879683.305 7 104206738.186 7     -1851.909          47.000
E12  23410588.469 7 123023482.096 7      2458.758          46.000    23410586.984 8  94264695.632 8      1884.019          48.000
E31  23381083.289 8 122868422.332 8      -112.363          51.000    23381086.414 8  94145940.762 8       -86.135          51.000
E33  23463270.898 8 123300384.156 8       -32.762          51.000    23463272.008 8  94476920.015 8       -25.070          51.000
> 2020 05 01 13 13  0.0000000  0 14        .000000000000
G18  20895360.398 8 109805905.514 8      1870.809          51.000    20895358.945 7  85563074.611 7      1457.773          46.000
G21  21057322.727 8 110656993.120 8      1504.754          51.000    21057322.266 8  86226183.404 8      1172.536          50.000
G25  22591190.930 6 118717486.242 6     -2911.688          40.000    22591192.047 6  92507129.681 6     -2268.847          39.000
G29  20934811.680 8 110013196.130 8     -1710.172          51.000    20934811.531 8  85724563.367 8     -1332.601          51.000
G31  21351404.586 8 112202385.539 8     -1181.234          51.000    21351401.570 8  87430407.215 8      -920.442          51.000
R16  20025774.242 7 106974107.440 7     -2531.828          47.000    20025778.742 7  83202085.058 7     -1969.200          42.000
R19  19307539.000 6 103282345.526 6       626.375          40.000    19307541.703 7  80330711.919 7       487.181          45.000
C05  39625900.617 6 206342462.762 6        19.105          37.000    39625900.508 6 159557080.903 6        15.079          38.000
C29  21682177.945 8 112904813.288 8       801.793          51.000
C30  22749332.578 8 118461729.315 8     -2070.137          48.000
E01  25893505.062 8 136071236.237 8     -2424.848          51.000    25893502.398 8 104262383.027 8     -1858.033          49.000
E12  23396575.812 7 122949850.048 7      2449.734          45.000    23396574.172 8  94208276.281 8      1876.994          48.000
E31  23381758.320 8 122871969.232 8      -124.410          51.000    23381761.156 8  94148658.505 8       -95.360          51.000
E33  23463495.375 8 123301563.947 8       -46.285          51.000    23463496.797 8  94477824.028 8       -35.450          51.000
> 2020 05 01 13 13 30.0000000  0 15        .000000000000
G18  20884727.000 8 109750029.135 8      1854.473          48.000    20884725.250 7  85519534.585 7      1445.044          46.000
G21  21048777.219 8 110612085.501 8      1489.379          51.000    21048776.891 8  86191190.468 8      1160.555          50.000
G25  22607834.445 6 118804951.907 6     -2918.898          40.000    22607835.102 6  92575284.687 6     -2274.469          40.000
G29  20944599.258 8 110064630.149 8     -1718.562          51.000    20944599.039 8  85764641.823 8     -1339.140          51.000
G31  21358198.703 8 112238088.250 8     -1198.617          51.000    21358195.672 8  87458227.471 8      -933.987          51.000
R16  20040047.781 8 107050347.561 8     -2550.738          48.000    20040051.328 7  83261382.873 7     -1983.911          42.000
R18  20497701.430 5 109418121.617 5     -2885.535          34.000    20497701.852 5  85102985.311 5     -2244.305          35.000
R19  19304084.336 6 103263864.141 6       606.020          40.000    19304086.680 7  80316337.517 7       471.349          45.000
C05  39625788.234 6 206341877.227 6        19.828          36.000    39625787.945 6 159556628.200 6        15.314          38.000
C29  21677590.359 8 112880924.699 8       791.105          51.000
C30  22761277.336 7 118523929.286 7     -2076.035          47.000
E01  25907365.078 8 136144072.242 8     -2430.707          49.000    25907363.555 8 104318192.416 8     -1862.427          50.000
E12  23382611.164 7 122876471.573 7      2442.496          46.000    23382609.969 8  94152051.245 8      1871.580          48.000
E31  23382498.445 8 122875857.963 8      -134.602          51.000    23382500.812 8  94151638.172 8      -103.136          51.000
E33  23463793.359 8 123303129.537 8       -57.855          51.000    23463794.898 8  94479023.648 8       -44.331          51.000
> 2020 05 01 13 14  0.0000000  0 15        .000000000000
G18  20874181.609 8 109694615.171 8      1836.949          48.000    20874180.297 7  85476354.877 7      1431.389          47.000
G21  21040313.500 8 110567608.525 8      1472.832          50.000    21040313.055 8  86156533.103 8      1147.661          50.000
G25  22624512.672 6 118892597.978 6     -2927.137          41.000    22624514.016 6  92643580.388 6     -2280.883          40.000
G29  20954428.891 8 110116284.905 8     -1728.027          51.000    20954428.461 8  85804892.272 8     -1346.515          51.000
G31  21365085.859 8 112274280.021 8     -1217.043          51.000    21365084.133 8  87486428.829 8      -948.348          51.000
R16  20054421.328 8 107127123.643 8     -2570.832          48.000    20054424.008 6  83321097.551 6     -1999.536          41.000
R18  20513964.625 5 109504805.266 5     -2896.352          33.000    20513950.672 6  85170405.827 6     -2252.721          36.000
R19  19300738.320 6 103245963.738 6       584.453          40.000    19300740.305 7  80302414.989 7       454.575          45.000
C05  39625665.547 6 206341238.656 6        19.453          36.000    39625665.289 6 159556134.443 6        15.360          37.000
C29  21673058.180 8 112857325.358 8       779.348          51.000
C30  22773250.211 7 118586277.713 7     -2083.285          45.000
E01  25921252.242 8 136217055.242 8     -2437.789          48.000    25921253.273 8 104374114.441 8     -1867.874          51.000
E12  23368682.734 7 122803280.417 7      2434.039          47.000    23368681.766 8  94095969.755 8      1864.968          48.000
E31  23383290.969 8 122880021.971 8      -145.883          51.000    23383293.039 8  94154828.771 8      -111.807          51.000
E33  23464151.883 8 123305013.116 8       -70.605          51.000    23464153.406 8  94480466.921 8       -54.109          51.000
> 2020 05 01 13 14 30.0000000  0 15        .000000000000
G18  20863752.023 8 109639807.966 8      1818.746          50.000    20863751.406 7  85433647.990 7      1417.205          47.000
G21  21031958.773 8 110523705.755 8      1455.746          49.000    21031958.203 8  86122323.156 8      1134.348          49.000
G25  22641252.352 6 118980566.579 6     -2935.855          39.000    22641254.734 6  92712127.360 6     -2287.683          40.000
G29  20964327.508 8 110168301.846 8     -1738.000          51.000    20964326.797 8  85845424.929 8     -1354.286          51.000
G31  21372093.016 8 112311102.288 8     -1235.957          51.000    21372092.758 8  87515121.484 8      -963.083          51.000
