     3.02           OBSERVATION DATA    M (MIXED)           RINEX VERSION / TYPE
SAVERINEX           SC600               20200514 195931 LCL PGM / RUN BY / DATE
       G = GPS       R = GLONASS       C = COMPASS          COMMENT
       S = SBAS      J = QZSS          E = GALILEO          COMMENT
BEAN                                                        MARKER NAME
1                                                           MARKER NUMBER
GEODETIC                                                    MARKER TYPE
Unige DICCA         GTER                                    OBSERVER / AGENCY
SC60291900056       SC600               2.12(191202)        REC # / TYPE / VERS
                    HEMA45          NONE                    ANT # / TYPE
  4509407.8091   693652.4678  4442337.6214                  APPROX POSITION XYZ
        0.0000        0.0000        0.0000                  ANTENNA: DELTA H/E/N
G    8 C1C L1C D1C S1C C2Y L2Y D2Y S2Y                      SYS / # / OBS TYPES
R    8 C1C L1C D1C S1C C2P L2P D2P S2P                      SYS / # / OBS TYPES
C    8 C1I L1I D1I S1I C7I L7I D7I S7I                      SYS / # / OBS TYPES
E    8 C1C L1C D1C S1C C7Q L7Q D7Q S7Q                      SYS / # / OBS TYPES
DBHZ                                                        COMMENT
     30.000                                                 INTERVAL
  2020    05    14    17    00    0.0000000     GPS         TIME OF FIRST OBS
  2020    05    14    17    59   30.0000000     GPS         TIME OF LAST OBS
     0                                                      RCV CLOCK OFFS APPL
G L1C  0.00000                                              SYS / PHASE SHIFT
G L2Y  0.00000                                              SYS / PHASE SHIFT
R L1C  0.00000                                              SYS / PHASE SHIFT
R L2P  0.25000                                              SYS / PHASE SHIFT
C L1I  0.00000                                              SYS / PHASE SHIFT
C L7I  0.00000                                              SYS / PHASE SHIFT
E L1C  0.50000                                              SYS / PHASE SHIFT
E L7Q -0.25000                                              SYS / PHASE SHIFT
 13 R01  1 R02 -4 R03  5 R04  6 R08  6 R10 -5 R13 -2 R14 -7 GLONASS SLOT / FRQ #
    R15  0 R16 -1 R17  4 R18 -3 R23  3                      GLONASS SLOT / FRQ #
 C1C   71.950 C2C   71.950 C2P   71.950                     GLONASS COD/PHS/BIS
    18                                                      LEAP SECONDS
*** Above antenna height is from mark to ANTENNA BOTTOM.    COMMENT
    17     4        0.0000        ANT MEASURE TYPE/HEIGT    COMMENT
    0.0000    0.0000    0.0458    0.0405    0.0000          COMMENT
                    BASE STATION                            COMMENT
                                                            END OF HEADER
> 2020 05 14 17 00  0.0000000  0 18        .000000000000
G08  20515601.703 6 107810235.742 6      1006.391          39.000    20515602.164 6  84007951.320 6       784.207          38.000
G10  21286742.164 7 111862592.093 7     -1482.965          47.000    21286742.492 7  87165664.686 7     -1155.557          45.000
G16  23680971.203 6 124444329.644 6     -3653.727          40.000
G20  23125240.953 5 121523908.898 5     -3111.875          34.000    23125236.703 5  94693977.343 5     -2424.838          32.000
G22  24123001.422 5 126767228.848 5      3518.801          32.000    24123006.102 3  98779675.983 3      2741.923          23.000
G27  20580598.203 8 108151769.391 8     -1256.184          51.000    20580600.844 8  84274111.089 8      -978.844          51.000
G32  23582256.469 7 123925651.505 7      2712.180          47.000    23582259.461 7  96565428.899 7      2113.387          47.000
R02  20699870.461 6 110458503.032 6     -1676.844          40.000    20699874.211 5  85912138.126 5     -1304.212          35.000
R03  20290410.797 8 108616156.405 8      2468.352          51.000    20290413.562 7  84479249.322 7      1919.832          46.000
R16  22954559.609 7 122619136.545 7     -3471.387          43.000    22954561.883 6  95370433.532 6     -2699.970          38.000
C05  39634722.484 6 206388400.254 6       -19.105          36.000    39634723.039 6 159592604.969 6       -14.894          36.000
C12  21609010.477 8 112523798.791 8      -388.746          50.000    21609010.617 8  87010530.815 8      -300.458          51.000
C21  22667071.398 8 118033336.043 8      1931.422          51.000
C22  23318570.039 5 121425909.935 5     -1229.809          35.000
E09  24308406.820 8 127741576.318 8      2820.758          48.000    24308413.945 8  97879899.481 8      2161.399          49.000
E11  23246131.055 6 122159247.597 6     -1142.637          40.000    23246130.945 6  93602533.548 6      -875.871          41.000
E25  27079146.062 5 142301880.510 5     -3021.027          33.000    27079144.023 5 109036491.382 5     -2314.825          34.000
E36                                                                  23746823.586 5  95618615.812 5       789.275          35.000
> 2020 05 14 17 00 30.0000000  0 19        .000000000000
G08  20509899.547 6 107780271.296 6       991.520          39.000    20509900.188 6  83984602.363 6       772.613          39.000
G10  21295257.109 7 111907338.068 7     -1499.605          47.000    21295258.039 7  87200531.675 7     -1168.524          47.000
G16  23701843.969 6 124554020.794 6     -3658.867          37.000
G20  23143029.141 5 121617384.006 5     -3119.918          35.000
G22  24102935.578 6 126661774.973 6      3512.414          36.000
G27  20587816.398 8 108189701.635 8     -1272.105          51.000    20587819.070 8  84303668.680 8      -991.251          51.000
G32  23566798.531 7 123844418.767 7      2703.629          45.000    23566801.125 7  96502130.716 7      2106.724          45.000
R02  20709370.992 7 110509197.131 7     -1702.520          42.000    20709374.516 5  85951566.846 5     -1324.185          35.000
R03  20276644.500 8 108542461.789 8      2444.957          51.000    20276646.375 7  84421931.328 7      1901.636          44.000
R16  22974087.008 6 122723447.768 6     -3482.238          41.000    22974089.414 6  95451564.417 6     -2708.408          38.000
R18  19627241.141 6 104771528.739 6       304.082          37.000    19627241.531 5  81488978.744 5       236.508          32.000
C05  39634837.172 6 206388996.511 6       -19.789          36.000    39634837.789 6 159593066.816 6       -15.574          36.000
C12  21611281.633 8 112535624.878 8      -399.242          50.000    21611281.641 8  87019675.500 8      -308.774          51.000
C21  22655987.594 8 117975621.294 8      1916.652          51.000
C22  23325699.664 4 121463049.816 4     -1245.301          29.000
E09  24292321.758 7 127657050.399 7      2814.867          47.000    24292329.086 8  97815132.874 8      2156.718          48.000
E11  23252673.906 6 122193627.228 6     -1148.512          41.000    23252673.031 6  93628876.352 6      -880.079          41.000
E25                                                                  27096404.555 5 109105988.406 5     -2317.657          33.000
E36                                                                  23740959.750 5  95595002.701 5       785.018          33.000
> 2020 05 14 17 01  0.0000000  0 22        .000000000000
G01  23396429.648 5 122949064.071 5      2930.680          32.000
G08  20504280.594 6 107750742.331 6       978.531          40.000    20504281.219 6  83961592.802 6       762.495          40.000
G10  21303863.297 7 111952563.575 7     -1514.176          45.000    21303864.648 7  87235772.357 7     -1179.877          45.000
G16  23722740.766 5 124663839.688 5     -3661.094          32.000
G20  23160859.586 5 121711082.500 5     -3125.902          35.000
G22  24082899.484 6 126556488.772 6      3508.062          38.000    24082898.844 5  98615452.137 5      2733.555          30.000
G27  20595121.727 8 108228090.903 8     -1285.863          51.000    20595124.219 8  84333582.396 8     -1001.971          51.000
G32  23551386.914 7 123763431.091 7      2697.242          44.000    23551389.133 7  96439023.493 7      2101.750          44.000
R02  20719011.133 6 110560639.850 6     -1726.199          38.000    20719013.914 5  85991577.860 5     -1342.593          34.000
R03  20263006.070 8 108469452.733 8      2423.617          51.000    20263007.102 7  84365146.573 7      1885.039          44.000
R16  22993671.500 6 122828068.124 6     -3491.273          40.000    22993674.727 6  95532935.729 6     -2715.435          38.000
R17  21373955.797 4 114376272.564 4     -2427.891          27.000
R18  19625563.609 6 104762575.626 6       294.137          36.000    19625568.523 5  81482015.165 5       228.770          32.000
C05  39634953.688 6 206389603.930 6       -18.539          36.000    39634954.211 6 159593535.734 6       -14.589          36.000
C12  21613610.758 8 112547753.282 8      -407.957          49.000    21613610.781 8  87029053.935 8      -315.392          51.000
C21  22644986.195 8 117918334.929 8      1903.812          51.000
C22  23332921.484 5 121500661.738 5     -1261.160          31.000
E02  25569789.305 5 134370164.515 5     -1362.602          35.000
E09  24276267.273 7 127572686.819 7      2810.965          46.000    24276275.352 7  97750490.642 7      2153.823          46.000
E11  23259244.336 7 122228152.415 7     -1152.008          42.000    23259242.609 6  93655330.705 6      -882.474          40.000
E25                                                                  27113679.492 5 109175547.633 5     -2318.558          33.000
E36                                                                  23735121.484 5  95571497.934 5       782.609          32.000
> 2020 05 14 17 01 30.0000000  0 19        .000000000000
G08  20498740.914 6 107721629.976 6       964.062          41.000    20498742.047 6  83938907.846 6       751.218          40.000
G10  21312556.453 7 111998246.009 7     -1529.695          44.000    21312557.305 7  87271369.074 7     -1191.970          44.000
G16  23743657.727 5 124773762.432 5     -3665.305          31.000
G22  24062892.359 6 126451351.693 6      3502.688          39.000    24062891.648 4  98533526.166 4      2729.367          26.000
G27  20602510.133 8 108266916.232 8     -1300.988          51.000    20602512.484 8  84363835.869 8     -1013.760          51.000
G32  23536018.883 7 123682670.818 7      2688.805          45.000    23536020.234 7  96376093.433 7      2095.176          45.000
R02  20728788.047 6 110612807.572 6     -1750.359          41.000    20728791.602 5  86032152.744 5     -1361.391          35.000
R03  20249492.016 8 108397111.091 8      2400.766          50.000    20249492.469 7  84308880.928 7      1867.265          45.000
R16  23013309.117 6 122932972.276 6     -3500.898          41.000    23013312.922 6  95614527.807 6     -2722.924          37.000
R18  19623948.766 6 104753958.908 6       282.168          40.000    19623953.016 4  81475313.230 4       219.467          29.000
C05  39635067.930 6 206390198.837 6       -19.340          36.000    39635068.430 6 159593995.760 6       -15.145          36.000
C12  21615994.094 8 112560164.044 8      -417.977          50.000    21615994.078 8  87038650.725 8      -323.194          51.000
C21  22634063.508 8 117861457.789 8      1889.516          51.000
C22  23340231.289 5 121538723.297 5     -1276.234          30.000
E02  25577606.172 6 134411259.159 6     -1375.328          36.000
E09  24260239.844 7 127488466.742 7      2805.566          46.000    24260247.773 7  97685958.405 7      2149.588          44.000
E11  23265838.445 6 122262802.400 6     -1156.727          41.000    23265836.133 6  93681880.711 6      -886.419          40.000
E25                                                                  27130964.891 5 109245151.686 5     -2320.341          32.000
E36                                                                  23729305.352 5  95548085.706 5       779.367          31.000
> 2020 05 14 17 02  0.0000000  0 24        .000000000000
G01  23363028.945 5 122773541.548 5      2917.438          31.000
G08  20493286.836 7 107692967.627 7       947.668          42.000    20493287.930 6  83916573.536 6       738.443          41.000
G10  21321342.141 7 112044415.160 7     -1547.160          44.000    21321343.094 7  87307345.074 7     -1205.576          44.000
G11  21499135.117 5 112978732.208 5      2567.992          30.000
G14  24709475.766 6 129849172.810 6      2991.457          41.000    24709475.695 5 101181152.588 5      2331.002          32.000
G16  23764602.141 5 124883818.126 5     -3670.840          32.000
G20  23196621.195 5 121899062.429 5     -3142.422          30.000
G22  24042920.070 6 126346396.870 6      3495.246          39.000    24042919.875 5  98451737.031 5      2723.568          34.000
G27  20609987.438 8 108306208.946 8     -1317.625          51.000    20609989.406 8  84394453.534 8     -1026.721          51.000
G32  23520700.758 7 123602172.422 7      2678.777          45.000    23520701.883 7  96313367.470 7      2087.359          46.000
R02  20738706.203 6 110665730.115 6     -1776.836          41.000    20738708.406 5  86073314.734 5     -1381.987          33.000
R03  20236109.156 8 108325472.496 8      2376.129          50.000    20236109.609 7  84253162.075 7      1848.100          47.000
R16  23033005.836 6 123038188.174 6     -3512.340          40.000    23033009.633 6  95696362.342 6     -2731.820          37.000
R17  21401279.594 4 114522569.517 4     -2446.844          28.000
R18  19622403.195 6 104745711.411 6       268.480          40.000
C05  39635185.953 6 206390813.609 6       -20.508          36.000    39635186.406 6 159594470.134 6       -15.924          36.000
C12  21618437.891 8 112572888.946 8      -429.449          50.000    21618437.594 8  87048490.413 8      -332.074          51.000
C21  22623225.953 8 117805022.664 8      1873.672          51.000
C22  23347634.281 5 121577264.697 5     -1292.676          32.000
E02                                                                  25585495.539 5 103022216.538 5     -1065.098          32.000
E09  24244246.695 8 127404423.698 8      2798.398          48.000    24244250.898 7  97621561.842 7      2144.332          43.000
E11  23272462.070 6 122297608.866 6     -1163.016          41.000    23272459.508 6  93708550.601 6      -891.360          38.000
E25                                                                  27148266.867 5 109314808.196 5     -2322.942          33.000
E36                                                                  23723517.625 5  95524775.582 5       774.815          30.000
> 2020 05 14 17 02 30.0000000  0 21        .000000000000
G08  20487912.602 7 107664725.665 7       934.559          42.000    20487913.328 7  83894566.852 7       728.231          42.000
G10  21330214.289 7 112091039.000 7     -1561.199          45.000    21330215.672 7  87343675.323 7     -1216.519          45.000
G14  24692396.422 6 129759416.938 6      2992.090          40.000    24692395.289 5 101111213.024 5      2331.505          31.000
G16  23785565.664 5 124993973.785 5     -3673.223          35.000    23785566.992 5  97397919.119 5     -2862.251          33.000
G20  23214589.375 5 121993439.900 5     -3147.234          33.000
G22  24022977.258 6 126241596.108 6      3491.086          37.000
G27  20617547.812 8 108345938.546 8     -1331.266          51.000    20617549.492 8  84425411.641 8     -1037.353          51.000
G32  23505427.211 7 123521908.629 7      2671.883          43.000    23505428.758 7  96250824.283 7      2081.990          43.000
R02  20748758.859 6 110719373.695 6     -1799.688          38.000    20748761.398 5  86115037.466 5     -1399.757          34.000
R03  20222851.727 8 108254508.805 8      2354.457          48.000    20222853.234 8  84197968.138 8      1831.247          48.000
R16  23052754.430 6 123143680.052 6     -3520.438          39.000    23052758.695 6  95778411.517 6     -2738.121          37.000
R18  19620921.156 6 104737803.691 6       258.188          40.000    19620921.922 5  81462741.285 5       200.819          33.000
C05  39635302.055 6 206391418.206 6       -19.691          36.000    39635302.516 6 159594937.611 6       -15.091          36.000
C12  21620936.414 8 112585898.556 8      -438.152          50.000    21620935.711 8  87058550.263 8      -338.723          51.000
C21  22612467.922 8 117749001.017 8      1860.762          51.000
C22  23355123.680 5 121616254.570 5     -1307.164          33.000
E02                                                                  25593467.234 5 103054285.007 5     -1073.892          30.000
E09  24228282.734 8 127320529.343 8      2794.312          48.000    24228284.000 7  97557279.215 7      2141.079          45.000
E11  23279109.477 6 122332541.488 6     -1166.398          41.000    23279107.266 6  93735317.157 6      -893.617          37.000
E25  27165576.562 5 142756066.800 5     -3032.371          31.000    27165578.773 5 109384502.355 5     -2323.469          31.000
E36                                                                  23717752.758 4  95501561.490 4       771.714          29.000
> 2020 05 14 17 03  0.0000000  0 21        .000000000000
G08  20482619.891 7 107636913.256 7       919.922          42.000    20482620.953 7  83872894.840 7       716.819          42.000
G10  21339174.102 7 112138122.965 7     -1577.504          43.000    21339175.117 7  87380364.095 7     -1229.227          43.000
G14  24675320.648 6 129669678.691 6      2990.684          40.000    24675319.492 6 101041287.215 6      2330.403          36.000
G16  23806548.141 5 125104234.143 5     -3677.414          35.000
G20  23232574.766 5 122087966.523 5     -3154.562          34.000
G22  24003065.477 6 126136958.358 6      3485.125          38.000    24003066.484 5  98288545.472 5      2715.682          33.000
G27  20625192.539 8 108386112.078 8     -1346.793          51.000    20625194.219 8  84456715.655 8     -1049.452          51.000
G32  23490199.906 7 123441889.901 7      2663.055          43.000    23490202.391 7  96188472.065 7      2075.111          43.000
R02  20758947.750 7 110773743.450 7     -1824.613          42.000    20758949.859 5  86157325.078 5     -1419.147          33.000
R03  20209722.055 8 108184230.472 8      2330.867          48.000    20209724.891 8  84143307.223 8      1812.897          48.000
R16  23072555.289 6 123249451.014 6     -3530.516          38.000    23072560.219 6  95860677.752 6     -2745.960          37.000
R18  19619504.469 6 104730244.069 6       245.797          40.000    19619509.383 6  81456861.554 6       191.175          36.000
C05  39635417.688 6 206392019.889 6       -20.520          36.000    39635418.062 6 159595402.916 6       -15.870          36.000
C12  21623491.250 8 112599200.638 8      -448.562          51.000    21623490.086 8  87068836.288 8      -346.836          51.000
C21  22601790.930 8 117693401.518 8      1846.016          51.000
C22  23362699.719 6 121655698.805 6     -1322.527          36.000
E02                                                                  25601512.203 6 103086667.221 6     -1084.409          36.000
E09  24212348.852 8 127236792.963 8      2788.277          49.000    24212350.172 8  97493117.626 8      2136.412          48.000
E11  23285782.336 6 122367607.663 6     -1171.293          41.000    23285779.922 6  93762186.091 6      -897.700          36.000
E25  27182897.125 5 142847082.300 5     -3035.047          35.000    27182900.992 5 109454238.380 5     -2325.472          33.000
E36                                                                  23712015.133 5  95478457.988 5       768.655          31.000
> 2020 05 14 17 03 30.0000000  0 22        .000000000000
G08  20477412.039 7 107609547.628 7       905.227          42.000    20477413.844 6  83851570.970 6       705.371          41.000
G10  21348223.883 6 112185680.649 6     -1592.797          41.000    21348225.609 6  87417422.092 6     -1241.137          41.000
G14  24658251.305 6 129579976.290 6      2989.457          41.000    24658249.844 5 100971389.370 5      2329.456          35.000
G16  23827552.523 6 125214612.071 6     -3681.035          37.000    23827554.383 4  97569850.051 4     -2868.339          28.000
G20  23250604.758 5 122182709.096 5     -3161.453          33.000
G22  23983187.750 6 126032501.288 6      3479.215          39.000    23983187.531 5  98207139.270 5      2711.077          30.000
G27  20632924.648 8 108426744.856 8     -1361.832          51.000    20632926.383 8  84488377.540 8     -1061.168          51.000
G32  23475022.867 7 123362134.820 7      2654.594          43.000    23475025.797 7  96126325.259 7      2068.518          42.000
R02  20769275.344 6 110828852.534 6     -1849.211          39.000    20769278.023 5  86200187.650 5     -1438.272          33.000
R03  20196724.516 8 108114656.725 8      2307.582          48.000    20196728.258 8  84089194.294 8      1794.786          48.000
R16  23092410.672 6 123355512.474 6     -3539.914          38.000    23092415.422 5  95943169.962 5     -2753.266          35.000
R17  21442638.977 5 114743899.648 5     -2472.660          32.000
R18  19618156.586 6 104723049.271 6       233.945          41.000    19618161.484 6  81451265.629 6       181.957          37.000
C05  39635535.766 5 206392634.143 5       -20.340          35.000    39635536.016 6 159595877.876 6       -15.607          36.000
C12  21626105.234 8 112612811.239 8      -458.613          51.000    21626103.742 8  87079360.863 8      -354.559          51.000
C21  22591198.047 8 117638241.038 8      1831.598          51.000
C22  23370363.633 5 121695611.503 5     -1338.066          33.000
E02                                                                  25609631.695 5 103119352.057 5     -1094.373          35.000
E09  24196447.914 7 127153232.195 7      2782.770          47.000    24196450.758 8  97429090.562 8      2132.189          49.000
E11  23292482.938 6 122402823.064 6     -1175.992          41.000    23292481.320 5  93789169.319 5      -901.088          34.000
E25  27200228.609 5 142938161.857 5     -3036.633          35.000    27200235.164 5 109524026.557 5     -2326.908          33.000
E36                                                                  23706306.469 5  95455471.445 5       764.776          32.000
> 2020 05 14 17 04  0.0000000  0 21        .000000000000
G01  23296609.734 5 122424513.387 5      2897.664          32.000
G08  20472292.711 7 107582646.920 7       889.664          43.000    20472294.289 7  83830609.376 7       693.245          43.000
G10  21357367.008 7 112233727.507 7     -1608.934          43.000    21357369.031 7  87454861.203 7     -1253.714          44.000
G14  24641192.062 6 129490330.058 6      2987.820          41.000    24641190.836 5 100901535.259 5      2328.181          32.000
G16  23848581.414 5 125325121.602 5     -3684.969          32.000    23848577.844 4  97655943.564 4     -2871.404          27.000
G20  23268678.844 5 122277681.938 5     -3168.879          31.000
G22  23963347.914 6 125928244.214 6      3472.387          38.000    23963345.492 5  98125921.104 5      2705.759          30.000
G27  20640747.312 8 108467853.762 8     -1377.371          51.000    20640748.906 8  84520410.446 8     -1073.276          51.000
G32  23459899.781 7 123282663.458 7      2644.859          42.000    23459902.828 7  96064399.556 7      2060.932          42.000
R02  20779744.250 6 110884715.806 6     -1873.832          36.000    20779746.258 5  86243636.897 5     -1457.422          31.000
R03  20183862.859 8 108045807.798 8      2283.637          48.000    20183867.047 7  84035645.153 7      1776.162          47.000
R16  23112322.414 6 123461877.135 6     -3549.820          38.000    23112326.719 5  96025897.973 5     -2760.974          34.000
R18  19616880.266 6 104716238.150 6       221.340          40.000    19616885.695 6  81445968.073 6       172.153          38.000
C05  39635659.438 6 206393279.012 6       -20.988          36.000    39635659.688 6 159596375.763 6       -16.229          36.000
C12  21628781.625 8 112626747.836 8      -469.305          51.000    21628780.141 8  87090137.527 8      -362.884          51.000
C21  22580692.508 8 117583537.940 8      1816.496          51.000
C22  23378119.852 5 121736008.189 5     -1353.871          31.000
E09  24180583.492 7 127069866.071 7      2776.324          47.000    24180588.484 8  97365212.627 8      2127.343          51.000
E11  23299215.477 6 122438204.782 6     -1181.379          41.000    23299214.930 5  93816282.972 5      -904.707          32.000
E25  27217574.906 5 143029326.661 5     -3039.426          32.000    27217585.133 5 109593928.500 5     -2328.623          31.000
E36                                                                  23700629.820 5  95432607.064 5       760.062          33.000
> 2020 05 14 17 04 30.0000000  0 20        .000000000000
G01  23280080.375 5 122337651.174 5      2891.766          31.000
G08  20467252.750 7 107556162.970 7       874.848          43.000    20467254.297 7  83809972.513 7       681.696          43.000
G10  21366593.195 5 112282211.694 5     -1623.762          34.000    21366594.867 5  87492641.034 5     -1265.269          35.000
G14  24624134.711 7 129400692.649 7      2986.805          43.000    24624132.062 5 100831687.936 5      2327.383          30.000
G16  23869625.742 5 125435710.160 5     -3689.023          34.000    23869623.344 5  97742115.732 5     -2874.564          30.000
G20  23286778.875 4 122372799.342 4     -3175.219          29.000
G22  23943536.914 6 125824138.636 6      3467.078          40.000    23943538.133 4  98044799.984 4      2701.622          28.000
G27  20648651.094 8 108509388.551 8     -1392.352          51.000    20648652.516 8  84552775.202 8     -1084.949          51.000
G32  23444821.602 6 123203428.865 6      2636.203          40.000    23444824.672 6  96002658.350 6      2054.184          40.000
R02  20790342.766 5 110941279.593 5     -1897.941          35.000    20790345.508 5  86287630.973 5     -1476.177          30.000
R03  20171128.102 8 107977635.708 8      2260.234          48.000    20171131.875 7  83982622.430 7      1757.960          46.000
R16  23132280.578 6 123568489.768 6     -3558.789          40.000    23132284.484 5  96108818.843 5     -2767.950          33.000
R18  19615666.344 6 104709760.605 6       209.488          39.000    19615672.375 6  81440929.934 6       162.938          39.000
C05  39635779.258 6 206393902.017 6       -21.484          36.000    39635779.531 6 159596859.285 6       -16.519          36.000
C12  21631511.195 8 112640961.451 8      -479.223          51.000    21631509.844 8  87101128.394 8      -370.544          51.000
C21  22570265.000 8 117529244.233 8      1802.172          50.000
E09  24164747.664 7 126986646.662 7      2770.578          47.000    24164753.859 8  97301447.084 8      2122.988          51.000
E11  23305970.641 7 122473702.985 7     -1186.055          42.000
E25  27234927.273 5 143120513.722 5     -3041.211          33.000    27234939.609 5 109663804.463 5     -2330.554          31.000
E36                                                                  23694976.414 6  95409837.771 6       757.204          36.000
> 2020 05 14 17 05  0.0000000  0 22        .000000000000
G01  23263587.492 5 122250967.547 5      2887.004          34.000
G08  20462281.383 7 107530038.313 7       861.312          44.000    20462283.070 7  83789615.635 7       671.153          44.000
G10  21375890.758 6 112331071.977 6     -1638.121          38.000    21375892.945 6  87530714.122 6     -1276.458          38.000
G14  24607068.180 7 129311007.933 7      2986.652          43.000    24607064.125 5 100761803.777 5      2327.262          30.000
G16  23890672.695 5 125546315.942 5     -3690.160          34.000    23890677.125 4  97828326.960 4     -2875.449          29.000
G22  23923744.000 6 125720127.461 6      3461.859          38.000    23923746.156 5  97963752.425 5      2697.547          32.000
G27  20656624.789 8 108551289.805 8     -1406.328          51.000    20656626.055 8  84585425.528 8     -1095.840          51.000
G32  23429777.828 6 123124374.959 6      2628.402          41.000    23429780.609 7  95941057.903 7      2048.106          42.000
R02  20801062.656 5 110998481.272 5     -1920.809          33.000    20801065.008 5  86332121.189 5     -1493.959          31.000
R03  20158509.320 8 107910083.341 8      2237.699          49.000    20158512.477 7  83930081.719 7      1740.433          47.000
R16  23152273.469 6 123675286.073 6     -3566.426          40.000    23152277.695 5  96191882.538 5     -2773.890          34.000
R17  21484456.305 5 114967606.279 5     -2498.094          35.000    21484461.328 4  89419268.559 4     -1942.965          27.000
R18  19614503.820 7 104703557.585 7       198.492          42.000    19614510.211 6  81436105.351 6       154.386          39.000
C05  39635884.047 6 206394448.584 6       -20.562          36.000    39635884.258 6 159597280.152 6       -15.828          36.000
C12  21634282.820 8 112655394.073 8      -488.254          51.000    21634281.688 8  87112288.607 8      -377.540          51.000
C21  22559905.109 8 117475302.664 8      1788.684          50.000
C22  23393882.984 5 121818016.864 5     -1383.137          32.000
E02  25634408.914 5 134709719.792 5     -1466.078          34.000
E09  24148929.555 7 126903516.684 7      2765.938          47.000    24148935.430 8  97237750.131 8      2119.337          50.000
E11  23312736.477 7 122509258.552 7     -1189.660          42.000
E25  27252272.773 5 143211659.890 5     -3041.781          31.000    27252287.133 5 109733667.436 5     -2330.572          34.000
E36                                                                  23689332.922 6  95387102.561 6       754.354          36.000
> 2020 05 14 17 05 30.0000000  0 21        .000000000000
G01  23247123.930 5 122164459.615 5      2881.012          34.000
G08  20457417.086 7 107504475.055 7       845.512          45.000    20457418.445 7  83769696.207 7       658.840          45.000
G10  21385297.781 5 112380507.602 5     -1654.336          30.000    21385300.273 5  87569235.362 5     -1289.087          31.000
G14  24590030.930 6 129221479.690 6      2984.246          40.000    24590025.859 5 100692041.590 5      2325.390          32.000
G16  23911760.750 6 125657137.191 6     -3694.906          38.000
G22  23904007.555 6 125616413.630 6      3454.324          36.000
G27  20664706.234 8 108593757.964 8     -1422.367          51.000    20664707.336 8  84618517.580 8     -1108.341          51.000
G32  23414807.164 6 123045705.364 6      2618.484          41.000    23414810.000 6  95879756.943 6      2040.380          41.000
R02  20811939.469 5 111056521.962 5     -1946.082          32.000    20811942.984 5  86377263.841 5     -1513.622          31.000
R03  20146045.047 8 107843358.044 8      2213.102          50.000    20146047.852 8  83878184.290 8      1721.304          48.000
R16  23172337.680 6 123782465.327 6     -3576.270          40.000    23172343.102 5  96275244.091 5     -2781.546          35.000
R18  19613431.828 7 104697834.272 7       185.473          42.000    19613437.430 6  81431653.887 6       144.257          39.000
C05  39636012.008 6 206395114.630 6       -21.500          36.000    39636012.164 6 159597795.175 6       -16.326          36.000
C12  21637134.898 8 112670245.152 8      -499.375          51.000    21637133.859 8  87123772.393 8      -386.067          51.000
C21  22549652.219 8 117421913.434 8      1773.078          51.000
C22  23401895.812 4 121859813.004 4     -1400.402          27.000
E02  25642823.055 5 134753944.461 5     -1480.449          30.000
E09  24133166.727 8 126820678.858 8      2759.066          49.000    24133171.836 8  97174277.074 8      2114.093          49.000
E11  23319551.609 7 122545072.386 7     -1195.633          42.000
E25  27269649.852 5 143302987.005 5     -3044.582          35.000    27269667.320 5 109803649.858 5     -2332.880          34.000
E36                                                                  23683736.258 5  95364563.369 5       750.200          35.000
> 2020 05 14 17 06  0.0000000  0 18        .000000000000
G08  20452632.188 7 107479327.493 7       831.926          46.000    20452632.828 7  83750100.716 7       648.254          46.000
G10  21394786.852 6 112430360.969 6     -1668.555          39.000    21394788.312 6  87608089.250 6     -1300.176          39.000
G14  24572994.812 6 129131964.228 6      2984.336          36.000    24572989.695 5 100622289.272 5      2325.444          32.000
G16  23932861.883 6 125768024.259 6     -3696.582          37.000
G22  23884299.836 5 125512851.835 5      3450.242          34.000
G27  20672867.602 8 108636646.284 8     -1435.758          51.000    20672868.586 8  84651937.032 8     -1118.772          51.000
G32  23399882.852 7 122967276.790 7      2610.859          44.000    23399885.492 7  95818643.839 7      2034.439          44.000
R03  20133707.539 8 107777313.492 8      2190.914          51.000    20133710.102 8  83826816.341 8      1704.044          48.000
R16  23192444.648 6 123889874.689 6     -3583.199          38.000    23192451.430 5  96358784.637 5     -2786.933          35.000
R18  19612421.672 7 104692442.857 7       174.969          43.000    19612426.516 6  81427460.551 6       136.087          38.000
C05  39636135.328 5 206395757.590 5       -20.398          35.000    39636135.344 6 159598291.187 6       -15.441          37.000
C12  21640039.531 8 112685370.116 8      -507.840          50.000    21640038.375 8  87135467.987 8      -392.794          51.000
C21  22539478.406 8 117368932.929 8      1759.961          51.000
C22  23409998.070 5 121902010.576 5     -1412.492          30.000
E09  24117432.094 8 126737988.853 8      2754.598          50.000    24117435.297 8  97110917.289 8      2110.636          48.000
E11  23326388.297 7 122580998.026 7     -1198.719          43.000
E25  27287031.531 6 143394340.467 6     -3044.500          36.000    27287050.328 5 109873647.892 5     -2332.628          35.000
E36                                                                  23678158.180 5  95342108.243 5       747.874          33.000
> 2020 05 14 17 06 30.0000000  0 17        .000000000000
G08  20447927.375 7 107454601.448 7       816.289          47.000    20447927.719 7  83730833.668 7       636.072          47.000
G10  21404357.297 6 112480652.184 6     -1684.211          38.000    21404358.312 6  87647277.236 6     -1312.366          38.000
G14  24555961.781 6 129042468.010 6      2981.871          36.000    24555958.234 5 100552551.989 5      2323.542          32.000
G16  23953975.758 6 125878978.439 6     -3700.609          38.000    23953970.891 4  98087530.786 4     -2883.592          26.000
G27  20681109.516 8 108679958.250 8     -1451.723          51.000    20681110.734 8  84685686.610 8     -1131.212          51.000
G32  23385005.664 7 122889096.021 7      2600.746          43.000    23385007.453 7  95757723.859 7      2026.558          44.000
R03  20121498.430 8 107711956.538 8      2166.074          51.000    20121500.703 8  83775983.171 8      1684.724          48.000
R16  23212594.492 6 123997513.212 6     -3592.719          38.000    23212601.703 5  96442503.448 5     -2794.337          33.000
R18  19611474.938 7 104687388.340 7       161.777          44.000    19611479.180 6  81423529.254 6       125.827          38.000
C05  39636254.430 5 206396377.892 5       -21.656          35.000    39636254.484 6 159598771.229 6       -16.480          36.000
C12  21642997.508 8 112700773.366 8      -519.000          50.000    21642996.180 8  87147378.771 8      -401.426          51.000
C21  22529384.078 8 117316366.268 8      1744.395          51.000
C22  23418181.055 4 121944614.282 4     -1428.277          28.000
E09  24101726.352 8 126655452.391 8      2747.605          50.000    24101726.891 7  97047675.153 7      2105.353          47.000
E11  23333246.953 7 122617039.402 7     -1204.531          45.000
E25  27304418.297 6 143485716.271 6     -3047.320          38.000    27304437.398 5 109943663.083 5     -2335.020          35.000
E36                                                                  23672599.453 5  95319751.246 5       743.717          31.000
> 2020 05 14 17 07  0.0000000  0 19        .000000000000
G01  23197902.312 5 121905798.504 5      2866.570          34.000
G08  20443309.023 7 107430331.903 7       802.707          46.000    20443309.711 7  83711922.334 7       625.486          46.000
G10  21414015.203 7 112531404.103 7     -1698.168          42.000    21414016.508 7  87686824.197 7     -1323.251          42.000
G14  24538940.953 6 128953027.876 6      2981.762          40.000    24538939.188 5 100482858.388 5      2323.451          34.000
G16  23975108.094 6 125990030.702 6     -3702.262          37.000
G27  20689438.172 8 108723727.297 8     -1465.285          50.000    20689439.703 8  84719792.351 8     -1141.781          49.000
G32  23370182.336 6 122811199.858 6      2593.012          41.000    23370183.492 6  95697025.610 6      2020.532          41.000
R02  20845379.164 5 111234813.217 5     -2015.426          35.000    20845352.320 5  86515982.587 5     -1567.553          31.000
R03  20109424.875 8 107647324.446 8      2143.668          51.000    20109426.742 8  83725713.791 8      1667.300          48.000
R16  23232792.945 6 124105410.923 6     -3599.637          38.000    23232799.281 5  96526423.826 5     -2799.720          32.000
R17  21540878.039 5 115269541.149 5     -2531.457          31.000
R18  19610597.820 7 104682705.755 7       151.219          45.000    19610601.148 6  81419887.243 6       117.615          38.000
C05  39636375.969 6 206397011.467 6       -19.922          36.000    39636376.047 5 159599261.191 5       -15.514          35.000
C12  21646015.375 8 112716488.859 8      -527.746          50.000    21646014.148 8  87159530.961 8      -408.014          51.000
C21  22519375.781 8 117264248.322 8      1731.152          51.000
E09  24086056.148 8 126573105.189 8      2743.102          49.000    24086054.906 7  96984578.065 7      2101.905          46.000
E11  23340133.984 7 122653230.343 7     -1207.496          45.000
E25  27321816.336 6 143577146.111 6     -3047.004          39.000    27321834.578 5 110013719.631 5     -2334.771          35.000
E36                                                                  23667069.711 5  95297482.594 5       741.038          31.000
> 2020 05 14 17 07 30.0000000  0 19        .000000000000
G08  20438775.672 7 107406510.411 7       786.426          47.000    20438776.758 7  83693360.115 7       612.796          46.000
G10  21423758.406 7 112582604.624 7     -1714.379          42.000    21423759.695 7  87726720.661 7     -1335.883          42.000
G14  24521930.750 7 128863636.515 7      2978.785          43.000    24521930.562 6 100413202.836 6      2321.134          38.000
G16  23996256.789 5 126101168.477 5     -3705.824          35.000
G22  23825370.852 5 125203149.578 5      3430.949          32.000    23825375.617 5  97560919.705 5      2673.467          31.000
G27  20697851.758 8 108767942.850 8     -1481.234          50.000    20697853.508 8  84754246.050 8     -1154.209          50.000
G32  23355411.664 7 122733581.142 7      2582.457          42.000    23355413.898 7  95636543.562 7      2012.307          42.000
R03  20097485.047 8 107583409.381 8      2118.418          51.000    20097486.672 7  83676002.133 7      1647.658          47.000
R16  23253037.523 6 124213552.845 6     -3608.750          38.000    23253042.820 5  96610534.111 5     -2806.809          31.000
R17  21555095.773 6 115345665.648 6     -2541.910          37.000    21555101.594 4  89713317.903 4     -1977.041          24.000
R18  19609788.836 7 104678386.283 7       137.812          43.000    19609790.711 6  81416527.660 6       107.191          37.000
C05  39636498.227 5 206397646.908 5       -21.797          35.000    39636498.352 6 159599753.303 6       -16.619          36.000
C12  21649091.367 8 112732506.962 8      -539.070          50.000    21649090.438 8  87171917.173 8      -416.858          51.000
C21  22509451.648 8 117212570.221 8      1715.117          51.000
C22  23434832.508 5 122031319.907 5     -1458.773          31.000
E09  24070420.148 8 126490939.048 8      2735.703          48.000    24070419.398 8  96921619.703 8      2096.200          48.000
E11  23347047.492 7 122689560.803 7     -1213.375          44.000    23347049.414 5  94008884.928 5      -929.669          32.000
E25  27339222.750 6 143668617.899 6     -3050.039          39.000    27339239.672 6 110083808.358 6     -2336.959          37.000
E36  23661578.836 5 124342449.697 5       961.617          32.000    23661568.695 5  95275333.650 5       736.419          33.000
> 2020 05 14 17 08  0.0000000  0 20        .000000000000
G08  20434319.156 8 107383091.315 8       770.984          48.000    20434320.344 8  83675111.459 8       600.767          48.000
G10  21433577.289 6 112634204.490 6     -1729.723          38.000    21433578.414 6  87766928.399 6     -1347.833          38.000
G14  24504922.070 7 128774249.668 7      2976.492          45.000    24504922.609 6 100343550.790 6      2319.345          41.000
G16  24017412.680 5 126212341.775 5     -3709.668          35.000    24017407.508 3  98347279.905 3     -2890.650          23.000
G22  23805793.930 6 125100265.147 6      3424.312          37.000    23805795.836 5  97480758.933 5      2668.295          32.000
G27  20706341.656 8 108812557.496 8     -1496.664          51.000    20706343.445 8  84789010.689 8     -1166.232          51.000
G32  23340685.609 6 122656195.600 6      2572.621          41.000    23340689.289 6  95576243.187 6      2004.640          41.000
R02  20868310.711 5 111357208.710 5     -2063.758          34.000
R03  20085670.570 8 107520166.229 8      2093.848          51.000    20085671.688 7  83626813.039 7      1628.551          45.000
R16  23273318.430 6 124321886.892 6     -3617.234          37.000    23273322.789 5  96694793.854 5     -2813.408          30.000
R17  21569357.539 6 115422000.787 6     -2551.023          36.000
R18  19609038.953 7 104674382.854 7       125.105          43.000    19609040.180 6  81413413.894 6        97.304          38.000
C05  39636612.109 6 206398239.336 6       -22.031          36.000    39636612.227 6 159600211.418 6       -17.018          36.000
C12  21652216.734 8 112748781.625 8      -549.738          50.000    21652216.070 8  87184501.763 8      -425.065          51.000
C21  22499602.711 8 117161286.642 8      1699.906          50.000
E02  25685947.719 5 134980583.931 5     -1542.645          35.000
E09  24054809.750 8 126408908.799 8      2729.121          48.000    24054810.969 8  96858765.435 8      2091.106          49.000
E11  23353978.703 7 122725983.710 7     -1218.449          44.000    23353981.805 5  94036793.370 5      -933.841          35.000
E25  27356627.867 6 143760082.409 6     -3051.574          38.000    27356643.961 6 110153891.508 6     -2338.297          37.000
E36                                                                  23656086.938 5  95253254.506 5       732.511          35.000
> 2020 05 14 17 08 30.0000000  0 20        .000000000000
G08  20429956.719 8 107360165.971 8       757.922          49.000    20429958.070 8  83657247.558 8       590.588          49.000
G10  21443489.180 7 112686292.291 7     -1742.340          43.000    21443490.711 7  87807516.294 7     -1357.670          42.000
G14  24487931.930 7 128684960.395 7      2976.406          45.000    24487932.656 7 100273974.803 7      2319.284          42.000
G16  24038591.969 5 126323638.081 5     -3708.961          31.000
G22  23786259.609 6 124997612.614 6      3419.777          38.000    23786265.883 4  97400769.961 4      2664.743          29.000
G27  20714924.812 8 108857661.142 8     -1509.719          51.000    20714926.539 8  84824156.348 8     -1176.404          51.000
G32  23326022.219 7 122579136.535 7      2565.094          43.000    23326026.477 7  95516197.182 7      1998.774          43.000
R02  20879973.047 5 111419440.700 5     -2085.660          31.000    20879979.070 4  86659648.294 4     -1622.180          28.000
R03  20073998.609 8 107457689.747 8      2071.785          49.000    20074000.172 7  83578220.280 7      1611.391          45.000
R16  23293651.508 5 124430499.820 5     -3622.715          35.000    23293654.469 4  96779270.505 4     -2817.670          29.000
R17  21583677.992 4 115498637.880 4     -2557.910          29.000    21583691.305 4  89832292.258 4     -1989.486          29.000
R18  19608365.500 7 104670788.187 7       115.031          44.000    19608367.508 6  81410618.027 6        89.469          38.000
C05  39636734.703 6 206398878.372 6       -20.121          36.000    39636734.758 6 159600704.788 6       -15.450          36.000
C12  21655408.438 8 112765402.775 8      -557.980          50.000    21655408.266 8  87197354.266 8      -431.390          51.000
C21  22489847.156 8 117110488.310 8      1687.086          51.000
E02  25694784.641 5 135027004.980 5     -1552.824          35.000
E09  24039242.492 7 126327106.710 7      2724.859          47.000    24039245.906 8  96796085.958 8      2087.915          50.000
E11  23360944.406 7 122762589.358 7     -1221.094          44.000    23360946.602 6  94064841.830 6      -935.838          37.000
E25  27374048.852 6 143851628.065 6     -3051.094          38.000    27374063.789 6 110224036.802 6     -2337.851          37.000
E36                                                                  23650639.969 5  95231314.587 5       730.379          35.000
> 2020 05 14 17 09  0.0000000  0 18        .000000000000
G08  20425683.133 8 107337708.182 8       741.148          48.000    20425684.836 8  83639747.982 8       577.518          48.000
G10  21453488.281 7 112738838.591 7     -1758.688          42.000    21453490.133 6  87848461.451 6     -1370.406          41.000
G14  24470955.102 7 128595744.211 7      2973.012          42.000    24470955.961 6 100204455.742 6      2316.633          41.000
G22  23766764.516 6 124895166.488 6      3411.262          39.000    23766767.625 4  97320941.884 4      2658.129          28.000
G27  20723595.688 8 108903225.894 8     -1526.246          51.000    20723597.297 8  84859661.319 8     -1189.286          51.000
G32  23311416.305 7 122502379.457 7      2553.727          43.000    23311420.812 7  95456386.568 7      1989.920          43.000
R03  20062465.117 8 107395954.587 8      2045.656          49.000    20062467.336 7  83530204.080 7      1591.066          45.000
R16  23314030.297 5 124539360.011 5     -3632.613          35.000    23314032.039 4  96863939.419 4     -2825.372          27.000
R17  21598060.609 5 115575539.482 5     -2567.406          30.000
R18  19607763.562 7 104667575.577 7       100.789          42.000    19607765.945 6  81408119.357 6        78.391          38.000
C05  39636860.883 6 206399534.805 6       -21.586          36.000    39636860.773 6 159601212.382 6       -16.970          36.000
C12  21658661.625 8 112782343.741 8      -569.754          50.000    21658661.727 8  87210454.090 8      -440.567          51.000
C21  22480180.062 8 117060149.305 8      1670.613          51.000
C22  23460432.039 5 122164623.883 5     -1503.340          34.000
E09  24023713.820 7 126245507.248 7      2716.852          47.000    24023719.031 8  96733561.734 8      2081.785          50.000
E11  23367939.617 7 122799350.428 7     -1227.512          43.000    23367940.430 6  94093009.377 6      -940.651          38.000
E25  27391479.750 6 143943225.363 6     -3053.605          36.000    27391493.438 5 110294221.709 5     -2340.150          35.000
E36                                                                  23645221.984 5  95209493.043 5       725.575          35.000
> 2020 05 14 17 09 30.0000000  0 18        .000000000000
G08  20421491.742 8 107315682.160 8       727.465          49.000    20421493.336 8  83622584.837 8       566.856          49.000
G10  21463567.188 6 112791803.758 6     -1772.266          41.000    21463568.375 6  87889733.059 6     -1380.986          41.000
G14  24453985.516 7 128506566.731 7      2972.188          42.000    24453986.367 6 100134966.845 6      2315.993          41.000
G22  23747301.711 6 124792891.376 6      3406.195          37.000    23747306.094 3  97241246.980 3      2654.181          21.000
G27  20732347.070 8 108949213.759 8     -1539.527          51.000    20732348.750 8  84895496.001 8     -1199.635          51.000
G32  23296861.258 7 122425889.909 7      2545.699          42.000    23296865.594 7  95396784.389 7      1983.665          42.000
R03  20051063.344 8 107334925.145 8      2022.984          48.000    20051066.336 7  83482736.771 7      1573.435          46.000
R16  23334446.711 5 124648424.114 5     -3638.699          35.000    23334448.297 4  96948781.945 4     -2830.102          28.000
R18  19607226.445 7 104664707.898 7        90.414          42.000    19607228.773 6  81405888.930 6        70.319          38.000
C05  39636983.367 6 206400172.522 6       -20.402          36.000    39636983.344 6 159601706.526 6       -16.091          36.000
C12  21661969.320 8 112799567.799 8      -578.363          50.000    21661969.461 8  87223772.814 8      -447.221          51.000
C21  22470594.375 8 117010233.675 8      1657.242          51.000
C22  23469130.148 6 122209916.707 6     -1516.074          37.000
E02  25712660.023 6 135120913.983 6     -1577.883          38.000    25712667.992 5 103534233.024 5     -1209.138          35.000
E09  24008217.305 8 126164074.849 8      2712.145          48.000    24008223.633 8  96671165.458 8      2078.143          51.000
E11  23374957.617 7 122836229.420 7     -1230.797          44.000    23374957.492 6  94121267.333 6      -943.219          40.000
E25  27408913.031 5 144034808.785 5     -3053.355          35.000    27408926.562 5 110364415.874 5     -2339.824          33.000
E36                                                                  23639825.500 5  95187761.281 5       723.379          34.000
> 2020 05 14 17 10  0.0000000  0 19        .000000000000
G01  23100324.812 5 121393024.994 5      2832.555          31.000
G08  20417383.977 8 107294095.742 8       711.707          49.000    20417385.539 8  83605764.263 8       554.577          50.000
G10  21473726.891 7 112845192.773 7     -1787.098          43.000    21473728.008 7  87931334.803 7     -1392.547          43.000
G14  24437024.898 6 128417437.373 6      2969.371          41.000    24437025.812 6 100065515.471 6      2313.802          40.000
G22  23727873.320 6 124690795.626 6      3399.520          37.000    23727877.219 5  97161688.695 5      2648.949          31.000
G27  20741179.906 8 108995631.095 8     -1554.969          51.000    20741182.047 8  84931665.346 8     -1211.667          51.000
G32  23282358.445 6 122349677.464 6      2535.109          40.000    23282362.570 6  95337398.108 6      1975.410          40.000
R03  20039795.867 8 107274610.943 8      1997.891          49.000    20039799.492 7  83435825.753 7      1553.915          47.000
R16  23354901.750 6 124757694.553 6     -3646.941          36.000    23354903.898 4  97033769.967 4     -2836.513          27.000
R18  19606755.273 7 104662193.032 7        77.422          42.000    19606757.852 6  81403932.940 6        60.220          39.000
C05  39637103.609 5 206400798.184 5       -21.176          35.000    39637103.664 6 159602190.325 6       -16.414          36.000
C12  21665332.859 8 112817082.113 8      -589.215          50.000    21665332.805 8  87237315.981 8      -455.573          51.000
C21  22461091.727 8 116960749.360 8      1641.727          51.000
C22  23477910.188 5 122255634.127 5     -1531.312          35.000
E02  25721706.828 6 135168442.938 6     -1590.793          41.000    25721710.414 5 103570651.273 5     -1218.901          34.000
E09  23992754.359 8 126082818.134 8      2705.105          48.000    23992761.352 8  96608903.812 8      2072.737          51.000
E11  23381999.281 7 122873233.222 7     -1236.258          43.000    23381998.617 6  94149620.839 6      -947.233          40.000
E25  27426349.844 5 144126435.147 5     -3055.105          32.000    27426363.297 5 110434622.920 5     -2340.464          32.000
E36                                                                  23634451.453 5  95166124.775 5       719.320          34.000
> 2020 05 14 17 10 30.0000000  0 18        .000000000000
G01  23084163.523 5 121308109.691 5      2826.746          34.000
G08  20413364.945 8 107272976.440 8       696.266          49.000    20413366.625 8  83589307.664 8       542.545          49.000
G10  21483971.484 6 112899029.839 6     -1801.551          39.000    21483973.727 6  87973285.716 6     -1403.803          39.000
G14  24420078.516 7 128328384.949 7      2967.305          42.000    24420079.789 6  99996124.078 6      2312.189          40.000
G22  23708484.953 6 124588907.599 6      3393.016          37.000    23708488.234 4  97082295.461 4      2643.905          29.000
G27  20750099.180 8 109042503.755 8     -1569.902          51.000    20750101.922 8  84968189.495 8     -1223.301          51.000
G32  23267912.328 6 122273771.466 6      2525.117          37.000    23267917.828 6  95278250.609 6      1967.624          37.000
R03  20028667.648 8 107215041.362 8      1973.371          49.000    20028671.797 8  83389493.857 8      1534.844          48.000
R16  23375400.188 6 124867194.390 6     -3653.496          37.000    23375403.117 4  97118936.391 4     -2841.611          28.000
R18  19606355.461 7 104660058.509 7        64.738          43.000    19606358.320 6  81402272.775 6        50.352          39.000
C05  39637226.477 5 206401438.929 5       -21.141          35.000    39637226.555 6 159602685.005 6       -16.613          36.000
C12  21668757.258 8 112834913.262 8      -599.461          50.000    21668757.086 8  87251104.159 8      -463.562          51.000
C21  22451677.070 8 116911723.707 8      1626.734          51.000
E02  25730826.266 6 135216349.943 6     -1603.016          39.000    25730829.766 5 103607359.228 5     -1228.225          34.000
E09  23977330.625 8 126001765.332 8      2698.512          50.000    23977337.977 8  96546798.441 8      2067.679          51.000
E11  23389069.430 6 122910388.080 6     -1240.926          41.000    23389068.156 6  94178090.128 6      -950.884          41.000
E25                                                                  27443808.062 5 110504840.596 5     -2341.799          30.000
E36                                                                  23629106.305 5  95144603.924 5       715.770          33.000
> 2020 05 14 17 11  0.0000000  0 19        .000000000000
G08  20409430.281 8 107252300.089 8       682.422          49.000    20409432.117 8  83573196.206 8       531.757          49.000
G10  21494296.195 7 112953287.334 7     -1814.695          42.000    21494298.211 7  88015564.293 7     -1414.051          42.000
G14  24403142.805 7 128239386.967 7      2966.348          43.000    24403144.031 6  99926775.069 6      2311.443          39.000
G16  24144688.148 5 126881166.233 5     -3721.242          31.000
G22  23689132.242 6 124487203.408 6      3388.008          38.000    23689134.422 4  97003045.540 4      2640.012          28.000
G27  20759100.383 8 109089805.705 8     -1583.258          51.000    20759103.102 8  85005048.167 8     -1233.704          51.000
G32  23253521.109 6 122198149.275 6      2516.895          39.000    23253527.180 6  95219324.215 6      1961.217          39.000
R02  20940203.602 5 111740972.915 5     -2199.750          30.000
R03  20017674.320 8 107156192.649 8      1950.309          49.000    20017678.547 8  83343722.623 8      1516.907          49.000
R16  23395935.977 6 124976892.808 6     -3659.391          38.000    23395939.836 5  97204257.235 5     -2846.196          30.000
R18  19606022.383 7 104658279.678 7        53.883          44.000    19606025.023 6  81400889.236 6        41.906          40.000
C05  39637347.281 6 206402067.515 6       -20.309          36.000    39637347.227 6 159603171.031 6       -15.465          36.000
C12  21672237.758 8 112853036.445 8      -608.434          51.000    21672237.562 8  87265118.140 8      -470.416          51.000
C21  22442345.672 8 116863132.562 8      1613.121          51.000
C22  23495691.273 5 122348224.943 5     -1559.305          31.000
E02  25740012.117 5 135264607.968 5     -1613.473          32.000    25740022.875 5 103644336.282 5     -1236.597          33.000
E09  23961941.555 8 125920892.846 8      2693.312          51.000    23961948.484 8  96484831.227 8      2063.740          51.000
E11  23396163.523 6 122947668.613 6     -1244.340          40.000    23396161.289 6  94206655.690 6      -953.413          41.000
E36                                                                  23623785.438 5  95123179.370 5       712.747          32.000
> 2020 05 14 17 11 30.0000000  0 19        .000000000000
G08  20405587.930 8 107232107.734 8       663.402          51.000    20405589.758 8  83557461.905 8       516.940          51.000
G10  21504708.031 6 113008002.978 6     -1832.812          39.000    21504709.484 6  88058199.747 6     -1428.169          39.000
G14  24386225.555 7 128150486.216 7      2960.070          44.000    24386226.773 6  99857501.816 6      2306.551          41.000
G16  24165946.797 5 126992859.982 5     -3727.207          34.000
G22  23669823.367 6 124385724.288 6      3377.461          40.000    23669823.531 5  96923970.951 5      2631.788          32.000
G27  20768191.031 8 109137575.999 8     -1601.773          51.000    20768193.102 8  85042271.787 8     -1248.135          51.000
G32  23239193.344 6 122122853.254 6      2502.789          41.000    23239198.273 6  95160652.095 6      1950.228          41.000
R02  20952656.273 5 111807381.893 5     -2225.969          32.000    20952658.383 4  86961292.604 4     -1731.309          25.000
R03  20006824.281 8 107098107.905 8      1921.777          51.000    20006827.938 8  83298545.612 8      1494.716          49.000
R16  23416515.695 6 125086825.161 6     -3669.984          37.000    23416520.273 5  97289760.078 5     -2854.432          30.000
R17  21670628.086 5 115963821.465 5     -2613.094          33.000    21670612.055 4  90194086.831 4     -2032.406          25.000
R18  19605763.633 7 104656897.510 7        37.781          45.000    19605766.602 6  81399814.206 6        29.385          41.000
C05  39637473.438 5 206402723.969 5       -24.184          35.000    39637473.336 6 159603679.641 6       -18.413          36.000
C12  21675781.844 8 112871491.253 8      -622.266          50.000    21675781.727 8  87279388.560 8      -481.202          51.000
C21  22433105.531 8 116815016.336 8      1594.449          51.000
C22  23504723.508 5 122395273.271 5     -1577.355          32.000
E02                                                                  25749287.852 5 103681611.284 5     -1248.407          32.000
E09  23946594.648 8 125840242.077 8      2683.102          51.000    23946600.938 8  96423033.926 8      2055.817          51.000
E11  23403288.859 6 122985114.338 6     -1252.512          39.000    23403286.680 6  94235347.863 6      -959.663          41.000
> 2020 05 14 17 12  0.0000000  0 18        .000000000000
G08  20401828.812 8 107212352.801 8       648.723          51.000    20401830.664 8  83542068.454 8       505.498          50.000
G10  21515196.844 5 113063126.825 5     -1846.867          34.000    21515199.555 5  88101153.453 5     -1439.114          34.000
G14  24369318.070 7 128061637.599 7      2958.223          45.000    24369319.578 6  99788269.170 6      2305.109          40.000
