     3.02           OBSERVATION DATA    M (MIXED)           RINEX VERSION / TYPE
SAVERINEX           SC600               20200512 205931 LCL PGM / RUN BY / DATE
       G = GPS       R = GLONASS       C = COMPASS          COMMENT
       S = SBAS      J = QZSS          E = GALILEO          COMMENT
BEAN                                                        MARKER NAME
1                                                           MARKER NUMBER
GEODETIC                                                    MARKER TYPE
Unige DICCA         GTER                                    OBSERVER / AGENCY
SC60291900056       SC600               2.12(191226)        REC # / TYPE / VERS
                    HEMA45          NONE                    ANT # / TYPE
  4509407.8091   693652.4678  4442337.6214                  APPROX POSITION XYZ
        0.0000        0.0000        0.0000                  ANTENNA: DELTA H/E/N
G    8 C1C L1C D1C S1C C2Y L2Y D2Y S2Y                      SYS / # / OBS TYPES
R    8 C1C L1C D1C S1C C2P L2P D2P S2P                      SYS / # / OBS TYPES
C    8 C1I L1I D1I S1I C7I L7I D7I S7I                      SYS / # / OBS TYPES
E    8 C1C L1C D1C S1C C7Q L7Q D7Q S7Q                      SYS / # / OBS TYPES
DBHZ                                                        COMMENT
     30.000                                                 INTERVAL
  2020    05    12    18    00    0.0000000     GPS         TIME OF FIRST OBS
  2020    05    12    18    59   30.0000000     GPS         TIME OF LAST OBS
     0                                                      RCV CLOCK OFFS APPL
G L1C  0.00000                                              SYS / PHASE SHIFT
G L2Y  0.00000                                              SYS / PHASE SHIFT
R L1C  0.00000                                              SYS / PHASE SHIFT
R L2P  0.25000                                              SYS / PHASE SHIFT
C L1I  0.00000                                              SYS / PHASE SHIFT
C L7I  0.00000                                              SYS / PHASE SHIFT
E L1C  0.50000                                              SYS / PHASE SHIFT
E L7Q -0.25000                                              SYS / PHASE SHIFT
 14 R01  1 R02 -4 R03  5 R07  5 R08  6 R10 -5 R12 -1 R13 -2 GLONASS SLOT / FRQ #
    R14 -7 R15  0 R17  4 R21  4 R22 -3 R23  3               GLONASS SLOT / FRQ #
 C1C   71.950 C2C   71.950 C2P   71.950                     GLONASS COD/PHS/BIS
    18                                                      LEAP SECONDS
*** Above antenna height is from mark to ANTENNA BOTTOM.    COMMENT
    17     4        0.0000        ANT MEASURE TYPE/HEIGT    COMMENT
    0.0000    0.0000    0.0458    0.0405    0.0000          COMMENT
                    BASE STATION                            COMMENT
                                                            END OF HEADER
> 2020 05 12 18 00  0.0000000  0 13        .000000000000
G08  20399721.500 8 107201270.110 8      -667.695          51.000    20399722.953 8  83533443.001 8      -520.282          51.000
G14  23116651.031 8 121478855.134 8      2453.957          48.000    23116650.930 7  94658849.822 7      1912.177          42.000
G22  22277366.594 8 117068349.816 8      2673.375          48.000    22277363.922 7  91222081.614 7      2083.152          47.000
G27  21763986.219 8 114370503.790 8     -2693.340          51.000    21763987.844 8  89119873.231 8     -2098.709          51.000
R01  19791153.484 7 105795074.665 7     -1101.191          47.000    19791158.359 6  82285087.909 6      -856.482          36.000
R02  20947268.953 8 111778672.963 8      3675.969          51.000    20947274.508 7  86938968.622 7      2859.090          46.000
R15  23239770.820 4 124186295.857 4     -2789.637          29.000
R24  19699907.016 8 105344242.803 8      -852.109          51.000    19699909.812 7  81934455.049 7      -662.752          47.000
C05                                                                  39646369.539 6 159639500.949 6       -20.573          38.000
C14  23386551.383 5 121779911.282 5     -2127.730          34.000    23386544.336 5  94167932.972 5     -1645.792          33.000
C28  21745378.422 8 113233888.802 8      -976.066          51.000
E07  24995321.617 5 131351303.699 5      -243.082          32.000    24995318.586 6 100645773.094 6      -186.249          41.000
E26  23296483.555 7 122423853.549 7     -1263.516          44.000    23296486.734 6  93805293.897 6      -968.127          39.000
> 2020 05 12 18 00 30.0000000  0 12        .000000000000
G08  20403583.867 8 107221565.904 8      -687.316          51.000    20403585.250 8  83549257.903 8      -535.574          51.000
G14  23102672.531 8 121405396.545 8      2441.352          48.000    23102671.977 7  94601609.429 7      1902.355          42.000
G22  22262136.219 8 116988315.071 8      2660.391          48.000    22262133.367 7  91159716.924 7      2073.032          46.000
G27  21779398.016 8 114451492.729 8     -2707.812          51.000    21779399.391 8  89182981.487 8     -2109.984          51.000
R01  19797407.172 7 105828503.686 7     -1129.449          46.000    19797411.664 6  82311088.255 6      -878.461          36.000
R02  20926646.539 8 111668625.655 8      3658.570          51.000    20926650.414 7  86853376.349 7      2845.558          45.000
R24  19704729.891 8 105370032.854 8      -869.250          51.000    19704732.578 8  81954513.971 8      -676.083          48.000
C05                                                                  39646523.695 6 159640122.120 6       -22.500          38.000
C14  23398842.781 5 121843925.883 5     -2142.152          30.000
C28  21751036.156 8 113263349.901 8      -989.945          51.000
E07                                                                  24996749.172 7 100651531.808 7      -199.227          43.000
E26  23303714.180 7 122461845.369 7     -1271.324          46.000    23303716.664 6  93834404.509 6      -974.266          40.000
> 2020 05 12 18 01  0.0000000  0 13        .000000000000
G08  20407522.258 8 107242261.432 8      -689.691          51.000    20407523.617 8  83565384.273 8      -537.422          51.000
G10  22608307.953 5 118807443.920 5     -2755.855          33.000
G14  23088729.703 8 121332126.299 8      2446.125          48.000    23088729.492 7  94544515.801 7      1906.074          42.000
G22  22246944.555 7 116908484.090 7      2664.594          47.000    22246942.133 7  91097510.977 7      2076.307          47.000
G27  21794855.367 8 114532721.819 8     -2704.855          51.000    21794856.656 8  89246276.874 8     -2107.680          51.000
R01  19803782.953 7 105862584.628 7     -1139.996          47.000    19803787.727 6  82337595.684 6      -886.661          36.000
R02  20906087.000 8 111558911.956 8      3658.449          51.000    20906088.391 7  86768043.544 7      2845.461          44.000
R23  21938751.914 5 117357464.713 5     -2885.207          32.000
R24  19709613.172 8 105396146.212 8      -868.914          51.000    19709616.047 8  81974824.345 8      -675.822          48.000
C05                                                                  39646655.734 6 159640654.174 6       -11.055          38.000
C28  21756737.617 8 113293037.722 8      -986.664          51.000
E07  24998238.758 6 131366626.985 6      -259.066          36.000    24998239.555 7 100657530.528 7      -198.850          42.000
E26  23310953.812 7 122499886.214 7     -1262.035          46.000    23310957.023 6  93863552.648 6      -967.089          41.000
> 2020 05 12 18 01 30.0000000  0 13        .000000000000
G08  20411594.867 8 107263662.946 8      -723.797          51.000    20411596.195 8  83582060.769 8      -563.998          51.000
G10  22624146.750 6 118890693.043 6     -2780.848          36.000    22624115.797 4  92642042.803 4     -2166.897          27.000
G14  23074881.664 8 121259354.242 8      2418.797          48.000    23074882.000 7  94487810.340 7      1884.780          43.000
G22  22231850.461 7 116829165.085 7      2636.922          47.000    22231848.688 7  91035704.036 7      2054.747          47.000
G27  21810416.297 8 114614496.514 8     -2733.527          50.000    21810417.328 8  89309997.437 8     -2130.021          50.000
G32  22295017.703 5 117161099.383 5      1347.293          34.000    22295039.820 5  91294423.868 5      1049.848          32.000
R01  19810338.359 7 105897627.665 7     -1182.602          46.000    19810342.781 5  82364851.415 5      -919.801          34.000
R02  20885648.953 8 111449847.735 8      3626.043          51.000    20885648.531 7  86683215.900 7      2820.259          43.000
R24  19714615.781 8 105422896.162 8      -900.844          51.000    19714618.391 7  81995629.863 7      -700.656          47.000
C05                                                                  39646824.023 6 159641332.412 6       -23.965          37.000
C28  21762541.305 8 113323256.584 8     -1014.750          51.000
E07  24999845.617 5 131375075.714 5      -290.016          35.000    24999846.867 6 100664004.171 6      -222.621          41.000
E26  23318260.797 7 122538283.175 7     -1284.309          46.000    23318264.234 6  93892973.644 6      -984.356          41.000
> 2020 05 12 18 02  0.0000000  0 14        .000000000000
G08  20415745.055 8 107285472.827 8      -733.395          51.000    20415746.602 8  83599055.461 8      -571.476          51.000
G11  20272034.227 5 106530258.881 5      1479.480          31.000
G14  23061072.281 8 121186785.056 8      2416.047          48.000    23061073.242 7  94431262.970 7      1882.637          44.000
G22  22216797.711 8 116750061.462 8      2633.660          48.000    22216796.250 8  90974064.859 8      2052.203          48.000
G27  21826023.773 8 114696517.505 8     -2737.656          48.000    21826024.805 8  89373909.884 8     -2133.242          48.000
G32  22287344.586 6 117120776.526 6      1338.031          40.000    22287368.648 5  91263004.012 5      1042.640          31.000
R01  19817016.844 7 105933327.420 7     -1200.512          46.000    19817020.211 6  82392617.873 6      -933.731          36.000
R02  20865275.844 8 111341134.180 8      3618.363          49.000    20865275.523 7  86598660.958 7      2814.283          44.000
R24  19719680.555 8 105449979.944 8      -907.844          51.000    19719682.891 7  82016695.031 7      -706.101          46.000
C05                                                                  39646972.078 6 159641928.528 6       -18.238          38.000
C14  23436097.961 5 122037905.088 5     -2169.238          32.000    23436101.312 6  94367446.093 6     -1677.897          36.000
C28  21768390.016 8 113353711.571 8     -1018.691          51.000
E07  25001513.383 6 131383845.958 6      -297.000          37.000    25001515.148 6 100670724.275 6      -227.796          40.000
E26  23325578.828 8 122576738.524 8     -1282.262          48.000    23325581.781 6  93922439.386 6      -982.539          41.000
> 2020 05 12 18 02 30.0000000  0 14        .000000000000
G08  20419994.562 8 107307804.626 8      -753.629          51.000    20419996.398 8  83616456.837 8      -587.243          51.000
G11  20263643.188 5 106486153.173 5      1462.641          33.000
G14  23047323.406 8 121114534.484 8      2402.406          49.000    23047324.938 7  94374963.889 7      1872.008          44.000
G22  22201807.781 7 116671287.657 7      2619.582          47.000    22201806.438 7  90912682.647 7      2041.233          47.000
G27  21841699.469 8 114778896.527 8     -2752.391          48.000    21841701.008 8  89438101.290 8     -2144.720          48.000
G32  22279769.891 6 117080968.629 6      1317.926          40.000    22279781.586 6  91231985.219 6      1026.970          36.000
R01  19823839.242 7 105969797.308 7     -1229.055          46.000    19823844.094 6  82420983.402 6      -955.931          36.000
R02  20844989.984 8 111232889.817 8      3599.797          49.000    20844991.273 7  86514470.926 7      2799.842          45.000
R24  19724829.242 8 105477513.509 8      -925.785          51.000    19724831.820 7  82038110.006 7      -720.055          46.000
C05                                                                  39647121.344 6 159642529.415 6       -20.627          37.000
C14  23448641.547 5 122103237.904 5     -2183.805          30.000    23448640.125 5  94417965.593 5     -1689.143          32.000
C28  21774305.555 8 113384515.002 8     -1033.109          51.000
E07  25003265.453 6 131393050.874 6      -314.551          38.000    25003267.539 6 100677777.370 6      -241.115          40.000
E26  23332929.672 7 122615365.673 7     -1290.914          47.000    23332931.852 6  93952036.776 6      -989.139          41.000
> 2020 05 12 18 03  0.0000000  0 15        .000000000000
G08  20424343.242 8 107330658.000 8      -767.672          51.000    20424345.312 8  83634264.635 8      -598.186          51.000
G11  20255326.367 5 106442453.386 5      1452.512          31.000
G14  23033635.562 8 121042605.231 8      2395.047          49.000    23033637.227 7  94318915.155 7      1866.273          44.000
G22  22186880.469 8 116592844.519 8      2612.086          48.000    22186878.906 7  90851558.102 7      2035.392          46.000
G27  21857443.383 8 114861631.977 8     -2760.824          48.000    21857445.180 8  89502570.410 8     -2151.292          49.000
G32  22272293.031 7 117041677.280 7      1303.531          42.000    22272307.695 5  91201368.838 5      1015.742          34.000
R01  19830805.336 7 106007034.779 7     -1251.133          45.000    19830809.180 5  82449945.896 5      -973.103          35.000
R02  20824793.078 8 111125117.212 8      3587.379          50.000    20824795.672 7  86430647.799 7      2790.187          45.000
R15  23335213.969 5 124696253.312 5     -2873.180          31.000
R24  19730062.297 8 105505497.223 8      -937.453          51.000    19730064.859 7  82059875.076 7      -729.130          46.000
C05                                                                  39647271.781 6 159643134.874 6       -18.102          38.000
C14                                                                  23461248.750 5  94468745.656 5     -1694.764          31.000
C28  21780288.055 8 113415666.929 8     -1041.355          51.000
E07  25005098.977 6 131402689.792 6      -325.961          38.000    25005101.914 6 100685163.078 6      -249.550          37.000
E26  23340312.750 7 122654164.713 7     -1293.285          47.000    23340314.305 6  93981765.878 6      -991.007          41.000
> 2020 05 12 18 03 30.0000000  0 14        .000000000000
G08  20428788.711 8 107354020.556 8      -784.141          51.000    20428791.039 8  83652469.182 8      -611.019          51.000
G14  23020006.719 8 120970987.601 8      2385.008          48.000    23020008.445 7  94263109.237 7      1858.448          42.000
G22  22172013.977 8 116514720.662 8      2601.949          49.000    22172011.086 7  90790682.368 7      2027.496          44.000
G27  21873252.703 8 114944709.808 8     -2771.867          51.000    21873254.453 8  89567306.324 8     -2159.897          51.000
G32  22264912.266 6 117002891.744 6      1287.309          38.000    22264924.484 6  91171146.382 6      1003.101          37.000
R01  19837912.180 7 106045025.021 7     -1275.648          45.000    19837916.062 6  82479493.882 6      -992.171          36.000
R02  20804683.648 8 111017808.028 8      3572.395          51.000    20804686.570 7  86347185.144 7      2778.529          44.000
R15  23351396.477 5 124782772.601 5     -2886.688          32.000
R24  19735377.445 8 105533919.322 8      -951.508          50.000    19735379.547 7  82081981.140 7      -740.062          45.000
C05                                                                  39647420.812 6 159643735.362 6       -17.761          38.000
C14                                                                  23473922.438 5  94519775.467 5     -1702.777          34.000
C28  21786334.789 8 113447155.181 8     -1052.086          51.000
E07  25007013.922 6 131412749.934 6      -339.242          40.000    25007014.195 5 100692871.441 5      -259.918          34.000
E26  23347726.312 7 122693123.327 7     -1298.172          47.000    23347728.008 6  94011617.202 6      -994.781          40.000
> 2020 05 12 18 04  0.0000000  0 14        .000000000000
G08  20433330.461 8 107377888.229 8      -805.363          51.000    20433333.148 8  83671067.353 8      -627.556          51.000
G11  20238919.727 5 106356215.496 5      1422.180          31.000
G14  23006436.938 7 120899680.255 7      2370.402          47.000    23006438.789 7  94207545.089 7      1847.070          42.000
G22  22157208.008 8 116436913.422 8      2587.016          51.000    22157203.680 7  90730053.393 7      2015.856          44.000
G27  21889126.328 8 115028124.646 8     -2787.488          51.000    21889127.969 8  89632304.867 8     -2172.069          51.000
G32  22257627.586 6 116964610.040 6      1266.250          37.000    22257636.523 6  91141316.509 6       986.685          36.000
R01  19845158.828 7 106083761.758 7     -1304.867          44.000    19845162.898 6  82509622.481 6     -1014.897          36.000
R02  20784661.062 8 110910961.755 8      3552.559          51.000    20784663.344 7  86264082.516 7      2763.101          43.000
R24  19740773.938 8 105562776.000 8      -970.465          50.000    19740775.945 7  82104425.203 7      -754.809          45.000
C05                                                                  39647568.078 6 159644327.956 6       -20.685          38.000
C14  23486661.930 5 122301220.442 5     -2216.988          32.000    23486656.602 5  94571050.521 5     -1714.204          35.000
C28  21792445.445 8 113478976.034 8     -1067.504          51.000
E07  25009007.414 6 131423227.063 6      -357.762          40.000    25009009.000 5 100700899.387 5      -274.144          34.000
E26  23355169.422 7 122732237.780 7     -1307.773          47.000    23355171.188 6  94041588.003 6     -1002.159          41.000
> 2020 05 12 18 04 30.0000000  0 12        .000000000000
G08  20437973.031 8 107402285.768 8      -824.047          50.000    20437976.109 8  83690078.395 8      -642.114          50.000
G14  22992931.641 7 120828710.793 7      2357.996          46.000    22992933.742 6  94152244.242 6      1837.400          41.000
G22  22142467.266 8 116359448.905 8      2574.492          51.000    22142462.594 7  90669691.500 7      2006.101          45.000
G27  21905068.688 8 115111899.918 8     -2800.488          51.000    21905070.148 8  89697584.260 8     -2182.202          51.000
R01  19852549.414 7 106123267.736 7     -1331.637          43.000    19852552.750 6  82540349.343 6     -1035.717          37.000
R02  20764730.609 8 110804607.581 8      3534.895          51.000    20764732.289 7  86181362.632 7      2749.362          43.000
R24  19746256.727 8 105592093.464 8      -986.992          50.000    19746258.398 7  82127227.673 7      -767.661          46.000
C05                                                                  39647718.016 6 159644931.751 6       -21.990          38.000
C14  23499460.578 4 122367857.390 4     -2229.719          29.000    23499456.406 5  94622588.405 5     -1724.000          34.000
C28  21798624.617 8 113511154.373 8     -1080.535          50.000
E07  25011085.188 6 131434145.705 6      -373.293          38.000
E26  23362646.773 7 122771533.223 7     -1314.773          44.000    23362649.156 7  94071697.444 7     -1007.550          42.000
> 2020 05 12 18 05  0.0000000  0 15        .000000000000
G08  20442717.914 8 107427221.132 8      -837.883          51.000    20442721.008 8  83709508.554 8      -652.893          51.000
G11  20222831.445 5 106271697.326 5      1397.559          34.000
G14  22979492.953 7 120758089.426 7      2350.324          47.000    22979495.438 6  94097214.651 6      1831.421          41.000
G22  22127793.000 8 116282335.642 8      2566.828          49.000    22127789.336 7  90609603.277 7      2000.126          46.000
G27  21921080.555 8 115196041.565 8     -2808.461          51.000    21921082.211 8  89763149.144 8     -2188.414          51.000
G32  22243359.547 5 116889647.557 5      1234.090          35.000    22243366.039 5  91082851.885 5       961.622          34.000
R01  19860084.672 7 106163548.722 7     -1353.457          43.000    19860088.898 6  82571679.019 6     -1052.689          37.000
R02  20744894.430 8 110698755.781 8      3522.262          51.000    20744895.383 7  86099033.490 7      2739.540          44.000
R15  23400414.664 4 125044720.165 4     -2930.055          29.000
R24  19751826.953 8 105621879.979 8      -998.410          50.000    19751828.766 7  82150394.946 7      -776.541          47.000
C05                                                                  39647872.250 6 159645550.485 6       -19.301          38.000
C14                                                                  23512322.523 5  94674393.211 5     -1729.534          35.000
C28  21804873.789 8 113543697.780 8     -1088.625          50.000
E07  25013248.500 6 131445512.930 6      -384.121          39.000
E26  23370160.148 7 122811017.297 7     -1316.840          42.000    23370162.938 7  94101951.450 7     -1009.082          42.000
> 2020 05 12 18 05 30.0000000  0 16        .000000000000
G08  20447555.922 8 107452645.761 8      -854.418          50.000    20447558.938 8  83729319.969 8      -665.780          50.000
G10  22752346.297 5 119564386.421 5     -2837.938          30.000
G11  20214899.805 6 106230014.867 6      1384.848          36.000
G14  22966112.016 7 120687770.903 7      2340.082          47.000    22966114.648 7  94042421.045 7      1823.444          42.000
G22  22113175.789 7 116205526.876 7      2556.477          47.000    22113173.914 7  90549752.297 7      1992.057          46.000
G27  21937152.391 8 115280500.087 8     -2819.273          50.000    21937154.438 8  89828960.931 8     -2196.836          50.000
G32  22236372.539 6 116852929.557 6      1216.980          38.000    22236376.430 6  91054240.411 6       948.293          39.000
R01  19867755.367 7 106204553.066 7     -1377.605          42.000    19867759.594 6  82603571.280 6     -1071.468          38.000
R02  20725144.109 8 110593361.716 8      3506.746          51.000    20725144.680 7  86017060.377 7      2727.472          46.000
R15  23416895.945 5 125132809.323 5     -2942.375          31.000
R24  19757476.008 8 105652087.107 8     -1012.719          51.000    19757477.797 7  82173889.400 7      -787.670          47.000
C05                                                                  39648021.477 6 159646151.370 6       -18.936          38.000
C14  23525252.180 4 122502149.708 4     -2247.148          29.000    23525245.633 6  94726426.834 6     -1737.266          37.000
C28  21811184.367 8 113576558.782 8     -1099.336          50.000
E07  25015487.469 6 131457280.424 6      -397.773          38.000    25015498.234 5 100727030.058 5      -304.419          33.000
E26  23377700.641 6 122850642.286 6     -1321.641          40.000    23377702.469 7  94132313.384 7     -1012.859          42.000
> 2020 05 12 18 06  0.0000000  0 16        .000000000000
G08  20452493.555 8 107478592.393 8      -874.477          51.000    20452496.375 8  83749538.108 8      -681.413          51.000
G11  20207046.711 5 106188748.582 5      1367.664          32.000
G14  22952795.211 7 120617790.304 7      2326.113          46.000    22952797.367 7  93987890.750 7      1812.553          42.000
G22  22098623.727 8 116129056.131 8      2542.504          48.000    22098622.031 7  90490164.657 7      1981.169          46.000
G27  21953290.695 8 115365306.386 8     -2833.555          51.000    21953292.656 8  89895043.725 8     -2207.968          51.000
G32  22229485.117 5 116816739.128 5      1196.609          34.000    22229484.820 5  91026040.005 5       932.423          33.000
R01  19875567.039 7 106246311.955 7     -1405.539          42.000    19875571.312 6  82636050.355 6     -1093.203          38.000
R02  20705485.969 8 110488461.572 8      3487.426          51.000    20705487.344 7  85935471.414 7      2712.439          47.000
R08  22862023.797 4 122425097.769 4     -3872.902          27.000
R23  22103902.594 4 118240941.192 4     -2992.766          27.000
R24  19763209.586 8 105682748.648 8     -1030.504          49.000    19763211.719 8  82197737.220 8      -801.509          48.000
C05                                                                  39648171.945 6 159646757.355 6       -21.183          37.000
C14  23538232.492 5 122569752.886 5     -2259.922          30.000    23538231.461 6  94778712.638 6     -1747.808          37.000
C28  21817562.445 8 113609769.842 8     -1113.691          51.000
E07  25017809.234 5 131469480.112 5      -414.629          33.000    25017805.406 4 100736334.902 4      -317.813          29.000
E26  23385274.234 6 122890440.681 6     -1330.492          40.000    23385276.109 7  94162808.304 7     -1019.411          43.000
> 2020 05 12 18 06 30.0000000  0 15        .000000000000
G08  20457532.320 8 107505069.407 8      -889.863          51.000    20457534.867 8  83770169.554 8      -693.400          51.000
G11  20199274.906 5 106147908.222 5      1355.867          32.000
G14  22939544.734 7 120548158.585 7      2316.723          46.000    22939545.648 6  93933632.309 6      1805.241          40.000
G22  22084138.664 8 116052933.232 8      2533.133          51.000    22084135.383 7  90430848.157 7      1973.870          43.000
G27  21969496.648 8 115450467.520 8     -2843.094          51.000    21969498.164 8  89961403.033 8     -2215.398          51.000
G32  22222700.719 6 116781086.563 6      1181.234          38.000    22222703.602 6  90998258.853 6       920.445          39.000
R01  19883521.102 6 106288831.382 6     -1428.480          41.000    19883525.469 6  82669121.045 6     -1111.037          38.000
R02  20685922.242 8 110384067.717 8      3472.910          50.000    20685924.648 8  85854276.240 8      2701.152          49.000
R24  19769030.094 8 105713873.814 8     -1043.742          51.000    19769032.492 8  82221945.679 8      -811.803          49.000
C05                                                                  39648325.430 6 159647375.079 6       -19.748          38.000
C14                                                                  23551280.820 6  94831255.595 6     -1754.444          36.000
C28  21824009.688 8 113643339.548 8     -1123.484          51.000
E07  25020213.625 6 131482114.364 6      -427.059          37.000    25020210.492 5 100746018.217 5      -326.936          32.000
E26  23392882.695 6 122930421.284 6     -1334.148          38.000    23392885.383 7  94193442.892 7     -1022.443          44.000
E33  23779144.211 5 124960245.763 5       882.547          33.000
> 2020 05 12 18 07  0.0000000  0 16        .000000000000
G08  20462666.117 8 107532046.666 8      -907.680          51.000    20462668.266 8  83791190.772 8      -707.286          51.000
G11  20191578.734 5 106107465.533 5      1341.664          33.000
G14  22926355.250 7 120478848.462 7      2304.840          45.000    22926355.234 6  93879624.488 6      1795.982          38.000
G22  22069714.430 8 115977128.845 8      2521.371          51.000    22069709.672 7  90371779.867 7      1964.708          44.000
G27  21985764.023 8 115535951.665 8     -2854.945          51.000    21985765.055 8  90028014.034 8     -2224.633          51.000
G32  22216013.312 6 116745943.519 6      1163.039          40.000    22216018.258 6  90970874.601 6       906.264          39.000
R01  19891611.133 7 106332078.527 7     -1453.805          43.000    19891615.820 6  82702757.718 6     -1130.737          38.000
R02  20666447.805 8 110280152.905 8      3455.703          49.000    20666451.594 8  85773453.633 8      2687.769          50.000
R23  22137545.734 5 118420939.284 5     -3008.969          34.000
R24  19774931.719 8 105745432.346 8     -1059.242          51.000    19774934.305 8  82246491.193 8      -823.855          48.000
C05                                                                  39648476.008 6 159647981.345 6       -20.120          38.000
C14                                                                  23564387.484 5  94884031.068 5     -1762.766          35.000
C28  21830519.945 8 113677238.033 8     -1135.508          51.000
E07                                                                  25022698.562 5 100756017.531 5      -338.556          35.000
E26  23400519.109 6 122970554.344 6     -1340.742          37.000    23400522.688 7  94224194.138 7     -1026.963          44.000
E33  23774128.695 5 124933888.715 5       876.301          33.000
> 2020 05 12 18 07 30.0000000  0 16        .000000000000
G08  20467895.906 8 107559528.530 8      -925.969          51.000    20467897.352 8  83812605.214 8      -721.534          51.000
G11  20183959.398 5 106067427.161 5      1326.410          32.000
G14  22913228.570 7 120409867.615 7      2292.332          46.000    22913227.727 6  93825873.201 6      1786.230          38.000
G22  22055351.750 8 115901649.252 8      2508.992          51.000    22055346.305 7  90312964.656 7      1955.062          44.000
G27  22002093.453 8 115621762.219 8     -2867.227          51.000    22002094.281 8  90094879.395 8     -2234.203          51.000
G32  22209425.453 5 116711331.538 5      1143.547          32.000
R01  19899838.047 7 106376055.403 7     -1479.734          44.000    19899842.023 6  82736961.943 6     -1150.905          39.000
R02  20647065.016 8 110176725.541 8      3437.824          49.000    20647069.547 8  85693010.090 8      2673.863          50.000
R23  22154450.469 6 118511350.298 6     -3019.898          36.000
R24  19780915.281 8 105777429.937 8     -1075.473          51.000    19780917.766 8  82271378.209 8      -836.479          48.000
C05                                                                  39648624.727 6 159648579.948 6       -21.165          38.000
C14                                                                  23577552.938 6  94937041.443 6     -1772.133          36.000
C28  21837094.250 8 113711470.385 8     -1148.152          51.000
E07                                                                  25025262.016 6 100766334.300 6      -350.441          36.000
E26  23408185.828 7 123010844.760 7     -1347.355          43.000    23408189.352 7  94255066.033 7     -1032.276          44.000
E33  23769141.047 6 124907676.051 6       869.348          36.000
> 2020 05 12 18 08  0.0000000  0 16        .000000000000
G08  20473227.555 8 107587545.657 8      -941.500          51.000    20473228.883 8  83834436.741 8      -733.636          51.000
G11  20176422.688 6 106027824.791 6      1314.133          36.000
G14  22900171.117 7 120341249.084 7      2282.445          46.000    22900169.625 6  93772404.247 6      1778.529          39.000
G22  22041056.070 8 115826525.443 8      2499.426          51.000    22041050.547 7  90254426.687 7      1947.608          44.000
G27  22018490.016 8 115707928.037 8     -2876.758          50.000    22018491.172 8  90162021.599 8     -2241.629          50.000
G32  22202938.656 6 116677232.182 6      1128.676          36.000    22202937.156 5  90917297.452 5       879.485          35.000
R01  19908206.719 7 106420790.965 7     -1502.562          44.000    19908211.117 6  82771756.283 6     -1168.657          38.000
R02  20627780.594 8 110073819.889 8      3422.777          51.000    20627785.047 8  85612972.359 8      2662.163          49.000
R23  22171409.250 4 118602056.617 4     -3026.863          28.000
R24  19786987.109 8 105809898.201 8     -1088.848          51.000    19786989.633 7  82296631.284 7      -846.882          47.000
C05                                                                  39648777.227 6 159649194.246 6       -19.742          38.000
C14  23590785.047 4 122843406.936 4     -2299.527          28.000    23590782.391 6  94990308.452 6     -1778.950          37.000
C28  21843738.320 8 113746066.814 8     -1157.984          51.000
E07                                                                  25027909.367 6 100776991.472 6      -360.040          38.000
E26  23415889.125 7 123051323.200 7     -1351.156          44.000    23415892.180 7  94286081.999 7     -1035.254          45.000
E33  23764186.945 6 124881638.813 6       865.906          36.000    23764189.609 5  95688539.312 5       663.600          32.000
> 2020 05 12 18 08 30.0000000  0 15        .000000000000
G08  20478657.047 8 107616078.249 8      -959.270          51.000    20478658.758 8  83856669.892 8      -747.486          51.000
G11  20168966.453 6 105988640.893 6      1299.398          37.000
G14  22887179.680 8 120272976.220 8      2270.305          48.000    22887178.273 6  93719204.643 6      1769.069          39.000
G22  22026823.961 8 115751739.527 8      2487.691          50.000    22026818.844 7  90196151.967 7      1938.464          44.000
G27  22034949.758 8 115794428.172 8     -2888.461          49.000    22034951.945 8  90229424.317 8     -2250.749          49.000
G32  22196555.562 6 116643683.235 6      1109.969          38.000    22196556.094 6  90891155.477 6       864.914          39.000
R01  19916713.086 7 106466262.620 7     -1527.609          44.000    19916717.531 6  82807123.144 6     -1188.138          39.000
R02  20608591.445 8 109971420.095 8      3405.434          51.000    20608595.414 7  85533328.110 7      2648.674          47.000
R24  19793143.172 8 105842817.742 8     -1104.344          51.000    19793146.023 7  82322235.359 7      -858.934          45.000
C05                                                                  39648930.016 6 159649809.484 6       -20.353          38.000
C14  23604072.453 4 122912598.642 4     -2311.945          28.000    23604071.719 6  95043815.739 6     -1787.326          38.000
C28  21850448.703 8 113781008.272 8     -1170.059          51.000
E07                                                                  25030637.188 6 100787973.863 6      -371.204          39.000
E26  23423624.141 7 123091970.545 7     -1357.180          45.000    23423627.766 7  94317227.365 7     -1040.001          46.000
E33  23759262.617 5 124855768.463 5       860.270          34.000    23759266.562 5  95668711.970 5       659.168          34.000
> 2020 05 12 18 09  0.0000000  0 15        .000000000000
G08  20484184.805 8 107645127.680 8      -977.152          51.000    20484186.469 8  83879305.808 8      -761.417          51.000
G11  20161590.688 6 105949878.063 6      1284.887          36.000    20161582.414 5  82558314.070 5      1001.210          35.000
G14  22874254.672 8 120205052.410 8      2258.055          48.000    22874253.562 6  93666277.045 6      1759.526          40.000
G22  22012656.523 8 115677293.949 8      2475.590          50.000    22012652.469 7  90138142.428 7      1929.031          44.000
G27  22051473.398 8 115881262.337 8     -2900.191          49.000    22051476.102 8  90297087.275 8     -2259.892          49.000
G32  22190273.773 6 116610667.503 6      1091.332          40.000    22190273.578 6  90865428.912 6       850.386          40.000
R01  19925356.961 7 106512469.146 7     -1552.773          44.000    19925361.430 6  82843061.563 6     -1207.713          38.000
R02  20589497.875 8 109869530.331 8      3387.676          51.000    20589500.438 7  85454080.591 7      2634.862          45.000
R24  19799383.883 8 105876190.327 8     -1120.145          50.000    19799386.688 7  82348191.797 7      -871.224          43.000
C05                                                                  39649083.195 6 159650426.532 6       -20.482          38.000
C14  23617420.867 5 122982107.296 5     -2322.160          31.000    23617420.258 6  95097562.795 6     -1795.844          37.000
C28  21857225.453 8 113816296.025 8     -1182.184          51.000
E07                                                                  25033445.359 6 100799282.041 6      -382.728          39.000
E26  23431391.367 7 123132788.240 7     -1363.691          47.000    23431396.430 7  94348503.196 7     -1044.864          45.000
E33                                                                  23754374.094 5  95649009.240 5       654.795          34.000
> 2020 05 12 18 09 30.0000000  0 16        .000000000000
G08  20489809.109 8 107674684.427 8      -993.574          51.000    20489810.789 8  83902337.036 8      -774.214          51.000
G11  20154293.695 6 105911528.998 6      1271.258          38.000    20154289.562 5  82528449.774 5       990.591          30.000
G14  22861394.414 7 120137471.520 7      2247.168          45.000    22861393.656 6  93613616.675 6      1751.043          41.000
G22  21998553.062 8 115603180.550 8      2465.125          50.000    21998549.062 7  90080391.697 7      1920.877          44.000
G27  22068058.984 8 115968419.915 8     -2910.504          50.000    22068061.430 8  90365002.203 8     -2267.925          50.000
G32  22184090.664 6 116578177.391 6      1074.473          36.000    22184090.359 6  90840111.895 6       837.251          36.000
R01  19934136.039 7 106559398.809 7     -1576.039          44.000    19934140.273 6  82879562.408 6     -1225.808          39.000
R02  20570498.273 8 109768145.025 8      3371.234          51.000    20570500.289 7  85375225.414 7      2622.074          45.000
R23  22222582.906 5 118875845.769 5     -3055.316          33.000    22222589.375 4  92459007.247 4     -2376.357          24.000
R24  19805707.562 8 105910007.289 8     -1134.480          49.000    19805710.477 7  82374493.838 7      -882.374          42.000
C05                                                                  39649235.219 6 159651038.617 6       -20.510          38.000
C14  23630827.094 5 123051912.688 5     -2331.891          31.000    23630825.578 5  95151541.096 5     -1803.187          35.000
C28  21864066.805 8 113851921.280 8     -1192.992          51.000
E07  25036329.062 5 131566798.448 5      -512.844          35.000    25036332.844 6 100810908.681 6      -392.847          38.000
E26  23439189.414 7 123173767.340 7     -1368.684          47.000    23439194.398 7  94379902.733 7     -1048.699          42.000
E33  23749502.430 5 124804477.203 5       849.879          33.000    23749509.938 5  95629424.749 5       650.547          35.000
> 2020 05 12 18 10  0.0000000  0 16        .000000000000
G08  20495530.820 8 107704752.803 8     -1010.344          51.000    20495532.992 8  83925766.923 8      -787.281          51.000
G11  20147075.852 6 105873599.340 6      1257.449          38.000    20147072.500 5  82498886.213 5       979.840          32.000
G14  22848600.742 7 120070240.672 7      2235.512          45.000    22848600.445 6  93561229.081 6      1741.957          41.000
G22  21984514.250 8 115529404.332 8      2453.930          51.000    21984510.172 7  90022903.761 7      1912.153          44.000
G27  22084706.453 8 116055903.497 8     -2921.262          48.000    22084708.789 8  90433171.149 8     -2276.311          48.000
G32  22178006.898 5 116546212.455 5      1056.648          35.000    22178009.875 6  90815247.976 6       823.362          36.000
R01  19943050.688 7 106607053.333 7     -1600.133          45.000    19943055.219 6  82916627.056 6     -1244.548          38.000
R02  20551593.656 8 109667271.696 8      3354.211          49.000    20551597.109 7  85296768.391 7      2608.831          47.000
R23  22239747.922 5 118967637.082 5     -3063.730          31.000
R24  19812115.312 8 105944273.406 8     -1149.289          49.000    19812118.648 7  82401145.200 7      -893.891          43.000
C05                                                                  39649386.734 6 159651648.886 6       -20.129          38.000
C14  23644290.734 5 123122019.994 5     -2341.473          33.000    23644288.633 5  95205752.467 5     -1810.907          34.000
C28  21870973.734 8 113887888.276 8     -1204.230          51.000
E07  25039296.008 6 131582388.542 6      -526.461          36.000    25039299.641 6 100822856.654 6      -403.419          39.000
E26  23447019.164 7 123214912.320 7     -1373.859          47.000    23447021.477 6  94411429.412 6     -1052.715          40.000
E33                                                                  23744676.266 6  95609962.139 6       646.821          36.000
> 2020 05 12 18 10 30.0000000  0 16        .000000000000
G08  20501350.039 8 107735333.815 8     -1027.797          51.000    20501352.711 8  83949596.283 8      -800.878          51.000
G11  20139937.930 6 105836092.964 6      1242.945          36.000    20139937.055 5  82469660.393 5       968.538          35.000
G14  22835873.750 7 120003363.872 7      2223.512          43.000    22835874.008 6  93509117.303 6      1732.607          40.000
G22  21970540.297 8 115455968.614 8      2442.207          51.000    21970535.891 7  89965681.181 7      1903.018          45.000
G27  22101415.609 7 116143713.177 7     -2932.434          46.000    22101418.086 7  90501594.224 7     -2285.013          46.000
G32  22172028.055 6 116514788.421 6      1038.973          37.000    22172022.844 5  90790761.587 5       809.580          35.000
R01  19952101.008 7 106655431.691 7     -1624.543          44.000    19952105.500 6  82954254.666 6     -1263.530          39.000
R02  20532786.383 8 109566915.837 8      3336.676          50.000    20532791.062 8  85218713.870 8      2595.195          48.000
R23  22256960.375 5 119059698.912 5     -3073.082          31.000    22256961.992 4  92602017.703 4     -2390.175          25.000
R24  19818608.039 8 105978990.948 8     -1164.727          50.000    19818610.898 7  82428147.705 7      -905.898          44.000
C05                                                                  39649538.219 6 159652258.757 6       -20.205          38.000
C14  23657812.852 5 123192428.475 5     -2352.242          33.000    23657809.391 5  95260196.666 5     -1818.704          35.000
C28  21877946.734 8 113924198.848 8     -1216.012          51.000
E07  25042342.406 6 131598402.218 6      -540.898          37.000    25042348.023 6 100835126.905 6      -414.398          41.000
E26  23454880.695 7 123256225.110 7     -1379.672          46.000    23454883.320 6  94443084.649 6     -1057.385          40.000
E33  23739867.227 5 124753838.026 5       838.871          33.000    23739873.312 5  95590623.245 5       642.765          35.000
> 2020 05 12 18 11  0.0000000  0 16        .000000000000
G08  20507271.211 8 107766450.083 8     -1046.305          51.000    20507273.984 8  83973842.716 8      -815.302          51.000
G10  22933193.570 5 120514745.394 5     -2919.191          31.000
G11  20132885.297 6 105799033.461 6      1227.930          37.000    20132883.344 5  82440782.850 5       956.831          35.000
G14  22823218.617 7 119936866.304 7      2210.160          44.000    22823219.578 6  93457301.006 6      1722.203          38.000
G22  21956635.445 8 115382896.878 8      2429.496          51.000    21956630.781 7  89908742.203 7      1893.114          46.000
G27  22118190.211 7 116231869.913 7     -2944.434          44.000    22118193.617 7  90570287.784 7     -2294.364          44.000
G32  22166155.305 5 116483932.225 5      1019.645          32.000
R01  19961290.258 7 106704554.535 7     -1650.043          45.000    19961295.094 6  82992461.322 6     -1283.367          38.000
R02  20514082.023 8 109467103.483 8      3317.789          51.000    20514086.656 8  85141082.064 8      2580.503          49.000
R24  19825189.359 8 106014183.476 8     -1181.223          51.000    19825191.727 7  82455519.653 7      -918.729          45.000
C05                                                                  39649693.922 6 159652885.610 6       -21.274          38.000
C14                                                                  23671392.312 5  95314889.559 5     -1827.611          34.000
C28  21884990.078 8 113960875.511 8     -1228.852          51.000
E07  25045473.492 6 131614858.587 6      -556.242          37.000    25045481.156 6 100847736.352 6      -426.080          40.000
E26  23462778.547 7 123297728.572 7     -1386.812          45.000    23462782.969 6  94474885.895 6     -1062.608          39.000
E33  23735100.273 5 124728784.001 5       831.895          35.000    23735103.828 5  95571425.994 5       637.363          33.000
> 2020 05 12 18 11 30.0000000  0 15        .000000000000
G08  20513291.094 8 107798084.340 8     -1062.215          51.000    20513293.812 8  83998492.774 8      -827.700          51.000
G10  22949878.320 5 120602427.364 5     -2924.742          31.000    22949862.961 4  93975838.317 4     -2279.023          27.000
G11  20125915.016 6 105762405.109 6      1214.562          38.000    20125913.172 5  82412241.218 5       946.412          35.000
G14  22810633.727 7 119870733.582 7      2199.059          45.000    22810634.984 6  93405768.993 6      1713.549          39.000
G22  21942796.617 8 115310172.853 8      2419.195          51.000    21942792.219 7  89852074.161 7      1885.087          46.000
G27  22135028.148 7 116320355.070 7     -2954.051          47.000    22135031.883 7  90639237.295 7     -2301.855          47.000
R01  19970615.375 7 106754401.558 7     -1672.852          44.000    19970619.641 6  83031231.212 6     -1301.104          39.000
R02  20495476.930 8 109367820.832 8      3301.406          51.000    20495481.133 8  85063862.240 8      2567.763          48.000
R24  19831856.641 8 106049834.075 8     -1195.184          51.000    19831858.484 7  82483247.876 7      -929.587          47.000
C05                                                                  39649850.648 6 159653516.371 6       -20.307          38.000
C14                                                                  23685033.531 5  95369816.500 5     -1834.275          33.000
C28  21892100.602 8 113997901.446 8     -1239.133          51.000
E07  25048687.055 6 131631740.091 6      -568.848          37.000    25048693.055 6 100860671.528 6      -435.804          40.000
E26  23470709.398 7 123339405.804 7     -1391.125          43.000    23470714.469 6  94506820.336 6     -1065.927          38.000
E33  23730364.281 5 124703898.421 5       827.367          35.000    23730364.023 5  95552343.783 5       633.744          30.000
> 2020 05 12 18 12  0.0000000  0 15        .000000000000
G08  20519382.648 8 107830094.182 8     -1069.945          51.000    20519385.219 8  84023435.492 8      -833.724          51.000
G10  22966573.750 5 120690162.532 5     -2922.648          33.000    22966569.070 4  94044207.918 4     -2277.385          27.000
G11  20119000.352 6 105726067.747 6      1209.652          36.000    20118999.188 5  82383926.389 5       942.583          35.000
G14  22798092.156 7 119804825.627 7      2196.332          45.000    22798093.734 6  93354412.159 6      1711.431          41.000
G22  21928996.961 8 115237655.321 8      2416.941          51.000    21928993.055 7  89795566.994 7      1883.331          47.000
G27  22151901.945 8 116409024.581 8     -2955.418          49.000    22151905.031 8  90708330.421 8     -2302.923          49.000
R01  19980047.844 7 106804825.143 7     -1687.117          46.000    19980052.750 6  83070449.565 6     -1312.205          39.000
R02  20476944.102 8 109268926.245 8      3293.281          51.000    20476948.070 8  84986944.228 8      2561.441          48.000
R24  19838582.227 8 106085798.119 8     -1200.789          51.000    19838584.023 7  82511219.896 7      -933.947          47.000
C05                                                                  39649981.156 6 159654041.933 6       -13.490          38.000
C14  23698729.961 5 123405450.019 5     -2372.461          34.000    23698705.344 5  95424866.815 5     -1834.697          34.000
C28  21899251.023 8 114035135.465 8     -1241.422          51.000
E07  25051952.914 6 131648903.635 6      -573.641          37.000    25051958.461 6 100873822.817 6      -439.588          40.000
E26  23478646.031 6 123381114.525 6     -1387.469          41.000    23478651.109 6  94538778.945 6     -1063.227          40.000
E33  23725634.016 5 124679039.350 5       831.305          34.000    23725630.312 5  95533282.894 5       637.031          30.000
> 2020 05 12 18 12 30.0000000  0 15        .000000000000
G08  20525592.750 8 107862727.319 8     -1098.035          51.000    20525595.109 8  84048863.902 8      -855.612          51.000
G10  22983328.203 5 120778215.252 5     -2939.887          33.000    22983328.375 5  94112820.367 5     -2290.824          34.000
G11  20112188.562 6 105690270.936 6      1184.461          38.000    20112187.883 6  82356032.765 6       922.957          36.000
G14  22785641.234 7 119739393.497 7      2173.297          45.000    22785642.891 7  93303426.170 7      1693.484          43.000
G22  21915283.797 8 115165593.513 8      2394.629          50.000    21915280.219 7  89739414.939 7      1865.948          47.000
G27  22168858.023 8 116498125.173 8     -2977.039          49.000    22168860.422 8  90777759.427 8     -2319.774          49.000
R01  19989635.461 7 106856075.089 7     -1721.898          46.000    19989639.938 6  83110310.599 6     -1339.254          40.000
R02  20458531.492 8 109170675.131 8      3264.395          51.000    20458535.273 7  84910526.687 7      2538.974          47.000
R24  19845413.695 8 106122328.958 8     -1226.953          50.000    19845415.625 8  82539632.769 8      -954.297          48.000
C05                                                                  39650132.688 6 159654652.548 6       -21.443          38.000
C14  23712482.016 6 123477046.155 6     -2393.020          36.000    23712454.914 5  95480229.371 5     -1850.637          32.000
C28  21906488.484 8 114072823.731 8     -1263.648          51.000
E07  25055319.094 5 131666597.006 5      -598.500          34.000    25055325.969 6 100887380.121 6      -458.669          40.000
E26  23486636.352 6 123423103.226 6     -1403.906          39.000    23486640.695 6  94570952.135 6     -1075.876          41.000
E33  23720956.477 6 124654455.912 6       814.992          37.000    23720952.047 5  95514443.190 5       624.334          32.000
> 2020 05 12 18 13  0.0000000  0 16        .000000000000
G08  20531904.047 8 107895893.613 8     -1113.410          51.000    20531906.266 8  84074707.734 8      -867.595          51.000
G10  23000124.664 5 120866487.254 5     -2945.297          34.000    23000127.156 5  94181603.819 5     -2295.027          33.000
G11  20105462.734 6 105654926.299 6      1171.535          38.000    20105461.641 6  82328491.491 6       912.881          36.000
G14  22773264.422 7 119674350.050 7      2162.527          47.000    22773265.516 7  93252743.018 7      1685.086          42.000
G22  21901640.312 8 115093898.448 8      2384.684          49.000    21901637.008 7  89683548.675 7      1858.195          47.000
G27  22185878.500 8 116587565.335 8     -2986.055          49.000    22185880.883 8  90847453.026 8     -2326.799          49.000
G32  22143658.734 6 116365726.702 6       948.469          36.000    22143665.453 6  90674590.814 6       739.073          36.000
R01  19999359.664 7 106908057.548 7     -1743.957          47.000    19999364.367 6  83150741.417 6     -1356.414          40.000
R02  20440223.273 8 109072980.463 8      3248.145          51.000    20440226.828 7  84834541.972 7      2526.335          46.000
R24  19852333.891 8 106159335.371 8     -1240.426          49.000    19852336.047 8  82568415.549 8      -964.776          48.000
C05                                                                  39650288.352 6 159655279.492 6       -20.253          38.000
C14  23726296.031 5 123548954.942 5     -2400.699          33.000    23726264.375 4  95535833.677 4     -1856.986          29.000
C28  21913796.156 8 114110877.263 8     -1273.543          51.000
E07  25058770.672 5 131684722.762 5      -611.023          34.000    25058776.422 6 100901274.112 6      -467.998          39.000
E26  23494662.367 6 123465282.294 6     -1408.219          40.000    23494666.703 7  94603271.220 7     -1078.935          43.000
E33  23716314.016 6 124630058.796 6       811.230          38.000    23716310.914 5  95495749.312 5       621.239          34.000
> 2020 05 12 18 13 30.0000000  0 16        .000000000000
G08  20538342.438 8 107929727.299 8     -1129.953          51.000    20538344.352 8  84101071.621 8      -880.483          51.000
G10  23016988.102 5 120955111.118 5     -2951.152          34.000    23016990.156 5  94250731.403 5     -2299.605          31.000
G11  20098849.047 6 105620170.213 6      1157.832          41.000    20098846.695 5  82301408.805 5       902.207          35.000
G14  22760987.305 7 119609832.361 7      2150.730          45.000    22760988.211 7  93202469.538 7      1675.897          42.000
G22  21888092.648 8 115022706.099 8      2373.645          49.000    21888089.383 8  89628074.169 8      1849.593          48.000
G27  22202988.547 8 116677478.212 8     -2995.875          48.000    22202991.180 8  90917514.968 8     -2334.448          48.000
G32  22138329.086 5 116337722.554 5       930.836          34.000    22138333.906 5  90652769.424 5       725.318          32.000
R01  20009246.266 8 106960906.507 8     -1766.926          48.000    20009250.750 6  83191846.153 6     -1374.276          41.000
R02  20422045.898 8 108975981.223 8      3230.770          51.000    20422048.852 7  84759098.138 7      2512.821          46.000
R24  19859368.711 8 106196955.161 8     -1255.152          49.000    19859371.320 8  82597675.387 8      -976.230          48.000
C05                                                                  39650473.797 6 159656026.064 6       -20.220          38.000
C14  23740196.758 4 123621433.310 4     -2411.051          27.000    23740158.016 4  95591780.515 4     -1863.994          29.000
C28  21921199.625 8 114149429.675 8     -1284.508          51.000
E07  25062331.336 6 131703429.283 6      -623.891          36.000    25062335.391 6 100915607.665 6      -478.199          38.000
E26  23502750.820 7 123507786.873 7     -1413.242          42.000    23502755.086 7  94635839.658 7     -1083.027          44.000
E33  23711732.398 6 124605983.559 6       805.934          37.000    23711731.414 5  95477302.049 5       617.668          35.000
> 2020 05 12 18 14  0.0000000  0 15        .000000000000
G08  20544834.398 8 107963842.507 8     -1138.410          51.000    20544836.312 8  84127654.872 8      -887.076          51.000
G10  23033844.805 5 121043671.572 5     -2949.684          30.000    23033849.203 5  94319761.559 5     -2298.452          30.000
G11  20092274.164 6 105585618.303 6      1152.223          39.000    20092271.500 6  82274485.253 6       897.833          37.000
G14  22748736.828 7 119545457.160 7      2146.742          44.000    22748737.758 6  93152307.068 6      1672.786          41.000
G22  21874567.539 8 114951631.457 8      2370.457          49.000    21874564.289 8  89572691.357 8      1847.109          48.000
G27  22220114.664 8 116767476.270 8     -2997.965          49.000    22220117.500 8  90987643.277 8     -2336.077          49.000
R01  20019220.898 8 107014226.597 8     -1781.609          48.000    20019225.641 7  83233317.342 7     -1385.696          42.000
R02  20403926.375 8 108879289.858 8      3221.332          51.000    20403929.109 7  84683893.768 7      2505.484          46.000
R24  19866445.023 8 106234795.969 8     -1261.598          49.000    19866447.734 7  82627107.143 7      -981.243          46.000
C05                                                                  39650615.492 6 159656596.549 6       -13.284          38.000
C14  23754104.461 5 123693846.633 5     -2411.609          33.000    23754063.633 4  95647769.889 4     -1864.272          27.000
C28  21928625.578 8 114188098.638 8     -1287.473          51.000
E07  25065927.391 5 131722322.949 5      -629.055          33.000    25065930.734 6 100930084.645 6      -482.069          38.000
E26  23510828.344 7 123550231.174 7     -1410.363          46.000    23510831.875 7  94668361.910 7     -1080.572          44.000
E33  23707138.844 6 124581844.993 6       809.234          38.000    23707139.984 6  95458806.284 6       620.173          37.000
> 2020 05 12 18 14 30.0000000  0 15        .000000000000
G08  20551445.852 8 107998586.046 8     -1164.879          51.000    20551447.656 8  84154727.722 8      -907.701          51.000
G11  20085804.266 6 105551619.178 6      1127.988          40.000    20085801.875 6  82247992.416 6       878.952          37.000
G14  22736579.867 7 119481574.132 7      2124.805          42.000    22736580.758 6  93102528.073 6      1655.692          40.000
G22  21861131.141 8 114881022.747 8      2349.551          49.000    21861127.969 8  89517671.567 8      1830.819          48.000
G27  22237322.812 8 116857904.897 8     -3017.766          49.000    22237324.805 8  91058107.126 8     -2351.506          49.000
G32  22127918.867 5 116282982.794 5       892.785          34.000    22127918.273 5  90610149.328 5       695.665          30.000
R01  20029349.188 8 107068368.281 8     -1814.477          50.000    20029353.812 7  83275427.535 7     -1411.260          42.000
R02  20385931.062 8 108783261.369 8      3193.656          51.000    20385933.789 7  84609204.986 7      2483.958          46.000
R24  19873628.984 8 106273211.322 8     -1286.363          50.000    19873631.586 7  82656985.733 7     -1000.505          46.000
C05                                                                  39650779.469 6 159657257.022 6       -20.727          38.000
C14  23768089.703 5 123766661.863 5     -2430.035          34.000
C28  21936139.945 8 114227228.126 8     -1308.211          51.000
E07                                                                  25069627.414 6 100944970.570 6      -500.033          36.000
E26  23518960.281 7 123592962.495 7     -1425.328          46.000    23518963.266 7  94701104.093 7     -1092.138          45.000
E33  23702599.516 6 124557990.911 6       794.148          38.000    23702602.875 6  95440528.489 6       608.656          39.000
> 2020 05 12 18 15  0.0000000  0 16        .000000000000
G03  23806264.625 5 125102756.016 5      3494.605          35.000    23806285.477 5  97482704.047 5      2723.069          35.000
G08  20558140.383 8 108033765.211 8     -1171.371          51.000    20558141.703 8  84182140.060 8      -912.757          51.000
G10  23067698.250 5 121221577.809 5     -2960.781          34.000
G11  20079403.250 6 105517982.420 6      1123.500          40.000    20079401.164 6  82221781.955 6       875.455          37.000
G14  22724480.242 6 119417993.753 6      2122.758          41.000    22724482.047 6  93052984.932 6      1654.097          41.000
G22  21847747.195 8 114810688.765 8      2348.383          51.000    21847744.117 7  89462865.883 7      1829.909          47.000
G27  22254575.922 8 116948570.425 8     -3017.586          50.000    22254576.820 8  91128755.579 8     -2351.366          50.000
R01  20039594.156 8 107123133.182 8     -1827.219          50.000    20039598.898 7  83318022.461 7     -1421.170          43.000
R02  20368024.102 8 108687703.891 8      3186.008          51.000    20368025.875 7  84534882.551 7      2478.009          45.000
R24  19880884.141 8 106312006.407 8     -1290.859          51.000    19880886.617 7  82687159.645 7     -1004.002          45.000
C05                                                                  39650929.305 6 159657860.378 6       -12.843          38.000
C14  23782114.297 5 123839686.767 5     -2428.473          32.000
C28  21943706.484 8 114266627.913 8     -1309.359          51.000
E07  25073395.570 5 131761581.587 5      -656.145          34.000    25073388.328 5 100960117.857 5      -502.859          34.000
