     3.02           OBSERVATION DATA    M (MIXED)           RINEX VERSION / TYPE
SAVERINEX           SC600               20200504 095930 LCL PGM / RUN BY / DATE
       G = GPS       R = GLONASS       C = COMPASS          COMMENT
       S = SBAS      J = QZSS          E = GALILEO          COMMENT
BEAN                                                        MARKER NAME
1                                                           MARKER NUMBER
GEODETIC                                                    MARKER TYPE
Unige DICCA         GTER                                    OBSERVER / AGENCY
SC60291900056       SC600               2.12(191226)        REC # / TYPE / VERS
                    HEMA45          NONE                    ANT # / TYPE
  4509407.8091   693652.4678  4442337.6214                  APPROX POSITION XYZ
        0.0000        0.0000        0.0000                  ANTENNA: DELTA H/E/N
G    8 C1C L1C D1C S1C C2Y L2Y D2Y S2Y                      SYS / # / OBS TYPES
R    8 C1C L1C D1C S1C C2P L2P D2P S2P                      SYS / # / OBS TYPES
C    8 C1I L1I D1I S1I C7I L7I D7I S7I                      SYS / # / OBS TYPES
E    8 C1C L1C D1C S1C C7Q L7Q D7Q S7Q                      SYS / # / OBS TYPES
DBHZ                                                        COMMENT
     30.000                                                 INTERVAL
  2020    05    04    07    00    0.0000000     GPS         TIME OF FIRST OBS
  2020    05    04    07    59   30.0000000     GPS         TIME OF LAST OBS
     0                                                      RCV CLOCK OFFS APPL
G L1C  0.00000                                              SYS / PHASE SHIFT
G L2Y  0.00000                                              SYS / PHASE SHIFT
R L1C  0.00000                                              SYS / PHASE SHIFT
R L2P  0.25000                                              SYS / PHASE SHIFT
C L1I  0.00000                                              SYS / PHASE SHIFT
C L7I  0.00000                                              SYS / PHASE SHIFT
E L1C  0.50000                                              SYS / PHASE SHIFT
E L7Q -0.25000                                              SYS / PHASE SHIFT
 12 R03  5 R04  6 R05  1 R06 -4 R07  5 R09 -2 R10 -7 R15  0 GLONASS SLOT / FRQ #
    R16 -1 R17  4 R18 -3 R19  3                             GLONASS SLOT / FRQ #
 C1C   71.950 C2C   71.950 C2P   71.950                     GLONASS COD/PHS/BIS
    18                                                      LEAP SECONDS
*** Above antenna height is from mark to ANTENNA BOTTOM.    COMMENT
    17     4        0.0000        ANT MEASURE TYPE/HEIGT    COMMENT
    0.0000    0.0000    0.0458    0.0405    0.0000          COMMENT
                    BASE STATION                            COMMENT
                                                            END OF HEADER
> 2020 05 04 07 00  0.0000000  0 19        .000000000000
G12  22898126.805 5 120330470.891 5      3442.016          35.000    22898113.141 5  93763963.813 5      2682.096          33.000
G13  21687316.586 8 113967609.671 8     -2748.285          49.000    21687318.328 7  88805915.552 7     -2141.524          45.000
G15  20727794.367 8 108925287.285 8     -1599.340          51.000    20727794.055 8  84876845.967 8     -1246.242          51.000
G17  22398875.719 6 117706880.731 6       221.219          37.000    22398873.414 6  91719660.001 6       172.387          36.000
G19  22265638.758 7 117006729.934 7      2184.395          43.000    22265636.852 5  91174044.372 5      1702.126          35.000
G24  20920358.594 5 109937226.135 5      1725.996          34.000
G28  23426374.086 5 123106427.042 5     -2991.902          31.000
R06  20933792.023 7 111706732.846 7     -3591.832          46.000
R10  23280784.375 5 124099657.806 5      3150.629          32.000
R16  20309316.477 6 108488726.877 6     -2113.074          36.000    20309322.773 4  84380118.762 4     -1643.505          27.000
R17  22855253.062 5 122303068.493 5      -845.695          31.000
C14  23501236.469 8 122377099.643 8     -2518.598          48.000    23501237.180 8  94629735.293 8     -1947.615          51.000
C24  21963115.156 7 114367702.987 7       400.410          45.000
C26  22833466.680 6 118899795.531 6     -1909.867          40.000
E01  23654229.156 8 124303809.333 8       521.141          51.000    23654230.531 8  95245823.728 8       399.336          51.000
E04  23976273.781 7 125996153.960 7        32.703          47.000    23976275.594 7  96542514.953 7        25.019          47.000
E19  25818922.578 7 135679337.273 7     -2691.316          47.000    25818925.180 8 103962078.255 8     -2062.148          48.000
E21  24762386.094 8 130127212.911 8     -1823.039          49.000    24762388.969 7  99707873.707 7     -1396.958          47.000
E31  26728979.914 7 140461737.536 7      2372.551          47.000    26728981.891 8 107626547.879 8      1817.887          48.000
> 2020 05 04 07 00 30.0000000  0 19        .000000000000
G12  22878555.594 6 120227623.478 6      3426.805          38.000    22878540.992 6  93683823.072 6      2670.240          38.000
G13  21703095.469 8 114050525.571 8     -2767.109          51.000    21703095.773 7  88870525.292 7     -2156.192          43.000
G15  20737028.375 8 108973811.566 8     -1623.207          51.000    20737027.570 8  84914657.046 8     -1264.837          51.000
G17  22397721.523 6 117700811.650 6       195.770          39.000    22397718.289 6  91714930.843 6       152.548          39.000
G19  22253269.391 6 116941730.337 6      2161.293          36.000    22253267.508 5  91123395.445 5      1684.134          34.000
G24  20910583.102 5 109885868.104 5      1709.609          31.000    20910577.953 5  85625346.323 5      1332.169          30.000
R06  20954084.812 7 111815016.130 7     -3614.559          46.000
R09  20347131.281 5 108652548.147 5      1736.910          35.000    20347151.664 4  84507607.869 4      1350.930          27.000
R10  23263121.523 5 124005520.544 5      3138.234          33.000
R16  20321262.398 6 108552535.966 6     -2128.570          36.000
R17  22860121.781 5 122329125.008 5      -878.566          31.000    22860137.766 4  95144943.704 4      -683.317          25.000
C14  23515831.586 8 122453100.441 8     -2535.906          49.000    23515831.984 8  94688503.894 8     -1960.770          51.000
C24  21960887.234 7 114356100.777 7       385.379          46.000
C26  22844539.672 7 118957450.466 7     -1921.574          42.000
E01  23651333.523 8 124288593.070 8       505.629          51.000    23651334.984 8  95234164.529 8       387.466          51.000
E04  23976180.727 8 125995665.688 8        12.270          48.000    23976181.969 7  96542140.810 7         9.371          46.000
E19  25834361.750 8 135760467.798 8     -2705.121          48.000    25834364.281 7 104024243.178 7     -2072.683          47.000
E21  24772861.547 8 130182262.010 8     -1834.602          48.000    24772864.484 7  99750054.149 7     -1405.686          46.000
E31  26715502.531 7 140390918.440 7      2361.133          45.000    26715505.938 8 107572283.887 8      1809.069          48.000
> 2020 05 04 07 01  0.0000000  0 20        .000000000000
G12  22859014.633 6 120124935.877 6      3418.559          41.000    22858998.766 6  93603806.807 6      2663.812          41.000
G13  21718926.125 8 114133712.672 8     -2779.344          51.000    21718925.281 7  88935346.364 7     -2165.722          45.000
G15  20746343.000 8 109022758.599 8     -1640.539          51.000    20746341.375 8  84952797.550 8     -1278.342          51.000
G17  22396656.891 6 117695213.405 6       176.793          38.000    22396654.180 6  91710568.553 6       137.761          38.000
G19  22240976.305 5 116877122.608 5      2144.172          33.000    22240975.477 5  91073063.271 5      1670.777          31.000
G24  20900852.891 5 109834703.788 5      1700.578          32.000
G28  23460668.164 5 123286648.132 5     -3006.488          33.000
R06  20974448.852 7 111923682.610 7     -3630.398          44.000
R09  20337409.469 6 108600615.164 6      1724.637          36.000    20337414.922 5  84467215.468 5      1341.384          35.000
R10  23245472.438 5 123911458.007 5      3132.723          31.000
R16  20333237.922 5 108616504.376 5     -2136.672          35.000
R17  22865116.883 6 122355859.990 6      -904.363          36.000
C14  23530469.148 8 122529319.970 8     -2546.172          49.000    23530469.031 8  94747441.637 8     -1968.825          51.000
C24  21958690.016 7 114344659.163 7       376.836          45.000
C26  22855623.734 7 119015162.161 7     -1926.555          42.000
E01  23648470.359 8 124273546.616 8       496.902          51.000    23648471.805 8  95222635.425 8       380.710          51.000
E04  23976149.180 8 125995499.126 8        -1.598          49.000    23976149.680 7  96542013.187 7        -1.221          46.000
E19  25849825.047 8 135841724.397 8     -2712.262          49.000    25849827.227 7 104086504.701 7     -2078.259          47.000
E21  24783346.008 7 130237358.680 7     -1839.227          47.000    24783348.820 7  99792271.057 7     -1409.203          46.000
E31  26702035.383 7 140320151.056 7      2356.270          46.000    26702040.164 8 107518059.514 8      1805.456          48.000
> 2020 05 04 07 01 30.0000000  0 17        .000000000000
G12  22839526.023 6 120022525.225 6      3409.359          37.000    22839507.789 6  93524006.375 6      2656.647          36.000
G13  21734830.289 8 114217285.354 8     -2791.945          51.000    21734828.719 7  89000467.882 7     -2175.542          46.000
G15  20755759.695 8 109072242.579 8     -1658.223          51.000    20755757.719 8  84991356.468 8     -1292.122          51.000
G17  22395703.633 6 117690202.454 6       157.473          38.000    22395702.320 6  91706663.946 6       122.706          38.000
G19  22228784.750 6 116813054.394 6      2126.844          39.000    22228781.805 5  91023140.035 5      1657.287          34.000
R06  20994904.758 6 112032846.358 6     -3646.508          41.000
R10  23227859.984 5 123817566.282 5      3125.383          32.000
R16  20345264.391 5 108680747.948 5     -2145.754          33.000
R17  22870262.305 5 122383390.178 5      -930.953          34.000
C14  23545170.250 8 122605870.727 8     -2556.980          49.000    23545169.398 8  94806635.474 8     -1977.201          51.000
C24  21956545.047 7 114333492.603 7       367.934          44.000
C26  22866740.539 6 119073044.813 6     -1932.047          40.000
E01  23645661.477 8 124258785.190 8       487.645          51.000    23645662.961 8  95211324.721 8       373.584          51.000
E04  23976200.906 8 125995770.409 8       -16.145          49.000    23976201.102 7  96542221.020 7       -12.338          47.000
E19  25865333.969 8 135923221.232 8     -2720.223          49.000    25865335.695 7 104148950.290 7     -2084.389          47.000
E21  24793861.234 7 130292617.680 7     -1844.430          47.000    24793863.906 7  99834612.363 7     -1413.261          45.000
E31  26688600.648 7 140249551.371 7      2350.816          47.000    26688606.352 8 107463963.650 8      1801.203          49.000
> 2020 05 04 07 02  0.0000000  0 16        .000000000000
G12  22820083.977 6 119920359.920 6      3401.234          37.000    22820065.555 6  93444397.086 6      2650.316          37.000
G13  21750801.094 8 114301208.332 8     -2803.488          51.000    21750799.391 7  89065862.378 7     -2184.536          47.000
G15  20765271.844 8 109122228.833 8     -1674.793          51.000    20765269.992 8  85030306.750 8     -1305.033          51.000
G17  22394855.539 6 117685744.917 6       139.215          39.000    22394853.930 6  91703190.550 6       108.479          39.000
G19  22216687.258 6 116749480.183 6      2110.797          41.000    22216683.031 5  90973601.809 5      1644.783          35.000
R06  21015446.023 6 112142468.793 6     -3661.816          41.000
R16  20357335.766 5 108745231.108 5     -2153.434          35.000
R17  22875549.250 5 122411679.971 5      -955.715          33.000    22875557.008 5  95209111.764 5      -743.328          32.000
C14  23559928.164 8 122682717.106 8     -2566.609          50.000    23559926.047 8  94866057.915 8     -1984.707          50.000
C24  21954446.508 7 114322567.565 7       359.941          45.000
C26  22877882.727 6 119131064.411 6     -1936.629          40.000
E01  23642900.117 8 124244274.657 8       479.273          51.000    23642901.867 8  95200206.272 8       367.247          51.000
E04  23976329.516 8 125996446.225 8       -29.547          49.000    23976329.344 7  96542738.831 7       -22.601          47.000
E19  25880881.789 8 136004923.542 8     -2727.160          49.000    25880882.984 7 104211553.322 7     -2089.666          46.000
E21  24804400.898 7 130348004.350 7     -1848.512          47.000    24804403.180 7  99877051.486 7     -1416.428          44.000
E31  26675191.656 8 140179086.031 8      2346.262          48.000    26675197.641 8 107409970.741 8      1797.857          49.000
> 2020 05 04 07 02 30.0000000  0 18        .000000000000
G12  22800693.328 5 119818476.257 5      3393.941          32.000    22800691.320 5  93365019.943 5      2644.627          32.000
G13  21766857.500 8 114385583.174 8     -2814.727          51.000    21766855.820 7  89131608.986 7     -2193.293          47.000
G15  20774898.938 8 109172819.357 8     -1691.152          51.000    20774897.336 8  85069727.907 8     -1317.781          51.000
G17  22394132.156 6 117681944.810 6       120.457          36.000    22394131.820 6  91700229.344 6        93.863          36.000
G19  22204704.219 6 116686505.801 6      2094.453          40.000    22204699.547 6  90924530.840 6      1632.041          37.000
R06  21036094.336 7 112252650.563 7     -3676.594          44.000
R09  20308647.695 4 108447044.876 4      1689.660          28.000
R16  20369471.781 6 108810057.065 6     -2161.406          36.000
R17  22880997.938 5 122440833.628 5      -980.695          35.000    22881004.391 4  95231786.889 4      -762.760          28.000
C14  23574761.984 8 122759958.975 8     -2575.973          50.000    23574758.648 8  94925786.165 8     -1992.041          51.000
C24  21952414.648 7 114311985.882 7       352.207          46.000
C25  24980055.188 4 130077704.318 4      2455.586          29.000
C26  22889070.203 7 119189322.449 7     -1940.867          42.000
E01  23640205.969 8 124230117.525 8       471.246          51.000    23640207.812 8  95189358.599 8       361.091          51.000
E04  23976554.531 8 125997629.942 8       -42.742          49.000    23976554.328 7  96543645.814 7       -32.739          47.000
E19  25896487.664 7 136086932.989 7     -2733.602          47.000    25896488.695 7 104274391.684 7     -2094.503          47.000
E21  24814984.398 7 130403620.654 7     -1852.516          47.000    24814986.297 7  99919666.572 7     -1419.535          44.000
E31  26661827.945 8 140108858.309 8      2342.160          48.000    26661833.516 8 107356159.911 8      1794.705          48.000
> 2020 05 04 07 03  0.0000000  0 18        .000000000000
G12  22781347.102 5 119716808.320 5      3384.344          35.000    22781345.961 5  93285798.192 5      2637.154          35.000
G13  21782960.297 8 114470203.442 8     -2826.625          51.000    21782958.914 7  89197546.848 7     -2202.565          47.000
G15  20784601.602 8 109223807.531 8     -1708.090          51.000    20784600.461 8  85109458.937 8     -1330.979          51.000
G17  22393494.359 6 117678597.155 6       102.254          37.000    22393496.031 6  91697620.897 6        79.675          37.000
G19  22192796.000 6 116623929.136 6      2077.250          40.000    22192792.648 6  90875769.905 6      1618.633          36.000
G24  20862472.961 5 109633032.075 5      1661.797          32.000
R06  21056808.773 7 112363179.822 7     -3691.930          46.000
R16  20381632.398 6 108875015.862 6     -2169.734          37.000
R17  22886569.000 5 122470641.085 5     -1006.469          35.000
C14  23589632.031 8 122837391.132 8     -2586.098          49.000    23589628.734 8  94985661.560 8     -1999.695          51.000
C24  21950409.609 7 114301544.408 7       343.746          46.000
C25  24965923.406 5 130004077.039 5      2452.574          31.000
C26  22900264.828 6 119247615.329 6     -1945.598          41.000
E01  23637540.039 8 124216108.470 8       462.609          51.000    23637541.820 8  95178624.380 8       354.500          51.000
E04  23976837.180 8 125999117.028 8       -56.465          49.000    23976837.484 7  96544785.273 7       -43.337          47.000
E19  25912112.133 7 136169042.967 7     -2740.551          46.000    25912113.664 7 104337307.096 7     -2099.795          47.000
E21  24825572.648 7 130459260.731 7     -1856.930          47.000    24825574.570 7  99962299.842 7     -1422.800          44.000
E31  26648470.625 8 140038663.678 8      2337.363          49.000    26648475.375 8 107302374.420 8      1790.988          48.000
> 2020 05 04 07 03 30.0000000  0 17        .000000000000
G12  22762051.469 6 119615405.298 6      3375.719          40.000    22762051.211 6  93206782.916 6      2630.427          41.000
G13  21799131.430 8 114555184.373 8     -2838.543          51.000    21799130.641 7  89263765.761 7     -2211.852          46.000
G15  20794401.656 8 109275308.639 8     -1725.191          51.000    20794401.211 8  85149589.654 8     -1344.305          51.000
G17  22392965.406 6 117675818.937 6        83.465          39.000    22392965.625 6  91695455.934 6        65.031          39.000
G19  22180986.141 6 116561869.425 6      2060.094          39.000    22180984.336 6  90827411.665 6      1605.265          36.000
R06  21077609.688 7 112474170.684 7     -3707.125          47.000
R16  20393839.328 6 108940224.184 6     -2178.102          36.000
R17  22892283.875 5 122501220.072 5     -1031.949          34.000
C14  23604560.070 8 122915126.704 8     -2596.113          48.000    23604557.797 8  95045771.604 8     -2007.558          51.000
C24  21948452.914 7 114291358.331 7       335.320          44.000
C25  24951806.414 5 129930560.957 5      2449.012          33.000
C26  22911487.617 6 119306058.012 6     -1950.594          41.000
E01  23634924.297 8 124202363.417 8       453.859          51.000    23634926.094 8  95168092.457 8       347.735          51.000
E04  23977199.758 8 126001024.305 8       -70.457          49.000    23977200.781 8  96546246.677 8       -54.049          48.000
E19  25927777.266 7 136251368.702 7     -2747.500          44.000    25927779.711 7 104400387.848 7     -2105.293          47.000
E21  24836187.188 7 130515040.053 7     -1861.559          46.000    24836189.805 7 100005039.819 7     -1426.425          44.000
E31  26635141.789 8 139968618.825 8      2332.398          49.000    26635145.844 8 107248703.720 8      1787.103          48.000
> 2020 05 04 07 04  0.0000000  0 19        .000000000000
G12  22742804.500 6 119514257.968 6      3367.348          38.000    22742805.141 6  93127966.840 6      2623.910          39.000
G13  21815368.555 8 114640512.986 8     -2850.078          51.000    21815368.172 7  89330255.583 7     -2220.840          45.000
G15  20804296.875 8 109327310.448 8     -1741.785          50.000    20804296.992 8  85190110.530 8     -1357.232          50.000
G17  22392543.031 5 117673599.452 5        64.953          32.000    22392544.648 5  91693726.475 5        50.619          32.000
G19  22169273.703 6 116500318.185 6      2043.215          37.000    22169271.680 6  90779449.621 6      1592.125          36.000
R06  21098494.008 7 112585607.580 7     -3722.016          46.000
R09  20280456.086 4 108296474.162 4      1655.621          29.000
R10  23140288.234 5 123350757.393 5      3098.328          31.000
R16  20406090.547 6 109005669.227 6     -2185.539          37.000
R17  22898141.656 4 122532558.218 4     -1057.664          29.000
C14  23619543.695 7 122993152.550 7     -2605.656          47.000    23619542.750 8  95106106.140 8     -2014.949          51.000
C24  21946543.164 7 114281416.551 7       327.203          44.000
C25  24937709.219 5 129857145.025 5      2445.766          31.000
C26  22922737.602 7 119364638.931 7     -1954.930          43.000
E01  23632356.695 8 124188870.892 8       445.492          51.000    23632358.422 8  95157754.035 8       341.345          51.000
E04  23977640.648 8 126003341.088 8       -84.156          51.000    23977641.992 8  96548021.867 8       -64.501          49.000
E19  25943481.539 7 136333897.971 7     -2754.434          45.000    25943484.445 7 104463624.545 7     -2110.510          47.000
E21  24846825.836 7 130570946.590 7     -1865.633          46.000    24846829.367 7 100047877.259 7     -1429.562          44.000
E31  26621839.398 8 139898713.025 8      2327.820          48.000    26621842.953 8 107195139.549 8      1783.666          48.000
> 2020 05 04 07 04 30.0000000  0 19        .000000000000
G12  22723612.117 6 119413401.041 6      3358.555          37.000    22723613.695 6  93049377.046 6      2617.056          37.000
G13  21831677.945 8 114726220.600 8     -2861.820          51.000    21831677.172 7  89397040.693 7     -2229.990          43.000
G15  20814293.461 8 109379844.455 8     -1758.863          50.000    20814293.969 8  85231046.126 8     -1370.543          50.000
G17  22392233.211 6 117671971.879 6        45.527          36.000    22392237.352 6  91692458.343 6        35.473          36.000
G19  22157664.711 7 116439310.913 7      2025.898          42.000    22157662.211 5  90731911.471 5      1578.619          35.000
G24  20834264.164 5 109484797.090 5      1633.629          31.000
R06  21119466.562 7 112697520.546 7     -3736.980          43.000
R07  19950430.133 6 106796207.878 6        27.094          37.000    19950428.727 5  83063720.192 5        21.076          30.000
R10  23122866.914 5 123257905.765 5      3093.078          32.000
R16  20418392.281 6 109071382.738 6     -2193.531          37.000
C14  23634588.672 7 123071499.071 7     -2615.508          46.000    23634589.078 8  95166688.641 8     -2022.471          51.000
C24  21944687.547 7 114271751.516 7       318.707          46.000
C25  24923638.078 4 129783923.555 4      2442.953          27.000
C26  22934020.945 6 119423390.171 6     -1960.039          41.000
E01  23629843.555 8 124175663.328 8       436.867          51.000    23629845.000 8  95147633.949 8       334.772          51.000
E04  23978166.070 8 126006100.600 8       -98.035          50.000    23978167.617 8  96550136.300 8       -75.163          49.000
E19  25959231.258 7 136416662.122 7     -2761.484          46.000    25959234.219 8 104527041.218 8     -2115.925          48.000
E21  24857494.656 7 130627012.296 7     -1869.992          45.000    24857498.961 7 100090836.681 7     -1432.842          43.000
E31  26608569.617 8 139828979.477 8      2322.922          48.000    26608573.039 8 107141707.366 8      1779.895          49.000
> 2020 05 04 07 05  0.0000000  0 17        .000000000000
G12  22704470.086 6 119312808.455 6      3349.734          40.000    22704471.555 6  92970993.193 6      2610.183          39.000
G13  21848053.898 8 114812277.764 8     -2873.340          51.000    21848052.227 7  89464098.136 7     -2238.969          43.000
G15  20824386.039 8 109432881.604 8     -1775.211          49.000    20824386.656 8  85272373.804 8     -1383.281          50.000
G17  22392030.703 4 117670915.037 4        27.203          29.000    22392034.430 5  91691630.321 5        21.203          31.000
G19  22146154.703 7 116378822.556 7      2008.758          42.000    22146151.062 5  90684777.728 5      1565.266          34.000
R06  21140520.688 7 112809876.330 7     -3751.699          42.000
R07  19950359.258 5 106795844.789 5         -.895          34.000    19950360.969 4  83063437.824 4         -.690          29.000
R09  20261982.570 5 108197863.769 5      1633.168          33.000    20261983.125 5  84153882.291 5      1270.242          32.000
R16  20430738.594 6 109137335.155 6     -2201.211          37.000
C14  23649689.539 7 123150136.457 7     -2625.051          46.000    23649691.039 8  95227496.057 8     -2029.844          51.000
C24  21942879.391 7 114262335.410 7       310.656          45.000
C26  22945330.617 6 119482283.643 6     -1964.656          41.000
E01  23627379.219 8 124162712.337 8       428.484          51.000    23627380.336 8  95137710.464 8       328.322          51.000
E04  23978770.180 8 126009275.283 8      -111.695          49.000    23978772.211 8  96552568.824 8       -85.594          50.000
E19  25975020.484 7 136499631.939 7     -2768.078          47.000    25975023.367 8 104590615.464 8     -2120.974          49.000
E21  24868188.297 7 130683208.306 7     -1874.375          44.000    24868192.906 7 100133895.956 7     -1435.982          42.000
E31  26595326.961 7 139759390.571 7      2318.223          46.000    26595330.977 8 107088386.006 8      1776.354          49.000
> 2020 05 04 07 05 30.0000000  0 18        .000000000000
G12  22685371.648 7 119212445.296 7      3340.223          42.000    22685372.930 6  92892788.140 6      2602.771          41.000
G13  21864489.359 8 114898647.171 8     -2885.613          51.000    21864486.867 7  89531398.887 7     -2248.533          43.000
G15  20834567.445 8 109486384.529 8     -1792.723          51.000    20834567.945 8  85314064.399 8     -1396.927          51.000
G17  22391930.758 6 117670385.333 6         7.312          37.000    22391931.453 6  91691214.609 6         5.701          36.000
G19  22134736.531 7 116318819.532 7      1990.613          42.000    22134730.258 4  90638022.203 4      1551.130          29.000
R06  21161651.695 7 112922635.158 7     -3766.859          45.000
R07  19950437.648 5 106796281.969 5       -29.250          33.000    19950444.508 5  83063777.888 5       -22.747          30.000
R09  20252838.203 5 108149018.387 5      1620.312          30.000    20252838.789 4  84115907.947 4      1260.243          29.000
R10  23088109.883 4 123072611.387 4      3082.039          28.000
R16  20443122.781 5 109203487.816 5     -2210.086          35.000
C14  23664839.359 7 123229026.712 7     -2635.355          47.000    23664841.078 8  95288499.008 8     -2037.806          51.000
C24  21941111.469 7 114253132.329 7       301.648          44.000
C26  22956661.125 6 119541282.895 6     -1969.934          39.000
E01  23624956.523 8 124149981.385 8       419.258          51.000    23624957.523 8  95127955.579 8       321.241          51.000
E04  23979446.492 8 126012829.378 8      -126.285          50.000    23979448.641 8  96555292.076 8       -96.761          50.000
E19  25990841.695 8 136582769.887 8     -2775.410          48.000    25990844.719 8 104654318.538 8     -2126.592          49.000
E21  24878899.766 7 130739497.583 7     -1879.383          45.000    24878904.570 7 100177026.706 7     -1439.972          42.000
E31  26582104.820 7 139689910.511 7      2312.719          46.000    26582109.461 8 107035148.042 8      1772.053          49.000
> 2020 05 04 07 06  0.0000000  0 16        .000000000000
G12  22666326.953 7 119112365.839 7      3330.750          43.000    22666328.297 7  92814804.204 7      2595.393          43.000
G13  21880994.016 8 114985378.948 8     -2897.160          51.000    21880991.797 7  89598982.039 7     -2257.527          45.000
G15  20844847.320 8 109540403.828 8     -1809.441          51.000    20844847.680 8  85356157.353 8     -1409.954          51.000
G17  22391937.969 5 117670431.903 5       -10.137          33.000    22391939.297 5  91691250.869 5        -7.899          31.000
G19  22123421.008 6 116259356.532 6      1972.766          41.000    22123413.227 5  90591687.454 5      1537.220          32.000
R06  21182867.711 8 113035845.071 8     -3781.438          48.000
R07  19950678.344 5 106797572.346 5       -57.527          32.000    19950685.906 4  83064781.606 4       -44.737          28.000
R16  20455553.969 5 109269892.076 5     -2218.070          33.000    20455562.203 4  84987729.769 4     -1725.163          27.000
C14  23680047.742 8 123308218.983 8     -2644.840          49.000    23680048.727 8  95349735.477 8     -2045.233          51.000
C24  21939394.734 7 114244193.486 7       293.383          45.000
C26  22968022.047 6 119600438.968 6     -1974.500          36.000
E01  23622585.297 8 124137521.857 8       410.582          51.000    23622586.484 8  95118408.664 8       314.650          51.000
E04  23980204.930 8 126016815.040 8      -140.254          50.000    23980207.102 8  96558346.005 8      -107.410          50.000
E19  26006704.219 7 136666126.538 7     -2782.211          47.000    26006707.617 8 104718189.191 8     -2131.803          49.000
E21  24889638.594 7 130795931.070 7     -1883.652          46.000    24889643.812 7 100220267.918 7     -1443.306          42.000
E31  26568913.609 7 139620591.508 7      2307.754          46.000    26568918.180 8 106982033.475 8      1768.231          49.000
> 2020 05 04 07 06 30.0000000  0 18        .000000000000
G12  22647318.094 7 119012475.860 7      3324.211          43.000    22647319.508 7  92736967.876 7      2590.294          42.000
G13  21897549.000 8 115072375.873 8     -2906.809          51.000    21897547.773 7  89666771.819 7     -2265.046          46.000
G15  20855207.000 8 109594842.372 8     -1823.941          51.000    20855207.086 8  85398576.988 8     -1421.253          51.000
G19  22112190.234 7 116200340.523 7      1957.164          42.000    22112183.758 5  90545701.026 5      1525.063          33.000
R06  21204149.141 8 113149405.253 8     -3793.406          49.000
R07  19951060.703 5 106799578.880 5       -82.926          33.000    19951063.906 4  83066353.327 4       -64.498          27.000
R09  20234746.812 5 108052404.860 5      1599.727          34.000    20234736.375 4  84040745.553 4      1244.235          24.000
R16  20468013.617 5 109336449.200 5     -2223.152          33.000    20468019.844 4  85039496.417 4     -1729.118          27.000
R17  22929556.148 5 122700575.395 5     -1182.387          35.000    22929554.562 4  95433810.507 4      -919.637          28.000
C14  23695296.016 8 123387616.411 8     -2652.426          51.000    23695295.695 8  95411130.549 8     -2050.960          51.000
C24  21937711.219 7 114235424.052 7       287.004          46.000
C25  24867520.000 5 129491695.913 5      2428.508          30.000
C26  22979393.102 5 119659656.622 5     -1977.102          34.000
E01  23620247.633 8 124125237.714 8       404.180          51.000    23620248.992 8  95108996.127 8       309.714          51.000
E04  23981027.328 8 126021136.984 8      -152.035          50.000    23981029.648 8  96561657.630 8      -116.518          51.000
E19  26022589.641 7 136749604.875 7     -2787.078          47.000    26022593.500 8 104782153.096 8     -2135.577          49.000
E21  24900386.664 7 130852412.209 7     -1885.883          46.000    24900392.094 7 100263545.652 7     -1445.039          42.000
E31  26555735.125 7 139551338.171 7      2304.988          46.000    26555739.461 8 106928969.246 8      1766.151          49.000
> 2020 05 04 07 07  0.0000000  0 18        .000000000000
G12  22628377.836 7 118912944.651 7      3313.129          43.000    22628378.547 7  92659411.056 7      2581.656          43.000
G13  21914185.789 8 115159803.641 8     -2920.008          51.000    21914185.805 8  89734897.336 8     -2275.331          48.000
G15  20865677.992 8 109649866.314 8     -1842.496          51.000    20865677.594 8  85441452.773 8     -1435.711          51.000
G19  22101077.008 6 116141941.827 6      1938.125          39.000    22101073.383 6  90500195.548 6      1510.227          37.000
G24  20788341.750 5 109243472.949 5      1583.910          30.000
R06  21225527.023 8 113263481.310 8     -3809.695          49.000
R07  19951619.852 6 106802552.355 6      -112.918          37.000
R16  20480533.539 5 109403328.005 5     -2232.863          33.000    20480539.164 4  85091513.219 4     -1736.671          28.000
R17  22936262.922 4 122736487.944 4     -1209.566          29.000
C14  23710615.203 8 123467382.500 8     -2663.641          51.000    23710613.383 8  95472810.678 8     -2059.714          50.000
C24  21936091.516 7 114226989.647 7       276.973          45.000
C25  24853548.125 4 129418945.771 4      2423.672          29.000
C26  22990807.188 5 119719101.064 5     -1983.961          32.000
E01  23617975.211 8 124113295.759 8       393.770          51.000    23617976.602 8  95099845.804 8       301.723          51.000
E04  23981945.406 8 126025962.815 8      -167.887          49.000    23981948.055 8  96565355.355 8      -128.673          51.000
E19  26038529.914 7 136833370.980 7     -2795.746          47.000    26038533.883 8 104846337.500 8     -2142.171          48.000
E21  24911175.539 7 130909107.409 7     -1892.094          46.000    24911181.078 6 100306987.401 6     -1449.795          41.000
E31  26542601.070 7 139482318.174 7      2298.188          46.000    26542605.359 8 106876083.819 8      1760.937          49.000
> 2020 05 04 07 07 30.0000000  0 15        .000000000000
G12  22609501.430 7 118813746.545 7      3305.027          46.000    22609500.898 7  92582113.850 7      2575.346          46.000
G13  21930899.047 8 115247633.623 8     -2930.219          49.000    21930900.172 8  89803336.269 8     -2283.287          48.000
G15  20876254.484 8 109705447.077 8     -1857.879          51.000    20876253.758 8  85484762.424 8     -1447.698          51.000
G19  22090076.219 6 116084135.768 6      1920.883          37.000    22090074.984 6  90455151.857 6      1496.795          37.000
R06  21246995.430 7 113378041.850 7     -3822.617          47.000
R07  19952345.914 6 106806425.127 6      -140.332          36.000
R16  20493108.859 5 109470499.160 5     -2239.938          33.000    20493114.781 5  85143757.426 5     -1742.174          31.000
C14  23725999.242 8 123547488.104 8     -2671.844          51.000    23725996.047 8  95534753.347 8     -2065.985          49.000
C24  21934530.430 7 114218863.261 7       269.781          46.000
C26  23002257.195 4 119778784.176 4     -1987.664          27.000
E01  23615762.602 8 124101668.410 8       386.379          51.000    23615764.055 8  95090936.533 8       296.092          51.000
E04  23982953.820 8 126031265.692 8      -180.676          48.000    23982957.383 8  96569418.582 8      -138.416          51.000
E19  26054519.656 8 136917396.079 8     -2801.066          48.000    26054523.062 7 104910720.333 7     -2146.227          47.000
E21  24921999.797 7 130965988.595 7     -1894.996          45.000    24922004.945 6 100350571.657 6     -1452.046          40.000
E31  26529506.234 7 139413504.657 7      2294.375          46.000    26529510.680 8 106823356.598 8      1758.093          49.000
> 2020 05 04 07 08  0.0000000  0 17        .000000000000
G12  22590639.953 8 118714626.112 8      3300.340          49.000    22590638.070 8  92504877.182 8      2571.693          49.000
G13  21947639.180 7 115335606.822 7     -2937.074          47.000    21947641.469 7  89871886.864 7     -2288.626          47.000
G15  20886887.594 8 109761325.955 8     -1869.855          51.000    20886886.523 8  85528304.371 8     -1457.030          51.000
G17  22393047.508 5 117676226.015 5       -81.043          35.000    22393032.047 5  91695734.459 5       -63.150          35.000
G19  22079139.258 6 116026667.303 6      1907.270          38.000    22079139.477 6  90410371.241 6      1486.181          37.000
R06  21268504.789 7 113492821.609 7     -3832.016          47.000
R07  19953188.133 6 106810935.600 6      -163.242          36.000    19953189.961 5  83075203.101 5      -126.972          30.000
R09  20208094.961 5 107910056.152 5      1568.145          34.000    20208088.789 4  83930048.075 4      1219.665          29.000
R16  20505689.188 5 109537699.794 5     -2242.875          33.000    20505695.664 5  85196024.554 5     -1744.458          32.000
C14  23741398.312 8 123627676.174 8     -2676.492          48.000    23741394.375 8  95596759.787 8     -2069.549          48.000
C24  21932979.984 7 114210789.927 7       266.031          47.000
C25  24825660.055 5 129273733.705 5      2421.938          33.000
E01  23613560.820 8 124090098.062 8       382.543          51.000    23613562.500 8  95082070.945 8       293.126          51.000
E04  23984004.211 8 126036788.765 8      -189.855          49.000    23984008.523 8  96573650.526 8      -145.477          51.000
E19  26070509.594 8 137001421.921 8     -2803.000          48.000    26070511.820 7 104975103.709 7     -2147.684          45.000
E21  24932810.383 7 131022797.715 7     -1894.594          45.000    24932814.383 6 100394100.678 6     -1451.606          40.000
E31  26516401.625 7 139344640.791 7      2294.195          45.000    26516406.500 8 106770590.793 8      1757.863          50.000
> 2020 05 04 07 08 30.0000000  0 18        .000000000000
G12  22571859.000 8 118615929.998 8      3288.273          49.000    22571856.648 8  92427971.128 8      2562.294          49.000
G13  21964471.703 7 115424067.513 7     -2951.211          47.000    21964475.086 7  89940817.298 7     -2299.645          47.000
G15  20897643.156 8 109817847.292 8     -1889.121          50.000    20897641.641 8  85572346.956 8     -1472.042          50.000
G17  22393599.836 6 117679120.247 6      -102.910          37.000    22393578.109 6  91697989.506 6       -80.199          38.000
G19  22068333.211 6 115969884.941 6      1887.230          36.000    22068334.133 6  90366125.233 6      1470.572          36.000
R06  21290119.789 7 113608167.602 7     -3848.488          45.000
R07  19954214.180 5 106816435.621 5      -194.086          33.000    19954216.695 5  83079480.894 5      -150.965          32.000
R16  20518340.125 5 109605279.789 5     -2254.035          31.000    20518345.383 4  85248586.804 4     -1753.138          29.000
R17  22957239.164 5 122848763.297 5     -1281.414          31.000
C14  23756878.156 7 123708286.959 7     -2688.480          47.000    23756874.078 7  95659093.109 7     -2078.892          47.000
C24  21931505.805 7 114203111.964 7       254.914          47.000
C25  24811746.766 5 129201303.352 5      2415.680          35.000
C26  23025202.000 6 119898255.804 6     -1995.207          38.000
E01  23611435.586 8 124078929.810 8       371.273          51.000    23611437.367 8  95073513.454 8       284.446          51.000
E04  23985162.906 8 126042877.845 8      -206.652          50.000    23985167.078 8  96578316.179 8      -158.350          51.000
E19  26086564.891 7 137085792.398 7     -2812.305          47.000    26086565.602 7 105039751.143 7     -2154.871          44.000
E21  24943672.695 7 131079879.439 7     -1901.605          44.000    24943675.672 6 100437838.603 6     -1456.937          40.000
E31  26503353.453 7 139276072.465 7      2286.453          46.000    26503358.750 8 106718051.418 8      1751.847          50.000
> 2020 05 04 07 09  0.0000000  0 18        .000000000000
G12  22553116.992 8 118517440.708 8      3278.121          50.000    22553115.727 8  92351226.245 8      2554.380          49.000
G13  21981355.750 8 115512793.573 8     -2963.355          50.000    21981358.844 7  90009954.490 7     -2309.111          46.000
G15  20908478.555 8 109874789.122 8     -1906.434          49.000    20908477.047 8  85616717.181 8     -1485.536          49.000
G17  22394247.820 5 117682508.726 5      -122.781          34.000    22394219.609 5  91700629.596 5       -95.689          35.000
G19  22057616.281 6 115913570.469 6      1867.461          38.000    22057618.031 6  90322243.937 6      1455.167          37.000
R06  21311797.867 7 113723851.442 7     -3863.230          43.000
R07  19955382.359 5 106822700.717 5      -222.762          34.000    19955387.320 5  83084353.714 5      -173.265          34.000
R16  20531021.016 4 109673030.346 4     -2260.809          29.000    20531015.555 4  85301225.956 4     -1758.407          29.000
R17  22964503.781 5 122887627.170 5     -1309.164          30.000
C14  23772396.938 7 123789099.583 7     -2698.312          46.000    23772393.398 8  95721582.506 8     -2086.627          48.000
C24  21930065.469 8 114195610.595 8       245.676          48.000
C25  24797838.180 5 129128909.828 5      2411.000          32.000
C26  23036719.633 6 119958197.225 6     -2000.582          39.000
E01  23609344.812 8 124067942.558 8       361.824          51.000    23609346.297 8  95065094.653 8       277.236          51.000
E04  23986387.891 8 126049312.572 8      -221.734          51.000    23986391.242 8  96583246.686 8      -169.873          51.000
E19  26102643.281 7 137170285.786 7     -2820.004          47.000    26102642.555 7 105104492.767 7     -2160.818          44.000
E21  24954544.617 7 131137012.241 7     -1906.609          43.000    24954547.195 6 100481615.659 6     -1460.953          40.000
E31  26490319.883 7 139207579.277 7      2280.363          47.000    26490325.289 8 106665569.627 8      1747.360          50.000
> 2020 05 04 07 09 30.0000000  0 16        .000000000000
G12  22534445.398 8 118419321.067 8      3267.082          50.000    22534445.328 8  92274769.388 8      2545.778          50.000
G13  21998321.414 8 115601945.260 8     -2976.273          51.000    21998323.273 7  90079423.299 7     -2319.177          44.000
G15  20919424.672 8 109932312.167 8     -1924.566          50.000    20919423.203 8  85661540.269 8     -1499.665          50.000
G19  22047020.984 6 115857888.986 6      1848.277          38.000    22047022.117 5  90278855.800 5      1440.216          35.000
R06  21333569.648 7 113840033.554 7     -3878.426          44.000
R07  19956725.422 5 106829916.212 5      -252.816          30.000    19956730.484 5  83089951.847 5      -196.632          35.000
R10  22950394.109 5 122338512.005 5      3035.266          30.000
R16  20543758.219 4 109741062.593 4     -2271.473          29.000    20543758.727 5  85354160.430 5     -1766.701          31.000
C14  23787985.086 7 123870272.413 7     -2709.172          45.000    23787982.891 8  95784350.462 8     -2094.976          50.000
C24  21928689.656 8 114188446.309 8       235.727          48.000
C26  23048276.359 6 120018365.988 6     -2006.809          38.000
E01  23607319.133 8 124057297.942 8       351.602          51.000    23607320.422 8  95056938.387 8       269.406          51.000
E04  23987709.602 8 126056255.300 8      -237.484          51.000    23987711.977 8  96588566.434 8      -181.966          51.000
E19  26118775.367 7 137255062.571 7     -2828.270          46.000    26118774.180 7 105169451.535 7     -2167.056          45.000
E21  24965456.328 6 131194360.292 6     -1912.477          39.000    24965460.633 6 100525559.361 6     -1465.530          40.000
E31  26477331.750 8 139139323.592 8      2273.688          48.000    26477336.789 8 106613269.851 8      1742.206          50.000
> 2020 05 04 07 10  0.0000000  0 17        .000000000000
G12  22515816.078 8 118321423.549 8      3257.988          50.000    22515816.391 8  92198485.628 8      2538.695          50.000
G13  22015339.398 8 115691371.607 8     -2986.941          51.000    22015339.695 7  90149106.121 7     -2327.490          43.000
G15  20930452.945 8 109990265.049 8     -1940.445          51.000    20930451.305 8  85706698.327 8     -1512.035          51.000
G19  22036517.328 5 115802692.785 5      1829.984          32.000    22036518.352 5  90235845.825 5      1425.971          33.000
R06  21355406.734 7 113956558.047 7     -3891.480          44.000
R07  19958217.797 5 106837887.944 5      -280.367          34.000    19958218.500 6  83096152.551 6      -218.063          36.000
R09  20173471.336 5 107725227.195 5      1517.055          32.000
R10  22933324.180 5 122247521.532 5      3029.715          31.000
R16  20556528.859 5 109809286.212 5     -2278.078          30.000    20556531.266 5  85407215.460 5     -1771.839          33.000
C14  23803613.312 7 123951654.918 7     -2717.652          45.000    23803613.094 8  95847280.594 8     -2101.591          51.000
C24  21927350.242 8 114181470.670 8       227.918          49.000
C26  23059844.219 6 120078613.406 6     -2011.258          38.000
E01  23605330.000 8 124046845.815 8       343.637          51.000    23605331.617 8  95048929.611 8       263.324          51.000
E04  23989099.133 8 126063556.590 8      -250.953          50.000    23989101.078 8  96594160.899 8      -192.331          51.000
E19  26134932.617 7 137339971.679 7     -2834.000          47.000    26134932.039 7 105234511.731 7     -2171.560          46.000
E21  24976380.438 6 131251766.990 6     -1915.902          38.000    24976384.484 6 100569546.317 6     -1468.077          39.000
E31  26464360.422 8 139071156.080 8      2269.191          48.000    26464364.914 8 106561037.636 8      1738.737          50.000
> 2020 05 04 07 10 30.0000000  0 17        .000000000000
G12  22497241.953 8 118223815.804 8      3249.367          51.000    22497241.828 8  92122427.675 8      2531.974          51.000
G13  22032421.539 8 115781136.750 8     -2997.203          51.000    22032420.969 7  90219052.920 7     -2335.486          42.000
G15  20941575.508 8 110048712.891 8     -1955.844          51.000    20941573.938 8  85752242.071 8     -1524.034          51.000
G17  22396829.727 5 117696139.970 5      -179.223          33.000
G19  22026119.859 6 115748051.154 6      1812.645          36.000    22026120.531 5  90193267.885 5      1412.450          35.000
R06  21377320.438 7 114073488.276 7     -3903.805          46.000
R07  19959871.430 5 106846705.402 5      -307.594          35.000    19959865.977 6  83103010.513 6      -239.249          36.000
R10  22916292.961 5 122156738.874 5      3024.312          32.000
R16  20569343.180 5 109877729.292 5     -2284.461          34.000    20569342.422 5  85460448.894 5     -1776.803          32.000
C14  23819294.438 7 124033310.625 7     -2725.695          46.000    23819295.680 8  95910421.983 8     -2107.756          51.000
C24  21926059.859 8 114174749.333 8       220.395          49.000
C26  23071440.656 6 120139004.469 6     -2014.668          41.000
E01  23603390.188 8 124036652.049 8       336.105          51.000    23603391.984 8  95041118.807 8       257.529          51.000
E04  23990569.609 8 126071283.006 8      -264.039          51.000    23990571.289 8  96600081.105 8      -202.295          51.000
E19  26151127.594 7 137425078.325 7     -2839.285          47.000    26151128.117 7 105299723.286 7     -2175.715          47.000
E21  24987329.383 6 131309300.863 6     -1919.195          39.000    24987331.906 6 100613630.774 6     -1470.747          39.000
E31  26451418.281 7 139003143.361 7      2265.109          46.000    26451422.477 8 106508924.029 8      1735.615          50.000
> 2020 05 04 07 11  0.0000000  0 19        .000000000000
G12  22478704.273 8 118126399.383 8      3240.668          50.000    22478703.742 8  92046518.817 8      2525.199          50.000
G13  22049548.422 8 115871139.042 8     -3007.367          51.000    22049547.406 6  90289184.532 6     -2343.403          41.000
G15  20952772.922 8 110107554.051 8     -1971.219          51.000    20952771.609 8  85798092.303 8     -1536.018          51.000
G17  22397896.289 6 117701737.688 6      -197.754          36.000    22397890.062 5  91715604.987 5      -154.091          33.000
G19  22015809.203 5 115693866.307 5      1795.004          35.000    22015809.852 5  90151045.944 5      1398.707          33.000
R06  21399290.445 7 114190718.671 7     -3915.914          46.000
R07  19961658.555 5 106856265.812 5      -333.965          33.000    19961651.453 5  83110446.369 5      -259.757          34.000
R10  22899270.484 5 122066020.294 5      3018.434          32.000
R16  20582180.688 5 109946298.386 5     -2291.523          33.000    20582177.516 5  85513780.365 5     -1782.299          31.000
R17  22994966.141 5 123050634.291 5     -1407.688          32.000
C14  23835009.305 8 124115138.030 8     -2733.578          48.000    23835010.836 8  95973696.123 8     -2113.867          51.000
C24  21924798.945 8 114168182.891 8       213.066          48.000
C25  24742459.875 5 128840507.051 5      2396.324          30.000
C26  23083045.602 6 120199439.642 6     -2018.418          39.000
E01  23601480.445 8 124026616.055 8       328.547          51.000    23601482.039 8  95033428.874 8       251.789          51.000
E04  23992102.094 8 126079334.613 8      -277.117          51.000    23992103.414 8  96606250.504 8      -212.304          51.000
E19  26167340.977 7 137510280.704 7     -2844.863          46.000    26167342.508 7 105365008.194 7     -2179.926          47.000
E21  24998283.367 6 131366860.975 6     -1922.383          40.000    24998285.508 6 100657735.235 6     -1473.057          39.000
E31  26438486.023 7 138935185.555 7      2261.012          45.000    26438490.555 8 106456852.489 8      1732.473          50.000
> 2020 05 04 07 11 30.0000000  0 17        .000000000000
G12  22460242.914 8 118029384.559 8      3230.453          49.000    22460242.656 8  91970922.889 8      2517.239          49.000
G13  22066759.703 8 115961585.451 8     -3018.875          51.000    22066758.891 7  90359662.225 7     -2352.373          42.000
G15  20964084.445 8 110166995.269 8     -1987.973          51.000    20964083.773 8  85844410.120 8     -1549.073          51.000
G19  22005624.273 5 115640348.877 5      1776.547          34.000    22005625.359 4  90109344.070 4      1384.322          28.000
R06  21421355.117 7 114308456.431 7     -3929.703          46.000
R07  19963623.148 6 106866781.325 6      -362.805          37.000    19963615.062 5  83118625.043 5      -282.188          32.000
R09  20148173.227 5 107590069.184 5      1484.094          32.000    20148169.875 4  83681203.783 4      1154.289          26.000
R16  20595080.938 5 110015204.084 5     -2298.859          31.000    20595077.086 5  85567373.592 5     -1788.002          33.000
R17  23002930.062 5 123093288.976 5     -1433.039          33.000    23002936.484 4  95739274.494 4     -1114.589          29.000
C14  23850796.594 8 124197341.448 8     -2742.895          49.000    23850797.836 8  96037260.999 8     -2121.077          51.000
C24  21923607.016 8 114161977.782 8       204.125          48.000
C26  23094698.484 6 120260125.070 6     -2023.941          36.000
E01  23599640.234 8 124016945.723 8       319.707          51.000    23599641.703 8  95026019.135 8       244.919          51.000
E04  23993735.961 8 126087920.001 8      -291.695          51.000    23993737.484 8  96612828.903 8      -223.501          51.000
E19  26183611.945 7 137595786.059 7     -2851.879          45.000    26183614.227 7 105430525.272 7     -2185.272          47.000
E21  25009281.547 6 131424654.752 6     -1926.906          40.000    25009284.102 6 100702018.745 6     -1476.410          39.000
E31  26425603.734 7 138867491.399 7      2255.457          44.000    26425609.109 8 106404982.943 8      1728.234          50.000
> 2020 05 04 07 12  0.0000000  0 16        .000000000000
G12  22441829.039 8 117932619.311 8      3218.938          49.000    22441829.445 8  91895521.393 8      2508.263          49.000
G13  22084026.055 8 116052320.864 8     -3031.742          51.000    22084025.289 6  90430365.064 6     -2362.400          41.000
G15  20975480.414 8 110226881.712 8     -2006.012          51.000    20975480.539 8  85891074.869 8     -1563.126          51.000
G17  22400385.844 6 117714826.653 6      -238.105          36.000
G19  21995538.773 5 115587348.141 5      1755.762          34.000    21995539.828 5  90068044.684 5      1368.138          32.000
R06  21443484.625 7 114426541.341 7     -3944.336          45.000
R07  19965736.492 4 106878094.847 4      -392.523          29.000    19965726.711 5  83127424.453 5      -305.308          30.000
R10  22865365.828 5 121885305.420 5      3004.500          31.000
C14  23866626.219 8 124279766.341 8     -2753.492          50.000    23866627.016 8  96100997.114 8     -2129.211          51.000
C24  21922455.258 8 114155981.637 8       193.992          48.000
C26  23106370.773 6 120320907.929 6     -2029.906          40.000
E01  23597840.406 8 124007486.962 8       309.367          51.000    23597842.023 8  95018771.515 8       237.024          51.000
E04  23995442.203 8 126096885.757 8      -307.656          51.000    23995444.031 8  96619698.765 8      -235.731          51.000
E19  26199910.711 7 137681439.126 7     -2859.879          44.000    26199913.711 7 105496155.545 7     -2191.423          46.000
E21  25020294.398 6 131482527.749 6     -1932.785          39.000    25020297.281 6 100746362.948 6     -1481.073          39.000
E31  26412742.227 7 138799907.487 7      2248.477          43.000    26412748.867 8 106353197.873 8      1722.928          50.000
> 2020 05 04 07 12 30.0000000  0 17        .000000000000
G12  22423473.258 8 117836159.079 8      3212.152          50.000    22423474.227 8  91820357.575 8      2502.976          50.000
G13  22101357.383 8 116143397.272 8     -3039.605          51.000    22101355.938 6  90501333.638 6     -2368.524          40.000
G15  20986970.930 8 110287265.675 8     -2019.129          51.000    20986971.742 8  85938127.302 8     -1573.347          51.000
G17  22401791.898 6 117722215.510 6      -253.930          36.000    22401809.484 5  91731621.804 5      -197.858          35.000
G19  21985561.742 5 115534920.341 5      1739.648          32.000    21985563.867 5  90027191.947 5      1355.564          32.000
R06  21465688.438 7 114545024.209 7     -3954.086          44.000
R07  19968007.961 5 106890261.304 5      -417.520          33.000    19967999.289 5  83136887.137 5      -324.750          32.000
R10  22848466.742 5 121795160.011 5      3002.180          33.000
C14  23882507.852 8 124362463.829 8     -2759.141          50.000    23882508.117 8  96164944.013 8     -2133.549          51.000
C24  21921353.953 8 114150247.782 8       188.566          48.000
C25  24701142.461 5 128625338.989 5      2386.121          33.000
C26  23118073.164 6 120381841.196 6     -2031.887          39.000
E01  23596091.008 8 123998293.246 8       303.977          51.000    23596092.852 8  95011726.978 8       232.884          51.000
E04  23997231.148 8 126106285.989 8      -318.691          51.000    23997232.727 8  96626901.537 8      -244.168          51.000
E19  26216247.812 7 137767292.455 7     -2863.043          45.000    26216251.117 7 105561939.254 7     -2193.754          46.000
E21  25031332.359 6 131540532.941 6     -1933.578          39.000    25031334.797 6 100790808.438 6     -1481.576          38.000
E31  26399912.492 7 138732488.027 7      2246.629          44.000    26399919.984 8 106301538.807 8      1721.290          50.000
> 2020 05 04 07 13  0.0000000  0 18        .000000000000
G12  22405160.016 8 117739922.103 8      3203.840          51.000    22405160.406 8  91745367.720 8      2496.499          51.000
G13  22118737.109 8 116234729.922 8     -3048.996          49.000    22118735.250 6  90572501.879 6     -2375.841          41.000
G15  20998540.133 8 110348062.186 8     -2033.617          51.000    20998541.094 8  85985501.199 8     -1584.637          51.000
G17  22403291.812 5 117730102.597 5      -272.066          31.000    22403307.203 5  91737767.590 5      -212.009          31.000
G19  21975678.312 5 115482984.202 5      1723.570          32.000    21975680.109 5  89986722.220 5      1343.048          32.000
R06  21487949.695 6 114663816.188 6     -3965.223          40.000
R07  19970423.281 5 106903195.787 5      -444.129          35.000    19970417.828 5  83146947.225 5      -345.440          31.000
R10  22831585.555 5 121705179.844 5      2997.195          34.000
R17  23027651.328 4 123225607.915 4     -1504.367          29.000
C14  23898425.273 8 124445349.147 8     -2766.230          49.000    23898424.961 8  96229036.149 8     -2139.040          50.000
C24  21920286.852 7 114144693.522 7       181.887          47.000
C25  24687407.820 5 128553789.647 5      2384.367          35.000
C26  23129786.672 5 120442842.165 5     -2034.395          30.000
E01  23594376.000 8 123989280.758 8       297.121          51.000    23594377.805 8  95004821.295 8       227.625          51.000
E04  23999086.789 8 126116037.551 8      -331.207          51.000    23999088.125 8  96634373.494 8      -253.773          51.000
E19  26232607.586 7 137853261.584 7     -2867.797          46.000    26232610.477 7 105627811.680 7     -2197.421          46.000
E21  25042379.586 6 131598586.252 6     -1936.430          37.000    25042380.508 6 100835290.793 6     -1483.764          37.000
E31  26387098.578 7 138665149.954 7      2242.957          45.000    26387106.609 8 106249942.101 8      1718.617          50.000
> 2020 05 04 07 13 30.0000000  0 17        .000000000000
G12  22386913.289 8 117644034.333 8      3187.535          51.000    22386912.359 8  91670649.987 8      2483.797          51.000
G13  22136188.539 7 116326440.827 7     -3066.223          47.000    22136186.844 6  90643964.917 6     -2389.264          41.000
G15  21010211.258 8 110409393.787 8     -2056.250          51.000    21010211.914 8  86033292.045 8     -1602.273          51.000
G17  22404910.586 5 117738612.090 5      -296.777          30.000    22404915.758 5  91744398.244 5      -231.252          30.000
G19  21965912.867 5 115431666.407 5      1697.188          30.000    21965914.656 5  89946734.270 5      1322.502          30.000
R06  21510290.906 5 114783039.658 5     -3984.371          35.000
R07  19973004.625 5 106917023.917 5      -478.805          35.000    19973000.930 5  83157702.508 5      -372.398          33.000
R10  22814748.891 5 121615436.057 5      2984.727          34.000
R16  20647049.398 5 110292830.441 5     -2331.984          32.000
C14  23914401.797 8 124528542.870 8     -2781.004          48.000    23914400.734 8  96293366.765 8     -2150.524          48.000
C24  21919277.883 7 114139441.619 7       167.133          47.000
C26  23141536.156 6 120504033.074 6     -2045.500          38.000
E01  23592719.008 8 123980573.020 8       282.289          51.000    23592720.648 8  94998149.119 8       216.296          51.000
E04  24001033.000 8 126126264.607 8      -351.648          51.000    24001034.242 8  96642209.795 8      -269.472          51.000
E19  26249012.977 7 137939468.845 7     -2880.543          47.000    26249015.297 7 105693866.555 7     -2207.193          46.000
E21  25053459.289 5 131656816.756 5     -1946.762          35.000    25053459.062 6 100879904.324 6     -1491.399          37.000
E31  26374323.852 7 138598017.566 7      2231.434          44.000    26374332.117 8 106198502.999 8      1709.767          50.000
> 2020 05 04 07 14  0.0000000  0 14        .000000000000
G12  22368727.125 8 117548466.291 8      3182.914          49.000    22368725.633 8  91596181.401 8      2480.193          49.000
G13  22153706.078 8 116418497.270 8     -3071.473          49.000    22153704.406 7  90715697.227 7     -2393.355          42.000
G15  21021977.953 8 110471227.811 8     -2066.770          51.000    21021978.141 8  86081474.361 8     -1610.473          51.000
G19  21956259.906 5 115380923.140 5      1683.438          35.000    21956260.984 5  89907218.739 5      1311.766          32.000
R07  19975747.383 6 106931713.671 6      -501.273          37.000    19975746.430 5  83169127.958 5      -389.876          32.000
R10  22797952.312 5 121525898.054 5      2983.656          31.000
C14  23930431.000 7 124612011.895 7     -2784.059          46.000    23930428.758 7  96357910.235 7     -2152.913          44.000
C24  21918321.453 8 114134461.117 8       164.230          48.000
C26  23153318.648 6 120565382.584 6     -2044.883          38.000
