     3.02           OBSERVATION DATA    M (MIXED)           RINEX VERSION / TYPE
SAVERINEX           SC600               20200518 055930 LCL PGM / RUN BY / DATE
       G = GPS       R = GLONASS       C = COMPASS          COMMENT
       S = SBAS      J = QZSS          E = GALILEO          COMMENT
BEAN                                                        MARKER NAME
1                                                           MARKER NUMBER
GEODETIC                                                    MARKER TYPE
Unige DICCA         GTER                                    OBSERVER / AGENCY
SC60291900056       SC600               2.12(191202)        REC # / TYPE / VERS
                    HEMA45          NONE                    ANT # / TYPE
  4509407.8091   693652.4678  4442337.6214                  APPROX POSITION XYZ
        0.0000        0.0000        0.0000                  ANTENNA: DELTA H/E/N
G    8 C1C L1C D1C S1C C2Y L2Y D2Y S2Y                      SYS / # / OBS TYPES
R    8 C1C L1C D1C S1C C2P L2P D2P S2P                      SYS / # / OBS TYPES
C    8 C1I L1I D1I S1I C7I L7I D7I S7I                      SYS / # / OBS TYPES
E    8 C1C L1C D1C S1C C7Q L7Q D7Q S7Q                      SYS / # / OBS TYPES
DBHZ                                                        COMMENT
     30.000                                                 INTERVAL
  2020    05    18    03    00    0.0000000     GPS         TIME OF FIRST OBS
  2020    05    18    03    59   30.0000000     GPS         TIME OF LAST OBS
     0                                                      RCV CLOCK OFFS APPL
G L1C  0.00000                                              SYS / PHASE SHIFT
G L2Y  0.00000                                              SYS / PHASE SHIFT
R L1C  0.00000                                              SYS / PHASE SHIFT
R L2P  0.25000                                              SYS / PHASE SHIFT
C L1I  0.00000                                              SYS / PHASE SHIFT
C L7I  0.00000                                              SYS / PHASE SHIFT
E L1C  0.50000                                              SYS / PHASE SHIFT
E L7Q -0.25000                                              SYS / PHASE SHIFT
 12 R01  1 R02 -4 R03  5 R08  6 R10 -5 R11  0 R12 -1 R13 -2 GLONASS SLOT / FRQ #
    R14 -7 R17  4 R22 -3 R23  3                             GLONASS SLOT / FRQ #
 C1C   71.950 C2C   71.950 C2P   71.950                     GLONASS COD/PHS/BIS
    18                                                      LEAP SECONDS
*** Above antenna height is from mark to ANTENNA BOTTOM.    COMMENT
    17     4        0.0000        ANT MEASURE TYPE/HEIGT    COMMENT
    0.0000    0.0000    0.0458    0.0405    0.0000          COMMENT
                    BASE STATION                            COMMENT
                                                            END OF HEADER
> 2020 05 18 03 00  0.0000000  0 15        .000000000000
G05  20734035.914 8 108958094.628 8     -1095.090          50.000    20734035.289 8  84902402.393 8      -853.317          50.000
G28  21632233.461 7 113678206.136 7      2118.816          47.000    21632229.594 7  88580421.765 7      1651.029          43.000
G30  20646020.406 8 108495576.294 8     -1161.078          51.000    20646020.984 8  84542043.763 8      -904.736          51.000
R02  21220299.438 8 113235623.409 8     -3131.906          49.000    21220302.656 7  88072119.616 7     -2435.930          45.000
R03  19200178.289 8 102780078.311 8       320.934          50.000    19200178.984 7  79940056.078 7       249.615          47.000
R12  21547351.742 5 115101987.143 5     -3569.516          35.000
R13  19151665.766 6 102268837.967 6        91.848          38.000    19151668.438 7  79542415.707 7        71.434          44.000
R14  21472193.211 8 114458795.826 8      3657.375          50.000    21472197.562 7  89023506.510 7      2844.625          44.000
C05  39812020.742 6 207311638.303 6         7.746          37.000    39812017.648 6 160306500.606 6         5.869          40.000
C21  22354446.148 8 116405479.617 8     -1740.254          51.000
C26  21932785.492 8 114209727.780 8      1629.574          51.000
E07  23379452.266 8 122859870.983 8       194.391          51.000    23379453.578 8  94139359.717 8       148.919          51.000
E08  23441297.719 8 123184854.731 8     -2024.938          49.000    23441299.375 8  94388540.082 8     -1551.683          48.000
E27  25973059.203 5 136489281.600 5      2967.945          35.000    25973055.188 6 104582746.335 6      2274.098          39.000
E30  22468919.586 8 118074960.184 8       764.004          51.000    22468921.164 8  90473030.287 8       585.388          51.000
> 2020 05 18 03 00 30.0000000  0 15        .000000000000
G05  20740361.234 8 108991334.818 8     -1117.848          50.000    20740361.023 8  84928303.824 8      -871.050          50.000
G28  21620196.664 7 113614961.251 7      2100.715          42.000    21620193.258 7  88531140.072 7      1636.924          42.000
G30  20652702.836 8 108530693.338 8     -1177.070          51.000    20652703.734 8  84569407.718 8      -917.198          51.000
R02  21237964.141 8 113329886.342 8     -3149.293          50.000    21237966.477 7  88145435.097 7     -2449.456          44.000
R03  19198456.117 8 102770860.046 8       296.746          50.000    19198457.086 7  79932886.280 7       230.803          46.000
R12  21567447.508 5 115209329.887 5     -3583.645          35.000
R13  19151237.406 6 102266550.909 6        63.582          37.000    19151240.234 7  79540636.884 7        49.456          44.000
R14  21451666.547 8 114349373.860 8      3640.504          51.000    21451669.516 7  88938400.555 7      2831.503          42.000
C05  39811995.539 6 207311507.056 6         4.027          37.000    39811992.359 6 160306399.098 6         3.132          40.000
C21  22364527.461 8 116457978.896 8     -1756.738          49.000
C26  21923452.891 8 114161128.194 8      1613.438          51.000
E07  23378385.945 8 122854267.034 8       182.195          51.000    23378387.188 8  94135065.796 8       139.604          51.000
E08  23452895.578 8 123245799.148 8     -2034.996          48.000    23452897.617 8  94435237.722 8     -1559.250          48.000
E27  25956150.469 5 136400491.952 5      2958.793          33.000    25956144.852 6 104514663.024 6      2266.950          41.000
E30  22464616.875 8 118052348.744 8       746.426          51.000    22464618.320 8  90455704.671 8       571.913          51.000
> 2020 05 18 03 01  0.0000000  0 15        .000000000000
G05  20746794.711 8 109025142.786 8     -1136.184          49.000    20746794.570 8  84954647.661 8      -885.338          49.000
G28  21608245.148 7 113552161.488 7      2086.027          45.000    21608243.367 7  88482205.171 7      1625.473          45.000
G30  20659455.031 8 108566176.856 8     -1188.824          51.000    20659455.875 8  84597057.215 8      -926.357          51.000
R02  21255704.047 8 113424549.230 8     -3161.992          51.000    21255706.586 7  88219061.694 7     -2459.327          46.000
R03  19196847.664 8 102762248.861 8       276.926          51.000    19196848.336 7  79926188.686 7       215.387          47.000
R12  21587601.484 6 115316979.164 6     -3593.348          37.000
R13  19150945.281 6 102264992.138 6        39.766          39.000    19150948.586 7  79539424.511 7        30.926          44.000
R14  21431213.047 8 114240343.616 8      3627.926          51.000    21431214.055 7  88853599.296 7      2821.720          42.000
C05  39811969.648 6 207311371.802 6         4.844          37.000    39811966.328 6 160306294.526 6         3.510          40.000
C21  22374680.766 7 116510858.061 7     -1768.852          47.000
C26  21914191.469 8 114112901.375 8      1601.414          51.000
E07  23377367.336 8 122848914.162 8       174.371          51.000    23377368.531 8  94130964.248 8       133.600          51.000
E08  23464528.203 7 123306929.185 7     -2040.664          47.000    23464530.188 7  94482077.583 7     -1563.593          46.000
E27  25939261.969 5 136311749.172 5      2953.426          35.000    25939266.297 6 104446707.530 6      2263.041          41.000
E30  22460393.148 8 118030151.823 8       733.113          51.000    22460394.016 8  90438696.653 8       561.757          51.000
> 2020 05 18 03 01 30.0000000  0 15        .000000000000
G05  20753336.961 8 109059522.819 8     -1155.965          50.000    20753336.656 8  84981437.283 8      -900.752          50.000
G28  21596381.047 8 113489813.682 8      2070.305          50.000    21596379.852 7  88433622.456 7      1613.224          45.000
G30  20666277.609 8 108602030.367 8     -1201.734          51.000    20666278.430 8  84624995.005 8      -936.416          51.000
R02  21273518.930 8 113519615.188 8     -3176.043          48.000    21273523.219 8  88293001.894 8     -2470.256          48.000
R03  19195353.602 8 102754251.352 8       255.852          51.000    19195354.391 7  79919968.395 7       198.996          47.000
R12  21607812.547 5 115424935.867 5     -3603.715          33.000
R13  19150790.484 6 102264165.753 6        14.766          39.000    19150793.781 7  79538781.769 7        11.487          43.000
R14  21410834.195 8 114131712.685 8      3613.914          51.000    21410833.734 7  88769108.619 7      2810.825          42.000
C05  39811943.766 6 207311237.324 6         4.043          37.000    39811940.438 6 160306190.537 6         3.051          40.000
C21  22384908.602 8 116564121.272 8     -1782.281          50.000
C26  21905001.789 8 114065052.560 8      1588.145          51.000
E07  23376397.500 8 122843817.984 8       165.203          51.000    23376398.586 8  94127059.402 8       126.587          51.000
E08  23476196.977 7 123368249.447 7     -2047.523          47.000    23476199.211 7  94529063.243 7     -1568.888          45.000
E27  25922416.812 6 136223234.627 6      2947.270          38.000    25922420.711 6 104378884.709 6      2258.178          40.000
E30  22456249.117 8 118008374.399 8       718.555          51.000    22456249.906 8  90422010.063 8       550.551          51.000
> 2020 05 18 03 02  0.0000000  0 15        .000000000000
G05  20759983.773 8 109094452.342 8     -1176.863          51.000    20759983.094 8  85008655.083 8      -917.036          51.000
G28  21584599.945 8 113427898.795 8      2053.227          51.000    21584598.594 7  88385377.072 7      1599.917          46.000
G30  20673166.281 8 108638231.047 8     -1216.008          51.000    20673167.250 8  84653203.311 8      -947.539          51.000
R02  21291403.625 7 113615060.901 7     -3191.445          46.000    21291410.492 8  88367237.477 8     -2482.232          49.000
R03  19193970.320 8 102746847.412 8       233.391          50.000    19193971.617 8  79914209.754 8       181.526          48.000
R13  19150768.898 6 102264048.997 6       -11.383          40.000    19150771.984 7  79538690.977 7        -8.850          43.000
R14  21390526.578 8 114023461.829 8      3598.578          50.000    21390525.445 7  88684913.566 7      2798.894          43.000
C05  39811914.047 6 207311082.540 6         1.891          37.000    39811910.773 6 160306070.813 6         1.701          40.000
C21  22395207.156 8 116617746.659 8     -1796.984          51.000
C26  21895880.500 8 114017560.992 8      1573.695          51.000
E02  25503253.172 5 134020512.119 5     -2025.098          33.000    25503281.516 5 102691139.025 5     -1551.136          31.000
E07  23375472.484 8 122838957.799 8       154.633          51.000    23375473.641 8  94123335.372 8       118.485          51.000
E08  23487897.742 7 123429738.406 7     -2055.918          46.000    23487899.594 7  94576178.164 7     -1575.248          43.000
E27  25905603.008 6 136134873.312 6      2939.402          41.000    25905604.375 6 104311179.292 6      2252.401          39.000
E30  22452180.469 8 117986995.221 8       702.566          51.000    22452181.953 8  90405628.651 8       538.342          51.000
> 2020 05 18 03 02 30.0000000  0 16        .000000000000
G05  20766744.266 8 109129978.073 8     -1188.227          51.000    20766743.188 8  85036337.479 8      -925.891          51.000
G28  21572910.602 8 113366466.301 8      2045.617          51.000    21572908.656 7  88337507.572 7      1593.984          47.000
G30  20680129.922 8 108674825.133 8     -1220.438          51.000    20680130.891 8  84681718.181 8      -950.990          51.000
R02  21309369.352 7 113710932.834 7     -3196.738          47.000    21309377.055 8  88441804.577 8     -2486.352          50.000
R03  19192707.289 8 102740087.078 8       220.605          50.000    19192708.750 8  79908951.711 8       171.582          48.000
R12  21648396.297 5 115641839.070 5     -3618.457          31.000
R13  19150889.023 6 102264688.578 6       -28.043          41.000    19150891.664 7  79539188.447 7       -21.808          43.000
R14  21370299.727 8 113915642.138 8      3592.762          50.000    21370299.094 7  88601053.858 7      2794.373          45.000
C05  39811889.391 6 207310954.471 6         9.617          37.000    39811886.188 6 160305971.810 6         7.503          41.000
C21  22405584.305 8 116671780.776 8     -1802.066          51.000
C26  21886837.562 8 113970474.291 8      1568.664          51.000
E02  25514821.375 5 134081290.705 5     -2026.500          30.000    25514859.406 5 102737745.764 5     -1552.782          32.000
E07  23374601.539 8 122834381.980 8       153.602          51.000    23374603.016 8  94119829.235 8       117.698          51.000
E08  23499639.617 7 123491443.526 7     -2054.598          46.000    23499639.195 7  94623458.707 7     -1574.371          44.000
E27  25888827.641 7 136046714.288 7      2941.152          44.000    25888825.547 6 104243628.926 6      2253.769          38.000
E30  22448196.625 8 117966062.103 8       696.180          50.000    22448198.406 8  90389588.997 8       533.430          51.000
> 2020 05 18 03 03  0.0000000  0 16        .000000000000
G05  20773597.898 8 109165993.204 8     -1212.180          51.000    20773596.609 8  85064401.218 8      -944.556          51.000
G28  21561292.891 8 113305412.214 8      2025.348          51.000    21561290.719 7  88289932.967 7      1578.193          47.000
G30  20687148.133 8 108711705.259 8     -1237.520          51.000    20687149.047 8  84710455.942 8      -964.301          51.000
R02  21327396.008 8 113807122.052 8     -3215.082          48.000    21327402.914 8  88516618.468 8     -2500.619          49.000
R03  19191544.672 8 102733864.179 8       194.859          50.000    19191546.172 8  79904111.682 8       151.557          49.000
R12  21668763.891 5 115750627.670 5     -3632.672          30.000
R13  19151130.383 6 102265976.252 6       -57.285          41.000    19151132.547 7  79540189.986 7       -44.555          42.000
R14  21350134.336 8 113808148.480 8      3574.109          49.000    21350134.961 7  88517447.705 7      2779.863          47.000
C05  39811849.719 6 207310748.723 6         4.797          36.000    39811846.617 6 160305812.317 6         3.616          40.000
C21  22416019.492 8 116726117.837 8     -1819.719          51.000
C26  21877852.812 8 113923687.793 8      1551.145          51.000
E02                                                                  25526474.609 5 102784512.046 5     -1564.129          34.000
E07  23373764.672 8 122829985.193 8       140.082          51.000    23373766.594 8  94116460.259 8       107.339          51.000
E08  23511402.703 7 123553258.600 7     -2065.758          47.000    23511400.648 7  94670823.450 7     -1582.811          44.000
E27  25872071.016 7 135958652.980 7      2930.375          46.000    25872064.766 6 104176153.445 6      2245.346          37.000
E30  22444277.477 8 117945469.076 8       677.336          50.000    22444279.180 8  90373809.907 8       519.007          51.000
> 2020 05 18 03 03 30.0000000  0 17        .000000000000
G05  20780577.062 8 109202668.397 8     -1230.875          51.000    20780575.648 8  85092979.294 8      -959.120          51.000
G07  22734197.164 6 119468982.633 6     -2540.586          37.000    22734171.734 5  93092640.711 5     -1979.680          32.000
G28  21549779.766 8 113244910.803 8      2010.031          50.000    21549778.062 7  88242789.018 7      1566.258          47.000
G30  20694253.234 8 108749041.827 8     -1249.602          51.000    20694254.180 8  84739549.373 8      -973.716          51.000
R02  21345514.945 8 113903801.434 8     -3228.219          50.000    21345520.742 7  88591813.569 7     -2510.837          46.000
R03  19190515.695 8 102728355.167 8       174.309          49.000    19190517.133 8  79899826.911 8       135.573          49.000
R12  21689205.852 5 115859795.928 5     -3643.211          31.000
R13  19151525.594 7 102268085.400 7       -81.195          42.000    19151527.484 7  79541830.456 7       -63.152          43.000
R14  21330063.289 8 113701157.889 8      3560.480          48.000    21330065.320 8  88434232.788 8      2769.263          48.000
C05  39811827.688 6 207310633.024 6         4.336          36.000    39811824.664 6 160305723.978 6         3.803          40.000
C21  22426545.391 8 116780927.409 8     -1832.266          51.000
C26  21868958.758 8 113877372.230 8      1538.566          51.000
E02                                                                  25538160.578 5 102831568.223 5     -1571.525          35.000
E07  23372994.812 8 122825939.994 8       131.484          51.000    23372996.930 8  94113360.684 8       100.790          51.000
E08  23523219.938 8 123615355.214 8     -2072.055          48.000    23523217.375 7  94718403.962 7     -1587.639          46.000
E27  25855365.828 7 135870862.668 7      2924.430          47.000    25855358.016 6 104108885.612 6      2240.863          38.000
E30  22440456.086 8 117925388.085 8       663.371          51.000    22440457.672 8  90358423.161 8       508.276          51.000
> 2020 05 18 03 04  0.0000000  0 16        .000000000000
G05  20787660.039 8 109239888.956 8     -1253.730          51.000    20787658.398 8  85121982.345 8      -976.930          51.000
G07  22748721.641 5 119545300.156 5     -2550.102          34.000    22748691.016 5  93152108.842 5     -1987.116          32.000
G28  21538349.992 8 113184850.559 8      1990.688          48.000    21538349.102 7  88195988.830 7      1551.182          46.000
G30  20701423.391 8 108786720.228 8     -1265.504          51.000    20701424.414 8  84768909.171 8      -986.107          51.000
R02  21363703.711 8 114000854.071 8     -3245.188          50.000    21363708.016 7  88667298.924 7     -2524.038          43.000
R03  19189598.453 8 102723446.266 8       149.664          48.000    19189600.203 8  79896008.867 8       116.405          49.000
R13  19152052.742 6 102270899.738 6      -109.543          41.000    19152054.672 7  79544019.425 7       -85.200          43.000
R14  21310065.148 8 113594557.949 8      3542.836          48.000    21310068.164 8  88351321.695 8      2755.539          48.000
C05  39811801.969 6 207310498.744 6          .836          36.000    39811798.875 6 160305620.168 6          .607          40.000
C21  22437140.336 8 116836096.583 8     -1848.781          51.000
C26  21860133.969 8 113831415.785 8      1522.020          51.000
E02                                                                  25549896.367 5 102878826.377 5     -1581.863          35.000
E07  23372270.555 8 122822133.803 8       118.996          51.000    23372272.641 8  94110444.259 8        91.167          51.000
E08  23535068.953 8 123677619.982 8     -2082.148          48.000    23535067.602 7  94766113.298 7     -1595.460          46.000
E27  25838690.781 7 135783231.547 7      2914.441          47.000    25838684.719 6 104041739.757 6      2233.164          41.000
E30  22436711.016 8 117905705.963 8       645.531          51.000    22436712.391 8  90343342.059 8       494.601          51.000
> 2020 05 18 03 04 30.0000000  0 16        .000000000000
G05  20794856.914 8 109277708.546 8     -1266.184          51.000    20794855.250 8  85151452.165 8      -986.637          51.000
G07  22763267.875 5 119621767.542 5     -2549.219          33.000
G28  21527014.883 8 113125287.824 8      1981.684          48.000    21527014.703 7  88149576.283 7      1544.169          45.000
G30  20708668.633 8 108824793.281 8     -1271.234          51.000    20708669.594 8  84798576.481 8      -990.572          51.000
R02  21381972.219 8 114098333.902 8     -3251.750          50.000    21381974.875 7  88743116.461 7     -2529.142          45.000
R03  19188804.734 8 102719194.144 8       135.406          49.000    19188805.648 8  79892701.694 8       105.319          49.000
R13  19152721.742 6 102274473.113 6      -127.043          41.000    19152723.750 7  79546798.716 7       -98.811          44.000
R14  21290151.188 8 113488406.297 8      3535.547          50.000    21290154.250 7  88268759.279 7      2749.870          47.000
C05  39811782.680 6 207310398.016 6         7.316          37.000    39811779.484 6 160305542.259 6         5.763          40.000
C21  22447814.414 8 116891678.370 8     -1855.133          51.000
C26  21851388.523 8 113785872.577 8      1515.746          51.000
E02                                                                  25561691.781 5 102926326.755 5     -1583.844          35.000
E07  23371602.242 8 122818621.597 8       116.734          51.000    23371604.242 8  94107753.090 8        89.437          51.000
E08  23546960.102 7 123740106.867 7     -2082.004          47.000    23546959.680 7  94813992.877 7     -1595.356          47.000
E27  25822056.188 7 135695815.294 7      2914.852          46.000    25822053.523 7 103974758.500 7      2233.398          44.000
E30  22433052.289 8 117886477.016 8       637.941          51.000    22433053.398 8  90328608.210 8       488.824          51.000
> 2020 05 18 03 05  0.0000000  0 16        .000000000000
G05  20802139.758 8 109315980.258 8     -1287.719          51.000    20802137.938 8  85181274.289 8     -1003.417          51.000
G07  22777849.219 5 119698371.497 5     -2556.793          33.000    22777851.039 5  93271484.300 5     -1992.303          31.000
G28  21515747.594 8 113066078.284 8      1963.273          49.000    21515747.430 7  88103438.978 7      1529.823          44.000
G30  20715960.797 8 108863113.300 8     -1285.949          51.000    20715961.523 8  84828436.228 8     -1002.038          51.000
R02  21400291.703 8 114196090.290 8     -3267.688          48.000    21400294.492 7  88819149.178 7     -2541.535          47.000
R03  19188105.617 7 102715451.613 7       111.695          47.000    19188106.320 8  79889790.869 8        86.874          49.000
R13  19153504.695 6 102278654.993 6      -154.020          40.000    19153506.945 7  79550051.312 7      -119.793          44.000
R14  21270294.711 8 113382557.079 8      3518.699          51.000    21270295.617 7  88186432.148 7      2736.769          45.000
C05  39811742.023 6 207310186.997 6         4.535          36.000    39811738.812 6 160305378.305 6         3.661          40.000
C21  22458539.734 8 116947527.056 8     -1870.457          51.000
C26  21842694.406 8 113740598.021 8      1500.219          51.000
E02                                                                  25573519.891 5 102973956.055 5     -1592.922          34.000
E07  23370962.086 8 122815257.797 8       105.250          51.000    23370964.039 8  94105175.629 8        80.622          51.000
E08  23558865.219 7 123802669.409 7     -2091.078          45.000    23558866.211 7  94861930.394 7     -1602.252          47.000
E27  25805434.352 7 135608469.053 7      2905.895          46.000    25805435.219 7 103907830.878 7      2226.642          45.000
E30  22429451.930 8 117867555.054 8       621.211          51.000    22429452.789 8  90314109.588 8       475.972          51.000
> 2020 05 18 03 05 30.0000000  0 16        .000000000000
G05  20809541.977 8 109354879.191 8     -1305.332          51.000    20809540.039 8  85211585.163 8     -1017.142          51.000
G07  22792460.633 5 119775145.877 5     -2560.477          35.000
G28  21504582.000 8 113007400.820 8      1948.867          51.000    21504581.430 7  88057716.292 7      1518.598          44.000
G30  20723333.195 8 108901855.708 8     -1296.680          51.000    20723333.969 8  84858625.115 8     -1010.400          51.000
R02  21418695.531 7 114294301.247 7     -3279.543          45.000    21418699.516 8  88895535.486 8     -2550.756          49.000
R03  19187535.750 8 102712400.246 8        91.977          49.000    19187536.648 8  79887417.593 8        71.537          49.000
R13  19154434.883 6 102283624.202 6      -177.172          39.000    19154437.336 7  79553916.264 7      -137.800          44.000
R14  21250529.516 8 113277192.296 8      3505.902          51.000    21250528.141 7  88104481.816 7      2726.816          46.000
C05  39811713.609 6 207310038.951 6         5.359          36.000    39811710.359 6 160305263.817 6         4.356          40.000
C21  22469349.906 8 117003817.206 8     -1881.930          51.000
C26  21834085.172 8 113695767.695 8      1488.688          51.000
E02                                                                  25585414.703 5 103021848.581 5     -1599.495          34.000
E07  23370383.930 8 122812219.971 8        97.605          51.000    23370385.836 8  94102847.940 8        74.765          51.000
E08  23570817.586 7 123865484.172 7     -2096.094          44.000    23570820.156 7  94910061.202 7     -1606.244          46.000
E27  25788859.523 7 135521371.118 7      2900.895          46.000    25788863.070 7 103841093.497 7      2222.721          46.000
E30  22425943.578 8 117849117.013 8       608.281          51.000    22425944.320 8  90299981.754 8       466.131          51.000
> 2020 05 18 03 06  0.0000000  0 16        .000000000000
G05  20817048.992 8 109394329.668 8     -1324.492          51.000    20817047.477 8  85242325.777 8     -1032.072          51.000
G07  22807098.617 5 119852064.021 5     -2566.203          35.000    22807097.781 5  93391252.116 5     -1999.639          34.000
G28  21493504.102 8 112949182.799 8      1932.613          51.000    21493502.805 7  88012351.627 7      1505.932          44.000
G30  20730771.477 8 108940944.452 8     -1309.047          51.000    20730772.414 8  84889083.879 8     -1020.037          51.000
R02  21437168.766 7 114392888.810 7     -3292.727          43.000    21437174.656 7  88972214.740 7     -2561.007          47.000
R03  19187081.094 8 102709965.335 8        70.508          49.000    19187081.594 8  79885523.813 8        54.839          49.000
R13  19155498.305 6 102289304.054 6      -201.480          39.000    19155500.859 7  79558333.933 7      -156.707          44.000
R14  21230841.062 8 113172238.558 8      3491.188          51.000    21230839.477 7  88022851.165 7      2715.368          47.000
C05  39811683.203 6 207309880.717 6         5.570          36.000    39811680.031 6 160305141.490 6         3.881          40.000
C21  22480230.828 8 117060474.034 8     -1894.961          51.000
C26  21825546.797 8 113651307.966 8      1475.465          51.000
E02                                                                  25597360.578 5 103069945.768 5     -1606.921          33.000
E07  23369853.734 8 122809434.122 8        88.320          51.000    23369855.562 8  94100713.324 8        67.698          51.000
E08  23582804.094 7 123928476.305 7     -2103.043          45.000    23582806.734 7  94958327.956 7     -1611.494          46.000
E27  25772318.164 7 135434448.184 7      2894.066          46.000    25772322.812 7 103774490.214 7      2217.690          46.000
E30  22422512.977 8 117831088.211 8       593.809          51.000    22422513.977 8  90286167.512 8       454.996          51.000
> 2020 05 18 03 06 30.0000000  0 15        .000000000000
G05  20824676.391 8 109434413.583 8     -1343.281          51.000    20824675.555 8  85273559.972 8     -1046.713          51.000
G28  21482529.562 8 112891508.970 8      1916.777          51.000    21482527.617 7  87967411.005 7      1493.593          43.000
G30  20738291.172 8 108980460.952 8     -1320.891          51.000    20738292.078 8  84919875.948 8     -1029.265          51.000
R02  21455729.164 7 114491936.010 7     -3305.668          45.000    21455735.938 7  89049251.566 7     -2571.072          46.000
R03  19186757.188 8 102708232.700 8        49.441          50.000    19186757.672 8  79884176.207 8        38.457          48.000
R13  19156710.422 6 102295777.310 6      -225.613          40.000    19156713.242 7  79563368.712 7      -175.477          43.000
R14  21211244.852 8 113067782.465 8      3477.090          48.000    21211244.875 7  87941607.521 7      2704.403          47.000
C05  39811666.633 6 207309794.602 6         5.164          36.000    39811663.562 6 160305074.866 6         3.960          40.000
C21  22491197.562 8 117117578.867 8     -1907.566          51.000
C26  21817095.250 8 113607301.221 8      1462.703          51.000
E02                                                                  25609371.672 5 103118309.883 5     -1614.517          32.000
E07  23369387.352 8 122806983.770 8        79.449          51.000    23369389.047 8  94098835.783 8        60.907          51.000
E08  23594840.844 7 123991728.380 7     -2109.391          46.000    23594843.250 7  95006793.854 7     -1616.268          46.000
E27  25755826.547 7 135347784.487 7      2887.832          46.000    25755830.992 7 103708085.601 7      2212.704          47.000
E30  22419175.820 8 117813551.531 8       579.730          51.000    22419177.250 8  90272730.339 8       444.248          51.000
> 2020 05 18 03 07  0.0000000  0 16        .000000000000
G05  20832393.992 8 109474970.032 8     -1361.180          51.000    20832393.414 8  85305162.384 8     -1060.659          51.000
G07  22836454.727 5 120006378.795 5     -2576.098          33.000
G28  21471628.219 8 112834221.557 8      1901.598          51.000    21471626.016 7  87922771.480 7      1481.764          43.000
G30  20745861.539 8 109020244.262 8     -1332.012          51.000    20745862.422 8  84950875.940 8     -1037.931          51.000
R02  21474347.211 8 114591278.943 8     -3317.922          50.000    21474351.984 7  89126518.332 7     -2580.603          44.000
R03  19186534.602 8 102707041.323 8        29.172          50.000    19186535.133 8  79883249.614 8        22.689          48.000
R13  19158040.453 6 102302880.078 6      -248.551          40.000    19158042.984 7  79568893.077 7      -193.320          44.000
R14  21191711.719 7 112963664.685 7      3463.527          47.000    21191713.664 8  87860627.004 8      2693.855          48.000
C05  39811633.609 6 207309622.429 6         5.363          36.000    39811630.508 6 160304941.712 6         4.301          40.000
C21  22502219.219 8 117174972.876 8     -1919.355          51.000
C26  21808700.422 8 113563589.769 8      1450.645          51.000
E02                                                                  25621418.609 5 103166817.411 5     -1620.384          32.000
E07  23368954.633 8 122804710.076 8        71.324          51.000    23368956.180 8  94097093.605 8        54.639          51.000
E08  23606896.953 7 124055080.753 7     -2114.824          47.000    23606898.961 7  95055336.559 7     -1620.444          45.000
E27  25739354.383 7 135261221.952 7      2882.297          45.000    25739358.414 8 103641758.493 8      2208.501          48.000
E30  22415901.750 8 117796347.474 8       566.426          51.000    22415903.531 8  90259548.020 8       434.027          51.000
> 2020 05 18 03 07 30.0000000  0 16        .000000000000
G05  20840213.742 8 109516062.172 8     -1378.348          51.000    20840213.422 8  85337182.230 8     -1074.037          51.000
G07  22851184.938 5 120083742.375 5     -2579.961          35.000    22851179.336 4  93571759.224 4     -2010.356          28.000
G28  21460812.930 8 112777387.009 8      1887.223          51.000    21460810.695 7  87878484.830 7      1470.563          44.000
G30  20753494.703 8 109060357.277 8     -1342.305          51.000    20753495.562 8  84982132.847 8     -1045.952          51.000
R02  21493033.047 8 114690981.053 8     -3329.102          51.000    21493035.078 7  89204064.351 7     -2589.304          43.000
R03  19186425.281 8 102706458.000 8         9.566          51.000    19186426.039 7  79882795.899 7         7.437          47.000
R13  19159500.289 6 102310676.798 6      -271.051          39.000    19159503.211 7  79574957.217 7      -210.814          45.000
R14  21172255.086 7 112859952.960 7      3450.508          46.000    21172258.211 7  87779962.337 7      2683.731          47.000
C05  39811596.227 6 207309427.952 6         6.988          36.000    39811593.148 6 160304791.332 6         5.404          40.000
C21  22513308.469 8 117232718.958 8     -1930.469          51.000
C26  21800374.539 8 113520237.632 8      1439.371          51.000
E02                                                                  25633513.953 5 103215537.378 5     -1625.843          32.000
E07  23368567.898 8 122802678.051 8        64.023          51.000    23368569.375 8  94095536.592 8        49.051          51.000
E08  23618984.719 8 124118597.423 8     -2119.645          49.000    23618985.508 7  95104005.135 7     -1624.080          45.000
E27  25722913.672 7 135174826.331 7      2877.258          42.000    25722917.352 8 103575559.253 8      2204.730          48.000
E30  22412703.211 8 117779540.356 8       553.926          51.000    22412705.297 8  90246669.856 8       424.425          51.000
> 2020 05 18 03 08  0.0000000  0 18        .000000000000
G05  20848145.164 8 109557741.886 8     -1399.344          50.000    20848145.008 8  85369659.898 8     -1090.401          50.000
G07  22865936.445 5 120161257.574 5     -2587.086          33.000    22865952.711 5  93632239.817 5     -2015.908          32.000
G13  21042638.922 5 110579813.471 5      1825.422          30.000
G28  21450094.477 8 112721060.106 8      1868.801          51.000    21450092.391 7  87834593.746 7      1456.208          46.000
G30  20761200.562 8 109100851.597 8     -1356.422          51.000    20761201.531 8  85013686.851 8     -1056.952          51.000
R02  21511795.633 8 114791094.754 8     -3344.223          51.000    21511795.109 6  89281930.421 6     -2601.068          41.000
R03  19186440.242 8 102706538.254 8       -13.934          51.000    19186440.812 7  79882858.321 7       -10.837          46.000
R13  19161100.008 6 102319218.604 6      -297.598          38.000    19161102.711 7  79581600.842 7      -231.465          43.000
R14  21152884.336 7 112756703.370 7      3433.660          45.000    21152888.336 7  87699657.053 7      2670.622          45.000
C05  39811564.680 6 207309263.743 6         4.688          37.000    39811561.648 6 160304664.337 6         3.492          40.000
C21  22524475.328 8 117290868.824 8     -1945.262          51.000
C24  25742470.672 6 134047806.180 6      3138.809          38.000
C26  21792128.117 8 113477297.658 8      1424.270          51.000
E02                                                                  25645667.188 5 103264467.135 5     -1635.149          34.000
E07  23368237.461 8 122800941.387 8        52.750          51.000    23368238.984 8  94094205.904 8        40.392          51.000
E08  23631113.750 8 124182331.168 8     -2128.363          48.000    23631113.000 7  95152840.051 7     -1630.776          46.000
E27  25706513.195 6 135088652.050 6      2868.402          36.000    25706517.859 8 103509529.556 8      2197.974          48.000
E30  22409590.414 8 117763183.163 8       537.523          51.000    22409592.664 8  90234136.436 8       411.830          51.000
> 2020 05 18 03 08 30.0000000  0 17        .000000000000
G05  20856190.750 8 109600021.199 8     -1416.453          50.000    20856190.125 8  85402604.806 8     -1103.730          50.000
G07  22880722.312 5 120238964.058 5     -2590.164          33.000    22880737.227 5  93692790.240 5     -2018.316          30.000
G28  21439475.594 8 112665256.351 8      1854.328          51.000    21439473.875 8  87791110.296 8      1444.931          48.000
G30  20768981.289 8 109141739.145 8     -1366.531          51.000    20768982.273 8  85045547.280 8     -1064.830          51.000
R02  21530636.742 8 114891631.545 8     -3355.262          51.000    21530635.445 7  89360125.673 7     -2609.645          42.000
R03  19186581.930 8 102707297.030 8       -33.652          51.000    19186582.133 7  79883448.458 7       -26.174          46.000
R13  19162841.625 6 102328518.852 6      -319.816          39.000    19162843.969 7  79588834.374 7      -248.746          44.000
R14  21133603.945 8 112653932.063 8      3420.730          49.000    21133608.000 7  87619723.794 7      2660.568          45.000
C05  39811541.570 6 207309142.982 6         5.887          36.000    39811538.492 6 160304570.945 6         4.540          40.000
C21  22535721.562 8 117349434.947 8     -1956.156          51.000
C24  25724404.734 6 133953738.889 6      3135.496          39.000
C26  21783963.773 8 113434783.381 8      1412.961          51.000
E02  25657881.273 5 134833067.455 5     -2141.629          33.000    25657880.266 5 103313644.681 5     -1640.629          33.000
E07  23367965.969 8 122799514.155 8        45.312          51.000    23367967.547 8  94093112.316 8        34.711          51.000
E08  23643286.211 7 124246295.118 7     -2133.098          47.000    23643285.000 7  95201851.315 7     -1634.433          46.000
E27  25690156.492 6 135002713.863 6      2863.512          37.000    25690163.102 8 103443680.748 8      2194.036          48.000
E30  22406565.578 8 117747289.231 8       524.961          51.000    22406567.961 8  90221957.973 8       402.216          51.000
> 2020 05 18 03 09  0.0000000  0 17        .000000000000
G05  20864330.898 8 109642796.631 8     -1435.230          51.000    20864329.406 8  85435936.293 8     -1118.361          51.000
G07  22895525.758 5 120316758.338 5     -2595.988          32.000    22895523.117 5  93753339.193 5     -2022.848          33.000
G28  21428936.617 8 112609874.869 8      1837.930          50.000    21428935.680 8  87747955.913 8      1432.156          49.000
G30  20776817.047 8 109182916.022 8     -1378.449          51.000    20776817.867 8  85077633.164 8     -1074.116          51.000
R02  21549535.828 7 114992485.155 7     -3368.184          47.000    21549536.898 7  89438567.416 7     -2619.695          45.000
R03  19186831.562 8 102708631.109 8       -55.328          51.000    19186831.516 7  79884486.051 7       -43.033          46.000
R13  19164705.602 6 102338471.361 6      -344.008          38.000    19164707.977 7  79596575.221 7      -267.562          44.000
R14  21114395.664 8 112551537.450 8      3405.680          51.000    21114398.758 7  87540083.588 7      2648.865          45.000
C05  39811507.344 6 207308964.173 6         5.957          37.000    39811504.156 6 160304432.679 6         4.440          40.000
C21  22547028.039 8 117408314.897 8     -1969.012          51.000
C24  25706354.500 6 133859748.657 6      3130.449          38.000
C26  21775861.859 8 113392593.513 8      1399.863          51.000
E02  25670135.164 5 134897468.605 5     -2150.527          33.000    25670133.258 5 103362974.173 5     -1647.528          33.000
E07  23367733.977 8 122798294.548 8        36.062          51.000    23367735.594 8  94092177.816 8        27.653          51.000
E08  23655482.656 7 124310386.547 7     -2139.664          46.000    23655480.812 7  95250960.294 7     -1639.477          46.000
E27  25673827.875 6 134916910.594 6      2856.621          40.000    25673834.055 7 103377935.345 7      2188.989          47.000
E30  22403609.312 8 117731756.101 8       510.605          50.000    22403611.906 8  90210055.952 8       391.252          51.000
> 2020 05 18 03 09 30.0000000  0 16        .000000000000
G05  20872605.773 8 109686279.771 8     -1460.867          51.000    20872603.359 8  85469819.264 8     -1138.338          51.000
G28  21418518.688 8 112555130.832 8      1814.656          50.000    21418518.547 8  87705298.236 8      1414.015          48.000
G30  20784748.133 8 109224594.075 8     -1397.086          51.000    20784748.820 8  85110109.567 8     -1088.638          51.000
R02  21568532.969 7 115093870.842 7     -3387.953          46.000    21568538.312 7  89517423.013 7     -2635.075          47.000
R03  19187229.375 8 102710759.334 8       -83.707          50.000    19187229.445 7  79886141.294 7       -65.109          46.000
R13  19166731.812 6 102349291.942 6      -374.535          37.000    19166734.312 7  79604991.228 7      -291.305          44.000
R14  21095299.273 8 112449738.278 8      3383.797          51.000    21095301.500 7  87460906.481 7      2631.845          46.000
C05  39811502.422 6 207308938.663 6        -1.023          37.000    39811499.273 6 160304412.951 6         -.885          40.000
C21  22558435.586 8 117467719.225 8     -1988.406          50.000
C24  25688360.000 6 133766048.010 6      3118.902          39.000
C26  21767863.023 8 113350939.721 8      1379.891          51.000
E02  25682467.273 5 134962275.241 5     -2166.664          31.000    25682465.398 5 103412625.843 5     -1659.998          34.000
E07  23367582.117 8 122797496.491 8        20.012          51.000    23367583.789 8  94091566.320 8        15.379          51.000
E08  23667743.891 7 124374818.406 7     -2152.922          47.000    23667741.406 7  95300330.143 7     -1649.620          47.000
E27  25657567.211 7 134831456.907 7      2843.027          43.000    25657571.625 7 103312457.848 7      2178.525          47.000
E30  22400762.047 8 117716796.962 8       489.492          49.000    22400765.211 8  90198593.747 8       375.083          51.000
> 2020 05 18 03 10  0.0000000  0 17        .000000000000
G05  20880957.391 8 109730166.635 8     -1470.551          51.000    20880954.531 8  85504016.818 8     -1145.884          51.000
G28  21408164.781 8 112500722.994 8      1806.980          49.000    21408165.109 8  87662902.494 8      1408.037          48.000
G30  20792716.570 8 109266468.666 8     -1400.062          51.000    20792717.188 8  85142739.121 8     -1090.958          51.000
R02  21587573.758 8 115195479.194 8     -3391.570          48.000    21587580.797 7  89596451.705 7     -2637.891          47.000
R03  19187718.297 8 102713374.038 8       -96.312          50.000    19187717.984 7  79888174.951 7       -74.910          46.000
R12  21959431.164 5 117303339.209 5     -3754.453          30.000
R13  19168862.859 6 102360670.151 6      -389.961          38.000    19168865.125 7  79613840.905 7      -303.303          46.000
R14  21076257.031 8 112348229.413 8      3377.758          51.000    21076259.547 8  87381955.162 8      2627.145          48.000
C05  39811469.266 6 207308766.043 6         7.105          37.000    39811466.117 6 160304279.433 6         5.648          40.000
C21  22569886.547 8 117527346.608 8     -1992.258          51.000
C24  25670364.344 6 133672337.617 6      3122.957          38.000
C26  21759909.461 8 113309521.802 8      1375.672          51.000
E02                                                                  25694819.156 5 103462366.046 5     -1660.432          34.000
E07  23367452.805 8 122796817.439 8        19.617          51.000    23367454.633 8  94091046.011 8        15.067          51.000
E08  23680011.812 7 124439287.227 7     -2150.586          47.000    23680009.422 8  95349728.344 8     -1647.825          48.000
E27  25641316.188 7 134746050.977 7      2845.078          46.000    25641319.047 7 103247016.977 7      2180.040          47.000
E30  22397966.227 8 117702108.520 8       484.125          49.000    22397969.891 8  90187338.969 8       370.950          51.000
> 2020 05 18 03 10 30.0000000  0 16        .000000000000
G05  20889412.430 8 109774598.016 8     -1490.141          51.000    20889409.641 8  85538638.680 8     -1161.149          51.000
G28  21397902.148 8 112446794.976 8      1789.445          49.000    21397902.664 7  87620880.648 7      1394.370          47.000
G30  20800749.125 8 109308680.321 8     -1412.695          51.000    20800749.633 8  85175631.321 8     -1100.802          51.000
R02  21606684.211 8 115297452.091 8     -3405.207          49.000    21606690.648 7  89675763.936 7     -2648.497          46.000
R03  19188324.945 8 102716620.905 8      -118.824          50.000    19188324.523 7  79890700.286 7       -92.419          47.000
R13  19171124.992 6 102372749.024 6      -414.355          39.000    19171127.281 7  79623235.598 7      -322.276          45.000
R14  21057296.594 8 112247157.301 8      3361.750          51.000    21057299.242 8  87303343.514 8      2614.694          48.000
C05  39811434.844 6 207308586.883 6         6.535          37.000    39811431.695 6 160304140.930 6         4.486          40.000
C21  22581407.250 8 117587336.928 8     -2005.746          51.000
C24  25652393.844 6 133578759.406 6      3117.012          39.000
C26  21752028.023 8 113268480.623 8      1361.742          50.000
E02                                                                  25707221.828 5 103512326.320 5     -1667.887          33.000
E07  23367373.320 8 122796400.036 8         9.543          51.000    23367375.250 8  94090726.191 8         7.288          51.000
E08  23692313.664 7 124503934.740 7     -2157.891          46.000    23692311.938 8  95399263.461 8     -1653.461          49.000
E27  25625101.523 8 134660836.192 8      2837.262          48.000    25625103.680 8 103181722.549 8      2174.057          48.000
E30  22395249.523 8 117687832.685 8       468.996          51.000    22395253.000 8  90176400.326 8       359.355          51.000
> 2020 05 18 03 11  0.0000000  0 16        .000000000000
G05  20897973.062 8 109819585.382 8     -1508.754          51.000    20897970.617 8  85573693.780 8     -1175.652          51.000
G28  21387733.914 8 112393362.019 8      1772.934          49.000    21387734.391 7  87579244.569 7      1381.507          46.000
G30  20808848.125 8 109351240.951 8     -1424.387          51.000    20808848.531 8  85208795.428 8     -1109.912          51.000
R02  21625864.531 7 115399801.466 7     -3417.840          47.000    21625870.477 7  89755368.997 7     -2658.320          46.000
R03  19189052.617 8 102720515.014 8      -140.512          50.000    19189052.484 8  79893729.028 8      -109.287          48.000
R13  19173520.836 6 102385540.205 6      -438.160          39.000    19173522.734 7  79633184.271 7      -340.791          46.000
R14  21038420.820 8 112146537.752 8      3346.492          51.000    21038423.273 8  87225083.860 8      2602.824          48.000
C05  39811401.711 6 207308414.525 6         5.523          36.000    39811398.570 6 160304007.589 6         4.458          40.000
C21  22592999.664 8 117647702.507 8     -2018.363          51.000
C24  25634450.523 6 133485327.706 6      3112.242          38.000
C26  21744221.672 8 113227829.664 8      1348.555          51.000
E02                                                                  25719674.797 5 103562472.576 5     -1674.769          32.000
E07  23367346.492 8 122796258.296 8          .133          51.000    23367348.375 8  94090617.581 8          .150          51.000
E08  23704651.703 7 124568774.059 7     -2164.426          45.000    23704650.898 8  95448945.531 8     -1658.390          49.000
E27  25608925.961 8 134575827.231 8      2830.230          48.000    25608927.945 8 103116585.841 8      2168.612          49.000
E30  22392614.289 8 117673982.664 8       454.695          51.000    22392617.383 8  90165787.980 8       348.352          51.000
> 2020 05 18 03 11 30.0000000  0 16        .000000000000
G05  20906636.719 8 109865115.084 8     -1526.469          51.000    20906634.922 8  85609171.491 8     -1189.456          51.000
G28  21377658.320 8 112340413.521 8      1757.055          50.000    21377658.164 7  87537985.987 7      1369.134          44.000
G30  20817010.906 8 109394137.051 8     -1435.344          51.000    20817011.367 8  85242220.955 8     -1118.450          51.000
R02  21645111.914 7 115502512.320 7     -3429.531          47.000    21645118.250 7  89835255.221 7     -2667.413          46.000
R03  19189899.211 8 102725045.095 8      -161.352          50.000    19189898.953 8  79897252.450 8      -125.496          48.000
R13  19176046.742 6 102399029.877 6      -461.293          40.000    19176049.211 7  79643676.268 7      -358.783          45.000
R14  21019627.867 8 112046360.875 8      3332.055          50.000    21019630.094 7  87147168.488 7      2591.595          47.000
C05  39811367.648 6 207308238.401 6         6.375          37.000    39811364.430 6 160303870.247 6         4.748          40.000
C21  22604661.852 8 117708430.433 8     -2030.109          51.000
C24  25616533.938 6 133392031.647 6      3107.656          40.000
C26  21736488.281 8 113187557.207 8      1336.277          51.000
E02  25732166.781 6 135223406.519 6     -2193.500          38.000    25732174.203 5 103612802.348 5     -1680.665          31.000
E07  23367370.094 8 122796380.779 8        -8.207          51.000    23367371.844 8  94090711.439 8        -6.315          51.000
E08  23717023.438 7 124633792.853 7     -2169.965          45.000    23717024.141 8  95498765.085 8     -1662.766          49.000
E27  25592787.258 8 134491013.409 8      2824.109          49.000    25592789.203 8 103051598.639 8      2163.925          50.000
E30  22390057.758 8 117660546.326 8       441.207          51.000    22390060.586 8  90155492.632 8       338.047          51.000
> 2020 05 18 03 12  0.0000000  0 16        .000000000000
G05  20915403.352 8 109911186.919 8     -1544.551          51.000    20915402.164 8  85645071.599 8     -1203.549          51.000
G28  21367675.633 8 112287951.994 8      1740.793          51.000    21367674.641 7  87497106.873 7      1356.462          44.000
G30  20825237.281 8 109437367.724 8     -1446.316          51.000    20825237.906 8  85275907.179 8     -1127.000          51.000
R02  21664427.797 7 115605584.574 7     -3441.562          47.000    21664433.375 7  89915422.576 7     -2676.771          45.000
R03  19190864.422 8 102730213.035 8      -182.684          50.000    19190864.469 8  79901271.964 8      -142.087          49.000
R13  19178703.461 6 102413216.980 6      -484.188          39.000    19178705.953 7  79654710.682 7      -376.590          45.000
R14  21000918.469 8 111946629.685 8      3317.078          51.000    21000920.062 7  87069599.793 7      2579.950          46.000
C05  39811332.672 6 207308055.633 6         6.469          36.000    39811329.461 6 160303729.296 6         4.948          40.000
C21  22616393.766 8 117769520.388 8     -2042.160          51.000
C24  25598644.664 6 133298872.901 6      3103.180          41.000
C26  21728827.008 8 113147663.971 8      1323.707          50.000
E02  25744714.430 6 135289351.661 6     -2201.977          39.000    25744721.938 5 103663327.774 5     -1687.441          31.000
E07  23367444.195 8 122796768.733 8       -17.109          51.000    23367445.914 8  94091008.710 8       -13.080          51.000
E08  23729429.805 7 124698991.318 7     -2176.137          46.000    23729431.148 8  95548722.343 8     -1667.340          48.000
E27  25576685.578 8 134406396.668 8      2817.488          49.000    25576687.445 8 102986762.428 8      2158.831          50.000
E30  22387580.070 8 117647524.102 8       427.383          51.000    22387582.422 8  90145514.588 8       327.484          51.000
> 2020 05 18 03 12 30.0000000  0 17        .000000000000
G05  20924266.078 8 109957761.993 8     -1559.684          51.000    20924264.812 8  85681363.854 8     -1215.341          51.000
G28  21357778.758 8 112235941.997 8      1727.289          50.000    21357777.227 7  87456579.615 7      1345.940          45.000
G30  20833520.039 8 109480894.374 8     -1454.523          51.000    20833520.719 8  85309824.038 8     -1133.395          51.000
R02  21683804.391 7 115708978.230 7     -3450.516          47.000    21683809.109 7  89995839.880 7     -2683.734          46.000
R03  19191941.812 8 102735981.957 8      -201.102          51.000    19191942.453 8  79905758.906 8      -156.412          50.000
R12  22065488.148 5 117869747.195 5     -3791.395          30.000
R13  19181483.570 6 102428062.319 6      -504.723          40.000    19181486.070 7  79666257.063 7      -392.562          45.000
R14  20982286.219 8 111847308.873 8      3305.078          51.000    20982287.016 7  86992350.303 7      2570.619          46.000
C05  39811289.742 6 207307831.924 6         8.953          36.000    39811286.516 6 160303556.283 6         7.192          40.000
C21  22628187.719 8 117830934.630 8     -2051.301          51.000
C24  25580775.117 6 133205815.816 6      3101.160          39.000
C26  21721231.273 8 113108113.409 8      1313.797          51.000
E02  25757303.117 6 135355510.754 6     -2207.734          38.000    25757311.898 5 103714021.033 5     -1691.210          31.000
E07  23367561.641 8 122797385.653 8       -23.121          51.000    23367563.617 8  94091481.421 8       -17.710          51.000
E08  23741863.359 7 124764332.034 7     -2179.145          44.000    23741865.000 7  95598788.602 7     -1669.695          47.000
E27  25560614.289 8 134321941.172 8      2813.695          49.000    25560615.867 8 102922049.768 8      2155.954          50.000
E30  22385174.031 8 117634878.698 8       416.480          51.000    22385176.078 8  90135825.274 8       319.130          51.000
> 2020 05 18 03 13  0.0000000  0 18        .000000000000
G05  20933227.680 8 110004855.091 8     -1580.957          51.000    20933226.141 8  85718059.767 8     -1231.915          51.000
G07  23014931.055 5 120944280.005 5     -2633.297          33.000
G28  21347970.539 8 112184401.333 8      1707.641          48.000    21347969.664 7  87416418.104 7      1330.632          45.000
G30  20841861.945 8 109524731.523 8     -1468.898          51.000    20841862.648 8  85343982.853 8     -1144.596          51.000
R02  21703243.820 8 115812707.546 8     -3465.836          49.000    21703248.250 7  90076518.227 7     -2695.650          46.000
R03  19193134.641 8 102742369.442 8      -225.863          50.000    19193135.711 8  79910726.960 8      -175.671          49.000
R12  22086808.891 5 117983772.952 5     -3802.859          31.000
R13  19184389.531 6 102443580.077 6      -531.133          41.000    19184392.148 7  79678326.438 7      -413.103          44.000
R14  20963733.969 8 111748416.677 8      3286.641          50.000    20963735.188 7  86915434.187 7      2556.276          47.000
C05  39811241.797 6 207307582.545 6         6.023          37.000    39811238.656 6 160303363.441 6         4.600          40.000
C21  22640046.773 8 117892688.116 8     -2066.613          51.000
C24  25562929.438 6 133112877.250 6      3093.578          37.000
C26  21713704.648 8 113068921.510 8      1297.863          50.000
E02  25769935.867 6 135421897.982 6     -2219.289          39.000
E07  23367725.648 8 122798248.130 8       -35.391          51.000    23367727.969 8  94092142.273 8       -27.112          51.000
E08  23754326.305 6 124829830.696 6     -2188.770          39.000    23754328.531 7  95648975.877 7     -1676.810          45.000
E27  25544576.984 8 134237664.207 8      2803.734          51.000    25544577.977 8 102857473.920 8      2148.292          50.000
E30  22382842.672 8 117622625.972 8       399.352          51.000    22382844.664 8  90126436.843 8       306.009          51.000
> 2020 05 18 03 13 30.0000000  0 18        .000000000000
G05  20942289.953 8 110052476.363 8     -1597.996          51.000    20942288.211 8  85755167.230 8     -1245.192          51.000
G07  23029966.047 5 121023244.174 5     -2635.715          35.000
G28  21338254.422 8 112133343.670 8      1692.020          49.000    21338253.539 7  87376632.888 7      1318.454          44.000
G30  20850264.984 8 109568889.609 8     -1479.047          51.000    20850265.664 8  85378391.752 8     -1152.504          51.000
R02  21722748.664 8 115916782.819 8     -3476.738          51.000    21722752.234 7  90157465.672 7     -2704.130          45.000
R03  19194445.336 8 102749388.828 8      -246.344          50.000    19194446.867 8  79916186.484 8      -191.601          49.000
R12  22108168.148 5 118097876.698 5     -3808.195          30.000
R13  19187423.523 6 102459780.735 6      -553.242          40.000    19187425.859 7  79690926.950 7      -430.299          44.000
R14  20945264.562 8 111649967.571 8      3272.301          49.000    20945266.641 8  86838862.668 8      2545.126          48.000
C05  39811191.266 6 207307319.299 6         7.074          37.000    39811188.078 6 160303159.865 6         5.636          40.000
C21  22651973.352 8 117954791.685 8     -2077.730          51.000
C24  25545113.289 6 133020070.231 6      3089.770          38.000
C26  21706249.102 8 113030100.253 8      1286.066          50.000
E02  25782614.289 6 135488523.618 6     -2226.719          39.000
E07  23367938.781 8 122799368.731 8       -43.488          51.000    23367941.203 8  94093000.911 8       -33.337          51.000
E08  23766820.094 6 124895498.815 6     -2193.496          37.000    23766824.336 7  95699293.048 7     -1680.806          45.000
E27  25528576.281 8 134153579.039 8      2797.766          51.000    25528576.594 8 102793045.045 8      2143.751          50.000
E30  22380588.305 8 117610777.635 8       386.355          51.000    22380590.062 8  90117358.261 8       296.003          51.000
> 2020 05 18 03 14  0.0000000  0 18        .000000000000
G05  20951465.305 8 110100691.627 8     -1615.602          51.000    20951463.445 8  85792737.565 8     -1258.910          51.000
G07  23045030.172 5 121102448.972 5     -2639.941          33.000    23045028.359 5  94365533.925 5     -2057.097          32.000
G28  21328643.328 8 112082837.339 8      1675.844          50.000    21328642.656 7  87337277.306 7      1305.849          45.000
G30  20858741.484 8 109613433.925 8     -1489.773          51.000    20858742.055 8  85413101.604 8     -1160.862          51.000
R02  21742330.242 8 116021269.930 8     -3488.234          50.000    21742332.898 7  90238733.364 7     -2713.074          42.000
R03  19195887.250 8 102757108.916 8      -267.629          50.000    19195888.977 8  79922191.001 8      -208.156          49.000
R12  22129578.070 5 118212251.580 5     -3815.148          34.000
R13  19190597.453 6 102476730.068 6      -575.953          41.000    19190599.938 7  79704109.774 7      -447.964          44.000
R14  20926891.352 8 111552031.459 8      3257.418          49.000    20926894.586 8  86762690.149 8      2533.547          48.000
C05  39811150.703 6 207307108.348 6         7.477          36.000    39811147.594 6 160302996.749 6         5.555          40.000
C21  22663980.141 8 118017310.523 8     -2089.371          51.000
C24  25527334.930 6 132927462.071 6      3085.293          39.000
C26  21698877.781 8 112991715.907 8      1273.695          51.000
E02  25795350.859 6 135555452.683 6     -2234.426          37.000
E07  23368214.008 8 122800814.833 8       -52.211          51.000    23368216.242 8  94094108.965 8       -40.000          51.000
E08  23779360.195 6 124961402.931 6     -2199.211          41.000    23779365.203 7  95749790.971 7     -1685.223          43.000
E27  25512625.016 8 134069753.728 8      2791.293          51.000    25512624.844 8 102728815.297 8      2138.708          50.000
E30  22378423.461 8 117599400.258 8       372.848          51.000    22378424.898 8  90108640.534 8       285.668          51.000
> 2020 05 18 03 14 30.0000000  0 17        .000000000000
