     3.02           OBSERVATION DATA    M (MIXED)           RINEX VERSION / TYPE
SAVERINEX           SC600               20200511 145932 LCL PGM / RUN BY / DATE
       G = GPS       R = GLONASS       C = COMPASS          COMMENT
       S = SBAS      J = QZSS          E = GALILEO          COMMENT
BEAN                                                        MARKER NAME
1                                                           MARKER NUMBER
GEODETIC                                                    MARKER TYPE
Unige DICCA         GTER                                    OBSERVER / AGENCY
SC60291900056       SC600               2.12(191226)        REC # / TYPE / VERS
                    HEMA45          NONE                    ANT # / TYPE
  4509407.8091   693652.4678  4442337.6214                  APPROX POSITION XYZ
        0.0000        0.0000        0.0000                  ANTENNA: DELTA H/E/N
G    8 C1C L1C D1C S1C C2Y L2Y D2Y S2Y                      SYS / # / OBS TYPES
R    8 C1C L1C D1C S1C C2P L2P D2P S2P                      SYS / # / OBS TYPES
C    8 C1I L1I D1I S1I C7I L7I D7I S7I                      SYS / # / OBS TYPES
E    8 C1C L1C D1C S1C C7Q L7Q D7Q S7Q                      SYS / # / OBS TYPES
DBHZ                                                        COMMENT
     30.000                                                 INTERVAL
  2020    05    11    12    00    0.0000000     GPS         TIME OF FIRST OBS
  2020    05    11    12    59   30.0000000     GPS         TIME OF LAST OBS
     0                                                      RCV CLOCK OFFS APPL
G L1C  0.00000                                              SYS / PHASE SHIFT
G L2Y  0.00000                                              SYS / PHASE SHIFT
R L1C  0.00000                                              SYS / PHASE SHIFT
R L2P  0.25000                                              SYS / PHASE SHIFT
C L1I  0.00000                                              SYS / PHASE SHIFT
C L7I  0.00000                                              SYS / PHASE SHIFT
E L1C  0.50000                                              SYS / PHASE SHIFT
E L7Q -0.25000                                              SYS / PHASE SHIFT
 14 R04  6 R05  1 R06 -4 R07  5 R09 -2 R10 -7 R11  0 R15  0 GLONASS SLOT / FRQ #
    R16 -1 R18 -3 R19  3 R20  2 R21  4 R22 -3               GLONASS SLOT / FRQ #
 C1C   71.950 C2C   71.950 C2P   71.950                     GLONASS COD/PHS/BIS
    18                                                      LEAP SECONDS
*** Above antenna height is from mark to ANTENNA BOTTOM.    COMMENT
    17     4        0.0000        ANT MEASURE TYPE/HEIGT    COMMENT
    0.0000    0.0000    0.0458    0.0405    0.0000          COMMENT
                    BASE STATION                            COMMENT
                                                            END OF HEADER
> 2020 05 11 12 00  0.0000000  0 18        .000000000000
G18  21940319.375 8 115297171.531 8      2992.852          50.000    21940319.008 7  89841964.457 7      2332.092          45.000
G21  21905100.859 7 115112107.354 7      2567.000          45.000    21905101.195 7  89697742.531 7      2000.260          44.000
G25  21663823.258 7 113844154.699 7     -2371.477          47.000    21663824.672 7  88709717.696 7     -1847.904          47.000
G29  20439225.297 8 107408845.341 8     -1042.379          51.000    20439224.367 8  83695223.744 8      -812.243          51.000
G31  21130954.625 6 111043916.583 6         4.383          37.000    21130950.977 6  86527710.952 6         3.415          37.000
R09  21694842.312 7 115849222.927 7     -3619.691          45.000    21694848.016 7  90104989.017 7     -2815.316          45.000
R10  19435221.023 8 103600683.651 8     -1331.805          49.000
R20  19682615.609 5 105251797.618 5     -1791.898          35.000    19682618.938 6  81862529.408 6     -1393.702          41.000
R21  20323155.727 8 108753328.255 8      2612.320          51.000    20323157.539 7  84585905.452 7      2031.808          45.000
C05                                                                  39638614.016 6 159608273.637 6        17.356          38.000
C11  22457697.266 8 116943174.987 8     -1657.574          51.000    22457697.289 8  90427827.965 8     -1281.711          51.000
C23  21984574.195 8 114479469.995 8      -511.840          51.000
C25  24232050.070 7 126182593.307 7     -3018.539          47.000
C28  23400474.828 8 121852555.316 8      2484.992          50.000
E01  25082185.117 8 131807757.476 8     -1949.359          48.000    25082188.539 8 100995550.710 8     -1493.719          50.000
E26  24066287.773 6 126469185.557 6     -1916.078          41.000    24066291.273 6  96904974.144 6     -1467.966          37.000
E31  23463954.094 8 123303943.729 8       539.016          51.000    23463956.320 8  94479638.611 8       412.979          51.000
E33  23601806.078 8 124028376.718 8       800.668          51.000    23601808.508 8  95034706.226 8       613.556          51.000
> 2020 05 11 12 00 30.0000000  0 18        .000000000000
G18  21923261.836 8 115207532.737 8      2982.707          51.000    21923261.320 7  89772116.070 7      2324.187          45.000
G21  21890475.969 7 115035255.737 7      2556.082          47.000    21890476.820 7  89637858.214 7      1991.752          45.000
G25  21677382.906 7 113915409.308 7     -2379.398          47.000    21677384.625 7  88765240.752 7     -1854.077          47.000
G29  20445204.906 8 107440268.590 8     -1052.844          51.000    20445204.031 8  83719709.383 8      -820.398          51.000
G31  21130979.719 6 111044046.240 6       -13.348          38.000    21130975.828 6  86527812.015 6       -10.398          38.000
R09  21715204.516 7 115957955.622 7     -3629.676          46.000    21715208.797 7  90189558.849 7     -2823.084          44.000
R10  19442771.789 8 103640933.663 8     -1352.000          49.000
R20  19692717.789 5 105305817.896 5     -1809.609          34.000    19692720.852 7  81904545.164 7     -1407.474          43.000
R21  20308555.969 8 108675202.409 8      2595.641          51.000    20308556.047 7  84525140.952 7      2018.835          42.000
C05                                                                  39638479.469 6 159607731.523 6        18.700          38.000
C11  22467269.148 8 116993018.402 8     -1665.590          51.000    22467269.398 8  90466370.076 8     -1287.903          51.000
C23  21987561.516 8 114495024.438 8      -525.582          51.000
C25  24249456.289 8 126273228.986 8     -3024.219          48.000
C28  23386178.320 8 121778106.701 8      2477.930          50.000
E01  25093330.336 8 131866323.530 8     -1955.375          51.000    25093333.422 8 101040425.963 8     -1498.289          50.000
E26  24077246.086 6 126526770.533 6     -1923.434          39.000    24077248.641 6  96949097.678 6     -1473.539          36.000
E31  23460897.625 8 123287882.678 8       531.422          51.000    23460900.266 8  94467332.085 8       407.166          51.000
E33  23597266.977 8 124004523.499 8       789.109          51.000    23597269.531 8  95016429.082 8       604.705          51.000
> 2020 05 11 12 01  0.0000000  0 18        .000000000000
G18  21906271.922 8 115118249.058 8      2969.934          51.000    21906271.133 7  89702544.396 7      2314.237          46.000
G21  21875923.891 7 114958785.010 7      2542.375          47.000    21875925.203 7  89578270.660 7      1981.071          46.000
G25  21690995.680 7 113986946.978 7     -2389.465          43.000    21690998.078 7  88820984.365 7     -1861.921          43.000
G29  20451253.523 8 107472054.742 8     -1065.879          51.000    20451252.742 8  83744477.811 8      -830.555          51.000
G31  21131113.938 6 111044753.604 6       -33.531          38.000    21131110.352 6  86528363.210 6       -26.131          38.000
R09  21735634.164 7 116067046.914 7     -3642.688          45.000    21735636.562 6  90274407.506 6     -2833.204          41.000
R10  19450445.312 8 103681836.638 8     -1374.555          50.000
R20  19702929.383 5 105360424.081 5     -1830.617          34.000    19702933.016 7  81947016.643 7     -1423.813          42.000
R21  20294058.227 8 108597625.845 8      2576.426          50.000    20294056.750 6  84464803.621 6      2003.887          41.000
C05                                                                  39638344.766 6 159607189.215 6        17.987          37.000
C11  22476896.250 8 117043149.749 8     -1676.086          51.000    22476896.609 8  90505134.814 8     -1295.947          51.000
C23  21990637.703 8 114511041.123 8      -541.859          51.000
C25  24266903.859 7 126364082.453 7     -3032.344          47.000
C28  23371931.398 8 121703917.003 8      2468.348          50.000
E01  25104519.719 8 131925118.496 8     -1963.883          51.000    25104522.344 8 101085476.621 8     -1504.766          50.000
E26  24088255.875 6 126584628.220 6     -1933.273          36.000    24088258.727 6  96993430.271 6     -1481.546          36.000
E31  23457893.633 8 123272097.285 8       521.371          51.000    23457896.703 8  94455236.782 8       399.477          51.000
E33  23592802.961 8 123981064.631 8       775.199          51.000    23592805.727 8  94998454.111 8       594.005          51.000
> 2020 05 11 12 01 30.0000000  0 18        .000000000000
G18  21889349.695 8 115029322.843 8      2958.680          49.000    21889349.141 7  89633251.275 7      2305.468          47.000
G21  21861444.695 8 114882696.740 8      2530.301          48.000    21861446.234 7  89518981.106 7      1971.663          46.000
G25  21704661.984 7 114058766.683 7     -2398.027          43.000    21704665.242 7  88876947.743 7     -1868.593          43.000
G29  20457371.055 8 107504202.503 8     -1077.078          51.000    20457370.242 8  83769528.005 8      -839.282          51.000
G31  21131358.633 6 111046038.763 6       -51.809          40.000    21131355.328 6  86529364.627 6       -40.370          39.000
R09  21756130.031 7 116176494.082 7     -3653.871          44.000    21756131.492 7  90359533.055 7     -2841.897          42.000
R10  19458241.023 8 103723392.078 8     -1395.496          50.000
R20  19713250.195 5 105415612.790 5     -1848.660          34.000    19713253.523 7  81989941.170 7     -1437.847          42.000
R21  20279663.672 8 108520599.912 8      2558.902          51.000    20279662.078 7  84404894.565 7      1990.257          44.000
C05                                                                  39638210.031 6 159606646.570 6        18.697          38.000
C11  22486578.562 8 117093567.283 8     -1684.754          51.000    22486578.688 8  90544120.863 8     -1302.725          51.000
C23  21993802.500 8 114527519.988 8      -556.488          51.000
C25  24284392.508 8 126455151.976 8     -3038.711          48.000
C28  23357734.172 8 121629986.833 8      2460.500          50.000
E01  25115752.398 8 131984141.969 8     -1970.645          51.000    25115754.453 8 101130702.360 8     -1509.956          50.000
E26  24099316.516 6 126642756.889 6     -1941.562          38.000    24099321.211 5  97037970.409 5     -1487.496          35.000
E31  23454942.289 8 123256588.321 8       512.906          51.000    23454945.672 8  94443353.290 8       393.030          51.000
E33  23588414.258 8 123957999.954 8       762.863          51.000    23588416.883 8  94980781.183 8       584.577          51.000
> 2020 05 11 12 02  0.0000000  0 18        .000000000000
G18  21872493.688 8 114940746.341 8      2946.641          49.000    21872493.914 7  89564230.666 7      2296.084          47.000
G21  21847036.898 8 114806982.538 8      2517.461          49.000    21847038.211 7  89459983.018 7      1961.658          46.000
G25  21718380.227 7 114130857.451 7     -2407.875          43.000    21718383.953 7  88933122.384 7     -1876.266          43.000
G29  20463555.164 8 107536700.110 8     -1089.199          51.000    20463554.211 8  83794850.811 8      -848.727          51.000
G31  21131711.773 7 111047891.763 7       -71.027          42.000    21131708.805 7  86530808.529 7       -55.346          42.000
R09  21776691.055 7 116286284.696 7     -3665.484          45.000    21776691.633 7  90444925.825 7     -2850.932          44.000
R10  19466157.023 8 103765589.005 8     -1417.316          50.000
R20  19723676.906 5 105471370.579 5     -1868.148          34.000    19723681.078 7  82033308.342 7     -1453.004          42.000
R21  20265371.031 8 108444115.781 8      2540.270          51.000    20265370.594 7  84345406.946 7      1975.765          46.000
C05                                                                  39638073.328 6 159606095.785 6        18.256          38.000
C11  22496313.680 8 117144259.321 8     -1694.453          51.000    22496313.500 8  90583319.157 8     -1310.213          51.000
C23  21997054.047 8 114544450.914 8      -571.961          51.000
C25  24301921.023 8 126546425.807 8     -3046.039          50.000
C28  23343585.367 8 121556306.737 8      2451.727          51.000
E01  25127026.234 8 132043383.449 8     -1978.461          51.000    25127027.875 8 101176095.120 8     -1515.877          50.000
E26  24110426.773 6 126701144.744 6     -1950.594          39.000    24110432.875 5  97082709.130 5     -1494.548          34.000
E31  23452041.766 8 123241346.457 8       503.543          51.000    23452045.312 8  94431674.459 8       385.781          51.000
E33  23584098.547 8 123935319.152 8       749.516          51.000    23584100.828 8  94963402.386 8       574.325          51.000
> 2020 05 11 12 02 30.0000000  0 19        .000000000000
G12  24254589.633 5 127458721.350 5     -3190.152          31.000
G18  21855695.602 8 114852473.592 8      2936.789          50.000    21855696.539 7  89495446.730 7      2288.407          47.000
G21  21832691.609 8 114731596.055 8      2506.805          48.000    21832692.391 7  89401240.304 7      1953.354          45.000
G25  21732140.719 7 114203170.121 7     -2414.613          44.000    21732144.312 7  88989469.857 7     -1881.517          44.000
G29  20469796.320 8 107569497.384 8     -1098.801          51.000    20469795.305 8  83820407.136 8      -856.208          51.000
G31  21132163.430 6 111050263.850 6       -88.039          40.000    21132160.359 6  86532656.924 6       -68.602          40.000
R09  21797306.961 8 116396367.114 8     -3674.844          48.000    21797308.086 7  90530545.431 7     -2858.212          46.000
R10  19474184.039 8 103808377.635 8     -1436.672          50.000
R20  19734200.578 5 105527644.711 5     -1884.766          33.000    19734204.594 6  82077077.099 6     -1465.929          40.000
R21  20251170.820 8 108368125.376 8      2524.109          51.000    20251171.516 8  84286303.326 8      1963.196          48.000
C05                                                                  39637925.242 6 159605499.526 6        20.120          38.000
C11  22506091.836 8 117195175.982 8     -1701.594          51.000    22506091.469 8  90622691.141 8     -1315.678          51.000
C23  22000382.875 8 114561785.908 8      -585.180          51.000
C25  24319479.703 8 126637854.311 8     -3050.785          51.000
C28  23329475.461 8 121482829.292 8      2445.195          51.000
E01  25138332.312 8 132102794.071 8     -1983.742          51.000    25138333.703 8 101221617.506 8     -1520.022          51.000
E26  24121577.219 6 126759741.679 6     -1957.527          37.000    24121583.281 5  97127607.979 5     -1499.487          34.000
E31  23449182.961 8 123226324.058 8       496.500          51.000    23449186.695 8  94420163.782 8       380.414          51.000
E33  23579846.508 8 123912973.658 8       738.691          51.000    23579848.359 8  94946280.522 8       565.974          51.000
> 2020 05 11 12 03  0.0000000  0 19        .000000000000
G18  21838997.078 8 114764722.110 8      2921.379          51.000    21838998.273 7  89427068.982 7      2276.399          47.000
G21  21818449.805 8 114656754.007 8      2490.688          48.000    21818450.039 7  89342921.821 7      1940.792          45.000
G25  21745984.789 7 114275919.061 7     -2427.168          44.000    21745987.547 7  89046157.315 7     -1891.300          44.000
G26  22404453.367 6 117736209.110 6      2751.230          36.000
G29  20476135.273 8 107602808.518 8     -1113.910          51.000    20476134.469 8  83846363.874 8      -867.982          51.000
G31  21132754.562 6 111053370.228 6      -110.926          38.000    21132752.203 6  86535077.499 6       -86.433          39.000
R09  21818017.414 8 116506957.505 8     -3689.711          49.000    21818019.961 8  90616560.116 8     -2869.778          48.000
R10  19482362.750 8 103851975.483 8     -1461.703          48.000
R20  19744861.391 5 105584650.773 5     -1907.098          34.000    19744864.539 6  82121415.112 6     -1483.298          40.000
R21  20237103.734 8 108292849.024 8      2502.426          51.000    20237105.555 8  84227755.053 8      1946.328          49.000
C05                                                                  39637806.797 6 159605022.674 6        17.809          38.000
C11  22515953.617 8 117246528.793 8     -1713.984          51.000    22515953.203 8  90662400.392 8     -1325.377          51.000
C23  22003829.914 8 114579738.146 8      -603.699          51.000
C25  24337108.703 8 126729649.011 8     -3060.922          51.000
C28  23315445.148 8 121409768.527 8      2433.367          48.000
E01  25149710.906 8 132162588.638 8     -1994.539          51.000    25149712.758 8 101267434.064 8     -1528.292          51.000
E26                                                                  24132813.305 5  97172830.586 5     -1508.783          34.000
E31  23446407.125 8 123211737.165 8       483.973          51.000    23446410.867 8  94408986.808 8       370.845          51.000
E33  23575699.203 8 123891178.552 8       722.309          51.000    23575700.539 8  94929580.378 8       553.478          51.000
> 2020 05 11 12 03 30.0000000  0 19        .000000000000
G18  21822334.820 8 114677160.141 8      2915.496          51.000    21822335.945 7  89358838.890 7      2271.815          47.000
G21  21804248.117 8 114582123.858 8      2484.121          48.000    21804247.891 7  89284768.467 7      1935.679          45.000
G25  21759848.023 7 114348769.367 7     -2429.957          43.000    21759849.891 7  89102923.741 7     -1893.476          44.000
G26  22388746.180 6 117653636.093 6      2753.109          36.000
G29  20482508.016 8 107636297.573 8     -1119.227          51.000    20482507.492 8  83872459.248 8      -872.125          51.000
G31  21133421.484 6 111056876.740 6      -123.762          37.000    21133419.219 6  86537809.830 6       -96.438          37.000
R09  21838758.836 8 116617713.564 8     -3694.652          50.000    21838762.125 7  90702703.641 7     -2873.622          46.000
R10  19490629.680 7 103896043.437 7     -1476.691          47.000
R20  19755594.539 5 105642045.600 5     -1919.352          31.000    19755597.773 6  82166055.547 6     -1492.829          40.000
R21  20223105.859 8 108217948.085 8      2490.449          49.000    20223109.344 8  84169498.741 8      1937.013          48.000
C05                                                                  39637654.352 6 159604409.057 6        22.727          38.000
C11  22525835.188 8 117297984.853 8     -1716.875          51.000    22525834.805 8  90702189.472 8     -1327.615          51.000
C23  22007332.016 8 114597976.326 8      -612.668          51.000
C25  24354743.781 8 126821477.016 8     -3061.395          50.000
C28  23301429.258 7 121336793.848 7      2431.023          46.000
E01  25161098.547 8 132222432.499 8     -1995.672          51.000    25161100.945 8 101313288.432 8     -1529.181          51.000
E26                                                                  24144059.656 5  97218119.514 5     -1511.025          33.000
E31  23443650.938 8 123197252.355 8       481.074          51.000    23443654.352 8  94397888.064 8       368.636          51.000
E33  23571592.898 8 123869599.439 8       715.746          51.000    23571593.930 8  94913045.745 8       548.378          51.000
> 2020 05 11 12 04  0.0000000  0 19        .000000000000
G18  21805758.891 8 114590053.163 8      2895.703          49.000    21805760.094 7  89290963.329 7      2256.392          46.000
G21  21790137.484 8 114507971.246 8      2463.305          48.000    21790136.812 7  89226987.218 7      1919.458          46.000
G25  21773780.289 7 114421983.131 7     -2446.805          44.000    21773781.578 7  89159973.401 7     -1906.598          44.000
G26  22373081.750 5 117571311.878 5      2740.039          35.000    22373072.664 4  91614000.868 4      2135.098          29.000
G29  20488964.344 8 107670226.099 8     -1138.531          51.000    20488963.805 8  83898897.062 8      -887.170          51.000
G31  21134214.938 6 111061046.416 6      -150.242          37.000    21134211.266 6  86541058.902 6      -117.078          38.000
R09  21859580.938 8 116728900.579 8     -3713.672          50.000    21859583.977 7  90789182.333 7     -2888.414          43.000
R10  19499034.875 7 103940847.348 7     -1505.977          47.000
R20  19766449.641 5 105700093.359 5     -1946.109          32.000    19766453.258 6  82211203.794 6     -1513.644          39.000
R21  20209228.922 8 108143691.540 8      2464.117          49.000    20209232.695 7  84111743.648 7      1916.536          47.000
C05                                                                  39637518.062 6 159603860.188 6        16.867          38.000
C11  22535786.359 8 117349803.165 8     -1733.668          51.000    22535785.938 8  90742258.658 8     -1340.479          51.000
C23  22010939.531 8 114616761.185 8      -635.594          51.000
C25  24372433.969 7 126913597.465 7     -3075.980          46.000
C28  23287480.305 7 121264166.613 7      2414.887          46.000
E01  25172544.977 8 132282588.476 8     -2010.688          48.000    25172548.375 8 101359381.955 8     -1540.645          51.000
E26  24155411.477 6 126937520.609 6     -1988.098          38.000    24155372.797 5  97263675.057 5     -1523.099          33.000
E31  23440964.430 8 123183133.599 8       464.207          51.000    23440967.367 8  94387069.798 8       355.730          51.000
E33  23567577.664 8 123848499.315 8       695.020          51.000    23567578.555 8  94896878.117 8       532.598          51.000
> 2020 05 11 12 04 30.0000000  0 17        .000000000000
G18  21789268.125 7 114503396.455 7      2872.070          47.000    21789269.531 7  89223438.592 7      2237.974          46.000
G21  21776116.852 8 114434289.570 8      2439.172          50.000    21776115.688 7  89169572.957 7      1900.653          45.000
G25  21787780.266 7 114495552.632 7     -2467.160          42.000    21787781.453 7  89217300.293 7     -1922.462          42.000
G29  20495502.680 8 107704585.681 8     -1161.457          51.000    20495502.133 8  83925670.765 8      -905.028          51.000
G31  21135133.305 6 111065871.903 6      -180.672          38.000    21135128.156 6  86544819.040 6      -140.786          38.000
R09  21880481.992 8 116840508.781 8     -3736.434          50.000    21880484.352 7  90875988.632 7     -2906.118          44.000
R10  19507576.766 8 103986379.591 8     -1538.930          48.000
R21  20195471.945 8 108070073.667 8      2434.074          51.000    20195474.992 7  84054485.343 7      1893.169          47.000
C05                                                                  39637396.492 6 159603370.591 6         8.491          38.000
C11  22545805.484 8 117401975.012 8     -1753.773          51.000    22545804.883 8  90782601.226 8     -1356.162          51.000
C23  22014650.742 8 114636085.582 8      -662.082          51.000
C25  24390177.477 7 127006001.511 7     -3093.758          44.000
C28  23273598.688 8 121191880.271 8      2394.895          48.000
E01  25184048.914 7 132343049.032 7     -2029.414          47.000    25184053.453 8 101405708.868 8     -1555.006          51.000
E26  24166789.773 6 126997313.881 6     -2007.520          38.000    24166751.609 5  97309490.551 5     -1538.077          33.000
E31  23438346.242 8 123169374.654 8       443.703          51.000    23438348.969 8  94376527.235 8       339.968          51.000
E33  23563652.094 8 123827870.860 8       670.812          51.000    23563652.891 8  94881071.905 8       513.984          51.000
> 2020 05 11 12 05  0.0000000  0 18        .000000000000
G18  21772849.102 7 114417117.777 7      2873.832          46.000    21772850.797 7  89156208.433 7      2239.350          45.000
G21  21762172.320 8 114361006.746 8      2440.086          51.000    21762170.602 7  89112469.502 7      1901.366          45.000
G25  21801833.516 7 114569402.523 7     -2462.398          42.000    21801834.727 7  89274845.625 7     -1918.755          42.000
G29  20502108.586 8 107739300.125 8     -1159.055          51.000    20502108.062 8  83952720.958 8      -903.159          51.000
G31  21136161.938 6 111071278.560 6      -185.707          37.000    21136157.336 6  86549032.005 6      -144.707          36.000
R09  21901447.469 8 116952459.679 8     -3733.324          51.000    21901449.461 7  90963061.467 7     -2903.700          45.000
R10  19516241.312 8 104032564.050 8     -1546.215          49.000
R20  19788505.672 5 105818031.395 5     -1980.035          31.000    19788510.227 6  82302938.040 6     -1540.030          39.000
R21  20181820.797 8 107997019.572 8      2429.801          51.000    20181822.883 7  83997665.524 7      1889.845          47.000
C05                                                                  39637275.375 6 159602882.000 6        19.289          38.000
C11  22555878.055 8 117454424.769 8     -1749.117          51.000    22555877.242 8  90823158.656 8     -1352.380          51.000
C23  22018451.117 8 114655875.554 8      -663.504          51.000
C25  24407960.898 7 127098613.446 7     -3086.547          42.000
C28  23259769.258 8 121119861.711 8      2400.066          48.000
E01  25195596.961 8 132403739.180 8     -2022.992          48.000    25195602.023 8 101452211.723 8     -1549.974          50.000
E26  24178218.664 5 127057395.097 5     -2002.883          33.000    24178181.141 5  97355513.528 5     -1534.224          34.000
E31  23435782.445 8 123155901.746 8       448.281          51.000    23435785.062 8  94366203.833 8       343.500          51.000
E33  23559802.094 8 123807639.377 8       671.750          51.000    23559802.961 8  94865569.865 8       514.730          51.000
> 2020 05 11 12 05 30.0000000  0 19        .000000000000
G18  21756485.148 7 114331125.757 7      2865.457          47.000    21756486.289 7  89089201.682 7      2232.827          44.000
G21  21748286.141 8 114288030.776 8      2431.262          51.000    21748284.094 7  89055605.164 7      1894.493          45.000
G25  21815921.953 7 114643438.121 7     -2467.242          42.000    21815923.688 7  89332535.681 7     -1922.526          43.000
G26  22326296.789 5 117325481.021 5      2730.211          32.000
G29  20508763.781 8 107774274.079 8     -1166.238          50.000    20508763.375 8  83979973.377 8      -908.757          50.000
G31  21137282.594 6 111077172.608 6      -200.406          38.000    21137279.805 6  86553624.716 6      -156.164          38.000
R09  21922458.742 8 117064655.810 8     -3740.137          51.000    21922460.273 7  91050325.064 7     -2908.995          46.000
R10  19525010.062 8 104079304.724 8     -1563.348          49.000
R20  19799673.758 5 105877749.558 5     -1994.402          30.000    19799677.641 6  82349385.489 6     -1551.202          38.000
R21  20168257.477 8 107924435.149 8      2415.523          51.000    20168258.391 7  83941210.997 7      1878.740          47.000
C05                                                                  39637136.867 6 159602324.498 6        22.854          38.000
C11  22565985.586 8 117507057.756 8     -1753.590          51.000    22565985.023 8  90863857.830 8     -1355.996          51.000
C23  22022323.219 8 114676038.016 8      -674.473          51.000
C25  24425766.969 7 127191338.904 7     -3088.828          45.000
C28  23245972.836 7 121048018.665 7      2395.637          47.000
E01  25207171.734 8 132464564.771 8     -2025.871          49.000    25207175.812 8 101498818.372 8     -1552.342          49.000
E26                                                                  24189642.055 5  97401658.824 5     -1537.403          35.000
E31  23433255.477 8 123142621.936 8       443.238          51.000    23433257.961 8  94356028.399 8       339.645          51.000
E33  23556009.688 8 123787710.876 8       663.125          51.000    23556010.742 8  94850299.985 8       508.088          51.000
> 2020 05 11 12 06  0.0000000  0 18        .000000000000
G18  21740199.172 8 114245542.290 8      2838.719          48.000    21740199.352 7  89022513.340 7      2211.992          43.000
G21  21734481.070 8 114215482.810 8      2403.852          51.000    21734479.039 7  88999074.331 7      1873.134          46.000
G25  21830068.367 7 114717778.337 7     -2490.262          42.000    21830070.844 7  89390463.094 7     -1940.461          42.000
G29  20515490.875 8 107809625.745 8     -1191.812          50.000    20515490.516 8  84007520.117 8      -928.685          49.000
G31  21138518.961 6 111083673.156 6      -233.871          37.000    21138516.211 6  86558690.144 6      -182.234          37.000
R09  21943537.891 8 117177216.173 8     -3765.352          49.000    21943539.305 7  91137871.962 7     -2928.610          47.000
R10  19533905.461 8 104126722.277 8     -1599.188          50.000
R20  19810950.555 5 105938050.627 5     -2027.211          32.000    19810954.195 6  82396286.353 6     -1576.720          38.000
R21  20154804.125 8 107852443.490 8      2382.621          51.000    20154804.680 7  83885217.503 7      1853.150          46.000
C05                                                                  39637003.836 6 159601788.803 6        12.025          38.000
C11  22576150.664 8 117559990.834 8     -1776.617          51.000    22576150.469 8  90904789.036 8     -1373.672          51.000
C23  22026289.719 8 114696691.414 8      -703.746          51.000
C25  24443619.156 8 127284294.684 8     -3109.348          48.000
C28  23232232.688 8 120976470.208 8      2372.863          48.000
E01  25218795.391 8 132525645.141 8     -2047.410          51.000    25218798.695 8 101545620.143 8     -1568.807          48.000
E26  24201150.008 5 127177901.281 5     -2029.344          33.000    24201155.680 5  97448022.828 5     -1554.784          35.000
E31  23430788.156 8 123129655.703 8       419.801          51.000    23430790.578 8  94346093.234 8       321.704          51.000
E33  23552297.461 8 123768204.800 8       636.043          51.000    23552298.484 8  94835353.786 8       487.331          51.000
> 2020 05 11 12 06 30.0000000  0 18        .000000000000
G18  21723994.539 8 114160385.095 8      2836.465          49.000    21723994.250 7  88956157.138 7      2210.235          45.000
G21  21720760.148 8 114143379.905 8      2400.949          51.000    21720758.719 7  88942890.270 7      1870.873          46.000
G25  21844275.320 6 114792437.573 6     -2488.848          41.000    21844277.891 6  89448639.100 6     -1939.362          41.000
G29  20522292.508 8 107845368.718 8     -1193.031          50.000    20522291.953 8  84035371.774 8      -929.635          51.000
G31  21139873.391 5 111090795.654 5      -242.941          35.000    21139872.258 5  86564240.168 5      -189.302          34.000
R09  21964687.125 8 117290153.446 8     -3765.844          49.000    21964688.680 7  91225711.996 7     -2928.990          47.000
R10  19542930.820 8 104174831.310 8     -1610.094          50.000
R20  19822338.414 5 105998946.689 5     -2034.320          31.000    19822340.805 6  82443649.952 6     -1582.246          38.000
R21  20141463.836 8 107781061.217 8      2374.254          50.000    20141465.383 7  83829698.000 7      1846.645          45.000
C05                                                                  39636879.094 6 159601286.314 6        19.978          38.000
C11  22586376.117 8 117613237.391 8     -1775.105          51.000    22586375.859 8  90945962.630 8     -1372.561          51.000
C23  22030353.156 8 114717850.708 8      -708.832          51.000
C25  24461518.719 8 127377494.236 8     -3105.820          50.000
C28  23218552.539 8 120905232.033 8      2374.270          48.000
E01  25230470.648 8 132586994.976 8     -2044.445          51.000    25230472.055 8 101592628.389 8     -1566.421          48.000
E26  24212721.242 5 127238707.199 5     -2026.730          33.000    24212725.430 5  97494615.848 5     -1553.069          35.000
E31  23428383.453 8 123117019.005 8       420.738          51.000    23428386.039 8  94336410.577 8       322.414          51.000
E33  23548668.539 8 123749136.139 8       633.406          51.000    23548669.266 8  94820742.746 8       485.322          51.000
> 2020 05 11 12 07  0.0000000  0 18        .000000000000
G18  21707860.102 8 114075597.122 8      2820.168          50.000    21707860.094 7  88890088.604 7      2197.533          46.000
G21  21707112.664 8 114071664.523 8      2384.141          50.000    21707112.109 7  88887008.148 7      1857.772          47.000
G25  21858531.625 6 114867355.647 6     -2501.375          41.000    21858534.133 6  89507016.796 6     -1949.126          41.000
G29  20529157.102 8 107881442.242 8     -1207.918          51.000    20529156.539 8  84063481.014 8      -941.235          51.000
G31  21141335.438 6 111098480.124 6      -265.422          36.000    21141335.820 6  86570228.103 6      -206.822          36.000
R09  21985895.055 8 117403405.160 8     -3780.078          48.000    21985896.617 7  91313796.569 7     -2940.064          46.000
R10  19552074.516 8 104223571.053 8     -1635.043          50.000
R20  19833825.688 5 106060374.253 5     -2056.375          33.000    19833828.672 6  82491426.951 6     -1599.403          39.000
R21  20128226.125 8 107710229.073 8      2351.965          51.000    20128229.391 7  83774606.363 7      1829.306          45.000
C05                                                                  39636751.266 6 159600771.526 6        17.537          38.000
C11  22596650.164 8 117666736.971 8     -1787.387          51.000    22596649.859 8  90987331.881 8     -1382.163          51.000
C23  22034502.273 8 114739456.962 8      -727.566          51.000
C25  24479453.016 8 127470876.889 8     -3115.656          50.000
C28  23204920.625 8 120834245.983 8      2362.105          48.000
E01  25242185.812 8 132648554.614 8     -2055.406          51.000    25242186.227 8 101639797.380 8     -1574.952          48.000
E26                                                                  24224341.328 5  97541391.191 5     -1562.078          35.000
E31  23426030.281 8 123104653.468 8       407.695          51.000    23426033.094 8  94326935.683 8       312.426          51.000
E33  23545111.789 8 123730445.425 8       616.820          51.000    23545112.398 8  94806421.298 8       472.629          51.000
> 2020 05 11 12 07 30.0000000  0 18        .000000000000
G18  21691795.711 8 113991177.597 8      2807.613          50.000    21691796.250 8  88824307.158 8      2187.751          48.000
G21  21693538.812 8 114000335.135 8      2370.965          51.000    21693538.750 7  88831426.790 7      1847.505          47.000
G25  21872836.625 6 114942528.629 6     -2510.379          41.000    21872839.242 6  89565593.110 6     -1956.139          41.000
G29  20536083.781 8 107917841.723 8     -1218.922          51.000    20536083.375 8  84091844.260 8      -949.806          51.000
G31  21142904.625 6 111106723.607 6      -284.219          36.000    21142906.242 6  86576651.559 6      -221.472          37.000
R09  22007161.375 7 117516965.446 7     -3790.633          47.000    22007163.195 7  91402121.173 7     -2948.270          47.000
R10  19561335.586 8 104272937.155 8     -1656.164          51.000
R20  19845411.062 5 106122326.431 5     -2074.242          30.000    19845415.023 6  82539611.980 6     -1613.296          39.000
R21  20115091.625 8 107639944.936 8      2333.395          51.000    20115095.211 7  83719940.925 7      1814.862          45.000
C05                                                                  39636619.891 6 159600242.071 6        17.845          38.000
C11  22606971.695 8 117720484.586 8     -1795.938          51.000    22606971.695 8  91028892.933 8     -1388.594          51.000
C23  22038736.633 8 114761506.827 8      -742.559          51.000
C25  24497421.008 8 127564437.865 8     -3121.875          50.000
C28  23191336.180 8 120763509.511 8      2353.562          49.000
E01  25253940.047 8 132710320.479 8     -2062.469          51.000    25253939.438 8 101687124.442 8     -1580.315          48.000
E26                                                                  24236002.992 5  97588345.145 5     -1568.283          35.000
E31  23423728.281 8 123092556.628 8       398.637          51.000    23423731.305 8  94317666.680 8       305.428          51.000
E33  23541626.258 8 123712129.148 8       604.180          51.000    23541627.250 8  94792386.768 8       462.955          51.000
> 2020 05 11 12 08  0.0000000  0 18        .000000000000
G18  21675805.156 8 113907144.761 8      2795.359          51.000    21675805.430 7  88758827.012 7      2178.202          47.000
G21  21680042.102 8 113929409.446 8      2358.309          51.000    21680041.797 7  88776160.015 7      1837.643          46.000
G25  21887192.828 6 115017971.638 6     -2518.352          39.000    21887194.891 6  89624379.852 6     -1962.352          39.000
G29  20543075.289 8 107954581.495 8     -1229.520          51.000    20543074.719 8  84120472.657 8      -958.067          51.000
G31  21144582.656 6 111115541.818 6      -302.273          36.000    21144584.188 6  86583522.884 6      -235.541          37.000
R09  22028487.609 7 117630848.270 7     -3800.484          43.000    22028490.344 7  91490696.650 7     -2955.935          46.000
R10  19570717.156 8 104322945.538 8     -1676.871          51.000
R20  19857096.188 5 106184816.129 5     -2091.285          32.000    19857101.258 6  82588215.062 6     -1626.558          37.000
R21  20102063.008 8 107570226.294 8      2315.293          50.000    20102066.297 7  83665715.336 7      1800.786          46.000
C05                                                                  39636487.773 6 159599710.088 6        18.456          38.000
C11  22617343.555 8 117774494.518 8     -1803.922          51.000    22617343.930 8  91070656.856 8     -1395.013          51.000
C23  22043058.992 8 114784016.066 8      -757.238          51.000
C25  24515425.258 8 127658191.378 8     -3127.523          49.000
C28  23177802.852 8 120693039.115 8      2345.395          49.000
E01  25265736.297 8 132772308.067 8     -2069.152          51.000    25265735.883 8 101734621.401 8     -1585.475          50.000
E26  24247706.008 5 127422548.180 5     -2054.703          33.000    24247712.570 6  97635488.671 6     -1574.084          36.000
E31  23421480.688 8 123080745.358 8       389.691          51.000    23421483.727 8  94308616.492 8       298.592          51.000
E33  23538214.922 8 123694203.191 8       591.855          51.000    23538216.508 8  94778651.333 8       453.446          51.000
> 2020 05 11 12 08 30.0000000  0 18        .000000000000
G18  21659890.898 8 113823511.929 8      2781.574          51.000    21659890.680 7  88693658.573 7      2167.460          46.000
G21  21666624.617 8 113858900.005 8      2343.828          51.000    21666623.750 7  88721217.616 7      1826.360          44.000
G25  21901602.242 6 115093694.823 6     -2528.246          39.000    21901604.117 6  89683384.917 6     -1970.062          39.000
G29  20550133.320 8 107991671.066 8     -1241.809          51.000    20550132.578 8  84149373.622 8      -967.643          51.000
G31  21146372.477 6 111124945.335 6      -323.039          37.000    21146373.148 6  86590850.315 6      -251.713          37.000
R09  22049872.641 6 117745062.008 6     -3812.023          38.000    22049878.664 7  91579529.578 7     -2964.904          44.000
R10  19580221.031 8 104373606.531 8     -1699.137          50.000
R20  19868884.352 4 106247851.197 4     -2109.496          28.000    19868888.148 6  82637242.309 6     -1640.716          38.000
R21  20089142.188 8 107501085.720 8      2295.461          49.000    20089145.633 7  83611939.347 7      1785.359          47.000
C05                                                                  39636356.984 6 159599183.950 6        17.752          38.000
C11  22627767.703 8 117828775.929 8     -1813.539          51.000    22627768.070 8  91112630.672 8     -1402.274          51.000
C23  22047471.898 8 114806995.359 8      -773.414          51.000
C25  24533467.484 7 127752146.541 7     -3134.750          47.000
C28  23164323.250 8 120622846.250 8      2335.547          50.000
E01  25277576.500 8 132834528.031 8     -2077.430          51.000    25277577.195 8 101782296.415 8     -1591.803          51.000
E26                                                                  24259470.742 6  97682828.892 6     -1580.995          37.000
E31  23419289.664 8 123069231.529 8       379.199          51.000    23419292.703 8  94299794.211 8       290.579          51.000
E33  23534880.344 8 123676678.317 8       577.867          51.000    23534881.883 8  94765223.191 8       442.757          51.000
> 2020 05 11 12 09  0.0000000  0 19        .000000000000
G18  21644052.195 8 113740276.973 8      2769.020          51.000    21644051.617 7  88628800.198 7      2157.681          44.000
G21  21653285.672 8 113788804.131 8      2330.801          50.000    21653284.336 7  88666597.500 7      1816.211          44.000
G25  21916064.148 6 115169693.077 6     -2536.488          40.000    21916066.633 6  89742604.268 6     -1976.487          41.000
G29  20557256.688 8 108029104.569 8     -1252.297          51.000    20557256.219 8  84178542.592 8      -975.816          51.000
G31  21148272.664 6 111134929.192 6      -341.117          36.000    21148272.766 5  86598629.978 5      -265.800          35.000
R09  22071319.789 7 117859599.665 7     -3822.141          43.000    22071327.672 7  91668614.412 7     -2972.779          44.000
R10  19589845.867 8 104424914.356 8     -1719.664          49.000
R20  19880772.141 5 106311424.772 5     -2126.051          31.000    19880777.438 6  82686687.684 6     -1653.598          38.000
R21  20076329.172 8 107432519.583 8      2277.168          51.000    20076332.742 7  83558610.137 7      1771.131          47.000
C05                                                                  39636226.867 6 159598660.160 6        18.320          38.000
C11  22638242.875 8 117883322.700 8     -1821.492          51.000    22638243.023 8  91154809.692 8     -1408.448          51.000
C23  22051974.180 8 114830440.092 8      -787.949          51.000
C25  24551547.055 7 127846297.237 7     -3140.316          47.000
C28  23150896.375 8 120552927.028 8      2327.375          51.000
E01  25289459.656 8 132896975.421 8     -2084.219          51.000    25289461.867 8 101830145.690 8     -1596.915          51.000
E12  24111698.109 7 126707836.752 7      2797.066          42.000    24111702.266 6  97087821.012 6      2143.177          36.000
E26  24271272.578 5 127546397.585 5     -2070.230          32.000    24271275.430 6  97730361.072 6     -1586.487          36.000
E31  23417154.406 8 123058011.449 8       370.344          51.000    23417157.633 8  94291197.005 8       283.785          51.000
E33  23531621.172 8 123659549.755 8       565.570          51.000    23531622.430 8  94752098.714 8       433.356          51.000
> 2020 05 11 12 09 30.0000000  0 19        .000000000000
G18  21628288.227 8 113657437.369 8      2752.426          51.000    21628286.906 7  88564249.933 7      2144.750          42.000
G21  21640024.742 8 113719118.476 8      2313.730          50.000    21640022.438 7  88612297.048 7      1802.910          42.000
G25  21930577.383 6 115245960.718 6     -2549.020          41.000    21930580.711 7  89802033.524 7     -1986.252          42.000
G29  20564444.258 8 108066875.796 8     -1266.918          51.000    20564444.070 8  84207974.708 8      -987.206          51.000
G31  21150281.836 5 111145488.613 5      -363.656          35.000    21150281.258 6  86606858.073 6      -283.365          36.000
R09  22092829.688 7 117974453.965 7     -3835.945          46.000    22092836.594 7  91757945.465 7     -2983.516          43.000
R10  19599590.578 8 104476863.350 8     -1744.594          48.000
R20  19892759.742 4 106375526.695 4     -2147.625          29.000    19892764.297 6  82736544.702 6     -1670.378          38.000
R21  20063623.195 8 107364524.041 8      2254.676          51.000    20063626.156 7  83505724.736 7      1753.640          46.000
C05                                                                  39636096.391 6 159598134.946 6        16.063          38.000
C11  22648767.797 8 117938128.323 8     -1833.359          51.000    22648767.750 8  91197188.862 8     -1417.600          51.000
C23  22056564.688 8 114854345.215 8      -806.711          51.000
C25  24569663.039 7 127940636.966 7     -3150.082          46.000
C28  23137521.000 8 120483277.353 8      2314.816          50.000
E01  25301384.828 8 132959645.080 8     -2094.941          51.000    25301388.227 8 101878165.291 8     -1605.161          51.000
E12  24095752.641 6 126624053.346 6      2787.562          41.000    24095766.984 5  97023623.270 5      2135.954          33.000
E26                                                                  24283125.781 6  97778080.282 6     -1595.640          36.000
E31  23415074.312 8 123047081.062 8       357.270          51.000    23415077.867 8  94282821.774 8       273.767          51.000
E33  23528436.203 8 123642812.392 8       549.188          51.000    23528437.680 8  94739274.007 8       420.833          51.000
> 2020 05 11 12 10  0.0000000  0 19        .000000000000
G18  21612605.133 8 113575023.633 8      2740.898          50.000    21612603.227 7  88500031.529 7      2135.768          42.000
G21  21626847.656 8 113649873.528 8      2301.555          49.000    21626844.062 7  88558339.992 7      1793.422          42.000
G25  21945147.508 6 115322525.130 6     -2556.406          41.000    21945150.633 6  89861694.085 6     -1992.005          41.000
G29  20571701.109 8 108105011.340 8     -1276.316          50.000    20571700.938 8  84237690.696 8      -994.532          50.000
G31  21152405.836 6 111156651.278 6      -381.000          36.000    21152404.328 6  86615556.217 6      -296.886          36.000
R09  22114404.023 8 118089651.030 8     -3844.703          48.000    22114409.656 7  91847543.101 7     -2990.328          42.000
R10  19609460.734 7 104529481.144 7     -1764.137          47.000
R20  19904850.570 4 106440183.030 4     -2163.766          29.000    19904855.367 6  82786832.969 6     -1682.932          37.000
R21  20051029.211 8 107297129.025 8      2237.273          51.000    20051030.953 7  83453306.410 7      1740.102          45.000
C05                                                                  39635971.016 6 159597630.005 6        17.021          38.000
C11  22659347.531 8 117993219.115 8     -1840.250          51.000    22659347.336 8  91239788.557 8     -1422.980          51.000
C23  22061249.078 8 114878738.542 8      -820.465          51.000
C25  24587820.969 7 128035192.013 7     -3154.398          46.000
C28  23124202.844 8 120413925.710 8      2307.688          51.000
E01  25313357.766 8 133022564.793 8     -2100.633          51.000    25313361.438 8 101926376.486 8     -1609.561          51.000
E12  24079848.414 6 126540488.539 6      2782.629          40.000
E26                                                                  24295027.781 5  97826006.792 5     -1600.240          35.000
E31  23413054.961 8 123036469.434 8       349.246          51.000    23413058.602 8  94274690.786 8       267.637          51.000
E33  23525331.180 8 123626494.260 8       537.812          51.000    23525332.789 8  94726770.511 8       412.054          51.000
> 2020 05 11 12 10 30.0000000  0 18        .000000000000
G18  21596995.938 8 113492997.174 8      2727.648          50.000    21596993.930 7  88436114.854 7      2125.440          43.000
G21  21613746.695 8 113581029.089 8      2288.000          49.000    21613743.039 7  88504694.982 7      1782.857          43.000
G25  21959765.773 6 115399344.482 6     -2564.727          40.000    21959768.961 6  89921553.281 6     -1998.488          40.000
G29  20579019.219 8 108143468.808 8     -1287.207          50.000    20579019.133 8  84267657.549 8     -1003.018          50.000
G31  21154637.180 6 111168376.168 6      -400.355          39.000    21154633.336 6  86624692.519 6      -311.962          38.000
R09  22136034.141 8 118205146.702 8     -3854.820          49.000    22136037.969 7  91937372.971 7     -2998.197          43.000
R10  19619448.578 8 104582725.090 8     -1785.387          48.000
R21  20038538.805 8 107230293.695 8      2218.402          50.000    20038541.164 7  83401323.423 7      1725.427          47.000
C05                                                                  39635842.820 6 159597113.758 6        17.359          38.000
C11  22669973.898 8 118048552.808 8     -1848.602          51.000    22669973.570 8  91282576.065 8     -1429.408          51.000
C23  22066019.867 8 114903579.197 8      -835.613          51.000
C25  24606012.703 7 128129920.149 7     -3160.621          46.000
C28  23110934.414 8 120344832.089 8      2298.703          51.000
E01  25325370.625 8 133085693.110 8     -2107.820          51.000    25325374.062 8 101974747.526 8     -1615.065          51.000
E12  24063979.164 6 126457102.352 6      2776.461          41.000    24063973.547 5  96895649.240 5      2127.565          32.000
E26                                                                  24306973.734 5  97874108.012 5     -1606.221          35.000
E31  23411088.562 8 123026136.441 8       339.715          51.000    23411092.180 8  94266773.298 8       260.307          51.000
E33  23522297.914 8 123610554.080 8       524.988          51.000    23522299.617 8  94714556.605 8       402.246          51.000
> 2020 05 11 12 11  0.0000000  0 19        .000000000000
G18  21581463.445 8 113411374.151 8      2713.996          49.000    21581461.703 7  88372512.497 7      2114.799          45.000
G21  21600725.172 8 113512600.834 8      2273.898          50.000    21600722.156 7  88451374.280 7      1771.869          45.000
G25  21974434.766 6 115476431.817 6     -2574.324          40.000    21974438.367 6  89981621.334 6     -2005.967          40.000
G29  20586401.062 8 108182260.320 8     -1298.801          51.000    20586400.984 8  84297884.705 8     -1012.053          51.000
G31  21156978.172 6 111180676.395 6      -419.793          40.000    21156973.500 6  86634277.137 6      -327.111          40.000
R09  22157721.922 8 118320952.531 8     -3865.488          50.000    22157724.422 7  92027444.054 7     -3006.494          44.000
R10  19629556.859 8 104636608.677 8     -1806.863          49.000
R20  19929319.898 5 106571041.067 5     -2197.746          31.000    19929329.211 6  82888605.063 6     -1709.361          38.000
R21  20026155.617 8 107164033.330 8      2198.984          49.000    20026159.547 8  83349787.600 8      1710.321          48.000
C05                                                                  39635714.453 6 159596596.871 6        17.133          38.000
C11  22680649.164 8 118104141.440 8     -1857.281          51.000    22680648.844 8  91325560.718 8     -1436.222          51.000
C23  22070879.180 8 114928880.733 8      -851.121          51.000
C25  24624240.336 7 128224833.325 7     -3166.938          47.000
C28  23097718.008 8 120276010.808 8      2289.262          50.000
E01  25337425.734 8 133149043.584 8     -2115.578          51.000    25337429.594 8 102023288.763 8     -1620.988          51.000
E12  24048147.891 7 126373909.909 7      2769.617          42.000    24048147.539 6  96831904.440 6      2122.231          37.000
E26  24318962.734 6 127797014.956 6     -2104.844          36.000    24318965.805 5  97922393.282 5     -1612.728          35.000
E31  23409178.016 8 123016096.785 8       329.602          51.000    23409181.586 8  94259080.576 8       252.519          51.000
E33  23519338.773 8 123595005.500 8       511.633          51.000    23519340.977 8  94702642.766 8       392.003          51.000
> 2020 05 11 12 11 30.0000000  0 19        .000000000000
G18  21566008.055 8 113330158.373 8      2699.977          48.000    21566007.156 7  88309227.433 7      2103.875          47.000
G21  21587783.508 8 113444592.236 8      2259.637          50.000    21587781.367 7  88398380.581 7      1760.756          45.000
G25  21989154.367 6 115553787.868 6     -2583.270          36.000    21989158.305 6  90041898.827 6     -2012.937          36.000
G29  20593846.578 8 108221386.132 8     -1310.113          51.000    20593846.422 8  84328372.367 8     -1020.867          51.000
G31  21159428.609 7 111193553.169 7      -439.137          42.000    21159424.914 7  86644310.911 7      -342.184          42.000
R09  22179466.938 8 118437067.427 8     -3876.000          48.000    22179469.047 7  92117755.541 7     -3014.670          45.000
R10  19639785.742 8 104691132.307 8     -1828.492          50.000
R20  19941701.055 4 106637245.110 4     -2215.781          28.000    19941701.477 5  82940096.977 5     -1723.391          34.000
R21  20013881.211 8 107098350.589 8      2179.430          51.000    20013885.695 8  83298701.042 8      1695.112          48.000
C05                                                                  39635586.172 6 159596080.479 6        16.921          37.000
C11  22691373.336 8 118159984.997 8     -1866.055          51.000    22691373.141 8  91368742.486 8     -1442.925          51.000
C23  22075827.016 8 114954644.458 8      -866.848          51.000
C25  24642503.516 7 128319931.418 7     -3173.348          47.000
C28  23084553.570 8 120207463.987 8      2279.906          49.000
E01  25349523.328 8 133212617.246 8     -2123.109          51.000    25349527.672 8 102072001.041 8     -1626.843          51.000
E12  24032354.742 7 126290913.690 7      2762.930          43.000    24032356.508 6  96768309.972 6      2117.074          40.000
E26  24330999.695 5 127860271.383 5     -2112.707          34.000    24331003.461 5  97970862.449 5     -1618.983          35.000
E31  23407323.867 8 123006352.849 8       319.520          51.000    23407327.398 8  94251614.443 8       244.836          51.000
E33  23516454.367 8 123579849.796 8       498.324          50.000    23516457.172 8  94691029.950 8       381.884          51.000
> 2020 05 11 12 12  0.0000000  0 19        .000000000000
G18  21550631.367 7 113249355.475 7      2686.531          47.000    21550631.508 7  88246264.086 7      2093.401          47.000
G21  21574922.602 8 113377008.110 8      2245.695          50.000    21574921.070 7  88345717.658 7      1749.892          45.000
G25  22003926.211 6 115631415.301 6     -2592.176          41.000    22003929.492 6  90102387.719 6     -2019.877          41.000
G29  20601356.016 8 108260848.229 8     -1320.973          51.000    20601355.750 8  84359122.050 8     -1029.329          51.000
G31  21161989.516 7 111207009.873 7      -458.355          43.000    21161986.320 7  86654796.664 7      -357.160          43.000
R09  22201269.398 7 118553492.450 7     -3885.945          46.000    22201271.891 7  92208308.271 7     -3022.405          46.000
R10  19650135.453 8 104746298.371 8     -1849.578          49.000
R20  19954178.234 5 106703936.321 5     -2233.258          30.000    19954185.984 6  82991988.095 6     -1736.978          37.000
R21  20001716.305 8 107033249.901 8      2160.348          51.000    20001720.016 7  83248067.171 7      1680.270          46.000
C05                                                                  39635458.648 6 159595567.146 6        17.133          37.000
C11  22702146.766 8 118216084.974 8     -1874.176          51.000    22702146.578 8  91412122.557 8     -1449.244          51.000
C23  22080864.492 8 114980873.329 8      -882.062          51.000
C25  24660802.336 8 128415216.026 8     -3179.223          48.000
C28  23071442.672 8 120139195.539 8      2271.023          50.000
E01  25361664.070 8 133276417.053 8     -2130.371          51.000    25361668.602 8 102120886.594 8     -1632.392          51.000
E12  24016600.164 7 126208118.258 7      2756.547          43.000    24016602.453 7  96704869.340 7      2112.240          42.000
E26  24343082.961 5 127923763.545 5     -2120.945          32.000    24343086.758 5  98019516.870 5     -1624.697          34.000
E31  23405526.750 8 122996908.847 8       309.816          51.000    23405530.234 8  94244378.134 8       237.398          51.000
E33  23513645.305 8 123565090.041 8       485.500          49.000    23513648.586 8  94679720.521 8       371.971          51.000
> 2020 05 11 12 12 30.0000000  0 19        .000000000000
G18  21535333.188 8 113168962.985 8      2672.816          48.000    21535334.289 8  88183620.587 8      2082.714          48.000
G21  21562141.992 8 113309845.614 8      2231.898          50.000    21562140.445 7  88293383.267 7      1739.145          44.000
G25  22018749.523 7 115709308.554 7     -2600.777          43.000    22018752.617 7  90163083.693 7     -2026.583          43.000
G29  20608928.250 8 108300640.417 8     -1331.785          51.000    20608927.898 8  84390128.946 8     -1037.755          51.000
G31  21164659.594 7 111221041.210 7      -477.039          42.000    21164657.156 7  86665730.176 7      -371.719          42.000
R09  22223127.516 7 118670220.053 7     -3895.742          44.000    22223131.727 7  92299096.370 7     -3030.022          47.000
R10  19660604.289 8 104802100.960 8     -1870.457          48.000
R20  19966752.453 4 106771168.800 4     -2249.383          28.000    19966755.977 5  83044280.003 5     -1749.520          34.000
R21  19989659.148 8 106968727.496 8      2141.195          51.000    19989661.867 7  83197883.090 7      1665.374          46.000
C05                                                                  39635331.086 6 159595053.212 6        17.256          38.000
C11  22712968.242 8 118272435.262 8     -1882.352          51.000    22712967.922 8  91455696.166 8     -1455.605          51.000
C23  22085990.336 8 115007562.598 8      -897.227          51.000
C25  24679136.070 8 128510680.822 8     -3185.000          49.000
C28  23058385.242 8 120071201.496 8      2261.977          51.000
E01  25373847.164 8 133340437.970 8     -2137.629          51.000    25373851.383 8 102169941.591 8     -1637.938          51.000
E12  24000883.164 7 126125520.039 7      2750.070          43.000    24000885.375 7  96641579.835 7      2107.176          44.000
E26                                                                  24355214.695 5  98068351.704 5     -1630.186          34.000
E31  23403785.906 8 122987760.841 8       300.051          51.000    23403789.312 8  94237368.625 8       229.930          51.000
E33  23510910.445 8 123550721.288 8       472.492          48.000    23510914.133 8  94668710.680 8       362.069          51.000
> 2020 05 11 12 13  0.0000000  0 19        .000000000000
G18  21520114.391 8 113088987.535 8      2659.137          49.000    21520116.516 8  88121302.076 8      2072.058          48.000
G21  21549442.773 8 113243110.415 8      2217.637          50.000    21549440.773 7  88241381.841 7      1728.029          43.000
