     3.02           OBSERVATION DATA    M (MIXED)           RINEX VERSION / TYPE
SAVERINEX           SC600               20200518 215932 LCL PGM / RUN BY / DATE
       G = GPS       R = GLONASS       C = COMPASS          COMMENT
       S = SBAS      J = QZSS          E = GALILEO          COMMENT
BEAN                                                        MARKER NAME
1                                                           MARKER NUMBER
GEODETIC                                                    MARKER TYPE
Unige DICCA         GTER                                    OBSERVER / AGENCY
SC60291900056       SC600               2.12(191202)        REC # / TYPE / VERS
                    HEMA45          NONE                    ANT # / TYPE
  4509407.8091   693652.4678  4442337.6214                  APPROX POSITION XYZ
        0.0000        0.0000        0.0000                  ANTENNA: DELTA H/E/N
G    8 C1C L1C D1C S1C C2Y L2Y D2Y S2Y                      SYS / # / OBS TYPES
R    8 C1C L1C D1C S1C C2P L2P D2P S2P                      SYS / # / OBS TYPES
C    4 C1I L1I D1I S1I                                      SYS / # / OBS TYPES
E    8 C1C L1C D1C S1C C7Q L7Q D7Q S7Q                      SYS / # / OBS TYPES
DBHZ                                                        COMMENT
     30.000                                                 INTERVAL
  2020    05    18    19    00    0.0000000     GPS         TIME OF FIRST OBS
  2020    05    18    19    59   30.0000000     GPS         TIME OF LAST OBS
     0                                                      RCV CLOCK OFFS APPL
G L1C  0.00000                                              SYS / PHASE SHIFT
G L2Y  0.00000                                              SYS / PHASE SHIFT
R L1C  0.00000                                              SYS / PHASE SHIFT
R L2P  0.25000                                              SYS / PHASE SHIFT
C L1I  0.00000                                              SYS / PHASE SHIFT
E L1C  0.50000                                              SYS / PHASE SHIFT
E L7Q -0.25000                                              SYS / PHASE SHIFT
 12 R01  1 R06 -4 R07  5 R08  6 R09 -2 R10 -5 R11  0 R12 -1 GLONASS SLOT / FRQ #
    R20  2 R21  4 R22 -3 R23  3                             GLONASS SLOT / FRQ #
 C1C   71.950 C2C   71.950 C2P   71.950                     GLONASS COD/PHS/BIS
    18                                                      LEAP SECONDS
*** Above antenna height is from mark to ANTENNA BOTTOM.    COMMENT
    17     4        0.0000        ANT MEASURE TYPE/HEIGT    COMMENT
    0.0000    0.0000    0.0458    0.0405    0.0000          COMMENT
                    BASE STATION                            COMMENT
                                                            END OF HEADER
> 2020 05 18 19 00  0.0000000  0 16        .000000000000
G01  20371331.273 6 107052057.920 6       673.770          41.000    20371333.555 6  83417201.314 6       525.015          41.000
G03  21472188.391 7 112837110.123 7      2203.789          47.000    21472190.266 7  87925061.084 7      1717.241          47.000
G08  22349329.516 7 117446506.474 7     -3160.949          47.000    22349335.148 7  91516760.814 7     -2463.077          47.000
G11  20095612.680 8 105603133.865 8     -1230.328          50.000    20095611.664 8  82288143.446 8      -958.697          48.000
G14  21915092.789 5 115164631.710 5      -207.773          34.000    21915096.438 5  89738633.008 5      -161.907          31.000
G22  20673316.180 8 108639034.941 8       542.270          51.000    20673312.547 8  84653777.611 8       422.548          51.000
G32  22472107.180 5 118091729.610 5     -1725.398          33.000    22472080.680 5  92019431.820 5     -1344.482          33.000
R01  20618262.922 8 110216407.384 8      3106.770          48.000    20618268.742 7  85723905.787 7      2416.376          42.000
R08  19220034.039 8 102922397.230 8      -143.086          48.000    19220034.969 7  80050805.251 7      -111.286          46.000
R22  21455423.609 8 114530455.973 8     -3147.832          50.000    21455427.805 7  89079271.205 7     -2448.317          46.000
R23  19199673.258 7 102705377.095 7      1010.672          47.000    19199677.836 6  79881925.742 6       786.075          38.000
C20  23656617.125 8 123186283.412 8      2538.160          51.000
C27  24201759.820 8 126024869.012 8     -2985.074          51.000
C30  21555262.797 8 112243894.569 8      -557.410          51.000
E04  24026859.352 8 126261996.985 8      1437.832          51.000    24026860.773 8  96746297.423 8      1101.683          51.000
E12  22793971.625 8 119783106.417 8     -1660.188          49.000    22793971.758 8  91781862.704 8     -1272.107          49.000
> 2020 05 18 19 00 30.0000000  0 16        .000000000000
G01  20367522.227 7 107032041.403 7       660.977          42.000    20367524.305 6  83401604.024 6       515.047          41.000
G03  21459644.203 8 112771190.558 8      2191.266          48.000    21459646.281 8  87873695.201 8      1707.480          48.000
G08  22367407.000 8 117541502.566 8     -3171.867          49.000    22367412.609 8  91590783.695 8     -2471.585          48.000
G11  20102690.680 8 105640328.767 8     -1248.961          51.000    20102689.680 8  82317126.477 8      -973.216          48.000
G14  21916337.336 6 115171175.420 6      -227.941          36.000
G22  20670259.664 8 108622974.180 8       528.715          51.000    20670256.570 8  84641262.746 8       411.986          51.000
G32  22482005.945 5 118143747.677 5     -1742.566          31.000    22481984.969 4  92059965.195 4     -1357.850          27.000
R01  20600878.523 7 110123477.109 7      3088.898          47.000    20600883.391 6  85651626.705 6      2402.477          39.000
R08  19220907.219 8 102927071.538 8      -168.109          48.000    19220907.773 7  80054440.851 7      -130.752          46.000
R22  21473155.711 8 114625107.711 8     -3161.953          51.000    21473159.617 8  89152889.105 8     -2459.300          48.000
R23  19194063.664 7 102675367.704 7       990.328          47.000    19194068.133 6  79858585.098 6       770.255          38.000
C20  23642025.242 8 123110294.538 8      2528.059          51.000
C27  24218980.719 8 126114544.021 8     -2992.918          51.000
C30  21558520.742 8 112260858.472 8      -573.266          51.000
E04  24018690.094 8 126219065.665 8      1424.539          51.000    24018690.789 8  96713402.033 8      1091.539          51.000
E12  22803474.594 8 119833045.019 8     -1668.695          49.000    22803474.438 8  91820127.325 8     -1278.623          49.000
> 2020 05 18 19 01  0.0000000  0 16        .000000000000
G01  20363782.133 7 107012387.031 7       649.527          42.000    20363784.141 7  83386288.921 7       506.125          42.000
G03  21447166.289 7 112705617.822 7      2180.219          47.000    21447168.188 8  87822599.577 8      1698.872          48.000
G08  22385541.727 8 117636798.095 8     -3181.137          49.000    22385547.016 8  91665039.902 8     -2478.811          49.000
G11  20109870.336 8 105678057.061 8     -1266.180          51.000    20109869.055 8  82346525.139 8      -986.634          48.000
G14  21917689.266 5 115178276.782 5      -245.113          34.000
G22  20667275.719 8 108607294.178 8       516.602          51.000    20667272.680 8  84629044.567 8       402.547          51.000
G32  22491999.836 5 118196268.636 5     -1758.695          35.000    22491985.297 5  92100890.456 5     -1370.418          33.000
R01  20583589.188 8 110031055.619 8      3072.543          48.000    20583592.766 6  85579743.376 6      2389.759          37.000
R08  19221914.117 8 102932463.979 8      -191.402          49.000    19221914.711 7  80058634.986 7      -148.868          46.000
R22  21490961.164 8 114720153.537 8     -3174.457          50.000    21490965.742 8  89226813.605 8     -2469.025          49.000
R23  19188563.578 8 102645943.373 8       971.355          49.000    19188567.945 6  79835699.511 6       755.502          39.000
C20  23627486.273 8 123034585.387 8      2519.332          50.000
C27  24236242.547 8 126204430.155 8     -2999.492          51.000
C30  21561865.391 8 112278273.350 8      -587.734          51.000
E04  24010591.188 8 126176504.804 8      1412.824          51.000    24010591.344 8  96680790.486 8      1082.548          51.000
E12  22813021.281 8 119883212.641 8     -1675.750          50.000    22813021.133 8  91858567.420 8     -1283.947          50.000
> 2020 05 18 19 01 30.0000000  0 17        .000000000000
G01  20360112.367 6 106993102.288 6       636.770          41.000    20360114.641 6  83371261.814 6       496.184          40.000
G03  21434755.406 7 112640399.119 7      2168.082          45.000    21434757.477 7  87771779.818 7      1689.415          45.000
G08  22403734.195 8 117732397.757 8     -3191.574          48.000    22403739.133 8  91739533.113 8     -2486.941          48.000
G11  20117152.609 8 105716324.865 8     -1284.516          50.000    20117151.117 8  82376344.186 8     -1000.921          49.000
G14  21919148.148 5 115185941.918 5      -265.273          35.000
G22  20664365.531 8 108592001.055 8       503.383          51.000    20664362.258 8  84617127.846 8       392.246          51.000
G32  22502090.703 5 118249297.171 5     -1776.227          35.000    22502077.797 5  92142211.372 5     -1384.051          31.000
R01  20566397.086 8 109939151.734 8      3054.949          48.000    20566399.461 6  85508262.676 6      2376.075          38.000
R08  19223056.016 8 102938579.497 8      -215.805          49.000    19223057.031 7  80063391.529 7      -167.845          46.000
R22  21508840.539 8 114815598.783 8     -3188.078          48.000    21508846.375 8  89301048.749 8     -2479.616          49.000
R23  19183174.273 8 102617113.234 8       951.219          48.000    19183178.508 6  79813276.076 6       739.837          39.000
C20  23613001.531 8 122959163.424 8      2509.359          49.000
C27  24253546.195 8 126294532.604 8     -3006.988          51.000
C30  21565298.062 8 112296145.888 8      -603.348          51.000
E04  24002563.938 8 126134321.652 8      1399.930          51.000    24002563.930 8  96648468.327 8      1072.664          51.000
E12  22822612.766 8 119933615.865 8     -1683.883          49.000    22822612.773 8  91897188.068 8     -1290.314          50.000
E19  25766355.273 5 135403110.555 5     -1672.785          31.000
> 2020 05 18 19 02  0.0000000  0 14        .000000000000
G01  20356507.609 7 106974159.881 7       623.473          42.000    20356510.039 7  83356501.475 7       485.823          42.000
G03  21422406.484 7 112575506.932 7      2155.516          45.000    21422409.180 7  87721214.503 7      1679.623          45.000
G08  22421978.312 7 117828271.006 7     -3202.500          47.000    22421983.500 7  91814239.511 7     -2495.455          47.000
G11  20124531.914 8 105755103.312 8     -1303.273          50.000    20124530.508 8  82406561.133 8     -1015.538          50.000
G22  20661523.344 8 108577066.380 8       489.762          51.000    20661520.242 8  84605490.447 8       381.633          51.000
R01  20549296.492 7 109847739.043 7      3036.598          47.000    20549299.414 6  85437163.971 6      2361.801          40.000
R08  19224327.180 8 102945388.115 8      -240.660          49.000    19224328.727 7  80068687.153 7      -187.180          45.000
R22  21526790.008 8 114911413.388 8     -3202.020          50.000    21526795.734 8  89375571.218 8     -2490.460          50.000
R23  19177890.938 8 102588851.229 8       930.496          49.000    19177895.117 6  79791294.512 6       723.719          39.000
C20  23598566.344 8 122884001.801 8      2498.891          48.000
C27  24270885.367 8 126384822.293 8     -3014.797          49.000
C30  21568813.391 8 112314448.446 8      -619.391          51.000
E04  23994603.109 8 126092488.734 8      1386.520          51.000    23994603.188 8  96616414.517 8      1062.404          51.000
E12  22832243.359 8 119984226.616 8     -1692.559          48.000    22832243.859 8  91935967.720 8     -1296.890          50.000
> 2020 05 18 19 02 30.0000000  0 16        .000000000000
G01  20352975.414 7 106955597.972 7       614.066          42.000    20352977.734 7  83342037.648 7       478.493          42.000
G03  21410127.414 7 112510979.217 7      2146.316          47.000    21410130.453 7  87670933.197 7      1672.457          47.000
G08  22440281.133 8 117924453.081 8     -3209.684          48.000    22440286.336 8  91889186.550 8     -2501.052          48.000
G11  20132015.352 8 105794429.421 8     -1318.551          51.000    20132013.961 8  82437204.830 8     -1027.442          50.000
G14  21922388.438 5 115202928.005 5      -300.145          33.000
G22  20658756.344 8 108562526.675 8       479.578          51.000    20658753.406 8  84594160.818 8       373.697          51.000
R01  20532293.828 7 109756857.759 7      3022.027          45.000    20532298.969 6  85366478.518 6      2350.463          40.000
R07  21607079.375 4 115664386.863 4     -3544.078          28.000
R08  19225734.875 8 102952927.026 8      -261.871          49.000    19225736.250 7  80074550.752 7      -203.674          45.000
R22  21544815.852 8 115007633.777 8     -3212.531          50.000    21544820.945 8  89450409.298 8     -2498.635          49.000
R23  19172721.297 8 102561197.584 8       913.168          49.000    19172725.734 6  79769786.126 6       710.242          40.000
C20  23584189.070 8 122809138.410 8      2491.922          50.000
C27  24288267.609 8 126475334.827 8     -3019.242          49.000
C30  21572418.375 8 112333218.159 8      -631.930          51.000
E04  23986716.031 8 126051044.014 8      1376.527          51.000    23986716.648 8  96584658.171 8      1054.742          51.000
E12  22841920.492 8 120035082.191 8     -1697.688          48.000    22841921.406 8  91974934.967 8     -1300.873          50.000
> 2020 05 18 19 03  0.0000000  0 17        .000000000000
G01  20349495.852 7 106937312.224 7       613.453          44.000    20349498.078 7  83327789.039 7       478.015          44.000
G03  21397897.961 8 112446711.475 8      2146.359          48.000    21397900.867 8  87620854.447 8      1672.488          48.000
G08  22458622.430 8 118020836.156 8     -3207.609          49.000    22458627.195 8  91964290.209 8     -2499.436          49.000
G11  20139582.969 8 105834197.549 8     -1324.461          50.000    20139581.438 8  82468192.962 8     -1032.051          50.000
G22  20656044.719 8 108548276.825 8       478.695          51.000    20656041.609 8  84583057.027 8       373.006          51.000
G32  22532908.820 5 118411254.151 5     -1812.273          34.000
R01  20515371.477 7 109666403.111 7      3016.680          47.000    20515378.102 6  85296124.887 6      2346.306          41.000
R07  21626993.820 5 115770958.983 5     -3542.008          31.000    21627004.297 4  90044115.452 4     -2754.895          26.000
R08  19227258.578 8 102961087.046 8      -273.637          49.000    19227260.242 7  80080897.465 7      -212.829          46.000
R22  21562897.117 8 115104151.365 8     -3213.508          49.000    21562901.648 7  89525478.503 7     -2499.398          47.000
R23  19167645.797 8 102534047.734 8       905.195          50.000    19167650.602 6  79748669.556 6       704.041          41.000
C20  23569850.133 8 122734469.992 8      2494.113          51.000
C27  24305672.453 8 126565964.859 8     -3014.410          48.000
C30  21576092.859 8 112352351.070 8      -635.383          51.000
E04  23978882.984 8 126009882.981 8      1375.719          51.000    23978884.344 8  96553119.204 8      1054.143          51.000
E12  22851624.273 8 120086077.443 8     -1693.637          48.000    22851625.406 8  92014009.247 8     -1297.814          50.000
E19  25795251.195 5 135554973.867 5     -1691.242          31.000
> 2020 05 18 19 03 30.0000000  0 17        .000000000000
G01  20346086.703 7 106919396.862 7       596.211          45.000    20346089.031 7  83313829.042 7       464.580          45.000
G03  21385735.711 8 112382797.643 8      2129.754          48.000    21385737.820 8  87571051.463 8      1659.548          48.000
G08  22477019.570 8 118117511.484 8     -3222.195          50.000    22477023.297 8  92039621.585 8     -2510.802          50.000
G11  20147252.414 8 105874500.689 8     -1347.199          50.000    20147250.883 8  82499598.008 8     -1049.766          50.000
G22  20653405.883 8 108534409.436 8       461.051          51.000    20653402.875 8  84572251.279 8       359.260          51.000
G32  22543363.391 6 118466176.978 6     -1833.941          37.000    22543361.719 5  92311289.027 5     -1429.067          34.000
R01  20498548.555 8 109576472.175 8      2994.246          50.000    20498554.781 6  85226178.619 6      2328.858          41.000
R07  21646928.312 4 115877691.470 4     -3557.281          27.000
R08  19228916.023 8 102969961.984 8      -302.434          49.000    19228917.219 7  80087800.215 7      -235.226          45.000
R22  21581051.594 8 115201059.450 8     -3231.484          48.000    21581055.758 7  89600851.423 7     -2513.380          45.000
R23  19162682.766 8 102507498.846 8       880.227          50.000    19162687.930 6  79728020.418 6       684.621          41.000
C20  23555566.773 8 122660089.964 8      2479.629          51.000
C27  24323117.156 8 126656803.582 8     -3026.266          48.000
C30  21579854.672 8 112371939.771 8      -655.391          51.000
E04  23971122.023 8 125969099.585 8      1358.371          51.000    23971123.852 8  96521869.610 8      1040.821          51.000
E11  22562040.742 6 118564323.623 6       796.273          41.000    22562036.820 6  90847973.732 6       610.344          37.000
E12  22861372.273 8 120137305.717 8     -1706.445          48.000    22861373.422 8  92053262.049 8     -1307.461          49.000
> 2020 05 18 19 04  0.0000000  0 16        .000000000000
G01  20342789.555 7 106902069.257 7       568.852          45.000    20342791.719 7  83300327.007 7       443.261          45.000
G03  21373682.117 8 112319454.759 8      2103.047          48.000    21373683.859 8  87521693.391 8      1638.738          48.000
G08  22495513.211 8 118214693.291 8     -3246.648          50.000    22495515.508 8  92115347.615 8     -2529.859          50.000
G11  20155064.570 8 105915554.663 8     -1379.836          49.000    20155063.258 8  82531588.118 8     -1075.197          49.000
G22  20650880.875 8 108521140.248 8       433.527          51.000    20650878.016 8  84561911.660 8       337.814          51.000
G32  22553952.906 6 118521812.713 6     -1865.480          37.000    22553945.578 6  92354641.570 6     -1453.624          36.000
R01  20481865.734 8 109487287.479 8      2961.543          50.000    20481870.664 6  85156812.779 6      2303.422          41.000
R08  19230748.172 8 102979771.526 8      -341.301          48.000    19230748.922 7  80095429.865 7      -265.453          47.000
R22  21599319.953 8 115298576.325 8     -3259.434          48.000    21599324.125 7  89676697.809 7     -2535.118          47.000
R23  19157873.492 8 102481773.727 8       845.004          50.000    19157878.711 6  79708011.992 6       657.225          41.000
C20  23541380.305 8 122586213.884 8      2455.328          51.000
C27  24340642.570 8 126748064.179 8     -3047.855          49.000
C30  21583745.188 8 112392198.974 8      -685.262          51.000
E04  23963474.539 8 125928910.991 8      1330.984          51.000    23963476.172 8  96491075.774 8      1019.866          51.000
E11  22557588.688 6 118540931.964 6       773.168          40.000    22557586.758 6  90830050.267 6       592.344          37.000
E12  22871206.258 8 120188983.477 8     -1728.832          49.000    22871206.891 8  92092859.278 8     -1324.710          48.000
> 2020 05 18 19 04 30.0000000  0 17        .000000000000
G01  20339534.352 7 106884962.764 7       565.629          46.000    20339536.492 7  83286997.266 7       440.753          47.000
G03  21361667.234 7 112256315.995 7      2100.258          47.000    21361669.664 7  87472494.373 7      1636.565          47.000
G08  22514032.867 8 118312011.911 8     -3246.953          50.000    22514034.453 8  92191180.246 8     -2530.096          50.000
G11  20162949.562 8 105956991.472 8     -1388.508          50.000    20162948.672 8  82563876.535 8     -1081.957          50.000
G22  20648399.797 8 108508101.935 8       429.949          51.000    20648396.820 8  84551751.940 8       335.025          51.000
G32  22564606.891 5 118577791.506 5     -1872.207          33.000    22564597.695 5  92398261.283 5     -1458.869          33.000
R01  20465252.734 8 109398477.448 8      2953.242          49.000    20465256.648 6  85087738.378 6      2296.966          41.000
R08  19232684.406 8 102990139.413 8      -355.707          48.000    19232685.414 7  80103493.775 7      -276.661          47.000
R22  21617631.328 7 115396327.314 7     -3263.078          46.000    21617636.547 8  89752726.289 8     -2537.953          48.000
R23  19153148.844 8 102456500.289 8       833.996          50.000    19153153.945 6  79688354.856 6       648.661          41.000
C20  23527220.211 8 122512478.545 8      2454.621          50.000
C27  24358178.625 8 126839381.285 8     -3045.609          48.000
C30  21587694.398 8 112412764.706 8      -691.473          51.000
E04  23955870.547 8 125888950.361 8      1327.383          51.000    23955871.633 8  96460456.604 8      1017.056          51.000
E11  22553154.461 6 118517635.003 6       774.207          39.000    22553154.016 6  90812199.334 6       593.493          38.000
E12  22881056.070 8 120240743.280 8     -1727.531          49.000    22881055.758 8  92132519.357 8     -1323.642          48.000
E19  25824712.555 5 135709779.227 5     -1733.484          33.000
> 2020 05 18 19 05  0.0000000  0 15        .000000000000
G01  20336342.562 7 106868189.548 7       552.488          46.000    20336344.602 7  83273927.212 7       430.510          46.000
G03  21349712.570 7 112193493.239 7      2087.777          47.000    21349715.539 7  87423541.558 7      1626.839          47.000
G08  22532598.922 8 118409575.796 8     -3257.227          49.000    22532600.344 8  92267204.015 8     -2538.099          49.000
G11  20170928.781 8 105998922.073 8     -1406.879          51.000    20170927.961 8  82596549.722 8     -1096.269          49.000
G22  20645983.570 8 108495404.527 8       416.496          51.000    20645980.422 8  84541857.864 8       324.542          51.000
R01  20448730.562 7 109310157.287 7      2934.789          47.000    20448734.500 7  85019044.974 7      2282.614          42.000
R08  19234745.961 7 103001177.413 7      -380.000          46.000    19234746.727 7  80112078.880 7      -295.556          47.000
R22  21636007.375 7 115494423.705 7     -3276.559          45.000    21636013.617 8  89829023.462 8     -2548.434          49.000
R23  19148530.344 8 102431794.509 8       812.957          50.000    19148535.219 6  79669139.259 6       632.300          41.000
C20  23513107.656 8 122438995.213 8      2444.102          48.000
C27  24375746.133 7 126930863.860 7     -3053.254          46.000
C30  21591723.375 8 112433747.352 8      -707.398          51.000
E04  23948331.047 8 125849329.562 8      1314.000          51.000    23948331.898 8  96430097.823 8      1006.837          51.000
E11  22548759.812 6 118494545.086 6       764.820          39.000    22548759.734 6  90794507.063 6       585.953          38.000
E12  22890942.656 8 120292696.423 8     -1736.070          50.000    22890941.695 7  92172327.563 7     -1330.176          47.000
> 2020 05 18 19 05 30.0000000  0 16        .000000000000
G01  20333226.047 7 106851811.640 7       541.137          47.000    20333227.953 7  83261165.213 7       421.665          47.000
G03  21337830.086 8 112131048.210 8      2077.090          48.000    21337832.539 8  87374883.105 8      1618.512          48.000
G08  22551222.734 8 118507444.448 8     -3265.496          49.000    22551224.172 8  92343465.277 8     -2544.542          49.000
G11  20179013.477 8 106041407.082 8     -1423.652          51.000    20179012.742 8  82629654.901 8     -1109.343          49.000
G14  21934596.250 5 115267084.793 5      -410.031          35.000    21934587.586 5  89818470.405 5      -319.505          32.000
G22  20643644.109 8 108483109.656 8       404.871          51.000    20643640.625 8  84532277.449 8       315.484          51.000
R01  20432311.258 7 109222391.501 7      2918.152          47.000    20432316.531 7  84950782.710 7      2269.674          42.000
R08  19236943.906 8 103012946.337 8      -402.637          48.000    19236944.609 8  80121232.478 8      -313.162          48.000
R22  21654458.766 7 115592926.124 7     -3288.305          44.000    21654466.211 7  89905636.415 7     -2557.570          47.000
R23  19144029.945 8 102407720.804 8       793.707          50.000    19144034.945 7  79650415.254 7       617.328          42.000
C20  23499054.609 7 122365825.429 7      2435.535          47.000
C27  24393356.242 7 127022571.214 7     -3058.883          44.000
C30  21595844.031 8 112455207.686 8      -721.539          51.000
E04  23940867.820 8 125810110.391 8      1302.449          51.000    23940868.945 8  96400046.800 8       997.990          51.000
E11  22544416.945 6 118471724.317 6       758.270          39.000    22544416.180 6  90777021.007 6       580.949          38.000
E12  22900877.711 8 120344904.069 8     -1742.680          50.000    22900876.172 8  92212330.796 8     -1335.300          48.000
> 2020 05 18 19 06  0.0000000  0 17        .000000000000
G01  20330173.773 7 106835770.960 7       528.219          47.000    20330175.648 8  83248665.986 8       411.599          48.000
G03  21326008.023 7 112068922.567 7      2064.629          46.000    21326010.211 7  87326473.558 7      1608.805          46.000
G08  22569892.555 8 118605556.019 8     -3275.293          48.000    22569894.359 8  92419915.820 8     -2552.176          48.000
G11  20187192.172 8 106084386.826 8     -1441.883          51.000    20187191.797 8  82663145.574 8     -1123.545          49.000
G14  21936998.922 4 115279690.986 4      -430.094          29.000    21936991.945 4  89828293.305 4      -335.138          29.000
G22  20641369.906 8 108471157.299 8       391.742          51.000    20641366.055 8  84522963.920 8       305.254          51.000
G32  22597074.570 5 118748427.409 5     -1920.836          30.000
R01  20415985.156 8 109135122.191 8      2899.734          48.000    20415991.102 7  84882906.549 7      2255.346          43.000
R08  19239266.719 7 103025384.807 7      -426.617          47.000    19239267.539 8  80130906.857 8      -331.813          48.000
R22  21672975.672 7 115691772.842 7     -3301.555          45.000    21672982.930 7  89982517.269 7     -2567.873          45.000
R23  19139636.961 8 102384221.404 8       772.754          51.000    19139642.008 7  79632137.947 7       601.034          42.000
C20  23485052.594 8 122292911.665 8      2425.246          49.000
C27  24410996.703 6 127114443.649 6     -3066.246          41.000
C30  21600045.344 8 112477087.425 8      -737.164          49.000
E04  23933470.031 8 125771234.542 8      1289.219          51.000    23933471.391 8  96370258.829 8       987.852          51.000
E11  22540114.234 6 118449114.932 6       749.059          40.000    22540113.289 6  90759696.916 6       574.053          39.000
E12  22910849.914 8 120397307.283 8     -1750.895          49.000    22910848.586 8  92252483.883 8     -1341.598          49.000
> 2020 05 18 19 06 30.0000000  0 16        .000000000000
G01  20327206.984 7 106820180.491 7       516.523          47.000    20327209.172 7  83236517.565 7       402.483          47.000
G03  21314267.734 7 112007228.933 7      2053.090          45.000    21314270.141 7  87278400.614 7      1599.807          45.000
G08  22588629.250 7 118704020.853 7     -3283.613          47.000    22588631.719 7  92496641.623 7     -2558.663          47.000
G11  20195486.266 8 106127972.657 8     -1458.793          51.000    20195486.180 8  82697108.509 8     -1136.722          49.000
G22  20639181.977 8 108459659.153 8       379.949          51.000    20639178.219 8  84514004.327 8       296.064          51.000
G32  22608129.289 5 118806526.914 5     -1936.992          34.000
R01  20399774.523 8 109048465.304 8      2882.711          50.000    20399780.039 7  84815506.748 7      2242.112          42.000
R08  19241735.648 7 103038604.950 7      -449.402          46.000    19241736.242 8  80141189.176 8      -349.535          48.000
R22  21691579.586 8 115791076.391 8     -3313.168          48.000    21691584.430 7  90059753.350 7     -2576.908          43.000
R23  19135373.008 8 102361412.543 8       753.145          51.000    19135377.945 7  79614397.716 7       585.779          42.000
C20  23471122.211 8 122220365.890 8      2416.312          50.000
C27  24428691.414 7 127206590.955 7     -3071.676          44.000
C30  21604348.133 8 112499497.683 8      -751.570          48.000
E04  23926158.797 8 125732814.613 8      1277.410          51.000    23926160.250 8  96340820.198 8       978.825          51.000
E11  22535873.375 6 118426829.897 6       741.504          41.000    22535872.789 6  90742621.373 6       568.384          40.000
E12  22920880.586 8 120450018.116 8     -1757.809          49.000    22920880.070 8  92292872.683 8     -1346.895          50.000
> 2020 05 18 19 07  0.0000000  0 17        .000000000000
G01  20324290.008 8 106804851.776 8       504.332          49.000    20324292.414 8  83224573.107 8       392.986          49.000
G03  21302573.594 7 111945778.814 7      2041.930          46.000    21302576.062 7  87230517.374 7      1591.114          46.000
G08  22607396.781 8 118802646.845 8     -3292.402          48.000    22607399.602 8  92573493.012 8     -2565.508          48.000
G11  20203859.680 8 106171975.035 8     -1475.883          50.000    20203859.461 8  82731396.040 8     -1150.039          48.000
G14  21942117.609 5 115306598.857 5      -465.875          33.000    21942114.531 5  89849296.861 5      -363.023          31.000
G22  20637044.344 8 108448425.832 8       367.871          51.000    20637040.922 8  84505251.098 8       286.653          51.000
G32  22619225.695 5 118864851.827 5     -1952.301          33.000
R01  20383643.062 8 108962230.704 8      2865.141          49.000    20383647.383 6  84748435.415 6      2228.443          41.000
R08  19244313.305 7 103052413.119 7      -472.281          46.000    19244315.055 8  80151928.882 8      -367.333          48.000
R22  21710233.250 8 115890642.836 8     -3325.387          51.000    21710234.578 7  90137193.830 7     -2586.418          42.000
R23  19131202.688 8 102339104.068 8       733.035          51.000    19131207.562 7  79597046.676 7       570.138          43.000
C20  23457226.180 8 122148001.579 8      2406.953          51.000
C27  24446405.055 7 127298824.448 7     -3078.195          46.000
C30  21608716.844 7 112522251.067 7      -766.301          47.000
E04  23918897.977 8 125694661.970 8      1265.055          51.000    23918899.711 8  96311586.388 8       969.340          51.000
E11  22531658.633 6 118404681.098 6       733.883          41.000    22531658.555 6  90725650.212 6       562.287          41.000
E12  22930933.641 8 120502847.331 8     -1765.055          49.000    22930933.719 8  92333352.216 8     -1352.507          49.000
> 2020 05 18 19 07 30.0000000  0 16        .000000000000
G01  20321452.680 8 106789941.187 8       489.375          49.000    20321455.086 8  83212954.473 8       381.331          49.000
G03  21290955.914 7 111884728.126 7      2027.605          46.000    21290957.648 7  87182945.428 7      1579.955          46.000
G08  22626224.375 8 118901587.614 8     -3304.004          48.000    22626227.398 8  92650589.664 8     -2574.552          48.000
G11  20212341.914 8 106216549.210 8     -1496.043          50.000    20212341.492 8  82766129.144 8     -1165.748          48.000
G14  21944833.695 5 115320874.848 5      -487.586          33.000    21944832.250 4  89860419.106 4      -379.937          29.000
G22  20634986.617 8 108437612.062 8       352.758          51.000    20634983.273 8  84496824.792 8       274.876          51.000
R01  20367619.953 7 108876578.455 7      2844.680          46.000    20367623.656 6  84681817.061 6      2212.532          40.000
R08  19247030.781 7 103066965.519 7      -498.172          45.000    19247032.484 8  80163247.385 8      -387.467          48.000
R22  21728965.352 8 115990628.325 8     -3340.574          51.000    21728964.789 7  90214960.167 7     -2598.227          43.000
R23  19127156.109 8 102317456.326 8       709.855          51.000    19127160.578 7  79580209.544 7       552.110          42.000
C20  23443394.469 8 122075973.728 8      2394.527          51.000
C27  24464164.750 8 127391296.792 8     -3087.145          48.000
C30  21613181.125 7 112545501.725 7      -784.023          47.000
E04  23911717.844 8 125656932.691 8      1249.801          51.000    23911719.820 8  96282676.958 8       957.631          51.000
E11  22527499.969 7 118382825.061 7       722.836          42.000    22527499.766 6  90708903.369 6       553.760          41.000
E12  22941038.930 8 120555950.430 8     -1775.391          49.000    22941039.227 8  92374041.601 8     -1360.421          50.000
> 2020 05 18 19 08  0.0000000  0 16        .000000000000
G01  20318685.953 8 106775401.354 8       478.938          49.000    20318688.297 8  83201624.731 8       373.198          50.000
G03  21279405.234 7 111824029.185 7      2017.969          46.000    21279406.125 7  87135647.586 7      1572.443          45.000
G08  22645102.398 8 119000792.384 8     -3310.844          48.000    22645105.266 8  92727892.005 8     -2579.881          48.000
G11  20220923.680 8 106261646.072 8     -1511.539          50.000    20220923.031 8  82801269.563 8     -1177.823          49.000
G22  20632999.453 8 108427169.480 8       342.359          51.000    20632996.047 8  84488687.720 8       266.774          51.000
R01  20351696.219 7 108791461.521 7      2828.797          46.000    20351700.367 6  84615615.035 6      2200.175          40.000
R08  19249877.180 7 103082211.527 7      -519.309          47.000    19249879.516 8  80175105.391 8      -403.907          48.000
R22  21747765.805 8 116090982.352 8     -3350.836          51.000    21747765.461 7  90293013.238 7     -2606.206          44.000
R23  19123224.195 8 102296422.193 8       691.375          51.000    19123228.297 7  79563849.660 7       537.736          43.000
C20  23429617.938 8 122004235.402 8      2386.867          51.000
C27  24481960.883 8 127483958.867 8     -3091.336          50.000
C30  21617732.578 8 112569201.901 8      -797.086          50.000
E04  23904609.445 8 125619579.081 8      1239.258          51.000    23904611.711 8  96254055.367 8       949.561          51.000
E11  22523388.125 7 118361214.534 7       716.867          43.000    22523387.312 6  90692344.659 6       549.084          41.000
E12  22951187.344 8 120609279.092 8     -1780.953          50.000    22951187.594 8  92414903.813 8     -1364.710          50.000
E19  25895448.383 5 136081500.196 5     -1804.902          34.000
> 2020 05 18 19 08 30.0000000  0 17        .000000000000
G01  20315984.781 8 106761205.832 8       474.242          50.000    20315986.914 8  83190563.303 8       369.539          50.000
G03  21267916.523 7 111763655.340 7      2013.918          47.000    21267917.195 7  87088603.057 7      1569.287          47.000
G08  22664024.953 7 119100231.393 7     -3311.676          47.000    22664027.711 7  92805376.875 7     -2580.527          46.000
G11  20229599.695 8 106307238.011 8     -1521.148          51.000    20229599.156 8  82836795.727 8     -1185.310          50.000
G14  21950578.141 5 115351044.856 5      -513.684          35.000
G22  20631077.391 8 108417069.995 8       337.699          51.000    20631074.125 8  84480817.991 8       263.142          51.000
R01  20335868.594 7 108706854.285 7      2818.590          47.000    20335873.156 7  84549809.432 7      2192.240          42.000
R07  21849428.891 5 116961709.497 5     -3649.676          34.000    21849410.188 4  90970152.938 4     -2838.640          27.000
R08  19252848.156 7 103098121.518 7      -534.461          47.000    19252850.703 8  80187479.820 8      -415.692          48.000
R22  21766628.953 8 116191675.458 8     -3355.242          49.000    21766630.273 7  90371330.103 7     -2609.633          47.000
R23  19119402.266 8 102275976.357 8       678.609          51.000    19119406.328 7  79547947.349 7       527.807          43.000
C20  23415891.414 8 121932760.564 8      2384.766          50.000
C27  24499788.031 8 127576782.383 8     -3090.062          50.000
C30  21622365.414 8 112593324.702 8      -804.473          50.000
E04  23897567.484 8 125582574.460 8      1234.438          51.000    23897570.125 8  96225701.191 8       945.847          51.000
E11  22519317.875 7 118339823.378 7       715.852          43.000    22519316.398 6  90675954.031 6       548.459          41.000
E12  22961373.375 8 120662806.118 8     -1780.785          50.000    22961373.609 8  92455917.998 8     -1364.480          50.000
> 2020 05 18 19 09  0.0000000  0 17        .000000000000
G01  20313345.414 8 106747336.305 8       452.828          49.000    20313347.023 8  83179755.886 8       352.853          50.000
G03  21256486.320 7 111703587.880 7      1992.879          47.000    21256487.305 7  87041797.268 7      1552.896          47.000
G08  22682987.945 7 119199883.298 7     -3329.473          46.000    22682991.016 7  92883027.662 7     -2594.397          46.000
G11  20238365.961 8 106353304.188 8     -1547.434          51.000    20238365.492 8  82872691.428 8     -1205.792          50.000
G14  21953596.922 6 115366897.284 6      -541.590          36.000
G22  20629217.039 8 108407293.535 8       316.512          51.000    20629213.828 8  84473199.972 8       246.633          51.000
R01  20320133.680 8 108622739.229 8      2791.453          49.000    20320138.438 7  84484386.640 7      2171.130          42.000
R07  21869939.352 5 117071512.563 5     -3667.527          31.000    21869922.500 4  91055555.380 4     -2852.518          26.000
R08  19255939.227 8 103114674.726 8      -566.539          48.000    19255941.875 7  80200354.523 7      -440.645          47.000
R22  21785549.547 7 116292686.516 7     -3376.293          45.000    21785554.766 7  90449894.275 7     -2626.006          47.000
R23  19115686.836 8 102256101.324 8       648.895          51.000    19115691.016 7  79532488.990 7       504.696          43.000
C20  23402211.641 8 121861531.024 8      2366.172          50.000
C27  24517641.992 8 127669746.962 8     -3105.137          51.000
C30  21627075.680 8 112617851.081 8      -828.316          51.000
E04  23890588.570 8 125545900.106 8      1212.859          51.000    23890591.266 8  96197600.082 8       929.322          51.000
E11  22515285.695 7 118318633.297 7       699.031          44.000    22515283.609 6  90659717.491 6       535.582          41.000
E12  22971593.312 8 120716512.209 8     -1797.277          50.000    22971593.703 8  92497069.393 8     -1377.090          49.000
> 2020 05 18 19 09 30.0000000  0 15        .000000000000
G01  20310810.766 8 106734017.259 8       437.176          49.000    20310811.906 8  83169377.424 8       340.656          49.000
G03  21245156.586 7 111644050.984 7      1977.875          44.000    21245158.328 7  86995404.905 7      1541.201          44.000
G08  22702033.656 7 119299969.407 7     -3340.977          47.000    22702037.336 7  92961016.778 7     -2603.358          47.000
G11  20247264.930 8 106400068.112 8     -1568.289          51.000    20247264.094 8  82909130.863 8     -1222.043          49.000
G22  20627460.734 8 108398063.586 8       300.957          51.000    20627457.594 8  84466007.812 8       234.515          51.000
R01  20304533.609 8 108539345.926 8      2770.113          49.000    20304538.734 7  84419525.201 7      2154.533          42.000
R08  19259192.859 8 103132096.671 8      -592.766          49.000    19259195.633 7  80213904.933 7      -461.040          47.000
R22  21804572.633 7 116394240.995 7     -3391.809          46.000    21804580.555 7  90528881.068 7     -2638.076          47.000
R23  19112120.977 8 102237026.827 8       624.902          51.000    19112125.273 7  79517653.270 7       486.038          42.000
C20  23388622.391 8 121790769.339 8      2353.297          51.000
C27  24535565.227 8 127763072.946 8     -3114.672          51.000
C30  21631906.289 8 112643002.667 8      -846.441          51.000
E04  23883715.594 8 125509780.259 8      1197.137          51.000    23883717.570 8  96169923.836 8       917.266          51.000
E11  22511334.406 7 118297869.079 7       687.281          44.000    22511332.023 7  90643807.240 7       526.669          42.000
E12  22981889.797 8 120770620.992 8     -1808.020          49.000    22981890.188 8  92538529.348 8     -1385.285          49.000
> 2020 05 18 19 10  0.0000000  0 18        .000000000000
G01  20308317.070 8 106720913.443 8       433.895          50.000    20308318.328 8  83159166.679 8       338.103          50.000
G03  21233863.578 7 111584709.145 7      1975.406          43.000    21233866.375 7  86949164.514 7      1539.278          43.000
G08  22721097.859 8 119400151.091 8     -3340.145          48.000    22721101.664 8  93039080.373 8     -2602.713          48.000
G11  20256232.352 8 106447193.092 8     -1576.117          50.000    20256231.734 8  82945851.633 8     -1228.143          50.000
G14  21959981.617 4 115400481.523 4      -570.895          28.000
G22  20625744.352 8 108389043.710 8       297.914          51.000    20625741.266 8  84458979.351 8       232.141          51.000
R01  20289004.531 8 108456334.255 8      2761.457          48.000    20289010.000 7  84354960.568 7      2147.800          43.000
R07  21911139.258 5 117292043.060 5     -3678.219          31.000
R08  19262544.711 8 103150043.336 8      -606.203          49.000    19262547.266 7  80227863.442 7      -471.491          47.000
R22  21823634.812 7 116495995.645 7     -3394.328          47.000    21823642.906 7  90608023.526 7     -2640.033          46.000
R23  19108641.273 8 102218412.924 8       613.492          51.000    19108645.391 7  79503175.792 7       477.161          43.000
C20  23375059.930 8 121720143.287 8      2352.648          51.000
C27  24553493.227 8 127856426.008 8     -3111.488          51.000
C30  21636793.211 8 112668446.465 8      -852.246          51.000
E04  23876884.453 8 125473879.330 8      1193.871          51.000    23876885.273 8  96142415.321 8       914.775          51.000
E11  22507400.250 7 118277195.649 7       688.418          44.000    22507398.000 7  90627966.581 7       527.301          42.000
E12  22992199.016 8 120824796.353 8     -1806.230          49.000    22992199.258 8  92580040.323 8     -1383.980          49.000
E19  25937111.789 5 136300441.783 5     -1838.957          32.000
> 2020 05 18 19 10 30.0000000  0 16        .000000000000
G01  20305884.969 8 106708132.971 8       414.727          50.000    20305886.531 8  83149207.873 8       323.164          50.000
G03  21222628.562 7 111525670.071 7      1957.078          42.000    21222632.297 7  86903160.070 7      1524.999          42.000
G08  22740200.234 8 119500533.743 8     -3355.211          48.000    22740203.914 8  93117300.568 8     -2614.450          48.000
G11  20265288.570 8 106494785.680 8     -1600.172          50.000    20265288.258 8  82982936.768 8     -1246.887          50.000
G22  20624088.195 8 108380340.656 8       278.973          51.000    20624085.156 8  84452197.762 8       217.381          51.000
G32  22699461.852 5 119286484.373 5     -2064.484          33.000    22699465.070 5  92950499.616 5     -1608.680          32.000
R01  20273567.344 7 108373815.504 7      2736.414          47.000    20273573.367 7  84290779.311 7      2128.322          42.000
R08  19266014.461 8 103168622.353 8      -635.742          49.000    19266016.852 7  80242313.803 7      -494.466          46.000
R22  21842754.344 7 116598057.809 7     -3412.988          46.000    21842762.031 7  90687405.145 7     -2654.549          45.000
R23  19105268.539 8 102200370.946 8       585.859          51.000    19105272.609 7  79489143.139 7       455.668          43.000
C20  23361544.359 8 121649760.034 8      2336.199          51.000
C27  24571445.992 8 127949911.116 8     -3124.121          50.000
C30  21641756.469 8 112694288.776 8      -873.824          51.000
E04  23870115.141 8 125438305.069 8      1174.539          51.000    23870115.320 8  96115157.145 8       899.998          51.000
E11  22503503.992 7 118256721.371 7       673.371          44.000    22503501.938 7  90612278.483 7       516.026          43.000
E12  23002541.258 8 120879145.531 8     -1820.410          48.000    23002541.234 8  92621684.483 8     -1394.824          49.000
> 2020 05 18 19 11  0.0000000  0 17        .000000000000
G01  20303579.461 8 106696017.923 8       396.430          50.000    20303581.242 8  83139767.556 8       308.906          50.000
G03  21211516.430 7 111467275.524 7      1939.250          43.000    21211520.812 7  86857657.906 7      1511.107          43.000
G08  22759405.047 7 119601455.811 7     -3369.312          47.000    22759408.805 7  93195941.111 7     -2625.441          47.000
G11  20274498.750 8 106543186.396 8     -1623.090          50.000    20274498.523 8  83020651.626 8     -1264.745          50.000
G14  21966779.430 5 115436200.486 5      -620.531          31.000
G22  20622556.992 8 108372294.740 8       260.992          51.000    20622554.078 8  84445928.237 8       203.371          51.000
R01  20258287.594 7 108292138.736 7      2712.207          47.000    20258293.242 6  84227252.910 6      2109.494          39.000
R08  19269666.844 8 103188179.422 8      -664.352          49.000    19269669.281 7  80257524.887 7      -516.718          46.000
R22  21861995.805 7 116700772.395 7     -3430.969          46.000    21862003.875 7  90767294.262 7     -2668.528          47.000
R23  19102068.000 8 102183250.309 8       559.113          51.000    19102072.250 7  79475827.086 7       434.866          43.000
C20  23348140.266 8 121579958.634 8      2320.676          51.000
C27  24589488.133 8 128043865.055 8     -3135.871          50.000
C30  21646861.070 8 112720867.701 8      -894.484          51.000
E04  23863472.977 8 125403399.246 8      1156.156          51.000    23863472.828 8  96088411.162 8       885.919          50.000
E11  22499710.781 7 118236788.413 7       659.258          44.000    22499709.031 7  90597005.191 7       505.032          43.000
E12  23012981.414 8 120934009.721 8     -1833.617          48.000    23012981.234 8  92663723.264 8     -1404.952          49.000
E19  25958292.859 5 136411749.987 5     -1870.578          31.000
> 2020 05 18 19 11 30.0000000  0 17        .000000000000
G01  20301282.047 8 106683945.346 8       397.516          50.000    20301284.000 8  83130360.337 8       309.752          50.000
G03  21200408.516 7 111408902.395 7      1940.816          43.000    21200413.117 7  86812172.379 7      1512.324          43.000
G08  22778593.492 8 119702291.336 8     -3364.059          48.000    22778597.391 8  93274514.219 8     -2621.344          49.000
G11  20283744.273 8 106591771.085 8     -1626.898          51.000    20283743.859 8  83058509.821 8     -1267.716          50.000
G22  20621032.148 8 108364282.073 8       262.156          51.000    20621029.344 8  84439684.609 8       204.278          51.000
G32  22723192.453 5 119411191.338 5     -2086.801          30.000    22723199.930 4  93047701.454 4     -1626.079          26.000
R01  20243047.547 8 108210671.195 8      2707.680          49.000    20243051.305 6  84163889.339 6      2105.976          39.000
R07  21973265.766 5 117624595.242 5     -3702.113          32.000
R08  19273382.680 8 103208077.191 8      -673.391          50.000    19273384.617 7  80273000.942 7      -523.748          45.000
R22  21881241.430 7 116803504.234 7     -3429.172          47.000    21881248.844 7  90847196.823 7     -2667.134          46.000
R23  19098921.203 8 102166418.251 8       551.828          51.000    19098925.805 7  79462735.491 7       429.200          43.000
C20  23334728.914 8 121510121.823 8      2324.219          51.000
C27  24607501.461 8 128137668.416 8     -3128.629          50.000
C30  21651988.602 8 112747565.150 8      -896.266          51.000
E04  23856839.547 8 125368538.644 8      1156.801          51.000    23856839.273 8  96061699.825 8       886.371          50.000
E11  22495901.977 7 118216774.133 7       664.168          45.000    22495900.633 7  90581669.574 7       508.893          44.000
E12  23023400.891 8 120988765.114 8     -1827.762          48.000    23023400.594 8  92705678.699 8     -1400.559          49.000
> 2020 05 18 19 12  0.0000000  0 16        .000000000000
G01  20299091.125 8 106672431.797 8       375.289          50.000    20299092.898 8  83121388.739 8       292.433          50.000
G03  21189402.625 7 111351066.778 7      1919.805          43.000    21189407.227 7  86767105.653 7      1495.952          43.000
G08  22797863.250 8 119803553.473 8     -3381.598          48.000    22797867.375 8  93353419.750 8     -2635.011          48.000
G11  20293122.641 8 106641054.109 8     -1653.480          51.000    20293121.680 8  83096912.147 8     -1288.426          48.000
G22  20619611.680 8 108356817.488 8       240.543          51.000    20619608.852 8  84433868.063 8       187.436          51.000
R01  20227945.594 8 108129939.241 8      2679.785          50.000    20227948.164 6  84101097.893 6      2084.280          41.000
R07  21994081.742 5 117736004.730 5     -3720.137          34.000
R08  19277259.961 8 103228839.631 8      -705.484          50.000    19277261.734 7  80289149.526 7      -548.710          46.000
R22  21900588.516 7 116906774.978 7     -3450.348          47.000    21900594.414 7  90927518.544 7     -2683.604          47.000
R23  19095926.781 8 102150401.586 8       521.195          51.000    19095931.477 7  79450278.081 7       405.374          42.000
C20  23321408.773 8 121440761.439 8      2305.012          51.000
C27  24625584.094 8 128231830.831 8     -3143.773          50.000
C30  21657236.852 8 112774892.009 8      -920.434          51.000
E04  23850312.766 8 125334239.279 8      1134.953          51.000    23850312.367 8  96035418.515 8       869.687          50.000
E11  22492176.047 7 118197195.208 7       646.168          44.000    22492174.812 7  90566667.519 7       495.203          44.000
E12  23033897.469 7 121043927.319 7     -1844.496          47.000    23033897.609 8  92747945.831 8     -1413.321          49.000
> 2020 05 18 19 12 30.0000000  0 16        .000000000000
G01  20296966.312 8 106661265.488 8       366.988          50.000    20296967.750 8  83112687.725 8       285.965          50.000
G03  21178459.008 7 111293556.517 7      1912.262          44.000    21178462.953 7  86722292.496 7      1490.077          44.000
G08  22817173.266 7 119905027.764 7     -3385.262          47.000    22817177.797 7  93432490.586 7     -2637.866          47.000
G11  20302593.422 8 106690822.227 8     -1666.449          51.000    20302591.922 7  83135692.445 7     -1298.535          47.000
G22  20618255.047 8 108349688.139 8       232.676          51.000    20618251.961 8  84428312.727 8       181.306          51.000
R01  20212941.016 8 108049728.687 8      2665.551          49.000    20212943.922 7  84038711.929 7      2073.206          42.000
R07  22014933.016 5 117847620.713 5     -3722.914          34.000
R08  19281257.891 8 103250247.952 8      -723.703          50.000    19281259.602 7  80305800.472 7      -562.877          45.000
R22  21919995.633 8 117010367.393 8     -3457.828          48.000    21920000.812 7  91008090.434 7     -2689.422          47.000
R23  19093044.805 8 102134985.867 8       504.531          51.000    19093049.602 7  79438288.073 7       392.413          42.000
C20  23308139.375 8 121371667.743 8      2299.191          51.000
C27  24643695.242 8 128326140.387 8     -3145.523          50.000
C30  21662565.508 8 112802637.656 8      -931.309          51.000
E04  23843852.219 8 125300289.153 8      1126.512          51.000    23843851.641 8  96009404.828 8       863.159          50.000
E11  22488492.656 7 118177840.053 7       642.223          44.000    22488491.570 7  90551836.951 7       492.060          44.000
E12  23044430.938 7 121099283.755 7     -1847.891          47.000    23044431.875 8  92790361.794 8     -1415.886          50.000
> 2020 05 18 19 13  0.0000000  0 16        .000000000000
G01  20294912.844 8 106650474.527 8       353.742          50.000    20294913.953 8  83104279.177 8       275.643          50.000
G03  21167582.820 7 111236399.382 7      1899.629          44.000    21167585.766 7  86677754.467 7      1480.227          45.000
G08  22836527.977 7 120006738.603 7     -3393.980          46.000    22836532.852 7  93511745.756 7     -2644.660          46.000
G11  20312161.516 8 106741102.194 8     -1684.270          51.000    20312159.734 7  83174871.564 7     -1312.421          46.000
G22  20616967.203 8 108342920.600 8       219.871          51.000    20616963.992 8  84423039.316 8       171.328          51.000
R01  20198038.734 7 107970069.145 7      2646.363          47.000    20198042.789 7  83976754.497 7      2058.283          43.000
R07  22035826.188 5 117959467.371 5     -3731.652          34.000
R08  19285381.148 8 103272327.709 8      -746.863          49.000    19285382.117 7  80322973.597 7      -580.894          44.000
R22  21939467.805 8 117114306.988 8     -3470.102          51.000    21939472.617 7  91088932.303 7     -2698.968          46.000
R23  19090280.781 8 102120201.033 8       482.625          50.000    19090285.734 7  79426788.768 7       375.375          42.000
C20  23294926.312 8 121302868.541 8      2288.586          50.000
C27  24661839.836 8 128420622.660 8     -3151.898          50.000
C30  21667979.594 8 112830828.951 8      -946.934          51.000
E04  23837463.203 8 125266715.901 8      1113.121          51.000    23837462.906 8  95983679.920 8       852.848          51.000
E11  22484857.414 7 118158737.042 7       632.691          45.000    22484856.484 7  90537199.575 7       484.787          45.000
E12  23055006.945 8 121154861.557 8     -1855.941          49.000    23055008.195 8  92832947.364 8     -1422.160          49.000
> 2020 05 18 19 13 30.0000000  0 16        .000000000000
G01  20292931.727 8 106640063.771 8       340.684          51.000    20292932.625 8  83096166.914 8       265.471          51.000
G03  21156774.539 7 111179600.003 7      1887.574          45.000    21156776.859 7  86633495.182 7      1470.837          45.000
G08  22855927.727 7 120108687.795 7     -3402.059          45.000    22855932.766 7  93591186.674 7     -2650.955          45.000
G11  20321827.273 8 106791897.051 8     -1701.391          50.000    20321825.328 7  83214451.912 7     -1325.759          45.000
G22  20615748.930 8 108336518.569 8       207.535          51.000    20615745.797 8  84418050.722 8       161.716          51.000
R01  20183240.398 7 107890966.554 7      2627.648          47.000    20183245.711 7  83915230.254 7      2043.727          43.000
R07  22056762.656 5 118071545.728 5     -3739.742          33.000
R08  19289630.422 8 103295081.235 8      -769.492          49.000    19289631.594 7  80340670.823 7      -598.491          45.000
R22  21959005.766 8 117218596.287 8     -3481.945          51.000    21959009.602 6  91170046.201 6     -2708.177          41.000
R23  19087635.477 8 102106053.070 8       461.223          49.000    19087641.039 7  79415784.772 7       358.729          42.000
C20  23281770.492 8 121234368.715 8      2278.465          50.000
C27  24680017.844 8 128515280.416 8     -3157.879          49.000
C30  21673479.805 8 112859469.860 8      -962.020          51.000
E04  23831146.953 8 125233524.120 8      1100.176          51.000    23831147.328 8  95958247.264 8       843.019          51.000
E11  22481271.211 7 118139891.186 7       624.234          46.000    22481270.438 7  90522759.237 7       478.321          46.000
E12  23065626.203 8 121210664.753 8     -1863.637          49.000    23065626.961 8  92875705.632 8     -1427.951          49.000
> 2020 05 18 19 14  0.0000000  0 16        .000000000000
G01  20291022.867 8 106630032.965 8       325.254          51.000    20291023.766 8  83088350.714 8       253.445          51.000
G03  21146034.164 7 111123157.645 7      1872.703          45.000    21146035.453 7  86589514.146 7      1459.252          45.000
G08  22875372.484 7 120210872.206 7     -3412.848          46.000    22875377.188 7  93670810.843 7     -2659.362          46.000
G11  20331590.312 8 106843205.149 8     -1721.707          48.000    20331588.859 7  83254432.207 7     -1341.590          47.000
G22  20614599.898 8 108330480.238 8       192.477          51.000    20614596.703 8  84413345.545 8       149.982          51.000
R01  20168546.961 8 107812421.540 8      2605.969          49.000    20168552.750 7  83854139.700 7      2026.865          43.000
R07  22077740.266 4 118183851.546 4     -3749.711          29.000
R08  19294004.812 8 103318505.687 8      -794.824          49.000    19294005.719 7  80358889.849 7      -618.197          44.000
R22  21978607.734 7 117323232.614 7     -3496.551          47.000    21978610.875 6  91251429.892 6     -2719.549          39.000
R23  19085109.852 8 102092542.601 8       436.938          50.000    19085115.500 6  79405276.629 6       339.840          41.000
C20  23268672.969 8 121166168.014 8      2265.523          51.000
C27  24698228.844 8 128610111.219 8     -3166.562          48.000
C30  21679066.242 8 112888559.243 8      -979.914          51.000
E04  23824903.289 8 125200713.141 8      1084.543          51.000    23824904.352 8  95933106.401 8       831.019          51.000
E11  22477734.047 7 118121302.561 7       612.559          46.000    22477733.320 7  90508516.010 7       469.303          46.000
E12  23076288.383 8 121266692.240 8     -1874.148          50.000    23076288.430 8  92918635.770 8     -1435.970          49.000
> 2020 05 18 19 14 30.0000000  0 15        .000000000000
G01  20289208.609 8 106620499.307 8       314.516          50.000    20289209.742 8  83080921.907 8       245.077          50.000
G03  21135383.852 7 111067189.254 7      1862.555          45.000    21135383.461 7  86545902.423 7      1451.341          45.000
G08  22894884.102 7 120313405.545 7     -3418.609          46.000    22894887.938 7  93750706.887 7     -2663.851          47.000
G11  20341473.023 8 106895141.814 8     -1736.723          48.000    20341472.359 8  83294902.339 8     -1353.290          48.000
G22  20613542.156 8 108324921.521 8       182.375          51.000    20613538.859 8  84409014.101 8       142.113          51.000
R01  20153980.727 8 107734554.336 8      2589.328          49.000    20153986.391 7  83793576.351 7      2013.925          42.000
R08  19298526.398 8 103342717.677 8      -815.020          48.000    19298527.211 7  80377721.403 7      -633.904          45.000
R22  21998295.305 7 117428331.816 7     -3505.941          44.000    21998298.602 7  91333173.527 7     -2726.846          44.000
R23  19082725.812 8 102079790.539 8       417.543          49.000    19082731.648 6  79395358.360 6       324.756          41.000
C20  23255656.141 8 121098382.516 8      2257.590          51.000
C27  24716494.578 7 128705228.969 7     -3170.434          46.000
C30  21684760.719 8 112918212.293 8      -992.867          51.000
