     3.04           OBSERVATION DATA    M (MIXED)           RINEX VERSION / TYPE
Convert 2.6.2       NovAtel             20200515 161157 UTC PGM / RUN BY / DATE 
Rinex Version 3.04 Observation File                         COMMENT             
                                                            MARKER NAME         
                                                            MARKER NUMBER       
                                                            MARKER TYPE         
                                                            OBSERVER / AGENCY   
                    NovAtel GPSCard                         REC # / TYPE / VERS 
                                                            ANT # / TYPE        
        0.0000        0.0000        0.0000                  APPROX POSITION XYZ 
        0.0000        0.0000        0.0000                  ANTENNA: DELTA H/E/N
G    8 C1C L1C D1C S1C C2W L2W D2W S2W                      SYS / # / OBS TYPES 
R    8 C1C L1C D1C S1C C2P L2P D2P S2P                      SYS / # / OBS TYPES 
E    8 C1C L1C D1C S1C C7Q L7Q D7Q S7Q                      SYS / # / OBS TYPES 
C    8 C2I L2I D2I S2I C7I L7I D7I S7I                      SYS / # / OBS TYPES 
DBHZ                                                        SIGNAL STRENGTH UNIT
    30.000                                                  INTERVAL            
  2020    05    13    11    00    0.0000000     GPS         TIME OF FIRST OBS   
  2020    05    13    11    59   30.0000000     GPS         TIME OF LAST OBS    
G L1C  0.00000  09 G02 G32 G12 G25 G29 G18 G14 G21 G31      SYS / PHASE SHIFT   
G L2W  0.00000  09 G32 G12 G25 G29 G21 G18 G14 G02 G31      SYS / PHASE SHIFT   
R L1C  0.00000  05 R11 R22 R12 R21 R23                      SYS / PHASE SHIFT   
R L2P  0.25000  05 R11 R22 R12 R23 R21                      SYS / PHASE SHIFT   
E L1C  0.50000  04 E36 E25 E11 E02                          SYS / PHASE SHIFT   
E L7Q -0.25000  04 E36 E25 E11 E02                          SYS / PHASE SHIFT   
C L2I  0.00000  03 C12 C26 C24                              SYS / PHASE SHIFT   
C L7I  0.00000  01 C12                                      SYS / PHASE SHIFT   
  5 R11  0 R22 -3 R12 -1 R21  4 R23  3                      GLONASS SLOT / FRQ #
 C1C  -71.950 C2C  -71.950 C2P  -71.950                     GLONASS COD/PHS/BIS 
     0     0     0     0GPS                                 LEAP SECONDS        
                                                            END OF HEADER       
> 2020 05 13 11 00  0.0000000  0 13      -0.000000000000
G02  23822638.133 5 125188781.087 5     -2172.562          33.000                                                                  
G32  24028171.195 7 126268881.946 7     -2849.523          44.000    24028174.141 7  98391299.438 7     -2220.408          43.000  
G12  22429657.070 5 117868630.715 5     -2641.254          32.000    22429660.828 5  91845730.479 5     -2058.136          31.000  
G25  20576852.016 8 108132086.524 8     -1298.691          51.000    20576853.883 8  84258769.006 8     -1011.968          51.000  
G29  20241873.109 8 106371771.563 8       434.660          51.000    20241873.180 8  82887104.262 8       338.696          51.000  
R11  20629856.648 8 110239323.496 8     -2572.707          50.000    20629859.258 7  85741696.811 7     -2000.995          44.000  
R22  19251746.945 8 102766754.494 8      1160.031          50.000    19251749.484 8  79929773.039 8       902.250          48.000  
R12  19290098.609 8 103043843.193 8       936.199          50.000    19290101.500 7  80145228.867 7       728.155          45.000  
E36  23797655.391 8 125057530.506 8      1607.086          51.000    23797658.031 8  95823335.819 8      1231.425          51.000  
E25  24598712.578 8 129267094.283 8     -1532.289          51.000    24598715.789 8  99048820.735 8     -1174.119          51.000  
E11  23866690.375 5 125420303.923 5     -1291.785          32.000    23866690.531 5  96101274.973 5      -990.037          33.000  
C12  24198135.594 5 126006116.351 5      2984.574          34.000    24198139.328 6  97435922.417 6      2308.005          38.000  
C26  21649169.547 8 112732921.715 8     -1198.066          51.000                                                                  
> 2020 05 13 11 00 30.0000000  0 12      -0.000000000000
G02  23835087.023 5 125254197.221 5     -2184.062          33.000                                                                  
G32  24044464.359 7 126354502.685 7     -2854.562          46.000    24044466.344 7  98458016.847 7     -2224.338          46.000  
G25  20584307.922 8 108171267.543 8     -1309.305          51.000    20584309.836 8  84289299.648 8     -1020.241          51.000  
G29  20239446.977 8 106359023.640 8       419.270          51.000    20239447.477 8  82877170.825 8       326.704          51.000  
R11  20644353.828 8 110316790.666 8     -2587.609          51.000    20644356.250 7  85801949.000 7     -2012.585          45.000  
R22  19245309.445 8 102732389.876 8      1134.957          51.000    19245312.523 8  79903045.052 8       882.748          49.000  
R12  19284900.828 8 103016077.161 8       918.828          51.000    19284904.133 7  80123633.046 7       714.641          45.000  
E36  23788527.328 8 125009560.048 8      1594.848          51.000    23788529.953 8  95786579.266 8      1222.024          51.000  
E25  24607490.742 8 129313225.969 8     -1539.098          51.000    24607494.531 8  99084168.374 8     -1179.309          51.000  
E11  23874110.531 5 125459296.214 5     -1304.055          34.000    23874109.875 5  96131152.124 5      -998.981          33.000  
C12  24180973.094 6 125916736.872 6      2977.625          37.000    24180974.352 6  97366808.549 6      2302.791          38.000  
C26  21656121.352 8 112769119.497 8     -1211.086          51.000                                                                  
> 2020 05 13 11 01  0.0000000  0 14      -0.000000000000
G18  23982924.617 5 126031127.186 5      3736.984          34.000                                                                  
G02  23847587.766 5 125319886.127 5     -2196.824          30.000                                                                  
G32  24060770.133 7 126440189.277 7     -2859.559          47.000    24060771.305 7  98524785.536 7     -2228.231          47.000  
G12  22459881.180 5 118027459.377 5     -2652.410          34.000    22459890.633 5  91969446.484 5     -2066.808          31.000  
G25  20591807.820 8 108210679.791 8     -1319.992          51.000    20591810.047 8  84320010.468 8     -1028.566          51.000  
G29  20237092.539 8 106346651.582 8       403.758          51.000    20237093.227 8  82867530.265 8       314.617          51.000  
R11  20658918.438 8 110394617.548 8     -2602.656          51.000    20658920.773 7  85862481.009 7     -2024.289          47.000  
R22  19238996.820 8 102698691.315 8      1109.762          51.000    19238999.625 8  79876835.050 8       863.148          49.000  
R12  19279785.094 8 102988749.521 8       901.184          50.000    19279788.266 7  80102378.219 7       700.921          45.000  
E36  23779452.906 8 124961871.833 8      1582.547          51.000    23779455.648 8  95750038.953 8      1212.572          51.000  
E25  24616290.039 8 129359469.385 8     -1545.672          51.000    24616294.367 8  99119601.618 8     -1184.398          51.000  
E11                                                                  23881584.766 5  96161242.071 5     -1008.613          33.000  
C12  24163834.211 6 125827477.682 6      2971.117          39.000    24163832.656 6  97297787.771 6      2297.070          37.000  
C26  21663131.648 8 112805621.936 8     -1224.227          51.000                                                                  
> 2020 05 13 11 01 30.0000000  0 14      -0.000000000000
G18  23961605.102 5 125919105.764 5      3732.715          32.000                                                                  
G32  24077120.016 8 126526108.265 8     -2866.387          48.000    24077121.406 7  98591735.311 7     -2233.552          47.000  
G12  22475048.812 6 118107178.172 6     -2659.641          36.000    22475057.812 6  92031607.032 6     -2072.448          36.000  
G25  20599383.969 8 108250492.655 8     -1332.469          51.000    20599386.258 8  84351033.452 8     -1038.288          51.000  
G29  20234842.000 8 106334824.517 8       386.488          51.000    20234842.398 8  82858314.366 8       301.160          51.000  
R11  20673582.203 8 110472975.326 8     -2619.438          51.000    20673585.047 8  85923425.937 8     -2037.341          48.000  
R22  19232841.258 8 102665832.132 8      1082.645          51.000    19232844.438 8  79851277.921 8       842.057          49.000  
R12  19274783.781 8 102962034.952 8       881.609          51.000    19274787.219 7  80081600.219 7       685.696          46.000  
E36  23770464.453 8 124914636.331 8      1568.332          51.000    23770467.500 8  95713845.510 8      1201.752          51.000  
E25  24625143.141 8 129405994.277 8     -1554.211          51.000    24625147.406 8  99155250.540 8     -1190.794          51.000  
E11                                                                  23889144.359 5  96191673.739 5     -1019.439          32.000  
E02  23441246.219 6 123184581.298 6       824.449          40.000    23441248.727 6  94388194.810 6       631.685          39.000  
C12  24146750.391 6 125738508.265 6      2961.883          40.000    24146745.578 6  97228991.035 6      2290.549          37.000  
C26  21670232.648 8 112842596.926 8     -1239.078          51.000                                                                  
> 2020 05 13 11 02  0.0000000  0 14      -0.000000000000
G18  23940298.375 5 125807143.374 5      3731.125          34.000                                                                  
G32  24093497.523 7 126612173.053 7     -2871.293          46.000    24093499.898 7  98658798.702 7     -2237.375          46.000  
G12  22490250.578 5 118187067.582 5     -2665.793          34.000    22490265.367 4  92093858.324 4     -2077.263          29.000  
G25  20607020.492 8 108290622.467 8     -1343.008          51.000    20607022.648 8  84382303.421 8     -1046.503          51.000  
G29  20232679.094 8 106323458.342 8       371.043          51.000    20232679.148 8  82849457.606 8       289.124          51.000  
R11  20688328.859 8 110551778.363 8     -2634.215          49.000    20688332.172 8  85984717.197 8     -2048.834          48.000  
R22  19226827.344 8 102633727.561 8      1057.465          51.000    19226830.555 8  79826307.711 8       822.473          49.000  
R12  19269881.945 8 102935850.884 8       863.844          51.000    19269885.516 7  80061234.829 7       671.879          46.000  
E36  23761546.344 8 124867770.952 8      1555.875          51.000    23761549.570 8  95677935.667 8      1192.165          51.000  
E25  24634034.422 8 129452717.316 8     -1560.941          51.000    24634038.180 8  99191051.294 8     -1196.017          51.000  
E11  23896768.445 5 125578359.075 5     -1341.969          35.000    23896768.664 5  96222385.119 5     -1028.445          30.000  
E02  23436558.938 6 123159948.042 6       817.676          40.000    23436560.383 6  94369319.952 6       626.501          40.000  
C12  24129705.734 7 125649747.202 7      2955.082          42.000    24129697.953 6  97160355.546 6      2285.091          37.000  
C26  21677408.234 8 112879961.584 8     -1252.039          51.000                                                                  
> 2020 05 13 11 02 30.0000000  0 12      -0.000000000000
G18  23919010.375 5 125695270.415 5      3729.051          31.000                                                                  
G32  24109907.344 7 126698408.069 7     -2876.211          45.000    24109910.953 7  98725994.738 7     -2241.204          45.000  
G25  20614722.500 8 108331096.475 8     -1353.762          51.000    20614724.680 8  84413841.589 8     -1054.880          51.000  
G29  20230609.195 8 106312580.211 8       355.566          51.000    20230608.789 8  82840981.130 8       277.065          51.000  
R11  20703163.664 8 110631053.575 8     -2649.309          50.000    20703167.617 8  86046375.672 8     -2060.574          48.000  
R22  19220959.961 8 102602406.059 8      1032.039          51.000    19220962.898 8  79801946.549 8       802.697          49.000  
R12  19265084.984 8 102910227.412 8       845.797          51.000    19265088.625 7  80041305.458 7       657.842          46.000  
E36  23752703.789 8 124821303.991 8      1543.312          51.000    23752707.156 8  95642331.112 8      1182.518          51.000  
E25  24642968.750 8 129499666.080 8     -1567.617          51.000    24642972.023 8  99227024.989 8     -1201.117          51.000  
E02  23431914.461 6 123135538.997 6       810.840          41.000    23431914.930 6  94350616.932 6       621.245          40.000  
C12  24112705.852 7 125561223.085 7      2947.918          43.000    24112697.898 6  97091903.185 6      2279.394          41.000  
C26  21684663.602 8 112917742.925 8     -1265.148          51.000                                                                  
> 2020 05 13 11 03  0.0000000  0 11      -0.000000000000
G32  24126344.289 7 126784785.177 7     -2881.105          43.000    24126348.711 7  98793301.536 7     -2245.021          43.000  
G25  20622485.227 8 108371889.455 8     -1364.551          51.000    20622487.383 8  84445628.319 8     -1063.287          51.000  
G29  20228627.312 8 106302164.477 8       340.016          51.000    20228626.562 8  82832864.984 8       264.950          51.000  
R11  20718082.352 8 110710774.418 8     -2664.340          50.000    20718086.195 8  86108380.752 8     -2072.268          48.000  
R22  19215234.461 8 102571842.422 8      1006.742          51.000    19215237.109 8  79778174.850 8       783.022          48.000  
R12  19260388.734 8 102885141.203 8       827.746          51.000    19260392.344 7  80021793.952 7       643.800          47.000  
E36  23743932.195 8 124775211.256 8      1530.633          51.000    23743935.867 8  95607013.322 8      1172.784          51.000  
E25  24651941.406 8 129546815.675 8     -1574.570          51.000    24651944.289 8  99263152.573 8     -1206.552          51.000  
E02  23427307.680 7 123111330.096 7       804.152          42.000    23427307.859 6  94332067.252 6       616.085          41.000  
C12  24095746.586 7 125472912.428 7      2940.508          43.000    24095739.945 7  97023615.804 7      2273.845          45.000  
C26  21691994.000 8 112955915.963 8     -1278.441          51.000                                                                  
> 2020 05 13 11 03 30.0000000  0 13      -0.000000000000
G32  24142805.438 6 126871287.967 6     -2885.969          40.000    24142810.086 6  98860706.281 6     -2248.811          40.000  
G12  22536065.297 5 118427821.905 5     -2683.113          34.000                                                                  
G25  20630306.000 8 108412987.848 8     -1375.492          51.000    20630308.188 8  84477653.025 8     -1071.812          51.000  
G29  20226730.812 8 106292197.237 8       324.383          51.000    20226729.586 8  82825098.307 8       252.766          51.000  
R11  20733081.930 8 110790926.243 8     -2679.324          50.000    20733085.523 8  86170721.044 8     -2083.919          48.000  
R22  19209648.602 8 102542023.617 8       981.195          51.000    19209650.953 8  79754982.455 8       763.152          49.000  
R12  19255790.930 8 102860581.062 8       809.547          51.000    19255794.609 7  80002691.624 7       629.648          47.000  
E36  23735229.523 8 124729480.308 8      1518.020          51.000    23735233.109 8  95571972.726 8      1163.158          51.000  
E25  24660949.766 8 129594152.875 8     -1581.285          51.000    24660952.297 8  99299423.902 8     -1211.617          51.000  
E11  23920070.953 5 125700821.657 5     -1378.625          33.000                                                                  
E02  23422736.555 7 123087308.977 7       797.164          42.000    23422736.734 6  94313661.458 6       610.835          41.000  
C12  24078825.375 7 125384803.351 7      2933.250          42.000    24078821.117 7  96955484.314 7      2268.176          47.000  
C26  21699397.016 8 112994467.287 8     -1291.695          51.000                                                                  
> 2020 05 13 11 04  0.0000000  0 13      -0.000000000000
G18  23855217.844 4 125360024.16724      3721.941          29.000                                                                  
G32  24159295.758 6 126957943.366 6     -2890.352          41.000    24159300.586 6  98928229.942 6     -2252.223          41.000  
G12  22551405.516 5 118508430.847 5     -2689.434          34.000    22551415.039 5  92344285.286 5     -2095.663          34.000  
G25  20638190.586 8 108454421.327 8     -1385.770          51.000    20638192.711 8  84509938.838 8     -1079.821          51.000  
G29  20224925.281 8 106282707.952 8       309.246          51.000    20224923.648 8  82817704.061 8       240.971          51.000  
R11  20748167.148 8 110871538.357 8     -2693.766          48.000    20748171.203 7  86233419.323 7     -2095.151          47.000  
R22  19204207.938 8 102512980.446 8       956.148          51.000    19204210.070 8  79732393.323 8       743.671          49.000  
R12  19251297.750 8 102836579.404 8       791.746          51.000    19251301.258 7  79984023.662 7       615.803          47.000  
E36  23726601.500 8 124684141.879 8      1505.730          51.000    23726604.641 8  95537232.904 8      1153.691          51.000  
E25  24669999.320 8 129641707.731 8     -1587.875          51.000    24670001.719 8  99335862.011 8     -1216.705          51.000  
E02  23418207.008 7 123063506.494 7       790.824          42.000    23418207.398 6  94295423.180 6       605.834          41.000  
C12  24061948.352 6 125296926.877 6      2925.945          40.000    24061946.930 8  96887532.662 8      2262.723          48.000  
C26  21706878.188 8 113033426.346 8     -1304.453          51.000                                                                  
> 2020 05 13 11 04 30.0000000  0 13      -0.000000000000
G32  24175800.867 7 127044677.700 7     -2895.902          42.000    24175806.328 7  98995815.096 7     -2256.551          42.000  
G12  22566767.625 5 118589158.31525     -2695.707          32.000    22566774.727 4  92407169.42624     -2100.552          28.000  
G25  20646125.461 8 108496119.143 8     -1397.816          51.000    20646127.445 8  84542430.631 8     -1089.208          51.000  
G29  20223197.023 8 106273625.418 8       292.551          51.000    20223195.320 8  82810626.760 8       227.962          51.000  
R11  20763324.461 8 110952537.959 8     -2709.957          48.000    20763328.945 7  86296418.962 7     -2107.745          46.000  
R22  19198898.875 8 102484641.342 8       929.344          51.000    19198901.148 8  79710351.812 8       722.823          49.000  
R12  19246896.156 8 102813066.495 8       772.129          51.000    19246899.531 8  79965735.855 8       600.545          48.000  
R21  21008735.680 5 112421526.276 5     -3224.945          34.000                                                                  
E36  23718034.594 8 124639126.168 8      1491.660          50.000    23718037.438 8  95502740.381 8      1142.982          51.000  
E25  24679076.750 8 129689409.761 8     -1595.883          51.000    24679079.195 8  99372412.886 8     -1222.856          51.000  
E02  23413705.906 7 123039852.959 7       782.598          43.000    23413706.602 7  94277299.056 7       599.611          42.000  
C12  24045102.602 6 125209214.246 6      2917.539          38.000    24045103.867 8  96819707.722 8      2256.096          49.000  
C26  21714424.438 8 113072722.901 8     -1318.875          51.000                                                                  
> 2020 05 13 11 05  0.0000000  0 14      -0.000000000000
G32  24192361.469 7 127131705.363 7     -2902.453          43.000    24192368.047 7  99063628.793 7     -2261.656          42.000  
G12  22582191.977 5 118670227.60625     -2703.875          31.000    22582211.922 5  92470378.73325     -2106.935          31.000  
G25  20654151.961 8 108538298.439 8     -1410.668          51.000    20654153.867 8  84575297.605 8     -1099.222          51.000  
G29  20221587.234 8 106265166.125 8       275.023          51.000    20221585.492 8  82804035.093 8       214.304          51.000  
R11  20778595.539 7 111034145.026 7     -2726.922          46.000    20778600.062 7  86359891.079 7     -2120.940          45.000  
R22  19193763.094 8 102457227.457 8       901.855          51.000    19193765.273 8  79689029.898 8       701.443          49.000  
R12  19242627.836 8 102790265.734 8       751.547          51.000    19242631.367 8  79948001.919 8       584.534          48.000  
R21  21026872.867 5 112518565.164 5     -3241.219          32.000                                                                  
E36  23709570.852 8 124594651.476 8      1476.871          51.000    23709573.734 8  95468662.390 8      1131.638          51.000  
E25  24688223.531 8 129737476.506 8     -1604.906          51.000    24688225.867 8  99409243.215 8     -1229.728          50.000  
E11  23944004.578 6 125826591.009 6     -1417.328          37.000                                                                  
E02  23409274.750 7 123016566.778 7       773.438          44.000    23409275.406 6  94259456.398 6       592.838          41.000  
C12  24028329.805 5 125121882.358 5      2907.945          35.000    24028333.641 8  96752177.164 8      2248.735          50.000  
C26  21722077.039 8 113112572.221 8     -1334.207          51.000                                                                  
> 2020 05 13 11 05 30.0000000  0 13      -0.000000000000
G32  24208928.062 7 127218765.148 7     -2907.773          42.000    24208935.734 7  99131467.551 7     -2265.801          42.000  
G25  20662220.961 8 108580700.948 8     -1422.320          51.000    20662222.844 8  84608338.513 8     -1108.302          51.000  
G29  20220046.906 8 106257071.892 8       258.434          51.000    20220044.961 8  82797727.891 8       201.377          51.000  
R11  20793931.023 7 111116096.031 7     -2742.680          47.000    20793935.562 7  86423630.708 7     -2133.196          46.000  
R22  19188751.602 8 102430476.861 8       875.301          51.000    19188754.211 8  79668223.905 8       680.793          50.000  
R12  19238444.141 8 102767916.961 8       732.086          51.000    19238447.477 8  79930619.533 8       569.400          48.000  
R21  21045069.992 5 112615929.160 5     -3256.148          33.000                                                                  
E36  23701161.602 8 124550460.484 8      1462.953          51.000    23701164.523 8  95434801.776 8      1121.019          51.000  
E25  24697390.492 8 129785649.983 8     -1612.910          51.000    24697392.852 8  99446155.327 8     -1235.894          50.000  
E11  23952116.883 6 125869221.263 6     -1430.227          36.000                                                                  
E02  23404864.344 7 122993390.832 7       765.375          44.000    23404864.633 7  94241698.214 7       586.501          42.000  
C12  24011580.500 5 125034676.769 5      2899.402          32.000    24011587.477 8  96684744.232 8      2242.042          50.000  
C26  21729786.766 8 113152718.259 8     -1348.352          51.000                                                                  
> 2020 05 13 11 06  0.0000000  0 13      -0.000000000000
G32  24225529.156 6 127306006.824 6     -2910.000          40.000    24225537.852 6  99199448.082 6     -2267.533          40.000  
G14  23449535.391 5 123228139.35525     -1900.125          30.000                                                                  
G25  20670361.406 8 108623479.318 8     -1431.004          51.000    20670363.484 8  84641672.288 8     -1115.068          51.000  
G29  20218604.984 8 106249494.724 8       245.082          51.000    20218602.844 8  82791823.604 8       190.973          51.000  
R11  20809360.805 8 111198545.166 8     -2755.434          49.000    20809364.953 7  86487757.787 7     -2143.115          46.000  
R22  19183893.586 8 102404544.626 8       851.910          51.000    19183896.273 8  79648054.391 8       662.597          49.000  
R12  19234374.570 8 102746177.345 8       715.688          51.000    19234377.594 8  79913710.933 8       556.646          48.000  
E36  23692835.914 8 124506706.797 8      1452.336          51.000    23692838.391 8  95401276.232 8      1112.802          51.000  
E25  24706606.648 8 129834083.125 8     -1617.594          51.000    24706609.148 8  99483266.394 8     -1239.417          50.000  
E11  23960306.492 5 125912264.014 5     -1440.363          35.000                                                                  
E02  23400504.008 7 122970478.847 7       760.383          45.000    23400504.336 7  94224142.289 7       582.634          42.000  
C12  23994885.766 5 124947750.163 5      2893.809          35.000    23994894.531 8  96617526.975 8      2237.849          50.000  
C26  21737582.320 8 113193312.216 8     -1359.461          51.000                                                                  
> 2020 05 13 11 06 30.0000000  0 12      -0.000000000000
G32  24242156.656 6 127393387.149 6     -2914.277          41.000    24242165.703 6  99267536.622 6     -2270.866          41.000  
G25  20678565.695 8 108666593.045 8     -1442.258          51.000    20678567.688 8  84675267.384 8     -1123.838          51.000  
G29  20217253.711 8 106242393.657 8       229.215          51.000    20217251.594 8  82786290.309 8       178.609          51.000  
R11  20824876.133 8 111281450.385 8     -2770.688          51.000    20824879.688 7  86552239.566 7     -2154.983          46.000  
R22  19179181.320 8 102379390.402 8       826.027          51.000    19179184.500 8  79628490.012 8       642.466          50.000  
R12  19230411.852 8 102725008.250 8       696.586          51.000    19230414.500 8  79897246.081 8       541.789          49.000  
E36  23684585.844 8 124463350.964 8      1439.059          51.000    23684588.164 8  95368055.536 8      1102.707          51.000  
E25  24715864.695 8 129882735.860 8     -1624.961          51.000    24715867.398 8  99520545.729 8     -1245.110          51.000  
E11  23968567.602 5 125955675.867 5     -1452.867          35.000    23968567.078 5  96511486.112 5     -1113.332          30.000  
E02  23396186.406 7 122947791.565 7       752.914          45.000    23396187.617 7  94206758.518 7       577.076          43.000  
C12  23978239.258 6 124861063.840 6      2886.035          39.000    23978247.398 8  96550495.612 8      2231.723          49.000  
C26  21745456.438 8 113234313.946 8     -1373.051          51.000                                                                  
> 2020 05 13 11 07  0.0000000  0 16      -0.000000000000
G21  23559003.672 6 123803405.360 6      3438.805          37.000                                                                  
G02  24003089.766 5 126137084.966 5     -2336.250          34.000                                                                  
G32  24258791.180 6 127480801.053 6     -2913.953          40.000    24258799.148 6  99335651.303 6     -2270.614          40.000  
G14  23471359.125 4 123342818.544 4     -1919.457          29.000                                                                  
G12  22644164.430 5 118995880.314 5     -2722.152          33.000    22644155.359 5  92724035.746 5     -2121.149          31.000  
G25  20686814.445 8 108709940.034 8     -1448.273          51.000    20686816.234 8  84709044.240 8     -1128.528          51.000  
G29  20215973.500 8 106235666.352 8       218.551          51.000    20215971.664 8  82781048.243 8       170.299          51.000  
R11  20840457.383 8 111364706.990 8     -2780.539          50.000    20840460.008 7  86616994.682 7     -2162.642          46.000  
R22  19174595.320 8 102354910.757 8       805.379          51.000    19174599.117 8  79609450.291 8       626.406          50.000  
R12  19226536.820 8 102704308.174 8       682.742          51.000    19226539.297 8  79881146.032 8       531.022          49.000  
E36  23676392.055 8 124420291.857 8      1430.891          51.000    23676394.586 8  95335062.228 8      1096.388          51.000  
E25  24725145.406 8 129931506.346 8     -1626.984          51.000    24725148.531 8  99557915.297 8     -1246.663          51.000  
E11  23976881.188 5 125999355.544 5     -1459.832          32.000    23976883.109 5  96544956.196 5     -1119.100          32.000  
E02  23391892.484 7 122925228.044 7       750.660          45.000    23391895.000 7  94189469.600 7       575.229          44.000  
C12  23961620.547 7 124774518.249 7      2883.082          42.000    23961626.984 8  96483573.100 8      2229.343          48.000  
C26  21753389.641 8 113275622.198 8     -1381.570          51.000                                                                  
> 2020 05 13 11 07 30.0000000  0 15      -0.000000000000
G21  23539380.672 6 123700281.168 6      3433.277          36.000                                                                  
G02  24016455.125 5 126207319.013 5     -2348.590          33.000                                                                  
G32  24275431.875 6 127568246.979 6     -2918.621          41.000    24275437.188 6  99403790.903 6     -2274.251          41.000  
G14  23482350.375 5 123400583.826 5     -1931.543          30.000                                                                  
G25  20695107.664 8 108753521.218 8     -1459.570          51.000    20695109.484 8  84743003.579 8     -1137.328          51.000  
G29  20214764.344 8 106229313.091 8       202.535          51.000    20214762.953 8  82776097.640 8       157.820          51.000  
R11  20856103.422 8 111448314.989 8     -2795.938          49.000    20856106.266 7  86682023.065 7     -2174.622          45.000  
R22  19170135.992 8 102331106.994 8       779.137          51.000    19170140.109 8  79590936.255 8       605.995          50.000  
R12  19222750.000 8 102684080.528 8       663.270          51.000    19222753.086 8  79865413.405 8       515.876          50.000  
E36  23668255.289 8 124377531.480 8      1417.324          51.000    23668258.086 8  95302297.795 8      1086.041          51.000  
E25  24734448.703 8 129980395.963 8     -1634.750          51.000    24734452.352 8  99595376.129 8     -1252.547          51.000  
E11  23985241.727 5 126043296.871 5     -1472.266          33.000    23985247.305 5  96578628.640 5     -1128.352          32.000  
E02  23387622.609 7 122902790.459 7       742.734          45.000    23387626.062 7  94172277.149 7       569.213          45.000  
C12  23945029.367 7 124688115.829 7      2874.699          43.000    23945033.867 8  96416761.300 8      2222.870          48.000  
C26  21761381.648 8 113317237.894 8     -1395.262          51.000                                                                  
> 2020 05 13 11 08  0.0000000  0 15      -0.000000000000
G21  23519855.359 6 123597672.079 6      3424.363          36.000                                                                  
G02  24029952.008 5 126278252.621 5     -2362.766          32.000                                                                  
G32  24292163.828 6 127656170.576 6     -2925.930          41.000    24292165.891 6  99472302.727 6     -2279.946          41.000  
G12  22675370.875 5 119159899.190 5     -2737.848          35.000    22675364.977 5  92851847.371 5     -2133.376          35.000  
G25  20703530.773 8 108797785.278 8     -1473.980          51.000    20703532.602 8  84777495.022 8     -1148.557          51.000  
G29  20213711.883 8 106223782.282 8       183.492          51.000    20213710.672 8  82771787.917 8       142.978          51.000  
R11  20871900.625 8 111532729.543 8     -2814.191          50.000    20871903.414 7  86747678.813 7     -2188.816          45.000  
R22  19165888.766 8 102308435.052 8       749.855          51.000    19165892.977 8  79573302.526 8       583.224          50.000  
R12  19219137.523 8 102664783.481 8       640.707          51.000    19219140.625 8  79850404.598 8       498.328          50.000  
E36  23660260.719 8 124335519.444 8      1400.723          51.000    23660263.906 8  95270106.760 8      1073.279          51.000  
E25  24743860.469 8 130029853.608 8     -1645.242          51.000    24743864.086 8  99633272.235 8     -1260.650          51.000  
E11  23993740.289 6 126087953.551 6     -1487.496          36.000    23993743.875 5  96612867.331 5     -1140.127          31.000  
E02  23383462.258 7 122880928.629 7       731.918          45.000    23383465.930 7  94155525.884 7       560.848          45.000  
C12  23928550.859 7 124602302.685 7      2863.305          44.000    23928553.406 7  96350405.208 7      2214.032          47.000  
C26  21769517.531 8 113359605.534 8     -1412.078          51.000                                                                  
> 2020 05 13 11 08 30.0000000  0 15      -0.000000000000
G18  23664804.828 5 124359378.71925      3690.734          32.000                                                                  
G21  23500324.539 5 123495036.487 5      3418.781          35.000    23500325.977 4  96229902.902 4      2663.986          28.000  
G02  24043478.086 4 126349329.04924     -2374.180          28.000                                                                  
G32  24308882.383 6 127744024.302 6     -2930.109          41.000    24308882.617 6  99540760.156 6     -2283.206          41.000  
G25  20711980.125 8 108842187.456 8     -1485.289          51.000    20711981.867 8  84812094.098 8     -1157.371          51.000  
G29  20212712.141 8 106218529.017 8       167.547          51.000    20212710.883 8  82767694.477 8       130.556          51.000  
R11  20887744.781 8 111617395.857 8     -2829.219          49.000    20887747.977 7  86813530.375 7     -2200.504          46.000  
R22  19161749.867 8 102286341.888 8       723.883          51.000    19161754.281 8  79556118.981 8       563.020          50.000  
R12  19215595.773 8 102645865.538 8       621.309          51.000    19215599.250 8  79835690.639 8       483.240          50.000  
E36  23652304.555 8 124293711.976 8      1387.336          51.000    23652308.227 8  95238072.472 8      1063.069          51.000  
E25  24753276.773 8 130079334.907 8     -1652.594          51.000    24753280.125 8  99671186.465 8     -1266.301          51.000  
E11                                                                  24002272.156 5  96647211.071 5     -1149.106          33.000  
E02  23379308.055 7 122859099.014 7       724.254          45.000    23379311.711 7  94138799.282 7       555.032          45.000  
C12  23912081.789 7 124516540.499 7      2855.031          45.000    23912082.445 7  96284088.515 7      2207.743          46.000  
C26  21777694.359 8 113402185.204 8     -1425.684          51.000                                                                  
> 2020 05 13 11 09  0.0000000  0 17      -0.000000000000
G18  23643738.375 5 124248672.046 5      3688.094          32.000                                                                  
G21  23480814.742 5 123392512.436 5      3415.148          31.000    23480810.844 4  96149982.062 4      2661.156          29.000  
G32  24325612.867 6 127831941.035 6     -2932.422          39.000    24325612.492 6  99609266.646 6     -2285.008          38.000  
G14  23515848.531 5 123576617.67725     -1971.789          31.000                                                                  
G12  22706691.312 5 119324487.258 5     -2748.141          35.000    22706686.195 5  92980086.325 5     -2141.409          35.000  
G25  20720481.578 8 108886863.310 8     -1494.445          51.000    20720483.148 8  84846906.433 8     -1164.503          51.000  
G29  20211790.867 8 106213688.567 8       153.844          51.000    20211789.727 8  82763922.701 8       119.878          51.000  
R11  20903661.195 8 111702450.905 8     -2842.352          49.000    20903665.008 7  86879684.275 7     -2210.718          45.000  
R23  22733922.094 5 121610775.141 5      4240.656          34.000                                                                  
R22  19157745.281 8 102264964.947 8       699.824          51.000    19157749.406 8  79539492.470 8       544.308          49.000  
R12  19212151.297 8 102627466.929 8       603.871          51.000    19212155.172 8  79821380.603 8       469.678          50.000  
E36  23644413.148 8 124252245.604 8      1375.723          51.000    23644417.242 8  95206299.534 8      1054.171          51.000  
E25  24762723.320 8 130128975.760 8     -1658.035          51.000    24762726.484 8  99709222.941 8     -1270.524          51.000  
E11  24010860.125 5 126177920.480 5     -1510.746          31.000    24010859.930 5  96681782.900 5     -1157.220          33.000  
E02  23375186.180 7 122837438.345 7       718.441          46.000    23375189.906 7  94122202.137 7       550.533          46.000  
C12  23895648.211 7 124430965.094 7      2848.652          45.000    23895647.438 7  96217916.245 7      2202.753          47.000  
C26  21785937.859 8 113445111.099 8     -1437.340          51.000                                                                  
> 2020 05 13 11 09 30.0000000  0 15      -0.000000000000
G18  23622708.367 6 124138161.850 6      3684.047          36.000    23622712.484 5  96731057.324 5      2870.687          34.000  
G32  24342380.344 5 127920052.248 5     -2936.188          34.000    24342380.375 4  99677924.716 4     -2287.933          29.000  
G14  23527157.016 5 123636042.169 5     -1984.371          35.000    23527164.758 6  96339817.193 6     -1546.261          36.000  
G25  20729060.672 8 108931947.100 8     -1505.766          51.000    20729062.422 8  84882036.636 8     -1173.324          51.000  
G29  20210973.570 8 106209394.205 8       137.930          51.000    20210972.812 8  82760576.444 8       107.478          51.000  
R11  20919676.070 8 111788029.965 8     -2857.430          49.000    20919679.680 7  86946245.763 7     -2222.446          44.000  
R23  22710177.438 6 121483754.115 6      4233.016          36.000                                                                  
R22  19153900.570 8 102244441.040 8       673.898          51.000    19153904.516 8  79523529.456 8       524.146          49.000  
R12  19208830.125 8 102609726.328 8       584.234          51.000    19208834.281 8  79807582.354 8       454.405          50.000  
E36  23636612.750 8 124211255.573 8      1362.176          51.000    23636616.992 8  95174891.579 8      1043.755          51.000  
E25  24772225.883 8 130178910.719 8     -1665.461          51.000    24772228.906 8  99747484.763 8     -1276.163          51.000  
E11  24019532.812 6 126223493.399 6     -1522.656          36.000    24019531.539 5  96716697.813 5     -1166.457          33.000  
E02  23371122.469 7 122816082.071 7       710.562          46.000    23371126.016 7  94105838.236 7       544.520          46.000  
C12  23879275.680 7 124345711.010 7      2840.488          45.000    23879274.289 7  96151992.441 7      2196.241          47.000  
C26  21794273.414 8 113488516.250 8     -1451.004          51.000                                                                  
> 2020 05 13 11 10  0.0000000  0 14      -0.000000000000
G18  23601691.695 6 124027715.710 6      3679.879          38.000    23601692.102 5  96644977.445 5      2867.439          35.000  
G14  23538524.141 6 123695775.449 6     -1996.809          38.000    23538530.125 5  96386362.579 5     -1555.958          33.000  
G25  20737691.648 8 108977303.755 8     -1517.207          49.000    20737693.781 8  84917379.456 8     -1182.240          50.000  
G29  20210234.406 8 106205510.431 8       121.844          51.000    20210234.047 8  82757550.131 8        94.943          51.000  
R11  20935763.242 8 111873995.014 8     -2872.691          50.000    20935766.273 7  87013107.412 7     -2234.319          43.000  
R23  22686468.766 6 121356922.715 6      4224.227          37.000                                                                  
R22  19150190.133 8 102224633.268 8       647.473          51.000    19150193.477 8  79508123.422 8       503.590          49.000  
R12  19205606.906 8 102592508.722 8       564.426          51.000    19205611.039 8  79794190.879 8       438.998          50.000  
E36  23628877.953 8 124170607.741 8      1348.379          51.000    23628882.102 8  95143745.843 8      1033.186          51.000  
E25  24781758.617 8 130229005.132 8     -1673.406          51.000    24781761.898 8  99785868.757 8     -1282.215          51.000  
E11  24028261.812 6 126269360.262 6     -1534.590          38.000    24028259.117 5  96751842.551 5     -1176.035          31.000  
E02  23367091.227 7 122794896.370 7       702.523          47.000    23367094.367 7  94089605.046 7       538.259          47.000  
C12  23862939.008 7 124260646.049 7      2831.527          44.000    23862937.688 7  96086214.854 7      2189.496          47.000  
C26  21802675.164 8 113532266.708 8     -1464.871          51.000                                                                  
> 2020 05 13 11 10 30.0000000  0 14      -0.000000000000
G18  23580701.641 6 123917409.008 6      3674.707          38.000                                                                  
G14  23549962.914 6 123755887.279 6     -2010.066          38.000    23549970.859 5  96433202.968 5     -1566.292          34.000  
G25  20746388.352 8 109023005.490 8     -1529.059          49.000    20746390.562 8  84952991.137 8     -1191.475          49.000  
G29  20209587.156 8 106202109.199 8       105.469          51.000    20209587.023 8  82754899.824 8        82.183          51.000  
R11  20951936.734 8 111960418.143 8     -2888.344          51.000    20951938.094 6  87080325.321 6     -2246.493          41.000  
R23  22662808.789 5 121230357.808 5      4214.297          33.000                                                                  
R22  19146627.523 8 102205614.817 8       620.941          51.000    19146630.250 8  79493331.313 8       482.955          49.000  
R12  19202495.719 8 102575889.544 8       544.203          51.000    19202500.102 8  79781264.841 8       423.266          51.000  
E36  23621222.336 8 124130375.153 8      1334.309          51.000    23621226.102 8  95112918.299 8      1022.429          51.000  
E25  24791335.203 8 130279331.411 8     -1681.242          51.000    24791338.875 8  99824430.402 8     -1288.147          51.000  
E11  24037060.375 5 126315598.054 5     -1547.500          34.000    24037055.969 5  96787265.415 5     -1185.388          32.000  
E02  23363106.281 7 122773954.612 7       694.059          47.000    23363108.922 7  94073558.757 7       531.895          47.000  
C12  23846652.820 7 124175843.126 7      2822.410          45.000    23846651.664 8  96020639.882 8      2182.588          48.000  
C26  21811157.000 8 113576433.828 8     -1479.027          51.000                                                                  
> 2020 05 13 11 11  0.0000000  0 17      -0.000000000000
G18  23559731.711 6 123807208.158 6      3670.242          36.000    23559728.523 5  96473157.548 5      2859.927          30.000  
G21  23403132.805 5 122984287.227 5      3390.172          34.000    23403135.305 5  95831925.407 5      2641.693          34.000  
G02  24112052.531 4 126709660.47524     -2431.094          29.000                                                                  
G14  23561466.586 6 123816338.731 6     -2021.129          38.000    23561474.250 5  96480307.924 5     -1574.903          35.000  
G12  22769756.312 5 119655876.61225     -2773.328          31.000                                                                  
G25  20755143.836 8 109069015.679 8     -1539.770          50.000    20755145.992 8  84988843.214 8     -1199.824          50.000  
G29  20209024.586 8 106199153.470 8        90.066          51.000    20209024.594 8  82752596.669 8        70.185          51.000  
R11  20968188.672 8 112047261.244 8     -2902.828          51.000    20968188.656 6  87147869.854 6     -2257.759          41.000  
R23  22639191.508 5 121104025.306 5      4205.746          33.000                                                                  
R22  19143205.938 8 102187348.589 8       595.266          51.000    19143208.148 8  79479124.260 8       462.984          49.000  
R12  19199490.008 8 102559834.003 8       524.723          51.000    19199494.547 8  79768777.190 8       408.118          50.000  
E36  23613638.875 8 124090522.232 8      1321.074          51.000    23613642.281 8  95082381.676 8      1012.240          51.000  
E25  24800948.953 8 130329853.363 8     -1688.488          51.000    24800952.953 8  99863142.004 8     -1293.757          51.000  
E11                                                                  24045917.688 5  96822946.605 5     -1194.302          33.000  
E02  23359161.094 8 122753221.424 8       686.633          49.000    23359163.070 7  94057672.290 7       526.071          47.000  
C12  23830411.031 7 124091267.390 7      2814.438          47.000    23830409.852 8  95955240.602 8      2176.196          50.000  
C26  21819712.289 8 113620981.277 8     -1492.242          51.000                                                                  
> 2020 05 13 11 11 30.0000000  0 16      -0.000000000000
G18  23538786.000 5 123697136.324 5      3666.590          33.000    23538784.727 5  96387387.407 5      2857.096          35.000  
G21  23383796.781 6 122882660.350 6      3384.984          36.000    23383794.211 5  95752731.612 5      2637.645          34.000  
G14  23573038.391 6 123877147.662 6     -2032.750          39.000    23573046.062 6  96527691.466 6     -1583.962          37.000  
G12  22785588.477 5 119739091.47125     -2778.367          32.000                                                                  
G25  20763961.922 8 109115354.466 8     -1550.129          51.000    20763964.133 8  85024951.330 8     -1207.896          51.000  
G29  20208550.359 8 106196662.555 8        75.234          51.000    20208550.484 8  82750655.724 8        58.624          51.000  
R11  20984522.852 8 112134543.573 8     -2916.766          51.000    20984523.320 7  87215756.049 7     -2268.596          45.000  
R23  22615621.891 5 120977949.104 5      4198.004          31.000                                                                  
R22  19139928.984 8 102169855.050 8       570.234          51.000    19139930.852 8  79465518.171 8       443.516          49.000  
R12  19196594.086 8 102544364.608 8       505.832          51.000    19196598.375 8  79756745.438 8       393.425          50.000  
E36  23606131.625 8 124051069.935 8      1308.363          51.000    23606134.719 8  95052152.024 8      1002.501          51.000  
E25  24810604.102 8 130380591.328 8     -1694.875          51.000    24810608.172 8  99902019.134 8     -1298.665          51.000  
E11  24054848.906 6 126409086.927 6     -1569.867          39.000    24054847.961 5  96858903.647 5     -1202.850          34.000  
E02  23355259.750 8 122732718.041 8       679.559          49.000    23355261.016 7  94041961.911 7       520.698          47.000  
C12  23814217.703 8 124006940.153 8      2806.848          48.000    23814216.312 8  95890033.488 8      2170.288          51.000  
C26  21828344.375 8 113665928.782 8     -1504.922          51.000                                                                  
> 2020 05 13 11 12  0.0000000  0 17      -0.000000000000
G18  23517865.859 5 123587190.598 5      3662.531          33.000    23517861.625 5  96301715.535 5      2853.918          31.000  
G21  23364492.758 6 122781211.521 6      3378.520          36.000    23364488.672 5  95673680.640 5      2632.620          31.000  
G02  24139935.539 5 126856176.427 5     -2452.766          35.000                                                                  
G14  23584676.461 6 123938305.464 6     -2044.781          40.000    23584683.336 6  96575346.877 6     -1593.337          37.000  
G12  22801466.820 4 119822518.51124     -2784.625          29.000    22801466.797 4  93368197.98024     -2169.844          28.000  
G25  20772841.305 8 109162015.768 8     -1561.156          51.000    20772843.484 8  85061310.788 8     -1216.486          51.000  
G29  20208163.555 8 106194630.273 8        59.621          51.000    20208163.773 8  82749072.145 8        46.461          51.000  
R11  21000937.055 7 112222257.940 7     -2931.629          45.000    21000939.211 7  87283978.310 7     -2280.156          46.000  
R23  22592097.773 5 120852126.084 5      4189.480          32.000                                                                  
R22  19136795.781 8 102153128.100 8       544.312          51.000    19136797.320 8  79452508.319 8       423.354          49.000  
R12  19193807.227 8 102529477.499 8       486.051          51.000    19193811.461 8  79745166.572 8       378.040          50.000  
E36  23598699.664 8 124012013.192 8      1294.715          51.000    23598702.438 8  95022225.457 8       992.022          51.000  
E25  24820299.281 8 130431539.657 8     -1702.305          51.000    24820303.680 8  99941057.448 8     -1304.397          51.000  
E11  24063843.672 6 126456355.093 6     -1582.047          38.000    24063843.562 5  96895122.055 5     -1212.311          34.000  
E02  23351401.141 8 122712439.698 8       671.711          48.000    23351402.141 7  94026423.970 7       514.610          47.000  
C12  23798071.312 8 123922857.119 8      2798.188          48.000    23798069.992 8  95825015.196 8      2163.664          51.000  
C26  21837051.773 8 113711270.274 8     -1518.488          51.000                                                                  
> 2020 05 13 11 12 30.0000000  0 16      -0.000000000000
G21  23345226.344 6 122679964.361 6      3371.941          36.000    23345222.961 5  95594786.888 5      2627.491          32.000  
G02  24153968.375 5 126929919.442 5     -2463.473          34.000                                                                  
G14  23596384.281 6 123999830.821 6     -2056.438          38.000    23596390.719 5  96623288.733 5     -1602.419          34.000  
G12  22817377.656 5 119906134.392 5     -2790.273          35.000    22817380.016 5  93433353.572 5     -2174.237          32.000  
G25  20781785.953 8 109209020.411 8     -1572.367          51.000    20781788.258 8  85097937.772 8     -1225.222          51.000  
G29  20207867.977 8 106193076.699 8        44.051          51.000    20207868.367 8  82747861.587 8        34.325          51.000  
R11  21017434.562 7 112310424.601 7     -2946.059          44.000    21017439.281 7  87352552.386 7     -2291.376          47.000  
R23  22568625.539 5 120726580.722 5      4180.039          34.000                                                                  
R22  19133809.914 8 102137188.869 8       518.453          51.000    19133811.445 8  79440111.135 8       403.241          49.000  
R12  19191133.664 8 102515195.949 8       466.133          51.000    19191137.766 8  79734058.695 8       362.545          49.000  
E36  23591346.930 8 123973373.645 8      1281.293          51.000    23591349.453 8  94992618.555 8       981.717          51.000  
E25  24830038.492 8 130482719.466 8     -1709.719          51.000    24830043.055 8  99980273.125 8     -1310.024          51.000  
E11  24072908.984 5 126503988.733 5     -1593.344          32.000    24072907.297 5  96931619.825 5     -1220.952          34.000  
E02  23347589.234 8 122692408.429 8       663.793          48.000    23347590.477 8  94011075.326 8       508.636          48.000  
C12  23781975.570 7 123839040.276 7      2789.672          47.000    23781974.789 8  95760202.703 8      2157.170          51.000  
C26  21845838.805 8 113757026.138 8     -1531.887          51.000                                                                  
> 2020 05 13 11 13  0.0000000  0 16      -0.000000000000
G21  23325992.055 6 122578885.042 6      3365.781          36.000    23325987.516 5  95516023.882 5      2622.688          34.000  
G02  24168058.930 5 127003967.354 5     -2473.996          32.000                                                                  
G14  23608154.359 6 124061684.298 6     -2068.047          38.000    23608160.109 5  96671486.216 5     -1611.459          35.000  
G12  22833321.406 4 119989918.063 4     -2796.152          28.000    22833321.328 3  93498637.206 3     -2178.824          23.000  
G25  20790788.867 8 109256331.318 8     -1583.027          51.000    20790791.508 8  85134803.407 8     -1233.528          51.000  
G29  20207656.523 8 106191964.405 8        28.875          51.000    20207656.945 8  82746994.864 8        22.500          51.000  
R11  21034010.352 8 112399004.607 8     -2960.359          48.000    21034016.164 7  87421447.985 7     -2302.499          47.000  
R23  22545199.977 5 120601278.605 5      4171.582          35.000                                                                  
R22  19130964.195 8 102121999.290 8       493.023          51.000    19130966.266 8  79428297.014 8       383.463          49.000  
R12  19188566.953 8 102501484.390 8       446.695          51.000    19188570.773 8  79723394.162 8       347.433          49.000  
E36  23584066.430 8 123935115.165 8      1268.133          51.000    23584069.117 8  94963303.631 8       971.702          51.000  
E25  24839814.727 8 130534094.001 8     -1716.516          51.000    24839819.258 8 100019638.013 8     -1315.235          51.000  
E11  24082035.703 6 126551947.988 6     -1604.836          37.000    24082033.688 5  96968367.824 5     -1229.701          34.000  
E02  23343817.367 8 122672588.360 8       656.316          48.000    23343818.992 8  93995888.513 8       502.922          48.000  
C12  23765923.500 7 123755454.415 7      2781.496          47.000    23765923.734 8  95695568.814 8      2150.818          51.000  
C26  21854698.375 8 113803159.511 8     -1544.930          51.000                                                                  
> 2020 05 13 11 13 30.0000000  0 17      -0.000000000000
G18  23455254.328 5 123258181.92825      3649.684          31.000                                                                  
G21  23306795.953 5 122478006.287 5      3360.516          34.000    23306790.891 5  95437417.049 5      2618.578          32.000  
G02  24182212.633 5 127078348.173 5     -2482.973          33.000                                                                  
G14  23619991.750 6 124123893.408 6     -2078.660          37.000    23619995.938 5  96719960.739 5     -1619.739          35.000  
G12  22849298.273 5 120073875.012 5     -2801.172          34.000    22849301.516 5  93564063.571 5     -2182.732          35.000  
G25  20799855.891 8 109303978.363 8     -1592.973          51.000    20799858.516 8  85171930.950 8     -1241.278          51.000  
G29  20207534.422 8 106191322.698 8        14.445          51.000    20207534.945 8  82746494.850 8        11.259          51.000  
R11  21050670.594 8 112488027.441 8     -2973.961          49.000    21050675.820 7  87490687.949 7     -2313.084          47.000  
R23  22521827.320 6 120476253.559 6      4163.625          38.000                                                                  
R22  19128264.453 8 102107589.879 8       468.168          51.000    19128267.305 8  79417089.713 8       364.131          49.000  
R12  19186112.672 8 102488375.331 8       427.766          49.000    19186116.562 8  79713198.235 8       332.707          49.000  
E36  23576864.305 8 123897268.518 8      1255.570          51.000    23576867.289 8  94934304.262 8       962.040          51.000  
E25  24849633.852 8 130585693.479 8     -1722.930          51.000    24849638.188 8 100059175.261 8     -1320.216          51.000  
E11  24091229.398 5 126600262.510 5     -1615.621          34.000    24091228.570 5  97005391.026 5     -1237.989          34.000  
E02  23340091.461 8 122653010.600 8       649.379          48.000    23340093.453 8  93980887.361 8       497.633          48.000  
C12  23749921.695 8 123672130.513 8      2773.883          48.000    23749922.758 8  95631137.483 8      2144.931          51.000  
C26  21863635.664 8 113849699.787 8     -1557.344          49.000                                                                  
> 2020 05 13 11 14  0.0000000  0 16      -0.000000000000
G18  23434435.438 5 123148770.142 5      3644.129          35.000    23434440.984 5  95960107.395 5      2839.582          33.000  
G21  23287631.875 5 122377297.024 5      3353.641          34.000                                                                  
G02  24196393.219 4 127152904.33024     -2495.293          29.000                                                                  
G14  23631890.133 6 124186422.036 6     -2090.059          38.000    23631891.906 5  96768684.299 5     -1628.615          33.000  
G25  20808980.492 8 109351927.718 8     -1603.930          51.000    20808983.078 8  85209294.076 8     -1249.816          51.000  
G29  20207495.320 8 106191117.394 8        -1.043          51.000    20207495.734 8  82746334.882 8        -0.813          51.000  
R11  21067407.109 8 112577457.636 8     -2988.488          51.000    21067411.375 7  87560244.684 7     -2324.383          47.000  
R23  22498500.789 5 120351473.947 5      4154.750          35.000                                                                  
R22  19125704.398 8 102093925.937 8       442.434          51.000    19125707.469 8  79406462.205 8       344.115          49.000  
R12  19183764.961 8 102475836.552 8       407.766          49.000    19183769.094 8  79703445.841 8       317.151          49.000  
E36  23569734.188 8 123859800.780 8      1241.855          51.000    23569737.570 8  94905595.210 8       951.597          51.000  
E25  24859489.320 8 130637484.369 8     -1730.148          51.000    24859493.367 8 100098859.175 8     -1325.678          51.000  
E11                                                                  24100483.758 5  97042656.639 5     -1246.675          33.000  
E02  23336405.633 8 122633642.535 8       641.535          49.000    23336407.523 8  93966046.905 8       491.482          48.000  
C12  23733964.055 8 123589036.576 8      2765.359          48.000    23733965.758 8  95566883.994 8      2138.391          51.000  
C26  21872643.844 8 113896613.342 8     -1570.637          48.000                                                                  
> 2020 05 13 11 14 30.0000000  0 15      -0.000000000000
G18  23413644.133 6 123039500.986 6      3638.508          36.000    23413645.195 4  95874959.543 4      2835.202          29.000  
