     3.04           OBSERVATION DATA    M (MIXED)           RINEX VERSION / TYPE
Convert 2.6.2       NovAtel             20200515 160836 UTC PGM / RUN BY / DATE 
Rinex Version 3.04 Observation File                         COMMENT             
                                                            MARKER NAME         
                                                            MARKER NUMBER       
                                                            MARKER TYPE         
                                                            OBSERVER / AGENCY   
                    NovAtel GPSCard                         REC # / TYPE / VERS 
                                                            ANT # / TYPE        
        0.0000        0.0000        0.0000                  APPROX POSITION XYZ 
        0.0000        0.0000        0.0000                  ANTENNA: DELTA H/E/N
G    8 C1C L1C D1C S1C C2W L2W D2W S2W                      SYS / # / OBS TYPES 
R    8 C1C L1C D1C S1C C2P L2P D2P S2P                      SYS / # / OBS TYPES 
E    8 C1C L1C D1C S1C C7Q L7Q D7Q S7Q                      SYS / # / OBS TYPES 
C    8 C2I L2I D2I S2I C7I L7I D7I S7I                      SYS / # / OBS TYPES 
DBHZ                                                        SIGNAL STRENGTH UNIT
    30.000                                                  INTERVAL            
  2020    05    12    10    00    0.0000000     GPS         TIME OF FIRST OBS   
  2020    05    12    10    59   30.0000000     GPS         TIME OF LAST OBS    
G L1C  0.00000  07 G24 G02 G32 G06 G12 G25 G29              SYS / PHASE SHIFT   
G L2W  0.00000  07 G24 G32 G06 G12 G25 G29 G02              SYS / PHASE SHIFT   
R L1C  0.00000  06 R21 R20 R10 R09 R11 R22                  SYS / PHASE SHIFT   
R L2P  0.25000  05 R21 R20 R09 R11 R22                      SYS / PHASE SHIFT   
E L1C  0.50000  04 E27 E30 E15 E13                          SYS / PHASE SHIFT   
E L7Q -0.25000  04 E27 E15 E30 E13                          SYS / PHASE SHIFT   
C L2I  0.00000  05 C26 C24 C12 C05 C11                      SYS / PHASE SHIFT   
C L7I  0.00000  03 C12 C05 C11                              SYS / PHASE SHIFT   
  6 R21  4 R20  2 R10 -7 R09 -2 R11  0 R22 -3               GLONASS SLOT / FRQ #
 C1C  -71.950 C2C  -71.950 C2P  -71.950                     GLONASS COD/PHS/BIS 
     0     0     0     0GPS                                 LEAP SECONDS        
                                                            END OF HEADER       
> 2020 05 12 10 00  0.0000000  0 16      -0.000000000000
G24  23028467.852 8 121015379.673 8     -3352.305          51.000    23028468.398 8  94297701.275 8     -2612.189          51.000  
G02  22925296.461 6 120473184.260 6      -175.180          37.000                                                                  
G32  22407922.734 6 117754443.138 6     -1325.367          36.000    22407919.133 6  91756677.264 6     -1032.751          36.000  
G06  23855481.023 5 125361391.275 5     -1601.160          34.000    23855482.797 5  97684199.386 5     -1247.661          33.000  
G12  20828927.844 7 109456744.540 7     -1676.645          46.000    20828925.828 7  85290963.212 7     -1306.480          46.000  
G25  20155437.141 8 105917531.670 8       159.477          49.000    20155438.383 8  82533157.555 8       124.267          49.000  
G29  21309579.695 8 111982595.872 8      2441.574          51.000    21309580.062 8  87259169.004 8      1902.526          51.000  
R21  21104289.289 7 112932921.804 7      3771.105          46.000    21104292.727 7  87836759.175 7      2933.083          47.000  
R20  19761281.664 6 105672066.255 6      -490.461          41.000    19761285.836 8  82189395.281 8      -381.470          49.000  
R10  19649312.000 8 104741486.159 8      -801.051          50.000                                                                  
E27  23471401.422 6 123343039.405 6       712.664          39.000    23471403.367 6  94509612.839 6       545.828          36.000  
E30  23513772.797 5 123565736.628 5     -1533.555          35.000                                                                  
E15  24448913.312 8 128479912.984 8      2139.613          49.000    24448915.211 8  98445657.379 8      1639.340          50.000  
C26  23654731.008 7 123176358.128 7     -2506.879          46.000                                                                  
C24  21802380.992 8 113530806.770 8      -170.086          51.000                                                                  
C12  22262762.398 8 115928108.342 8      1975.613          49.000    22262760.945 8  89642988.178 8      1527.628          51.000  
> 2020 05 12 10 00 30.0000000  0 16      -0.000000000000
G24  23047626.125 8 121116053.428 8     -3359.535          51.000    23047626.898 8  94376148.347 8     -2617.820          51.000  
G02  22926344.469 5 120478696.066 5      -192.664          32.000                                                                  
G32  22415536.578 5 117794465.440 5     -1343.590          35.000    22415534.891 5  91787863.415 5     -1046.957          34.000  
G06  23864669.086 5 125409674.135 5     -1618.863          34.000    23864671.625 5  97721822.380 5     -1261.455          35.000  
G12  20838524.742 7 109507176.959 7     -1685.910          46.000    20838523.047 7  85330261.152 7     -1313.697          46.000  
G25  20154558.586 8 105912914.978 8       147.828          49.000    20154559.664 8  82529560.122 8       115.191          49.000  
G29  21295681.023 8 111909556.624 8      2427.395          51.000    21295680.891 8  87202255.324 8      1891.477          51.000  
R21  21083188.578 7 112820016.858 7      3755.605          46.000    21083193.812 7  87748944.257 7      2921.027          47.000  
R20  19764110.430 6 105687193.521 6      -518.473          41.000    19764114.672 8  82201160.922 8      -403.257          49.000  
R10  19653862.875 8 104765744.382 8      -816.371          50.000                                                                  
E27  23467348.961 6 123321744.523 6       706.875          39.000    23467350.391 6  94493296.015 6       541.566          38.000  
E15  24436729.445 8 128415887.985 8      2128.359          50.000    24436731.562 8  98396599.298 8      1630.783          50.000  
C26  23669194.812 7 123251671.665 7     -2514.383          47.000                                                                  
C05  39679388.375 5 206620986.683 5        33.590          35.000                                                                  
C24  21803394.430 8 113536084.287 8      -182.020          51.000                                                                  
C12  22251419.648 8 115869045.096 8      1961.551          48.000    22251418.766 8  89597316.762 8      1516.784          51.000  
> 2020 05 12 10 01  0.0000000  0 17      -0.000000000000
G24  23066815.906 8 121216894.215 8     -3366.980          49.000    23066816.641 8  94454725.556 8     -2623.622          49.000  
G02  22927488.969 6 120484683.268 6      -210.367          38.000                                                                  
G32  22423252.016 5 117834976.639 5     -1359.734          31.000    22423238.352 5  91819442.400 5     -1059.543          30.000  
G06  23873949.078 5 125458442.922 5     -1636.824          34.000    23873953.422 5  97759824.048 5     -1275.445          33.000  
G12  20848164.734 7 109557835.794 7     -1695.324          44.000    20848163.031 7  85369735.525 7     -1321.035          45.000  
G25  20153737.516 8 105908600.309 8       135.852          48.000    20153738.469 8  82526198.038 8       105.861          48.000  
G29  21281854.461 8 111836896.963 8      2412.691          51.000    21281854.359 8  87145637.432 8      1880.020          51.000  
R21  21062167.531 8 112707530.835 8      3739.527          49.000    21062172.938 7  87661455.155 7      2908.522          46.000  
R20  19767087.453 6 105703112.640 6      -546.789          39.000    19767091.539 8  82213542.461 8      -425.280          48.000  
R10  19658490.891 8 104790414.817 8      -832.262          49.000                                                                  
E27  23463319.695 6 123300570.867 6       700.773          40.000    23463321.164 6  94477072.058 6       536.855          39.000  
E30  23531329.320 5 123657955.527 5     -1543.668          35.000    23531334.125 5  94750921.831 5     -1183.149          31.000  
E15  24424601.242 8 128352154.152 8      2116.574          50.000    24424604.117 8  98347764.301 8      1621.818          51.000  
C26  23683693.008 7 123327163.181 7     -2522.121          45.000                                                                  
C05  39679183.898 5 206619921.986 5        33.086          35.000                                                                  
C24  21804467.430 8 113541672.054 8      -194.383          51.000                                                                  
C12  22240148.445 8 115810354.809 8      1947.133          48.000    22240147.773 8  89551933.701 8      1505.665          51.000  
> 2020 05 12 10 01 30.0000000  0 18      -0.000000000000
G24  23086060.375 8 121318024.565 8     -3372.363          48.000    23086061.406 8  94533528.409 8     -2627.819          48.000  
G02  22928742.695 4 120491355.34124      -225.957          29.000    22928734.602 5  93889334.44225      -176.070          30.000  
G32  22431071.195 5 117876074.05225     -1377.250          31.000    22431061.133 5  91851444.56825     -1073.185          32.000  
G06  23883344.852 5 125507824.29525     -1652.430          32.000    23883350.984 5  97798300.64125     -1287.611          33.000  
G12  20857871.312 7 109608844.814 7     -1702.879          45.000    20857869.297 7  85409482.787 7     -1326.919          44.000  
G25  20152997.703 7 105904712.927 7       125.883          47.000    20152998.516 7  82523168.912 7        98.091          47.000  
G29  21268124.031 8 111764743.178 8      2400.141          51.000    21268124.219 8  87089413.742 8      1870.240          51.000  
R21  21041250.438 8 112595594.995 8      3725.434          51.000    21041254.539 7  87574394.037 7      2897.563          45.000  
R09  21811094.430 6 116469631.546 6     -2904.652          37.000                                                                  
R20  19770236.328 6 105719950.513 6      -573.059          39.000    19770240.383 8  82226638.574 8      -445.712          49.000  
R10  19663220.078 8 104815625.359 8      -845.977          50.000                                                                  
E27  23459337.453 6 123279644.184 6       696.836          41.000    23459339.234 6  94461037.319 6       533.943          39.000  
E30  23540160.617 6 123704363.373 6     -1547.285          38.000    23540160.211 5  94786492.122 5     -1185.682          34.000  
E15  24412552.914 8 128288838.234 8      2106.938          50.000    24412556.266 8  98299249.509 8      1614.324          51.000  
C26  23698248.414 7 123402956.104 7     -2528.051          47.000                                                                  
C05  39678995.227 5 206618939.715 5        33.980          35.000                                                                  
C24  21805623.867 8 113547694.804 8      -204.660          51.000                                                                  
C12  22228972.906 8 115752162.782 8      1934.715          49.000    22228972.273 8  89506935.909 8      1496.039          51.000  
> 2020 05 12 10 02  0.0000000  0 16      -0.000000000000
G24  23105331.141 7 121419295.845 7     -3379.207          46.000    23105332.781 7  94612441.064 7     -2633.149          46.000  
G06  23892828.523 5 125557662.864 5     -1670.242          31.000    23892835.695 5  97837136.539 5     -1301.491          30.000  
G12  20867616.641 7 109660056.903 7     -1711.535          45.000    20867613.969 7  85449388.261 7     -1333.664          44.000  
G25  20152311.258 8 105901105.948 8       114.535          48.000    20152311.938 8  82520358.287 8        89.248          48.000  
G29  21254462.172 8 111692949.915 8      2385.984          51.000    21254462.602 8  87033470.975 8      1859.209          51.000  
R21  21020409.320 8 112484063.336 8      3709.867          50.000    21020411.148 7  87487647.250 7      2885.459          44.000  
R09  21827435.055 5 116556903.057 5     -2913.441          33.000    21827438.492 5  90655384.079 5     -2266.017          32.000  
R20  19773528.430 6 105737555.611 6      -600.625          39.000    19773532.703 8  82240331.439 8      -467.156          48.000  
R10  19668023.039 8 104841227.529 8      -860.996          50.000                                                                  
E27  23455374.336 7 123258818.086 7       691.527          42.000    23455376.117 6  94445079.648 6       529.980          39.000  
E30  23549007.383 6 123750857.608 6     -1552.094          40.000    23549003.781 6  94822117.562 6     -1189.567          36.000  
E15  24400556.344 8 128225794.777 8      2095.844          51.000    24400560.312 8  98250943.507 8      1605.898          51.000  
C26  23712833.695 7 123478904.148 7     -2535.172          46.000                                                                  
C05  39678794.453 5 206617893.348 5        34.660          35.000                                                                  
C24  21806835.984 8 113554007.603 8      -216.379          51.000                                                                  
C12  22217865.414 8 115694324.538 8      1920.977          49.000    22217864.805 8  89462211.685 8      1485.415          51.000  
> 2020 05 12 10 02 30.0000000  0 16      -0.000000000000
G24  23124642.914 7 121520785.978 7     -3386.707          43.000    23124645.375 7  94691524.202 7     -2638.999          43.000  
G06  23902414.602 5 125608036.924 5     -1688.547          31.000    23902423.688 5  97876392.072 5     -1315.748          31.000  
G12  20877415.680 7 109711550.492 7     -1721.258          45.000    20877412.617 7  85489513.110 7     -1341.243          45.000  
G25  20151693.336 8 105897858.511 8       102.027          48.000    20151693.742 8  82517827.810 8        79.499          49.000  
G29  21240884.102 8 111621597.582 8      2370.914          51.000    21240884.648 8  86977871.779 8      1847.469          51.000  
R21  20999658.773 8 112373020.324 8      3693.074          48.000    20999659.461 7  87401280.493 7      2872.395          44.000  
R09  21843837.867 5 116644484.671 5     -2925.074          32.000    21843840.086 6  90723503.019 6     -2275.058          36.000  
R20  19776978.867 6 105756007.278 6      -629.418          38.000    19776983.109 8  82254682.721 8      -489.547          48.000  
R10  19672914.594 8 104867302.601 8      -877.230          51.000                                                                  
E27  23451445.633 6 123238172.209 6       684.941          41.000    23451446.906 6  94429260.077 6       524.861          39.000  
E30  23557885.609 7 123797517.291 7     -1558.320          42.000    23557883.266 6  94857869.738 6     -1194.002          37.000  
E15  24388627.062 8 128163104.447 8      2083.551          51.000    24388631.297 8  98202908.066 8      1596.545          51.000  
C26  23727462.844 7 123555085.162 7     -2543.543          43.000                                                                  
C05  39678596.734 5 206616864.276 5        33.543          35.000                                                                  
C24  21808119.172 8 113560689.439 8      -229.094          51.000                                                                  
C12  22206841.242 8 115636919.680 8      1906.168          49.000    22206841.047 8  89417822.638 8      1473.898          51.000  
> 2020 05 12 10 03  0.0000000  0 16      -0.000000000000
G24  23144001.461 7 121622521.625 7     -3394.172          42.000    23144003.953 7  94770798.664 7     -2644.810          42.000  
G02  22933061.617 4 120514051.71624      -279.043          29.000                                                                  
G06  23912108.664 5 125658980.754 5     -1706.238          31.000    23912118.617 5  97916088.541 5     -1329.546          31.000  
G12  20887273.695 7 109763353.508 7     -1730.836          45.000    20887270.953 7  85529879.080 7     -1348.707          45.000  
G25  20151149.297 8 105894999.543 8        89.723          48.000    20151149.398 8  82515600.051 8        69.914          48.000  
G29  21227395.836 8 111550716.345 8      2355.719          51.000    21227396.289 8  86922639.654 8      1835.629          51.000  
R21  20979005.016 8 112262499.111 8      3676.270          48.000    20979006.344 7  87315319.546 7      2859.321          44.000  
R20  19780592.953 6 105775333.576 6      -657.617          38.000    19780597.539 8  82269714.280 8      -511.480          49.000  
R10  19677900.695 8 104893880.196 8      -893.441          51.000                                                                  
E27  23447556.898 6 123217736.043 6       678.793          41.000    23447557.898 6  94413601.195 6       520.022          39.000  
E30  23566801.523 7 123844371.503 7     -1564.270          44.000    23566800.508 6  94893770.986 6     -1198.507          38.000  
E15  24376770.539 8 128100797.639 8      2071.465          51.000    24376775.312 8  98155166.512 8      1587.248          51.000  
C26  23742141.688 7 123631527.230 7     -2551.570          44.000                                                                  
C05  39678407.383 5 206615878.282 5        32.852          35.000                                                                  
C24  21809478.852 8 113567769.620 8      -241.688          51.000                                                                  
C12  22195906.211 8 115579978.001 8      1891.211          50.000    22195906.289 8  89373791.757 8      1462.519          51.000  
> 2020 05 12 10 03 30.0000000  0 17      -0.000000000000
G24  23163392.391 7 121724429.248 7     -3400.273          42.000    23163396.172 7  94850207.214 7     -2649.562          42.000  
G32  22463299.273 5 118045433.99225     -1445.020          34.000                                                                  
G06  23921896.977 5 125710416.751 5     -1723.273          32.000    23921906.062 5  97956168.593 5     -1342.814          33.000  
G12  20897176.555 7 109815393.154 7     -1739.312          44.000    20897174.586 7  85570429.440 7     -1355.309          44.000  
G25  20150665.320 8 105892456.948 8        78.684          48.000    20150665.289 8  82513618.796 8        61.312          48.000  
G29  21213983.977 8 111480235.324 8      2341.922          51.000    21213983.820 8  86867719.360 8      1824.875          51.000  
R21  20958436.078 8 112152430.018 8      3660.637          49.000    20958437.523 7  87229710.310 7      2847.166          43.000  
R09  21876818.398 5 116820624.058 5     -2944.121          34.000    21876825.211 5  90860487.424 5     -2289.872          32.000  
R20  19784356.391 6 105795459.600 6      -684.914          37.000    19784361.070 8  82285367.850 8      -532.711          48.000  
R10  19682967.359 8 104920887.687 8      -908.082          51.000                                                                  
E27  23443694.453 7 123197437.976 7       673.676          42.000    23443695.750 6  94398048.135 6       516.068          40.000  
E30  23575741.289 7 123891348.158 7     -1568.488          44.000    23575740.539 6  94929766.079 6     -1201.949          38.000  
E15  24364973.312 8 128038803.731 8      2060.543          51.000    24364978.555 8  98107664.716 8      1578.897          51.000  
C26  23756857.852 7 123708158.150 7     -2558.199          47.000                                                                  
C05  39678212.797 5 206614865.23125        33.914          35.000                                                                  
C24  21810901.297 8 113575177.301 8      -253.086          51.000                                                                  
C12  22185046.688 8 115523429.198 8      1877.746          50.000    22185046.891 8  89330064.691 8      1451.929          51.000  
> 2020 05 12 10 04  0.0000000  0 15      -0.000000000000
G24  23182832.062 7 121826589.514 7     -3422.215          45.000    23182837.812 7  94929812.630 7     -2666.662          45.000  
G12  20907140.164 7 109867752.065 7     -1762.984          43.000    20907138.414 7  85611228.567 7     -1373.758          43.000  
G25  20150257.383 7 105890313.999 7        52.234          47.000    20150257.461 7  82511948.964 7        40.702          47.000  
G29  21200664.453 8 111410239.435 8      2312.637          51.000    21200663.625 8  86813177.115 8      1802.055          51.000  
R21  20937968.328 8 112042901.312 8      3629.199          48.000    20937968.961 6  87144521.370 6      2822.711          41.000  
R09  21893401.984 5 116909157.515 5     -2969.789          34.000    21893401.047 4  90929346.897 4     -2309.833          29.000  
R20  19788285.094 6 105816468.776 6      -727.930          38.000    19788289.930 8  82301708.318 8      -566.168          49.000  
R10  19688130.562 8 104948410.257 8      -938.746          51.000                                                                  
E27  23439874.211 7 123177361.803 7       652.973          43.000    23439875.562 6  94382665.107 6       500.336          40.000  
E30  23584720.219 7 123938530.769 7     -1588.820          42.000    23584718.305 6  94965918.920 6     -1217.088          37.000  
E15  24353251.852 8 127977207.439 8      2033.949          51.000    24353257.477 8  98060467.602 8      1558.559          51.000  
C26  23771626.414 8 123785059.820 8     -2580.379          49.000                                                                  
C05  39678028.703 6 206613906.329 6        18.867          36.000                                                                  
C24  21812402.797 8 113582995.596 8      -279.863          51.000                                                                  
C12  22174278.562 8 115467356.865 8      1848.785          49.000    22174278.859 8  89286706.067 8      1429.496          51.000  
> 2020 05 12 10 04 30.0000000  0 15      -0.000000000000
G24  23202329.641 7 121929048.259 7     -3410.684          47.000    23202336.195 7  95009650.603 7     -2657.679          47.000  
G32  22480011.172 5 118133245.06225     -1476.750          33.000                                                                  
G12  20917173.219 7 109920476.061 7     -1754.090          43.000    20917171.266 7  85652312.217 7     -1366.821          42.000  
G25  20149934.414 8 105888617.241 8        58.652          48.000    20149934.812 8  82510626.807 8        45.703          48.000  
G29  21187445.688 8 111340776.285 8      2315.984          50.000    21187445.203 8  86759050.009 8      1804.664          50.000  
R21  20917610.672 7 111933964.280 7      3630.957          47.000    20917610.523 6  87059792.586 6      2824.078          40.000  
R20  19792387.688 6 105838406.564 6      -737.141          39.000    19792392.266 8  82318771.043 8      -573.335          48.000  
R10  19693399.500 8 104976496.526 8      -935.961          51.000                                                                  
E27  23436105.094 7 123157554.630 7       665.141          43.000    23436106.023 6  94367488.221 6       509.624          40.000  
E30  23593746.789 7 123985965.891 7     -1575.969          43.000    23593744.812 6  95002265.326 6     -1207.564          36.000  
E15  24341615.375 8 127916056.828 8      2040.438          51.000    24341620.828 8  98013611.965 8      1563.414          51.000  
C26  23786456.031 8 123862277.720 8     -2569.852          49.000                                                                  
C05  39677863.969 5 206613048.158 5        36.176          35.000                                                                  
C24  21813992.227 8 113591271.223 8      -274.105          51.000                                                                  
C12  22163610.805 8 115411808.279 8      1852.309          48.000    22163611.234 8  89243752.418 8      1432.350          51.000  
> 2020 05 12 10 05  0.0000000  0 18      -0.000000000000
G24  23221823.852 8 122031485.759 8     -3419.969          49.000    23221830.086 8  95089472.030 8     -2664.912          49.000  
G02  22940230.484 6 120551715.366 6      -347.488          37.000    22940229.484 5  93936403.518 5      -270.770          33.000  
G32  22488492.039 6 118177799.473 6     -1496.012          40.000    22488515.930 6  92086619.957 6     -1165.727          39.000  
G06  23951884.133 5 125867954.783 5     -1774.984          31.000    23951888.008 5  98078970.686 5     -1383.105          31.000  
G12  20927215.094 7 109973247.176 7     -1765.363          42.000    20927213.719 7  85693432.530 7     -1375.608          43.000  
G25  20149636.000 8 105887049.018 8        44.254          48.000    20149636.711 8  82509404.803 8        34.484          48.000  
G29  21174268.047 8 111271529.566 8      2298.840          50.000    21174268.320 8  86705091.553 8      1791.304          50.000  
R21  20897303.375 7 111825299.020 7      3611.789          47.000    20897303.391 6  86975275.171 6      2809.170          41.000  
R09  21926719.328 5 117087085.561 5     -2973.758          31.000    21926717.758 4  91067707.219 4     -2312.926          29.000  
R20  19796603.328 6 105860948.095 6      -767.199          38.000    19796607.672 8  82336303.338 8      -596.708          49.000  
R10  19698713.484 8 105004823.154 8      -954.102          49.000                                                                  
E27  23432326.758 7 123137699.341 7       656.875          43.000    23432327.781 6  94352274.462 6       503.060          41.000  
E30  23602761.180 7 124033336.009 7     -1583.691          42.000    23602760.961 6  95038561.853 6     -1213.446          36.000  
E15  24330003.547 8 127855035.636 8      2026.109          51.000    24330008.547 8  97966855.499 8      1552.480          51.000  
C26  23801285.648 8 123939496.443 8     -2579.664          48.000                                                                  
C05  39677658.328 5 206611977.496 5        33.426          35.000                                                                  
C24  21815609.109 8 113599689.968 8      -288.680          51.000                                                                  
C12  22152983.422 8 115356469.720 8      1835.309          48.000    22152983.695 8  89200961.142 8      1419.292          51.000  
> 2020 05 12 10 05 30.0000000  0 18      -0.000000000000
G24  23241366.945 8 122134179.200 8     -3426.430          49.000    23241372.312 8  95169492.867 8     -2669.949          49.000  
G02  22942265.719 5 120562413.318 5      -365.645          34.000                                                                  
G32  22497078.180 6 118222916.636 6     -1512.129          39.000    22497104.312 5  92121776.252 5     -1178.283          31.000  
G06  23962065.078 5 125921459.088 5     -1792.801          33.000    23962070.844 5  98120662.263 5     -1396.988          33.000  
G12  20937318.602 6 110026343.311 6     -1774.555          40.000    20937317.422 6  85734806.139 6     -1382.770          41.000  
G25  20149415.180 8 105885888.861 8        32.758          49.000    20149416.258 8  82508500.771 8        25.526          48.000  
G29  21161185.352 8 111202780.016 8      2284.195          51.000    21161186.156 8  86651520.488 8      1779.893          51.000  
R21  20877101.133 8 111717193.499 8      3595.141          49.000    20877101.352 7  86891193.146 7      2796.224          42.000  
R09  21943453.477 5 117176440.506 5     -2983.270          35.000    21943450.891 4  91137205.234 4     -2320.336          26.000  
R20  19800984.648 6 105884376.579 6      -794.617          39.000    19800988.898 8  82354525.496 8      -618.036          48.000  
R10  19704126.047 8 105033675.697 8      -969.621          49.000                                                                  
E27  23428592.469 7 123118076.009 7       651.223          43.000    23428594.133 7  94337238.383 7       498.890          42.000  
E30  23611817.484 6 124080920.633 6     -1589.059          41.000    23611817.523 6  95075022.836 6     -1217.564          36.000  
E15  24318469.602 8 127794424.850 8      2014.402          51.000    24318474.094 8  97920413.478 8      1543.468          51.000  
C26  23816168.367 8 124016992.219 8     -2586.840          49.000                                                                  
C05  39677464.820 5 206610970.79425        32.758          35.000                                                                  
C24  21817306.828 8 113608529.372 8      -300.828          51.000                                                                  
C12  22142449.969 8 115301619.397 8      1821.113          48.000    22142449.688 8  89158547.375 8      1408.177          51.000  
> 2020 05 12 10 06  0.0000000  0 18      -0.000000000000
G24  23260948.961 8 122237077.659 8     -3433.180          50.000    23260952.820 8  95249673.475 8     -2675.206          50.000  
G02  22944401.766 6 120573641.540 6      -383.090          36.000                                                                  
G32  22505758.320 5 118268544.901 5     -1529.301          32.000    22505781.242 5  92157431.102 5     -1191.672          31.000  
G06  23972347.078 5 125975488.769 5     -1809.664          35.000    23972352.133 5  98162763.247 5     -1410.131          34.000  
G12  20947474.398 6 110079714.469 6     -1783.793          38.000    20947473.242 6  85776394.039 6     -1389.972          38.000  
G25  20149262.570 8 105885086.909 8        20.906          49.000    20149263.789 8  82507875.857 8        16.291          49.000  
G29  21148188.352 8 111134479.245 8      2269.238          51.000    21148189.156 8  86598299.122 8      1768.238          51.000  
R21  20856994.758 8 111609600.782 8      3577.773          51.000    20856995.820 7  86807509.997 7      2782.716          45.000  
R09  21960243.375 5 117266098.891 5     -2993.984          32.000    21960245.109 4  91206939.215 4     -2328.655          28.000  
R20  19805522.070 6 105908639.247 6      -822.633          38.000    19805526.000 8  82373396.460 8      -639.826          48.000  
R10  19709627.695 8 105063003.560 8      -985.590          48.000                                                                  
E27  23424892.953 7 123098635.357 7       644.898          44.000    23424895.508 7  94322342.279 7       494.287          43.000  
E30  23620904.539 5 124128670.266 5     -1594.629          34.000    23620905.992 6  95111610.125 6     -1221.817          37.000  
E15  24307004.578 8 127734176.117 8      2002.203          51.000    24307008.648 8  97874248.843 8      1534.207          51.000  
C26  23831094.102 7 124094715.091 7     -2594.512          46.000                                                                  
C05  39677274.141 5 206609977.183 5        32.832          35.000    39677269.492 5 159763921.25725        25.228          35.000  
C24  21819075.922 8 113617740.691 8      -313.172          51.000                                                                  
C12  22132000.758 8 115247208.814 8      1806.391          48.000    22132000.234 8  89116473.631 8      1396.807          51.000  
> 2020 05 12 10 06 30.0000000  0 17      -0.000000000000
G24  23280566.414 8 122340164.043 8     -3438.418          49.000    23280568.844 8  95330000.497 8     -2679.288          49.000  
G02  22946637.430 5 120585385.438 5      -399.285          31.000                                                                  
G32  22514533.703 5 118314667.467 5     -1545.133          32.000    22514551.211 5  92193370.690 5     -1204.003          32.000  
G06  23982726.008 6 126030027.554 6     -1825.738          37.000    23982729.023 6  98205260.913 6     -1422.657          37.000  
G12  20957679.945 6 110133345.363 6     -1791.242          40.000    20957679.109 6  85818184.272 6     -1395.774          40.000  
G25  20149175.398 8 105884628.756 8        10.496          49.000    20149176.727 8  82507518.866 8         8.179          49.000  
G29  21135274.352 8 111066613.869 8      2255.801          51.000    21135274.734 8  86545417.031 8      1757.770          51.000  
R21  20836982.508 8 111502510.066 8      3562.277          51.000    20836984.297 7  86724217.289 7      2770.664          46.000  
R20  19810212.070 6 105933719.573 6      -848.484          39.000    19810216.258 8  82392903.387 8      -659.935          49.000  
R10  19715215.844 8 105092792.426 8      -999.727          49.000                                                                  
E27  23421225.875 7 123079363.474 7       640.402          44.000    23421228.992 7  94307575.484 7       490.794          43.000  
E30                                                                  23630022.953 6  95148312.734 6     -1224.730          37.000  
E15  24295605.820 8 127674276.341 8      1991.844          51.000    24295609.656 8  97828351.612 8      1526.123          51.000  
C26  23846058.820 7 124172649.975 7     -2600.473          43.000                                                                  
C05  39677083.422 5 206608983.918 5        33.875          35.000                                                                  
C24  21820913.875 8 113627310.142 8      -323.965          51.000                                                                  
C12  22121633.445 8 115193224.799 8      1793.297          48.000    22121632.938 8  89074729.763 8      1386.682          51.000  
> 2020 05 12 10 07  0.0000000  0 18      -0.000000000000
G24  23300217.250 7 122443428.158 7     -3445.074          47.000    23300218.383 7  95410466.011 7     -2684.477          47.000  
G02  22948967.633 6 120597652.554 6      -417.668          36.000                                                                  
G32  22523402.078 5 118361273.270 5     -1561.562          32.000    22523412.281 5  92229687.090 5     -1216.802          32.000  
G06  23993199.719 6 126085064.967 6     -1843.051          39.000    23993201.695 6  98248147.205 6     -1436.144          40.000  
G12  20967933.383 6 110187226.419 6     -1799.938          40.000    20967932.797 6  85860169.444 6     -1402.549          40.000  
G25  20149151.969 8 105884505.661 8        -1.383          49.000    20149153.516 8  82507422.940 8        -1.078          49.000  
G29  21122441.828 8 110999176.171 8      2240.930          51.000    21122441.555 8  86492868.204 8      1746.180          51.000  
R21  20817062.984 8 111395915.857 8      3545.094          50.000    20817065.062 7  86641310.713 7      2757.296          46.000  
R09  21993990.516 5 117446286.832 5     -3011.844          32.000    21993984.133 5  91347076.890 5     -2342.546          33.000  
R20  19815053.219 6 105959606.996 6      -876.121          38.000    19815057.469 8  82413038.051 8      -681.428          48.000  
R10  19720889.023 8 105123034.369 8     -1015.441          49.000                                                                  
E27  23417589.422 7 123060252.152 7       634.547          44.000    23417592.844 7  94292931.748 7       486.212          44.000  
E30                                                                  23639165.797 6  95185124.124 6     -1228.588          36.000  
E15  24284272.203 8 127614718.225 8      1979.766          51.000    24284275.766 8  97782716.176 8      1516.952          51.000  
C26  23861061.977 7 124250787.549 7     -2607.648          43.000                                                                  
C05  39676890.977 5 206607981.848 5        33.566          35.000    39676886.273 5 159762379.33825        25.847          34.000  
C24  21822818.938 8 113637229.641 8      -336.316          51.000                                                                  
C12  22111346.883 8 115139659.709 8      1778.578          49.000    22111346.477 8  89033309.839 8      1375.431          51.000  
> 2020 05 12 10 07 30.0000000  0 18      -0.000000000000
G24  23319900.289 7 122546864.435 7     -3451.586          45.000    23319900.344 7  95491065.712 7     -2689.548          45.000  
G02  22951397.625 5 120610405.901 5      -433.461          34.000                                                                  
G32  22532361.852 6 118408355.902 6     -1578.430          38.000    22532369.070 6  92266374.889 6     -1229.943          37.000  
G06  24003766.742 6 126140594.668 6     -1860.070          40.000    24003769.195 6  98291417.094 6     -1449.403          41.000  
G12  20978233.461 6 110241352.491 6     -1808.887          39.000    20978232.523 6  85902345.615 6     -1409.523          40.000  
G25  20149191.523 8 105884713.060 8       -13.211          49.000    20149193.266 8  82507584.548 8       -10.294          49.000  
G29  21109689.891 8 110932163.202 8      2225.801          51.000    21109689.359 8  86440650.341 8      1734.391          51.000  
R21  20797235.945 8 111289817.076 8      3527.414          49.000    20797238.312 8  86558789.471 8      2743.545          48.000  
R09  22010934.000 5 117536784.436 5     -3022.332          32.000    22010931.633 5  91417463.749 5     -2350.712          33.000  
R20  19820043.727 6 105986295.218 6      -903.797          38.000    19820048.234 8  82433795.551 8      -702.953          48.000  
R10  19726646.625 8 105153725.412 8     -1031.363          51.000                                                                  
E27  23413982.641 7 123041297.437 7       628.301          43.000    23413986.289 7  94278408.015 7       481.602          44.000  
E30                                                                  23648334.891 5  95222040.861 5     -1232.793          33.000  
E15  24273003.211 8 127555498.617 8      1967.492          51.000    24273006.562 8  97737340.144 8      1507.569          50.000  
C26  23876105.969 7 124329122.716 7     -2615.195          44.000                                                                  
C05                                                                  39676691.328 5 159761593.692 5        25.928          35.000  
C24  21824790.305 8 113647495.230 8      -348.730          51.000                                                                  
C12  22101140.328 8 115086510.074 8      1763.875          50.000    22101139.984 8  88992211.192 8      1363.928          51.000  
> 2020 05 12 10 08  0.0000000  0 17      -0.000000000000
G24  23339619.344 7 122650491.864 7     -3458.770          44.000    23339619.203 7  95571814.322 7     -2695.149          44.000  
G32  22541416.141 6 118455934.210 6     -1595.742          40.000    22541422.617 6  92303448.839 6     -1243.442          40.000  
G06  24014431.094 6 126196635.944 6     -1877.965          38.000    24014434.289 6  98335085.595 6     -1463.353          38.000  
G12  20988583.703 6 110295743.859 6     -1819.219          38.000    20988582.406 6  85944728.490 6     -1417.573          38.000  
G25  20149297.984 8 105885272.011 8       -25.758          51.000    20149299.867 8  82508020.094 8       -20.071          50.000  
G29  21097022.430 8 110865597.049 8      2210.062          50.000    21097022.148 8  86388780.618 8      1722.127          50.000  
R21  20777505.992 8 111184238.666 8      3509.148          48.000    20777508.820 7  86476672.887 7      2729.335          47.000  
R09  22027932.305 5 117627575.417 5     -3032.133          35.000    22027929.172 4  91488077.24024     -2358.332          25.000  
R20  19825187.914 6 106013803.845 6      -932.031          37.000    19825192.742 7  82455191.156 7      -724.913          47.000  
R10  19732492.688 8 105184887.166 8     -1048.051          50.000                                                                  
E27  23410409.086 6 123022520.925 6       621.621          41.000    23410413.188 7  94264020.822 7       476.316          45.000  
E30  23657524.992 6 124321120.616 6     -1615.629          38.000                                                                  
E15  24261802.922 8 127496639.926 8      1954.598          51.000    24261804.648 8  97692240.700 8      1497.734          48.000  
C26  23891192.086 8 124407675.658 8     -2623.391          48.000                                                                  
C05  39676502.500 5 206605959.24125        33.176          34.000    39676497.914 5 159760814.483 5        24.524          35.000  
C24  21826832.383 8 113658128.313 8      -361.914          51.000                                                                  
C12  22091017.867 8 115033797.763 8      1748.496          51.000    22091017.422 8  88951450.697 8      1352.051          51.000  
> 2020 05 12 10 08 30.0000000  0 17      -0.000000000000
G24  23359373.109 7 122754302.734 7     -3463.320          42.000    23359372.641 7  95652705.831 7     -2698.695          42.000  
G32  22550563.070 6 118504000.760 6     -1610.230          41.000    22550567.430 6  92340903.308 6     -1254.729          41.000  
G06  24025191.320 6 126253181.719 6     -1892.781          36.000    24025194.102 6  98379147.182 6     -1474.895          36.000  
G12  20998983.117 5 110350394.660 5     -1825.910          35.000    20998982.195 6  85987313.494 6     -1422.788          36.000  
G25  20149470.273 8 105886177.329 8       -35.828          51.000    20149472.219 8  82508725.534 8       -27.918          51.000  
G29  21084438.922 8 110799473.861 8      2196.785          50.000    21084439.242 8  86337256.044 8      1711.781          50.000  
R21  20757872.914 8 111079179.134 8      3493.434          50.000    20757876.562 8  86394959.923 8      2717.115          48.000  
R09  22044986.234 5 117718653.839 5     -3040.621          35.000                                                                  
R20  19830484.148 6 106042125.702 6      -957.590          37.000    19830489.148 7  82477219.287 7      -744.792          46.000  
R10  19738426.055 8 105216514.568 8     -1061.906          51.000                                                                  
E27  23406868.219 6 123003918.013 6       617.297          41.000    23406872.609 7  94249766.634 7       473.003          45.000  
E30  23666755.719 6 124369612.267 6     -1619.004          39.000                                                                  
E15  24250670.656 8 127438138.420 8      1944.188          51.000    24250671.180 8  97647414.960 8      1489.679          49.000  
C26  23906319.344 8 124486440.412 8     -2628.902          50.000                                                                  
C05  39676309.398 5 206604953.548 5        33.219          34.000    39676304.883 6 159760037.62526        25.925          36.000  
C24  21828944.117 8 113669124.281 8      -372.531          51.000                                                                  
C12  22080978.633 8 114981518.707 8      1735.480          50.000    22080978.016 8  88911025.226 8      1342.002          51.000  
> 2020 05 12 10 09  0.0000000  0 17      -0.000000000000
G24  23379161.578 7 122858295.391 7     -3469.297          42.000    23379160.750 7  95733738.984 7     -2703.352          42.000  
G32  22559802.812 7 118552552.936 7     -1626.266          43.000    22559806.055 6  92378736.188 6     -1267.214          40.000  
G06  24036047.125 5 126310229.633 5     -1909.637          32.000    24036047.805 5  98423600.031 5     -1488.038          30.000  
G12  21009431.742 6 110405303.684 6     -1833.801          38.000    21009431.164 6  86030099.722 6     -1428.936          39.000  
G25  20149708.344 8 105887428.530 8       -47.250          51.000    20149710.188 8  82509700.491 8       -36.818          51.000  
G29  21071940.180 8 110733793.978 8      2182.176          51.000    21071940.695 8  86286076.924 8      1700.397          51.000  
R21  20738337.977 8 110974641.323 8      3476.070          51.000    20738341.492 7  86313652.774 7      2703.614          46.000  
R09  22062096.203 6 117810018.383 6     -3050.305          36.000    22062098.602 4  91629974.714 4     -2372.454          26.000  
R20  19835932.078 6 106071258.087 6      -984.281          38.000    19835936.883 7  82499877.804 7      -765.552          46.000  
R10  19744446.883 8 105248608.072 8     -1077.273          51.000                                                                  
E27  23403360.766 6 122985488.747 6       611.684          41.000    23403365.062 7  94235645.491 7       468.612          45.000  
E30  23676010.711 6 124418257.186 6     -1623.930          40.000                                                                  
E15  24239606.266 8 127379994.948 8      1932.301          51.000    24239607.234 8  97602863.535 8      1480.562          51.000  
C26  23921486.758 8 124565415.844 8     -2635.738          50.000                                                                  
C05  39676116.672 5 206603950.300 5        33.488          34.000    39676112.492 6 159759262.338 6        25.777          36.000  
C24  21831125.312 8 113680483.187 8      -384.418          51.000                                                                  
C12  22071022.305 8 114929673.247 8      1721.180          49.000    22071021.625 8  88870935.063 8      1330.850          51.000  
> 2020 05 12 10 09 30.0000000  0 16      -0.000000000000
G24  23398983.047 7 122962458.838 7     -3474.559          44.000    23398982.555 7  95814905.240 7     -2707.449          44.000  
G32  22569133.266 7 118601580.066 7     -1641.668          44.000    22569134.922 7  92416939.175 7     -1279.222          42.000  
G12  21019927.852 5 110460461.986 5     -1842.035          35.000    21019927.312 5  86073080.216 5     -1435.353          33.000  
G25  20150010.648 8 105889017.183 8       -58.195          51.000    20150012.398 8  82510938.390 8       -45.347          51.000  
G29  21059524.891 8 110668550.377 8      2167.801          51.000    21059525.195 8  86235237.777 8      1689.199          51.000  
R21  20718899.648 8 110870620.235 8      3459.074          51.000    20718902.008 7  86232747.532 7      2690.392          44.000  
R09  22079258.430 5 117901659.580 5     -3058.926          31.000                                                                  
R20  19841529.781 6 106101190.873 6     -1010.348          37.000    19841534.695 7  82523158.875 7      -785.823          46.000  
R10  19750553.383 8 105281159.302 8     -1092.270          51.000                                                                  
E27  23399885.109 7 122967225.284 7       606.297          42.000    23399889.164 7  94221651.395 7       464.574          45.000  
E30  23685295.859 7 124467046.932 7     -1628.367          42.000                                                                  
E15  24228608.648 8 127322202.508 8      1920.910          51.000    24228611.062 8  97558581.030 8      1471.849          51.000  
C26  23936692.492 8 124644592.984 8     -2642.180          49.000                                                                  
C05  39675922.672 5 206602940.17025        34.461          35.000    39675918.844 6 159758483.14126        26.451          36.000  
C24  21833374.758 8 113692197.206 8      -396.012          51.000                                                                  
C12  22061147.852 8 114878254.142 8      1707.152          50.000    22061146.875 8  88831174.579 8      1320.103          51.000  
> 2020 05 12 10 10  0.0000000  0 15      -0.000000000000
G24  23418839.164 7 123066802.440 7     -3481.105          46.000    23418839.797 7  95896211.903 7     -2712.553          46.000  
G32  22578555.562 7 118651090.460 7     -1658.465          44.000    22578557.789 7  92455518.690 7     -1292.314          44.000  
G12  21030473.266 6 110515879.339 6     -1851.461          36.000    21030472.703 6  86116262.601 6     -1442.697          37.000  
G25  20150379.211 8 105890953.779 8       -70.336          51.000    20150380.891 8  82512447.416 8       -54.807          51.000  
G29  21047195.156 8 110603754.676 8      2152.289          51.000    21047194.805 8  86184747.641 8      1677.109          51.000  
R21  20699560.422 8 110767130.089 8      3440.855          51.000    20699561.734 7  86152255.229 7      2676.225          44.000  
R20  19847278.750 6 106131932.441 6     -1038.004          39.000    19847283.523 7  82547068.997 7      -807.337          45.000  
R10  19756748.188 8 105314179.702 8     -1108.469          50.000                                                                  
E27  23396443.320 7 122949138.684 7       599.836          42.000    23396447.102 7  94207792.835 7       459.660          45.000  
E30  23694610.703 6 124515992.109 6     -1633.902          39.000                                                                  
E15  24217679.828 8 127264772.955 8      1908.215          51.000    24217683.789 8  97514576.569 8      1462.142          51.000  
C26  23951938.367 8 124723981.467 8     -2649.781          48.000                                                                  
C05  39675729.586 5 206601934.271 5        33.016          34.000    39675725.680 5 159757705.141 5        26.013          35.000  
C24  21835694.664 8 113704277.325 8      -408.805          51.000                                                                  
C12  22051357.531 8 114827272.836 8      1692.020          51.000    22051356.008 8  88791752.619 8      1308.404          51.000  
> 2020 05 12 10 10 30.0000000  0 14      -0.000000000000
G24  23438729.078 7 123171323.005 7     -3486.930          46.000    23438731.008 7  95977656.473 7     -2717.089          46.000  
G32  22588068.938 7 118701080.714 7     -1674.344          44.000    22588071.773 7  92494472.125 7     -1304.684          43.000  
G25  20150813.789 8 105893237.164 8       -81.750          51.000    20150815.414 8  82514226.676 8       -63.701          51.000  
G29  21034950.672 8 110539406.972 8      2137.574          51.000    21034949.383 8  86134606.600 8      1665.643          51.000  
R21  20680320.625 8 110664173.315 8      3423.035          51.000    20680321.312 7  86072177.793 7      2662.364          45.000  
R20  19853178.320 6 106163479.745 6     -1064.828          38.000    19853182.828 7  82571605.795 7      -828.197          45.000  
R10  19763030.508 8 105347668.147 8     -1123.980          49.000                                                                  
E27  23393034.945 7 122931228.432 7       594.027          42.000    23393038.477 7  94194069.378 7       455.413          45.000  
E30  23703953.961 6 124565091.868 6     -1639.195          37.000    23703951.602 5  95445980.643 5     -1255.963          34.000  
E15  24206820.094 8 127207706.485 8      1896.250          51.000    24206825.281 8  97470850.297 8      1453.031          51.000  
C26  23967224.227 8 124803579.416 8     -2656.590          49.000                                                                  
C05  39675537.164 5 206600932.27725        33.488          35.000    39675533.203 5 159756929.991 5        25.910          35.000  
C24  21838084.820 8 113716722.886 8      -420.801          51.000                                                                  
C12  22041650.977 8 114776728.896 8      1677.598          50.000    22041649.164 8  88752668.842 8      1297.271          51.000  
> 2020 05 12 10 11  0.0000000  0 17      -0.000000000000
G24  23458651.648 7 123276015.551 7     -3492.270          46.000    23458654.734 7  96059235.034 7     -2721.250          46.000  
G32  22597672.375 7 118751545.338 7     -1689.891          45.000    22597674.750 7  92533795.195 7     -1316.798          43.000  
G06  24080417.805 5 126543411.480 5     -1975.727          34.000    24080416.688 5  98605289.781 5     -1539.537          33.000  
G12  21051713.617 6 110627483.491 6     -1867.750          39.000    21051710.578 6  86203228.095 6     -1455.390          39.000  
G25  20151313.734 8 105895864.122 8       -92.953          51.000    20151315.312 8  82516273.653 8       -72.431          51.000  
G29  21022790.711 8 110475504.933 8      2122.922          51.000    21022788.852 8  86084812.811 8      1654.225          51.000  
R21  20661180.562 8 110561749.793 8      3405.539          51.000    20661181.070 7  85992515.100 7      2648.756          47.000  
R09  22131059.562 5 118178265.288 5     -3088.117          32.000    22131077.844 5  91916482.259 5     -2401.869          31.000  
R20  19859227.688 6 106195827.607 6     -1091.156          38.000    19859232.016 7  82596765.274 7      -848.677          45.000  
R10  19769400.305 8 105381621.968 8     -1139.207          50.000                                                                  
E27  23389659.461 7 122913491.828 7       588.660          42.000    23389662.883 7  94180478.995 7       450.992          45.000  
E30  23713327.219 6 124614342.828 6     -1643.855          39.000    23713329.258 6  95483718.282 6     -1259.474          38.000  
E15  24196029.242 8 127151001.199 8      1884.531          51.000    24196034.695 8  97427400.776 8      1443.956          51.000  
C26  23982549.492 8 124883382.993 8     -2663.352          48.000                                                                  
C05  39675344.539 5 206599929.239 5        33.477          34.000    39675340.719 5 159756154.736 5        26.073          35.000  
C24  21840544.594 8 113729531.210 8      -432.719          51.000                                                                  
C12  22032027.680 8 114726620.264 8      1663.344          49.000    22032026.055 8  88713921.699 8      1286.209          51.000  
> 2020 05 12 10 11 30.0000000  0 17      -0.000000000000
G24  23478605.617 7 123380873.990 7     -3498.250          44.000    23478609.648 7  96140942.898 7     -2725.910          44.000  
G32  22607364.758 7 118802477.699 7     -1706.031          45.000    22607366.664 7  92573482.755 7     -1329.378          44.000  
G06  24091743.781 5 126602966.833 5     -1993.070          31.000    24091741.430 5  98651666.051 5     -1553.045          31.000  
G12  21062403.125 6 110683659.205 6     -1877.172          38.000    21062399.453 6  86247001.444 6     -1462.729          38.000  
G25  20151878.227 8 105898830.320 8      -104.902          51.000    20151879.758 8  82518584.968 8       -81.742          51.000  
G29  21010714.375 8 110412045.581 8      2107.605          49.000    21010712.859 8  86035363.964 8      1642.291          49.000  
R21  20642139.766 8 110459859.093 8      3387.051          50.000    20642140.594 7  85913266.790 7      2634.373          47.000  
R09  22148435.133 5 118271033.307 5     -3097.074          35.000                                                                  
R20  19865425.461 6 106228969.284 6     -1118.422          37.000    19865429.922 7  82622542.152 7      -869.884          44.000  
R10  19775856.602 8 105416037.229 8     -1155.305          50.000                                                                  
E27  23386316.406 7 122895925.153 7       582.219          42.000    23386319.625 7  94167018.807 7       446.206          45.000  
E30                                                                  23722728.273 6  95521568.727 6     -1263.799          36.000  
E15  24185306.891 8 127094654.132 8      1871.867          51.000    24185312.227 8  97384225.744 8      1434.265          51.000  
C26  23997913.336 7 124963387.152 7     -2670.535          47.000                                                                  
C05                                                                  39675147.258 6 159755376.050 6        25.844          36.000  
C24  21843073.281 8 113742698.493 8      -445.305          51.000                                                                  
C12  22022487.500 8 114676943.522 8      1648.328          49.000    22022485.945 8  88675508.507 8      1274.580          51.000  
> 2020 05 12 10 12  0.0000000  0 17      -0.000000000000
G24  23498593.086 7 123485913.535 7     -3503.996          42.000    23498598.766 6  96222791.951 6     -2730.387          41.000  
G32  22617148.922 7 118853892.650 7     -1721.617          43.000    22617150.422 7  92613546.341 7     -1341.523          42.000  
G06  24103165.031 5 126662987.349 5     -2009.137          34.000    24103163.633 5  98698432.908 5     -1565.565          32.000  
G12  21073141.383 5 110740105.03125     -1885.777          32.000    21073140.461 5  86290986.38325     -1469.446          31.000  
G25  20152510.477 8 105902152.881 8      -116.586          51.000    20152511.930 8  82521173.962 8       -90.846          51.000  
G29  20998725.617 8 110349046.892 8      2092.430          50.000    20998724.500 8  85986274.070 8      1630.465          49.000  
R21  20623201.719 8 110358521.875 8      3368.789          49.000    20623203.797 8  85834448.942 8      2620.170          48.000  
R09  22165863.938 5 118364093.013 5     -3106.203          34.000    22165865.352 4  92060977.413 4     -2415.936          27.000  
R20  19871774.570 6 106262919.979 6     -1145.258          37.000    19871778.836 7  82648948.271 7      -890.753          44.000  
R10  19782402.609 8 105450931.662 8     -1170.973          50.000                                                                  
E27  23383009.320 7 122878546.107 7       576.309          43.000    23383012.047 7  94153702.387 7       441.641          45.000  
E30  23732175.016 5 124713409.479 5     -1654.461          35.000    23732156.820 6  95559545.141 6     -1267.600          36.000  
E15  24174656.164 8 127038683.707 8      1859.582          51.000    24174661.070 8  97341339.321 8      1424.896          51.000  
C26  24013318.734 8 125043608.188 8     -2677.422          48.000                                                                  
C05  39674960.219 5 206597927.842 5        33.770          34.000    39674956.289 5 159754607.151 5        25.744          35.000  
C24  21845674.297 8 113756242.191 8      -457.516          51.000                                                                  
C12  22013034.070 8 114627716.466 8      1633.617          50.000    22013032.422 8  88637443.062 8      1263.193          51.000  
> 2020 05 12 10 12 30.0000000  0 16      -0.000000000000
G24  23518612.055 7 123591118.139 7     -3509.535          44.000    23518619.211 7  96304769.578 7     -2734.704          44.000  
G32  22627021.062 6 118905773.960 6     -1736.938          40.000    22627023.312 6  92653973.302 6     -1353.455          40.000  
G06  24114674.828 6 126723452.190 6     -2024.414          36.000    24114677.195 5  98745564.940 5     -1577.466          35.000  
G25  20153207.844 8 105905817.824 8      -127.781          51.000    20153209.227 8  82524029.768 8       -99.570          51.000  
