     3.02           OBSERVATION DATA    M (MIXED)           RINEX VERSION / TYPE
SAVERINEX           SC600               20200509 025931 LCL PGM / RUN BY / DATE
       G = GPS       R = GLONASS       C = COMPASS          COMMENT
       S = SBAS      J = QZSS          E = GALILEO          COMMENT
BEAN                                                        MARKER NAME
1                                                           MARKER NUMBER
GEODETIC                                                    MARKER TYPE
Unige DICCA         GTER                                    OBSERVER / AGENCY
SC60291900056       SC600               2.12(191226)        REC # / TYPE / VERS
                    HEMA45          NONE                    ANT # / TYPE
  4509407.8091   693652.4678  4442337.6214                  APPROX POSITION XYZ
        0.0000        0.0000        0.0000                  ANTENNA: DELTA H/E/N
G    8 C1C L1C D1C S1C C2Y L2Y D2Y S2Y                      SYS / # / OBS TYPES
R    8 C1C L1C D1C S1C C2P L2P D2P S2P                      SYS / # / OBS TYPES
C    8 C1I L1I D1I S1I C7I L7I D7I S7I                      SYS / # / OBS TYPES
E    8 C1C L1C D1C S1C C7Q L7Q D7Q S7Q                      SYS / # / OBS TYPES
DBHZ                                                        COMMENT
     30.000                                                 INTERVAL
  2020    05    09    00    00    0.0000000     GPS         TIME OF FIRST OBS
  2020    05    09    00    59   30.0000000     GPS         TIME OF LAST OBS
     0                                                      RCV CLOCK OFFS APPL
G L1C  0.00000                                              SYS / PHASE SHIFT
G L2Y  0.00000                                              SYS / PHASE SHIFT
R L1C  0.00000                                              SYS / PHASE SHIFT
R L2P  0.25000                                              SYS / PHASE SHIFT
C L1I  0.00000                                              SYS / PHASE SHIFT
C L7I  0.00000                                              SYS / PHASE SHIFT
E L1C  0.50000                                              SYS / PHASE SHIFT
E L7Q -0.25000                                              SYS / PHASE SHIFT
 13 R01  1 R06 -4 R07  5 R08  6 R09 -2 R10 -7 R11  0 R15  0 GLONASS SLOT / FRQ #
    R16 -1 R20  2 R21  4 R22 -3 R23  3                      GLONASS SLOT / FRQ #
 C1C   71.950 C2C   71.950 C2P   71.950                     GLONASS COD/PHS/BIS
    18                                                      LEAP SECONDS
*** Above antenna height is from mark to ANTENNA BOTTOM.    COMMENT
    17     4        0.0000        ANT MEASURE TYPE/HEIGT    COMMENT
    0.0000    0.0000    0.0458    0.0405    0.0000          COMMENT
                    BASE STATION                            COMMENT
                                                            END OF HEADER
> 2020 05 09 00 00  0.0000000  0 17        .000000000000
G03  23288963.797 5 122384321.223 5     -2882.516          33.000    23288953.453 5  95364386.016 5     -2246.116          31.000
G04  21273141.000 8 111791126.679 8     -2066.090          50.000    21273141.039 7  87110012.542 7     -1609.940          44.000
G06  21081432.320 6 110783698.396 6       349.125          38.000    21081431.242 6  86324941.860 6       272.058          37.000
G07  22743830.039 8 119519619.080 8      2987.441          48.000    22743828.102 8  93132148.240 8      2327.876          48.000
G09  20263227.914 8 106484096.861 8        48.863          51.000    20263228.836 8  82974600.892 8        38.075          51.000
G19  24623701.586 5 129398424.227 5     -3206.133          33.000
R08  19853153.070 6 106312739.344 6      -774.059          38.000    19853154.109 5  82687659.670 5      -602.049          33.000
R09  21457839.742 5 114583666.099 5      -456.477          32.000
R10  21141975.820 6 112698735.109 6      2434.664          37.000
R23  21044258.000 8 112572595.985 8     -3124.188          48.000    21044261.312 6  87556465.836 6     -2429.924          39.000
C14  21674786.211 6 112866285.556 6       546.359          41.000    21674784.234 6  87275370.696 6       422.377          40.000
C21  25329950.148 4 131899696.991 4     -2501.293          28.000
C26  22985103.344 6 119689472.011 6      1157.672          36.000
C28  24180492.398 5 125914155.308 5      -860.781          31.000
E04  27282362.586 5 143369782.137 5     -2319.672          33.000    27282363.523 4 109854772.291 4     -1777.833          29.000
E09  21799895.055 8 114559297.732 8      -865.605          51.000    21799897.367 8  87779217.311 8      -663.247          51.000
E36  24855191.219 8 130614906.532 8     -2435.230          51.000    24855193.500 8 100081561.783 8     -1865.986          51.000
> 2020 05 09 00 00 30.0000000  0 17        .000000000000
G03  23305430.297 4 122470869.671 4     -2887.555          29.000    23305426.141 4  95431839.683 4     -2250.033          29.000
G04  21284961.453 8 111853243.533 8     -2074.273          50.000    21284961.406 7  87158415.278 7     -1616.317          45.000
G06  21079498.344 6 110773533.284 6       329.289          36.000    21079497.234 6  86317021.012 6       256.595          36.000
G07  22726800.430 7 119430130.624 7      2979.230          47.000    22726799.359 7  93062416.988 7      2321.478          47.000
G09  20262986.867 8 106482830.102 8        36.324          51.000    20262987.922 8  82973613.807 8        28.305          51.000
R07  22585220.398 4 120900437.243 4     -2865.578          29.000
R08  19857517.914 6 106336106.637 6      -783.004          36.000    19857516.961 5  82705834.190 5      -609.003          30.000
R09  21460497.438 5 114597751.227 5      -482.012          30.000    21460509.539 4  89131677.962 4      -374.898          29.000
R10  21128336.984 5 112626029.703 5      2413.316          34.000
R23  21061830.375 8 112666606.947 8     -3142.457          48.000    21061836.297 6  87629585.489 6     -2444.133          40.000
C14  21671660.750 6 112850012.149 6       539.293          40.000    21671658.531 6  87262787.047 6       417.073          41.000
C24  24964821.266 5 129998398.019 5      3181.691          34.000
C26  22978478.117 5 119654986.041 5      1141.816          35.000
C28  24185497.938 5 125940218.580 5      -876.094          32.000
E04  27295611.414 5 143439403.236 5     -2319.906          35.000
E09  21804851.703 8 114585346.365 8      -870.332          51.000    21804854.102 8  87799176.659 8      -666.893          51.000
E36  24869120.141 8 130688106.068 8     -2444.180          51.000    24869123.008 8 100137649.746 8     -1872.771          51.000
> 2020 05 09 00 01  0.0000000  0 16        .000000000000
G04  21296830.961 8 111915618.385 8     -2084.145          50.000    21296830.922 7  87207019.062 7     -1624.006          45.000
G06  21077677.328 6 110763962.703 6       308.418          37.000    21077676.945 6  86309563.386 6       240.332          37.000
G07  22709819.461 7 119340897.664 7      2969.633          47.000    22709819.023 7  92992884.817 7      2314.000          47.000
G09  20262820.297 8 106481954.241 8        21.961          51.000    20262821.383 8  82972931.324 8        17.112          51.000
R07  22601296.922 4 120986453.845 4     -2869.191          28.000
R08  19861935.039 5 106359759.759 5      -793.816          34.000    19861932.273 5  82724230.974 5      -617.416          30.000
R10  21114819.281 6 112553971.451 6      2390.594          37.000
R23  21079509.312 8 112761175.479 8     -3162.215          49.000    21079515.461 6  87703138.776 6     -2459.503          41.000
C14  21668577.148 7 112833956.565 7       530.777          42.000    21668575.117 7  87250371.865 7       410.585          43.000
C21  25358810.789 5 132050000.710 5     -2506.715          30.000
C24  24946502.789 6 129903032.746 6      3176.148          38.000
C26  22971946.203 7 119620967.811 7      1125.375          42.000
C28  24190599.250 5 125966796.737 5      -892.691          31.000
E04  27308860.328 5 143509021.153 5     -2321.500          33.000
E09  21809837.438 8 114611546.471 8      -876.527          51.000    21809839.742 8  87819252.059 8      -671.592          51.000
E36  24883101.742 8 130761582.334 8     -2454.469          51.000    24883105.414 8 100193949.759 8     -1880.694          51.000
> 2020 05 09 00 01 30.0000000  0 13        .000000000000
G04  21308779.227 8 111978406.862 8     -2097.586          50.000    21308779.273 7  87255945.149 7     -1634.483          44.000
G06  21075999.844 6 110755144.476 6       283.543          39.000    21076000.164 6  86302692.048 6       220.946          40.000
G07  22692917.414 7 119252079.469 7      2955.969          46.000    22692917.570 7  92923675.840 7      2303.352          46.000
G09  20262757.883 8 106481625.885 8         4.105          51.000    20262758.758 8  82972675.465 8         3.199          51.000
R07  22617409.195 5 121072718.124 5     -2877.883          32.000
R08  19866435.672 5 106383858.208 5      -808.414          34.000    19866432.125 4  82742974.197 4      -628.766          29.000
R10  21101453.281 6 112482724.773 6      2363.965          36.000
R23  21097322.234 8 112856457.112 8     -3185.578          48.000    21097327.680 6  87777246.688 6     -2477.669          41.000
C14  21665565.359 6 112818275.166 6       518.598          41.000    21665564.078 7  87238246.005 7       401.076          45.000
C24  24928240.258 6 129807949.899 6      3167.031          41.000
C26  22965534.992 7 119587574.469 7      1104.859          43.000
E09  21814882.070 8 114638054.848 8      -886.520          51.000    21814884.188 8  87839563.675 8      -679.290          51.000
E36  24897166.062 8 130835491.005 8     -2468.570          51.000    24897170.141 8 100250581.083 8     -1891.490          51.000
> 2020 05 09 00 02  0.0000000  0 13        .000000000000
G04  21320745.531 8 112041289.864 8     -2098.074          49.000    21320745.641 7  87304944.898 7     -1634.863          44.000
G06  21074405.195 6 110746761.853 6       271.602          37.000    21074404.938 6  86296160.160 6       211.641          37.000
G07  22676034.406 7 119163360.850 7      2955.344          47.000    22676034.938 7  92854544.464 7      2302.865          47.000
G09  20262738.930 8 106481526.853 8         -.965          51.000    20262739.734 8  82972598.293 8         -.755          51.000
R08  19870957.805 5 106408078.369 5      -809.180          32.000    19870954.492 4  82761812.056 4      -629.359          29.000
R10  21088179.703 6 112411970.312 6      2349.824          38.000
R23  21115206.070 7 112952124.485 7     -3195.660          47.000    21115212.031 6  87851654.662 6     -2485.513          41.000
C14  21662565.148 6 112802653.661 6       519.035          41.000    21662564.531 7  87226166.439 7       401.647          45.000
C24  24909972.930 7 129712837.275 7      3170.383          43.000
C26  22959182.781 7 119554492.515 7      1097.129          44.000
C28  24201088.234 5 126021425.730 5      -921.402          30.000
E09  21819924.859 8 114664553.539 8      -883.508          51.000    21819926.820 8  87859867.866 8      -676.959          51.000
E36  24911252.281 8 130909512.862 8     -2469.695          51.000    24911256.273 8 100307299.121 8     -1892.328          51.000
> 2020 05 09 00 02 30.0000000  0 14        .000000000000
G04  21332792.953 8 112104599.567 8     -2108.488          49.000    21332792.938 7  87354277.145 7     -1642.978          43.000
G06  21072957.031 6 110739149.156 6       249.977          40.000    21072956.688 6  86290228.207 6       194.787          40.000
G07  22659234.594 7 119075077.583 7      2944.430          47.000    22659235.312 8  92785752.313 8      2294.361          48.000
G09  20262827.094 8 106481990.230 8       -15.859          51.000    20262828.016 8  82972959.372 8       -12.358          51.000
R08  19875564.992 5 106432759.875 5      -821.133          35.000    19875564.117 5  82781008.820 5      -638.659          31.000
R10  21075063.016 5 112342050.458 5      2325.930          34.000
R23  21133225.133 8 113048513.180 8     -3215.781          48.000    21133231.328 6  87926623.678 6     -2501.160          40.000
C14  21659640.164 6 112787423.166 6       510.156          41.000    21659639.906 7  87214389.258 7       394.437          45.000
C24  24891764.875 7 129618028.084 7      3164.074          45.000
C26  22952954.438 7 119522054.095 7      1079.508          45.000
C28  24206484.320 5 126049510.859 5      -939.285          30.000
E05  24406107.727 5 128254957.889 5      1333.023          35.000    24406110.758 5  98273295.191 5      1021.503          34.000
E09  21825029.141 8 114691375.861 8      -890.461          51.000    21825030.906 8  87880420.033 8      -682.289          51.000
E36  24925423.344 8 130983979.999 8     -2480.688          51.000    24925426.828 8 100364358.342 8     -1900.778          51.000
> 2020 05 09 00 03  0.0000000  0 14        .000000000000
G04  21344850.109 8 112167960.554 8     -2119.984          49.000    21344849.852 7  87403649.330 7     -1651.936          42.000
G06  21071584.938 6 110731933.146 6       226.754          39.000    21071584.484 6  86284605.348 6       176.694          39.000
G07  22642447.375 8 118986858.852 8      2932.520          49.000    22642448.109 8  92717010.464 8      2285.080          49.000
G09  20262951.094 8 106482641.457 8       -31.801          51.000    20262952.141 8  82973466.827 8       -24.780          51.000
R08  19880187.445 6 106457521.682 6      -833.727          36.000    19880190.031 5  82800268.033 5      -648.454          31.000
R10  21062032.961 5 112272589.584 5      2300.828          32.000
R23  21151307.016 7 113145238.279 7     -3236.957          46.000    21151313.656 6  88001854.311 6     -2517.630          40.000
C14  21656719.461 6 112772213.594 6       499.836          41.000    21656719.148 7  87202628.293 7       386.312          44.000
C24  24873544.938 7 129523154.219 7      3156.598          46.000
C26  22946777.836 7 119489889.834 7      1060.609          43.000
C28  24211925.570 5 126077864.504 5      -957.012          31.000
E05  24398507.383 5 128215023.001 5      1324.773          35.000    24398511.617 5  98242695.755 5      1014.969          34.000
E09  21830123.672 8 114718147.483 8      -898.539          51.000    21830125.281 8  87900933.358 8      -688.521          51.000
E36  24939607.250 8 131058516.861 8     -2492.801          51.000    24939610.109 8 100421470.988 8     -1910.023          51.000
> 2020 05 09 00 03 30.0000000  0 15        .000000000000
G04  21356969.172 8 112231646.562 8     -2126.430          49.000    21356968.938 7  87453274.765 7     -1656.958          42.000
G06  21070340.461 6 110725389.739 6       208.688          38.000    21070339.508 6  86279506.613 6       162.617          37.000
G07  22625725.344 8 118898981.740 8      2925.277          50.000    22625725.422 8  92648534.796 8      2279.437          50.000
G09  20263163.102 8 106483755.196 8       -43.043          51.000    20263164.117 8  82974334.664 8       -33.540          51.000
R07  22681944.148 5 121418203.481 5     -2883.301          32.000    22681940.102 5  94436377.796 5     -2242.573          31.000
R08  19884877.727 6 106482644.065 6      -841.527          37.000    19884883.070 5  82819807.658 5      -654.524          31.000
R23  21169502.781 7 113242575.832 7     -3252.953          46.000    21169509.773 6  88077561.333 6     -2530.072          39.000
C14  21653855.203 6 112757298.235 6       494.035          41.000    21653854.797 7  87191094.762 7       382.110          45.000
C21  25431249.773 5 132427186.409 5     -2519.934          32.000
C24  24855365.914 7 129428490.988 7      3153.652          47.000
C26  22940706.320 7 119458273.722 7      1046.660          43.000
C28  24217472.234 4 126106746.710 4      -969.629          29.000
E05                                                                  24390956.297 5  98212272.752 5      1012.656          34.000
E09  21835260.828 8 114745143.298 8      -901.828          51.000    21835262.344 8  87921618.461 8      -690.981          51.000
E36  24953856.070 8 131133397.080 8     -2499.879          50.000    24953858.266 8 100478846.725 8     -1915.465          51.000
> 2020 05 09 00 04  0.0000000  0 13        .000000000000
G04  21369162.930 8 112295724.689 8     -2138.727          48.000    21369163.133 7  87503205.759 7     -1666.540          43.000
G06  21069236.656 7 110719588.246 7       184.844          42.000    21069236.633 7  86274985.912 7       144.034          42.000
G07  22609081.984 8 118811517.412 8      2912.285          51.000    22609080.930 8  92580380.778 8      2269.313          50.000
G09  20263476.117 8 106485399.453 8       -59.945          51.000    20263476.977 8  82975615.901 8       -46.711          51.000
R08  19889648.359 6 106508196.593 6      -855.090          40.000    19889656.641 5  82839681.844 5      -665.070          33.000
R10  21036404.414 5 112135889.115 5      2254.102          31.000
R23  21187825.727 7 113340591.198 7     -3274.625          47.000    21187832.000 6  88153795.490 6     -2546.934          38.000
C14  21651060.211 6 112742745.455 6       482.711          40.000    21651060.023 7  87179841.611 7       373.374          45.000
C24  24837241.391 8 129334108.920 8      3145.094          49.000
C26  22934753.477 7 119427275.163 7      1026.492          43.000
E05                                                                  24383458.000 5  98182078.887 5      1005.688          33.000
E09  21840453.633 8 114772431.568 8      -910.719          51.000    21840455.055 8  87942527.657 8      -697.826          51.000
E36  24968182.828 8 131208687.661 8     -2512.766          49.000    24968184.352 8 100536536.907 8     -1925.339          51.000
> 2020 05 09 00 04 30.0000000  0 15        .000000000000
G04  21381370.227 7 112359874.688 7     -2143.273          47.000    21381370.781 7  87553192.777 7     -1670.083          42.000
G06  21068213.570 6 110714210.398 6       168.562          40.000    21068213.992 6  86270795.364 6       131.344          40.000
G07  22592456.812 8 118724149.337 8      2906.738          50.000    22592455.000 8  92512301.781 8      2264.991          50.000
G09  20263829.250 8 106487254.875 8       -69.133          51.000    20263830.070 8  82977061.695 8       -53.870          51.000
R07  22714332.773 5 121591547.357 5     -2890.059          31.000    22714332.711 5  94571227.861 5     -2247.826          32.000
R08  19894439.266 6 106533854.361 6      -860.805          40.000    19894448.562 5  82859637.903 5      -669.515          33.000
R10  21023765.156 5 112068480.727 5      2234.953          34.000
R23  21206214.477 8 113438955.740 8     -3288.441          48.000    21206219.438 6  88230301.219 6     -2557.677          37.000
C14  21648274.555 6 112728239.952 6       478.992          41.000    21648274.234 7  87168625.032 7       370.538          46.000
C24  24819110.828 8 129239694.707 8      3144.035          49.000
C26  22928857.984 7 119396579.399 7      1014.453          42.000
C28  24228895.734 5 126166218.183 5     -1001.246          31.000
E04  27401712.891 5 143996980.763 5     -2322.512          34.000
E09  21845641.445 8 114799693.222 8      -911.914          51.000    21845642.656 8  87963416.458 8      -698.736          51.000
E36  24982526.906 8 131284068.274 8     -2517.867          49.000    24982527.945 8 100594296.083 8     -1929.254          51.000
> 2020 05 09 00 05  0.0000000  0 16        .000000000000
G04  21393622.891 7 112424262.441 7     -2162.703          47.000    21393623.297 7  87603365.046 7     -1685.223          43.000
G06  21067302.609 6 110709424.189 6       137.160          41.000    21067301.398 6  86267065.829 6       106.878          41.000
G07  22575881.828 8 118637047.509 8      2886.430          48.000    22575879.711 8  92444430.217 8      2249.163          49.000
G09  20264254.305 8 106489488.206 8       -93.375          51.000    20264255.055 8  82978801.951 8       -72.760          51.000
R07  22730523.641 5 121678255.659 5     -2904.227          34.000    22730531.062 4  94638667.733 4     -2258.849          27.000
R08  19899282.305 6 106559787.729 6      -881.812          40.000    19899291.352 5  82879808.292 5      -685.857          35.000
R09  21490934.852 5 114760392.191 5      -730.672          31.000    21490962.078 4  89258194.103 4      -568.288          28.000
R10  21011241.719 5 112001746.212 5      2200.504          35.000
R23  21224699.648 8 113537835.654 8     -3317.367          49.000    21224703.984 6  88307207.810 6     -2580.174          38.000
C14  21645529.945 6 112713948.000 6       460.340          40.000    21645529.531 7  87157573.619 7       355.922          46.000
C24  24801006.555 8 129145416.667 8      3127.859          48.000
C26  22923053.078 7 119366353.483 7       987.297          43.000
E04                                                                  27414969.406 5 110388719.728 5     -1788.048          32.000
E05  24368472.570 5 128057186.076 5      1294.973          33.000
E09  21850855.961 8 114827095.214 8      -928.328          51.000    21850856.938 8  87984412.790 8      -711.349          51.000
E36  24996919.953 8 131359704.602 8     -2538.066          49.000    24996920.883 8 100652251.222 8     -1944.821          51.000
> 2020 05 09 00 05 30.0000000  0 15        .000000000000
G04  21405954.219 8 112489063.202 8     -2160.902          48.000    21405954.375 7  87653859.132 7     -1683.820          43.000
G06  21066538.070 6 110705406.899 6       127.094          41.000    21066536.078 6  86263935.439 6        99.031          40.000
G07  22559391.039 7 118550390.555 7      2887.039          47.000    22559389.500 8  92376905.292 8      2249.638          48.000
G09  20264784.648 8 106492275.454 8       -96.262          51.000    20264785.375 8  82980973.838 8       -75.009          51.000
R07  22746767.992 5 121765220.376 5     -2896.793          34.000    22746771.406 5  94706306.837 5     -2253.061          31.000
R08  19904211.375 6 106586176.603 6      -881.301          41.000    19904218.898 6  82900332.947 6      -685.459          36.000
R23  21243314.039 8 113637406.446 8     -3324.445          49.000    21243318.312 6  88384651.778 6     -2585.680          38.000
C14  21642860.039 6 112700045.247 6       462.668          39.000    21642859.625 7  87146823.118 7       357.879          46.000
C24  24782962.875 7 129051452.443 7      3132.797          45.000
C26  22917372.797 7 119336773.835 7       980.957          43.000
C28  24240584.586 5 126227084.073 5     -1033.055          30.000
E04                                                                  27428255.062 5 110442216.201 5     -1780.976          35.000
E05  24361060.117 5 128018235.856 5      1298.473          34.000
E09  21856130.711 8 114854813.894 8      -923.316          51.000    21856131.477 8  88005651.773 8      -707.494          51.000
E36  25011395.656 8 131435771.739 8     -2536.793          51.000    25011396.406 8 100710536.438 8     -1943.782          51.000
> 2020 05 09 00 06  0.0000000  0 17        .000000000000
G04  21418315.000 7 112554018.830 7     -2168.727          47.000    21418315.031 7  87704473.885 7     -1689.917          43.000
G06  21065871.227 7 110701902.394 7       107.438          42.000    21065869.430 7  86261204.648 7        83.718          42.000
G07  22542937.102 8 118463924.866 8      2878.281          49.000    22542936.117 8  92309529.406 8      2242.817          48.000
G09  20265371.523 8 106495359.446 8      -108.660          51.000    20265372.258 8  82983376.943 8       -84.670          51.000
R07  22763013.078 5 121852180.072 5     -2899.520          35.000    22763016.391 5  94773942.129 5     -2255.182          32.000
R08  19909176.414 7 106612759.149 7      -890.219          42.000    19909181.953 6  82921008.242 6      -692.392          36.000
R09  21499366.945 6 114805448.398 6      -772.645          37.000    21499367.719 5  89293109.260 5      -600.943          32.000
R10  20986626.648 5 111870560.111 5      2166.164          32.000
R23  21262007.508 8 113737402.627 8     -3341.168          49.000    21262012.016 6  88462426.567 6     -2598.686          38.000
C14  21640216.312 6 112686277.845 6       455.879          41.000    21640215.586 7  87136177.297 7       352.360          46.000
C24  24764933.273 6 128957550.208 6      3128.340          38.000
C26  22911767.164 6 119307587.246 6       965.504          40.000
C28  24246587.016 5 126258310.365 5     -1047.648          32.000
E04                                                                  27441523.711 6 110495646.922 6     -1780.452          37.000
E05  24353663.297 6 127979349.396 6      1293.945          38.000
E09  21861416.805 8 114882592.291 8      -927.859          51.000    21861417.484 8  88026936.509 8      -710.909          51.000
E36  25025904.602 8 131512011.424 8     -2544.992          51.000    25025905.398 8 100768953.873 8     -1950.131          51.000
> 2020 05 09 00 06 30.0000000  0 16        .000000000000
G04  21430726.578 7 112619243.029 7     -2179.004          44.000    21430726.828 7  87755297.948 7     -1697.925          44.000
G06  21065323.773 6 110699026.491 6        84.750          40.000    21065322.570 6  86258963.670 6        66.039          40.000
G07  22526542.406 8 118377767.782 8      2866.289          50.000    22526541.586 8  92242394.018 8      2233.472          50.000
G09  20266036.680 8 106498854.735 8      -123.738          51.000    20266037.453 8  82986100.550 8       -96.419          51.000
R08  19914199.328 6 106639652.816 6      -902.008          40.000    19914201.969 5  82941925.515 5      -701.565          35.000
R09  21503789.547 4 114829065.094 4      -801.191          29.000    21503792.195 4  89311481.766 4      -623.158          26.000
R10  20974519.258 4 111806014.878 4      2140.742          29.000
R23  21280801.352 8 113837937.154 8     -3360.539          48.000    21280805.516 6  88540620.053 6     -2613.756          36.000
C14  21637620.914 7 112672760.481 7       446.055          42.000    21637619.117 7  87125724.788 7       344.921          45.000
C24  24746942.367 6 128863826.525 6      3120.477          37.000
C26  22906259.734 6 119278909.219 6       946.738          38.000
C28  24252676.555 4 126290051.973 4     -1065.562          29.000
E04                                                                  27454798.430 6 110549100.206 6     -1782.418          37.000
E05  24346302.672 6 127940647.048 6      1286.801          40.000
E09  21866736.102 8 114910545.321 8      -935.062          51.000    21866736.797 8  88048355.060 8      -716.464          51.000
E36  25040467.898 8 131588537.305 8     -2556.012          51.000    25040469.148 8 100827590.576 8     -1958.482          51.000
> 2020 05 09 00 07  0.0000000  0 18        .000000000000
G04  21443185.805 7 112684718.267 7     -2185.938          44.000    21443186.672 7  87806317.650 7     -1703.325          43.000
G06  21064892.836 6 110696763.526 6        66.027          41.000    21064892.867 6  86257200.299 6        51.450          41.000
G07  22510203.711 8 118291904.832 8      2857.879          51.000    22510202.836 8  92175487.853 8      2226.922          51.000
G09  20266776.898 8 106502744.600 8      -135.512          51.000    20266777.617 8  82989131.622 8      -105.594          51.000
R07  22795561.492 5 122026404.074 5     -2906.711          33.000    22795569.164 4  94909446.623 4     -2260.781          28.000
R08  19919277.297 6 106666840.739 6      -910.418          38.000    19919277.172 6  82963071.652 6      -708.103          36.000
R09  21508360.336 6 114853474.660 6      -826.355          36.000    21508365.422 4  89330472.086 4      -642.715          26.000
R10  20962532.312 5 111742139.117 5      2118.090          30.000
R23  21299692.125 8 113938989.286 8     -3376.121          48.000    21299695.703 6  88619216.115 6     -2625.875          37.000
C14  21635070.477 7 112659477.721 7       439.789          43.000    21635067.617 7  87115453.727 7       339.804          45.000
C21  25533298.023 4 132958556.646 4     -2539.758          28.000
C24  24728973.922 7 128770268.437 7      3116.500          46.000
C26  22900846.320 6 119250724.891 6       931.812          36.000
C28  24258856.812 5 126322223.236 5     -1079.523          31.000
E04                                                                  27468076.305 6 110602563.566 6     -1781.784          39.000
E05  24338973.359 5 127902111.806 5      1281.777          35.000
E09  21872085.477 8 114938656.553 8      -938.953          51.000    21872086.266 8  88069894.838 8      -719.491          51.000
E36  25055081.797 8 131665331.599 8     -2563.535          51.000    25055083.812 8 100886432.963 8     -1964.294          51.000
> 2020 05 09 00 07 30.0000000  0 14        .000000000000
G04  21455686.891 7 112750412.371 7     -2196.488          44.000    21455688.266 7  87857507.871 7     -1711.549          43.000
G06  21064572.414 6 110695083.185 6        43.438          37.000    21064573.078 6  86255890.972 6        33.847          36.000
G07  22493915.594 8 118206308.384 8      2845.824          51.000    22493914.414 8  92108789.366 8      2217.525          51.000
G09  20267586.344 8 106506997.697 8      -150.887          51.000    20267586.906 8  82992445.714 8      -117.574          51.000
R07  22811861.062 5 122113634.526 5     -2911.906          31.000
R08  19924404.547 6 106694291.768 6      -922.422          38.000    19924403.234 6  82984422.392 6      -717.439          37.000
R10  20950672.000 5 111678938.362 5      2092.602          30.000
R23  21318672.641 8 114040523.492 8     -3395.398          49.000    21318676.586 6  88698187.118 6     -2640.868          38.000
C14  21632559.102 7 112646399.597 7       429.543          43.000    21632555.812 7  87105340.881 7       332.126          46.000
C24  24711030.148 8 128676847.853 8      3108.801          49.000
C26  22895523.242 6 119223004.815 6       913.340          40.000
E04  27481353.789 5 144415492.565 5     -2327.738          34.000    27481351.094 6 110656013.384 6     -1783.738          41.000
E09  21877459.047 8 114966894.892 8      -946.402          51.000    21877459.961 8  88091532.002 8      -725.168          51.000
E36  25069740.023 8 131742361.924 8     -2574.645          50.000    25069743.125 8 100945456.192 8     -1972.750          51.000
> 2020 05 09 00 08  0.0000000  0 15        .000000000000
G04  21468242.281 7 112816390.788 7     -2202.598          44.000    21468243.508 7  87908919.629 7     -1716.310          42.000
G06  21064375.320 6 110694052.946 6        24.430          38.000    21064376.258 6  86255088.183 6        19.042          39.000
G07  22477691.227 8 118121047.517 8      2837.707          51.000    22477689.078 8  92042352.383 8      2211.203          51.000
G09  20268477.383 8 106511680.190 8      -162.062          51.000    20268477.836 8  82996094.416 8      -126.282          51.000
R08  19929593.141 6 106722073.830 6      -930.418          38.000    19929591.859 6  83006030.666 6      -723.655          39.000
R09  21517922.180 5 114904498.833 5      -878.582          34.000    21517942.422 5  89370213.293 5      -683.342          32.000
R10  20938957.414 5 111616483.915 5      2070.660          35.000
R23  21337755.375 8 114142603.465 8     -3410.328          51.000    21337760.156 6  88777582.646 6     -2652.477          40.000
C14  21630099.383 7 112633592.841 7       423.590          42.000    21630096.688 7  87095437.896 7       327.550          47.000
C24  24693125.523 8 128583633.493 8      3104.934          50.000
C26  22890303.492 6 119195816.633 6       898.938          41.000
C28  24271478.891 5 126387961.161 5     -1110.047          32.000
E04  27494635.023 6 144485298.319 6     -2326.766          36.000    27494634.875 6 110709500.874 6     -1782.631          41.000
E09  21882869.484 8 114995326.920 8      -949.711          51.000    21882870.492 8  88113317.584 8      -727.701          51.000
E36  25084455.391 8 131819693.512 8     -2581.441          49.000    25084459.484 8 101004710.258 8     -1978.044          51.000
> 2020 05 09 00 08 30.0000000  0 14        .000000000000
G04  21480842.914 7 112882607.122 7     -2216.750          43.000    21480843.508 6  87960516.764 6     -1727.338          41.000
G06  21064294.469 6 110693628.081 6        -1.555          40.000    21064295.312 6  86254757.185 6        -1.208          40.000
G07  22461522.445 8 118036079.621 8      2821.945          51.000    22461518.805 8  91976143.689 8      2198.921          51.000
G09  20269441.562 8 106516746.594 8      -180.859          51.000    20269441.797 8  83000042.254 8      -140.929          51.000
R07  22844514.859 5 122288455.184 5     -2922.066          34.000    22844516.836 4  95113253.436 4     -2272.718          25.000
R08  19934833.164 6 106750140.833 6      -945.633          37.000    19934833.773 6  83027860.564 6      -735.492          40.000
R23  21356931.234 8 114245178.948 8     -3433.031          51.000    21356936.258 6  88857363.579 6     -2670.135          39.000
C14  21627683.031 7 112621013.451 7       410.293          42.000    21627681.547 8  87085710.725 8       317.162          48.000
C24  24675253.062 8 128490583.408 8      3093.406          50.000
C26  22885176.227 6 119169116.713 6       876.305          39.000
E04  27507917.070 6 144555108.117 6     -2332.516          39.000    27507919.406 6 110762991.492 6     -1787.288          41.000
E05                                                                  24317154.750 6  97915110.085 6       965.395          39.000
E09  21888308.117 8 115023907.375 8      -960.664          51.000    21888309.188 8  88135216.898 8      -736.078          51.000
E36  25099219.398 8 131897279.797 8     -2595.949          49.000    25099223.633 8 101064159.462 8     -1989.062          50.000
> 2020 05 09 00 09  0.0000000  0 17        .000000000000
G04  21493485.438 7 112949043.077 7     -2216.637          43.000    21493485.133 6  88012285.020 6     -1727.249          40.000
G06  21064326.148 6 110693792.358 6       -13.656          40.000    21064326.266 6  86254885.203 6       -10.638          40.000
G07  22445406.148 8 117951389.870 8      2819.855          48.000    22445401.836 8  91910151.709 8      2197.293          48.000
G09  20270475.406 8 106522179.343 8      -185.758          51.000    20270475.547 8  83004275.562 8      -144.746          51.000
R07  22860862.688 6 122375971.164 6     -2916.652          36.000
R08  19940123.570 6 106778475.577 6      -947.117          36.000    19940125.031 6  83049898.716 6      -736.647          40.000
R09  21528098.812 4 114958851.539 4      -928.887          29.000
R10  20915917.945 5 111493614.116 5      2025.059          34.000
R23  21376195.297 8 114348228.922 8     -3441.332          50.000    21376200.383 6  88937513.543 6     -2676.592          38.000
C14  21625307.336 7 112608645.338 7       410.160          43.000    21625306.906 8  87076146.896 8       317.177          49.000
C21  25591937.742 4 133263965.460 4     -2546.574          27.000
C24  24657410.727 8 128397683.410 8      3095.629          51.000
C26  22880139.984 7 119142889.580 7       867.836          43.000
E04  27521197.883 6 144624905.087 6     -2325.102          39.000    27521201.578 6 110816472.229 6     -1781.392          40.000
E05                                                                  24309942.547 6  97886072.907 6       967.182          38.000
E09  21893771.648 8 115052619.087 8      -957.766          51.000    21893772.805 8  88157216.785 8      -733.878          51.000
E36  25114028.023 7 131975102.241 7     -2596.465          47.000    25114031.766 8 101123789.623 8     -1989.526          49.000
> 2020 05 09 00 09 30.0000000  0 16        .000000000000
G04  21506168.547 6 113015693.325 6     -2222.371          41.000    21506167.828 6  88064220.271 6     -1731.718          39.000
G06  21064469.453 6 110694542.268 6       -31.902          41.000    21064469.148 6  86255469.498 6       -24.859          41.000
G07  22429341.961 8 117866977.039 8      2812.375          48.000    22429338.406 7  91844375.463 7      2191.461          47.000
G09  20271577.984 8 106527973.902 8      -195.820          51.000    20271578.062 8  83008790.803 8      -152.587          51.000
R07  22877225.852 5 122463551.150 5     -2917.027          35.000
R08  19945462.641 5 106807074.044 5      -954.207          33.000    19945465.797 6  83072141.958 6      -742.164          41.000
R10  20904591.961 5 111433242.802 5      2003.914          35.000
R23  21395545.938 8 114451744.528 8     -3454.977          51.000    21395550.102 6  89018025.661 6     -2687.204          37.000
C14  21622971.727 7 112596485.063 7       404.941          43.000    21622971.977 8  87066743.800 8       313.196          49.000
C24  24639598.234 8 128304932.222 8      3092.348          51.000
C26  22875194.281 7 119117132.492 7       853.852          42.000
C28  24291065.281 5 126489935.045 5     -1151.270          31.000
E04  27534476.148 6 144694685.200 6     -2322.410          38.000    27534480.297 6 110869940.097 6     -1779.581          40.000
E05  24302755.320 5 127711847.959 5      1259.367          32.000    24302756.352 6  97857141.176 6       965.559          37.000
E09  21899259.344 8 115081457.847 8      -960.266          51.000    21899260.617 8  88179314.024 8      -735.758          51.000
E36  25128879.102 7 132053155.285 7     -2602.551          44.000    25128883.102 8 101183596.491 8     -1994.090          49.000
> 2020 05 09 00 10  0.0000000  0 17        .000000000000
G04  21518901.539 6 113082605.376 6     -2236.324          40.000    21518901.023 6  88116359.531 6     -1742.590          38.000
G06  21064733.633 6 110695927.011 6       -58.445          41.000    21064732.898 6  86256548.495 6       -45.545          41.000
G07  22413340.406 8 117782892.104 8      2795.680          48.000    22413338.227 8  91778854.715 8      2178.452          48.000
G09  20272758.727 8 106534178.629 8      -215.398          51.000    20272758.750 8  83013625.653 8      -167.843          51.000
R08  19950861.508 6 106835985.893 6      -970.867          39.000    19950865.422 6  83094628.928 6      -755.116          41.000
R09  21538860.320 5 115016333.981 5      -985.176          34.000    21538877.414 4  89457172.103 4      -766.239          29.000
R10  20893407.781 6 111373614.162 6      1973.723          39.000
R23  21414992.750 8 114555771.473 8     -3477.625          51.000    21414996.164 6  89098935.476 6     -2704.822          39.000
R24  20873302.148 5 111618922.729 5      -619.289          35.000
C14  21620685.789 7 112584581.706 7       390.820          44.000    21620685.922 8  87057539.368 8       302.316          48.000
C24  24621824.688 8 128212380.910 8      3080.066          51.000
C26  22870347.695 7 119091895.022 7       831.016          42.000
C28  24297762.062 5 126524823.675 5     -1172.367          33.000
E04  27547761.062 6 144764497.425 6     -2329.082          38.000    27547764.617 6 110923432.558 6     -1784.774          40.000
E05  24295608.469 6 127674265.418 6      1247.840          36.000    24295605.336 6  97828352.589 6       956.290          36.000
E09  21904780.547 8 115110472.365 8      -971.676          51.000    21904781.984 8  88201545.936 8      -744.513          51.000
E36  25143783.328 7 132131486.241 7     -2617.332          46.000    25143787.547 8 101243616.344 8     -2005.431          49.000
> 2020 05 09 00 10 30.0000000  0 17        .000000000000
G04  21531687.844 6 113149797.214 6     -2241.484          37.000    21531687.656 6  88168716.795 6     -1746.611          36.000
G06  21065122.039 6 110697966.352 6       -77.258          41.000    21065121.250 7  86258137.610 7       -60.201          42.000
G07  22397405.867 8 117699157.084 8      2786.805          49.000    22397405.172 8  91713606.655 8      2171.536          50.000
G09  20274021.070 8 106540812.198 8      -226.367          51.000    20274021.250 8  83018794.679 8      -176.387          51.000
R08  19956323.398 6 106865230.634 6      -978.457          40.000    19956326.953 6  83117374.817 6      -761.022          41.000
R10  20882365.891 6 111314750.918 6      1951.062          36.000
R11  23391585.016 6 124997532.585 6      4363.492          38.000    23391583.922 4  97220301.918 4      3393.827          29.000
R23  21434538.367 8 114660325.250 8     -3491.949          51.000    21434542.000 6  89180255.075 6     -2715.961          40.000
R24  20876851.984 4 111637884.500 4      -644.473          29.000
C14  21618453.352 7 112572954.993 7       384.688          45.000    21618452.766 8  87048548.863 8       297.477          48.000
C24  24604094.000 8 128120051.166 8      3075.684          51.000
C26  22865604.586 6 119067197.398 6       816.129          41.000
C28  24304552.383 5 126560205.487 5     -1186.074          33.000
E04  27561055.859 6 144834361.010 6     -2327.785          38.000    27561059.172 6 110976964.382 6     -1783.804          39.000
E05  24288498.250 5 127636922.073 5      1243.012          33.000    24288493.445 5  97799721.945 5       953.282          33.000
E09  21910338.938 8 115139681.708 8      -975.113          51.000    21910340.500 8  88223927.128 8      -747.180          51.000
E36  25158745.711 8 132210112.939 8     -2624.090          48.000    25158749.148 8 101303862.765 8     -2010.648          50.000
> 2020 05 09 00 11  0.0000000  0 15        .000000000000
G06  21065616.047 6 110700562.491 6       -96.051          41.000    21065616.711 6  86260160.571 6       -74.845          41.000
G07  22381519.914 8 117615676.157 8      2778.074          49.000    22381520.219 8  91648556.578 8      2164.736          49.000
G09  20275346.266 8 106547775.882 8      -237.938          51.000    20275346.352 8  83024220.937 8      -185.406          51.000
R08  19961828.789 6 106894708.438 6      -986.742          39.000    19961831.945 6  83140302.030 6      -767.466          40.000
R10  20871449.555 6 111256556.842 6      1928.234          37.000
R11  23367089.266 6 124866633.949 6      4362.648          36.000    23367088.922 5  97118491.809 5      3393.168          30.000
R23  21454162.703 8 114765301.403 8     -3506.434          50.000    21454166.438 6  89261903.200 6     -2727.226          40.000
C14  21616255.609 7 112561508.240 7       378.391          46.000    21616254.148 8  87039697.533 8       292.523          48.000
C24  24586387.773 8 128027848.380 8      3071.012          51.000
C26  22860947.289 6 119042943.427 6       800.812          41.000
C28  24311419.641 4 126595941.406 4     -1199.273          29.000
E04  27574341.211 6 144904177.871 6     -2326.719          36.000    27574344.906 6 111030460.395 6     -1782.682          38.000
E05                                                                  24281401.242 4  97771141.169 4       950.055          29.000
E09  21915915.750 8 115168987.475 8      -978.762          51.000    21915917.375 8  88246382.199 8      -749.957          51.000
E36  25173746.180 8 132288935.551 8     -2630.906          50.000    25173748.852 8 101364259.288 8     -2015.856          51.000
> 2020 05 09 00 11 30.0000000  0 16        .000000000000
G04  21557372.484 5 113284766.781 5     -2260.148          32.000
G06  21066225.805 6 110703769.140 6      -118.613          41.000    21066228.375 6  86262659.251 6       -92.426          40.000
G07  22365692.969 8 117532504.593 8      2765.734          49.000    22365693.711 8  91583747.565 8      2155.118          49.000
G09  20276744.383 8 106555122.427 8      -252.871          51.000    20276744.164 8  83029945.507 8      -197.042          51.000
R08  19967387.859 6 106924473.595 6      -998.414          38.000    19967389.867 6  83163452.710 6      -776.541          38.000
R09  21556099.039 5 115108365.270 5     -1062.391          30.000
R10  20860669.055 6 111199089.154 6      1901.809          39.000
R11  23342604.812 5 124735794.858 5      4358.148          35.000    23342606.531 5  97016728.033 5      3389.671          30.000
R23  21473875.375 8 114870750.009 8     -3524.363          50.000    21473878.953 6  89343918.784 6     -2741.171          41.000
C14  21614102.492 7 112550294.922 7       368.270          45.000    21614100.586 8  87031026.673 8       284.791          49.000
C21  25665572.414 4 133647368.219 4     -2563.516          28.000
C24  24568716.234 8 127935827.991 8      3062.723          50.000
C26  22856385.562 6 119019187.105 6       782.137          40.000
E04  27587628.227 5 144974001.271 5     -2329.453          34.000    27587632.281 6 111083961.477 6     -1784.843          39.000
E09  21921521.008 8 115198442.798 8      -985.969          51.000    21921522.641 8  88268951.864 8      -755.474          51.000
E36  25188793.711 8 132368005.788 8     -2641.363          50.000    25188796.055 8 101424845.558 8     -2023.896          51.000
> 2020 05 09 00 12  0.0000000  0 16        .000000000000
G04  21570301.156 6 113352691.244 6     -2264.414          38.000    21570302.914 6  88326763.127 6     -1764.478          37.000
G06  21066970.961 7 110707686.854 7      -137.297          42.000    21066974.109 7  86265712.037 7      -106.982          42.000
G07  22349944.477 8 117449745.110 8      2757.066          50.000    22349945.039 8  91519259.660 8      2148.363          50.000
G09  20278234.180 8 106562951.431 8      -263.609          51.000    20278234.133 8  83036046.032 8      -205.410          51.000
R07  22959317.141 4 122903056.837 4     -2936.332          29.000
R08  19973019.797 6 106954628.053 6     -1005.941          41.000    19973020.359 6  83186906.199 6      -782.399          37.000
R10  20850044.664 6 111142452.815 6      1879.695          39.000
R11  23318150.188 5 124605121.688 5      4358.426          34.000    23318155.305 4  96915093.343 4      3389.887          29.000
R23  21493694.555 8 114976768.749 8     -3537.938          49.000    21493698.523 6  89426377.778 6     -2751.729          41.000
R24  20888389.039 5 111699603.842 5      -724.973          30.000
C14  21612013.109 7 112539414.934 7       362.344          45.000    21612011.305 8  87022613.564 8       280.356          49.000
C24  24551099.055 8 127844091.913 8      3058.480          50.000
C26  22851938.984 6 118996028.884 6       767.242          38.000
E04  27600936.430 6 145043931.449 6     -2326.988          36.000    27600940.422 6 111137544.357 6     -1783.283          38.000
E09  21927173.695 8 115228147.679 8      -988.855          51.000    21927175.367 8  88291712.735 8      -757.694          51.000
E36  25203906.703 8 132447422.270 8     -2647.508          50.000    25203909.055 8 101485697.151 8     -2028.622          51.000
> 2020 05 09 00 12 30.0000000  0 18        .000000000000
G03  23710798.492 5 124601093.603 5     -3026.121          33.000
G04  21583251.156 6 113420747.269 6     -2273.059          37.000    21583250.398 6  88379789.165 6     -1771.211          36.000
G06  21067810.680 6 110712100.452 6      -157.961          41.000    21067813.898 6  86269151.267 6      -123.083          41.000
G07  22334234.055 8 117367185.272 8      2745.984          49.000    22334233.914 8  91454927.343 8      2139.728          49.000
G09  20279774.609 8 106571046.911 8      -276.973          51.000    20279774.875 8  83042354.202 8      -215.823          51.000
R07  22975784.266 5 122991163.642 5     -2939.230          30.000
R08  19978683.164 7 106984952.305 7     -1016.230          42.000    19978683.367 6  83210491.713 6      -790.401          37.000
R09  21568317.609 5 115173611.303 5     -1112.859          30.000
R10  20839535.188 6 111086432.688 6      1854.512          37.000
R11  23293685.625 5 124474399.613 5      4354.754          30.000    23293694.930 5  96813420.539 5      3387.031          31.000
R23  21513577.805 8 115083133.780 8     -3553.941          48.000    21513582.688 6  89509106.162 6     -2764.177          40.000
R24  20892530.297 4 111721754.330 4      -751.559          28.000
C14  21609946.922 7 112528655.456 7       353.996          46.000    21609945.258 8  87014293.653 8       273.781          49.000
C24  24533496.133 8 127752429.286 8      3051.598          51.000
C26  22847564.695 5 118973256.383 5       749.562          31.000
E04  27614223.641 5 145113753.099 5     -2327.930          35.000    27614228.117 6 111191044.021 6     -1783.942          37.000
E09  21932832.758 8 115257886.489 8      -994.484          51.000    21932834.523 8  88314499.608 8      -762.008          51.000
E36  25219044.000 8 132526968.007 8     -2656.395          50.000    25219046.305 8 101546647.768 8     -2035.377          51.000
> 2020 05 09 00 13  0.0000000  0 17        .000000000000
G04  21596253.727 6 113489079.419 6     -2284.301          36.000    21596251.641 5  88433032.632 5     -1779.969          32.000
G06  21068776.398 6 110717176.316 6      -179.695          39.000    21068779.445 6  86273106.461 6      -140.022          40.000
G07  22318593.344 8 117284992.907 8      2734.320          48.000    22318592.516 8  91390881.376 8      2130.642          48.000
G09  20281397.242 8 106579574.166 8      -290.871          51.000    20281397.391 8  83048998.816 8      -226.653          51.000
R07  22992266.047 5 123079409.490 5     -2943.043          35.000    22992273.648 5  95728436.894 5     -2289.036          30.000
R08  19984409.688 7 107015615.432 7     -1027.219          44.000    19984409.227 6  83234340.797 6      -798.948          36.000
R10  20829172.359 5 111031200.174 5      1829.066          31.000
R11  23269246.562 5 124343801.905 5      4351.914          34.000    23269256.727 5  96711844.507 5      3384.819          30.000
R23  21533556.195 8 115190010.030 8     -3570.527          48.000    21533562.117 6  89592232.158 6     -2777.077          38.000
R24  20896832.836 5 111744761.305 5      -780.656          30.000    20896842.852 4  86912630.306 4      -607.171          26.000
C14  21607935.570 7 112518181.485 7       344.895          46.000    21607934.008 8  87006194.515 8       266.709          50.000
C24  24515939.656 8 127661007.142 8      3043.902          51.000
C26  22843293.117 5 118951034.856 5       731.973          34.000
C28  24339770.445 5 126743569.986 5     -1261.113          30.000
E04  27627521.758 5 145183605.078 5     -2330.164          32.000    27627526.516 5 111244587.671 5     -1785.079          35.000
E09  21938529.789 8 115287824.947 8     -1000.715          51.000    21938531.586 8  88337439.457 8      -766.784          51.000
E36  25234236.906 8 132606807.291 8     -2665.633          50.000    25234239.031 8 101607823.304 8     -2042.492          51.000
> 2020 05 09 00 13 30.0000000  0 16        .000000000000
G06  21069847.562 6 110722808.801 6      -194.148          39.000    21069850.242 6  86277495.380 6      -151.284          38.000
G07  22303002.516 7 117203064.210 7      2729.359          47.000    22303001.922 7  91327040.847 7      2126.774          47.000
G09  20283081.820 8 106588426.760 8      -297.574          51.000    20283081.852 8  83055896.948 8      -231.876          51.000
R07  23008756.305 5 123167686.435 5     -2940.297          35.000    23008761.000 5  95797096.787 5     -2286.895          30.000
R08  19990178.930 7 107046509.778 7     -1030.824          44.000    19990178.438 6  83258369.733 6      -801.752          38.000
R10  20818938.336 5 110976651.091 5      1809.477          35.000
R11  23244810.664 6 124213225.325 6      4355.297          36.000    23244821.922 5  96610284.869 5      3387.456          31.000
R23  21553610.211 8 115297285.240 8     -3579.559          48.000    21553615.062 6  89675668.401 6     -2784.104          37.000
R24  20901283.117 5 111768533.125 5      -802.484          35.000    20901294.070 4  86931117.848 4      -624.155          29.000
C14  21605959.062 7 112507888.784 7       343.008          45.000    21605957.531 8  86998235.551 8       265.220          50.000
C24  24498410.016 8 127569723.234 8      3043.293          51.000
C26  22839110.883 6 118929260.569 6       721.121          36.000
E04  27640810.875 5 145253440.612 5     -2323.855          34.000    27640815.547 5 111298094.177 5     -1780.646          33.000
E05  24246437.797 6 127415888.151 6      1216.762          36.000    24246441.227 6  97630374.231 6       932.393          37.000
E09  21944244.602 8 115317857.049 8      -999.695          51.000    21944246.359 8  88360451.060 8      -765.973          51.000
E36  25249464.859 8 132686832.693 8     -2667.637          49.000    25249466.922 8 101669141.437 8     -2044.015          50.000
> 2020 05 09 00 14  0.0000000  0 17        .000000000000
G04  21622369.117 5 113626300.424 5     -2304.047          34.000
G06  21071037.766 6 110729066.919 6      -227.766          39.000    21071040.812 6  86282371.806 6      -177.483          39.000
G07  22287475.602 7 117121471.217 7      2705.508          47.000    22287475.602 8  91263461.877 8      2108.188          48.000
G09  20284841.336 8 106597672.926 8      -323.473          51.000    20284841.477 8  83063101.750 8      -252.057          51.000
R07  23025265.930 5 123256064.300 5     -2956.508          33.000    23025270.430 5  95865835.166 5     -2299.503          30.000
R08  19996004.375 7 107077705.142 7     -1053.691          44.000    19996004.211 6  83282632.777 6      -819.538          39.000
R10  20808845.617 6 110922858.759 6      1772.008          36.000
R11  23220391.742 6 124082744.119 6      4338.992          37.000    23220404.375 5  96508799.413 5      3374.766          30.000
R23  21573751.648 8 115405025.006 8     -3607.934          48.000    21573755.461 6  89759465.974 6     -2806.171          37.000
C14  21604030.273 7 112497846.151 7       321.953          45.000    21604029.000 8  86990469.941 8       248.891          50.000
C21  25739573.297 4 134032711.646 4     -2584.148          28.000
C24  24480920.438 8 127478648.357 8      3023.617          50.000
C26  22835028.773 6 118908002.597 6       691.180          37.000
E04  27654103.742 5 145323295.637 5     -2337.684          34.000
E05  24239532.102 6 127379596.632 6      1198.395          36.000    24239533.562 6  97602566.405 6       917.783          38.000
E09  21949990.328 8 115348051.372 8     -1017.906          51.000    21949991.969 8  88383586.964 8      -779.981          51.000
E36  25264740.688 8 132767111.381 8     -2688.957          48.000    25264743.180 8 101730653.649 8     -2060.340          49.000
> 2020 05 09 00 14 30.0000000  0 14        .000000000000
G06  21072356.117 6 110735996.120 6      -248.004          37.000    21072358.953 6  86287771.197 6      -193.253          38.000
G07  22272022.062 8 117040260.792 8      2694.789          50.000    22272021.984 8  91200181.011 8      2099.836          49.000
G09  20286684.227 8 106607357.277 8      -336.055          51.000    20286684.414 8  83070648.003 8      -261.861          51.000
R08  20001894.719 7 107109247.770 7     -1063.152          45.000    20001894.602 6  83307165.939 6      -826.893          40.000
R10  20798905.531 6 110869871.711 6      1746.656          39.000
R11  23195999.953 6 123952408.575 6      4336.191          38.000    23196011.375 5  96407427.191 5      3372.593          33.000
R23  21593987.203 7 115513271.148 7     -3622.652          45.000    21593991.367 6  89843657.426 6     -2817.615          37.000
R24  20910648.016 5 111818611.132 5      -869.469          30.000
C14  21602158.227 7 112488099.079 7       314.156          45.000    21602157.109 8  86982932.894 8       242.811          50.000
C24  24463479.938 8 127387830.001 8      3017.062          49.000
C26  22831055.398 6 118887306.935 6       674.781          41.000
E05  24232668.102 5 127343529.548 5      1192.555          34.000    24232670.523 6  97574928.289 6       913.659          38.000
E09  21955775.500 8 115378453.045 8     -1022.801          51.000    21955777.125 8  88406881.737 8      -783.690          51.000
E36  25280072.859 8 132847686.994 8     -2696.758          48.000    25280076.352 8 101792393.399 8     -2066.305          49.000
> 2020 05 09 00 15  0.0000000  0 16        .000000000000
G04  21648679.023 5 113764613.527 5     -2305.203          34.000
G06  21073789.250 6 110743510.415 6      -254.508          39.000    21073791.500 6  86293642.026 6      -198.318          39.000
G07  22256629.445 8 116959368.594 8      2698.660          51.000    22256629.000 8  91137148.137 8      2102.852          51.000
G09  20288597.711 8 106617412.877 8      -333.762          51.000    20288597.852 8  83078483.534 8      -260.074          51.000
R08  20007837.086 7 107141069.925 7     -1057.668          45.000    20007837.133 6  83331916.518 6      -822.628          41.000
R10  20789104.781 5 110817625.913 5      1736.688          35.000
R11  23171623.781 6 123822155.746 6      4348.113          41.000    23171634.656 5  96306119.443 5      3381.866          35.000
R23  21614303.406 7 115621951.779 7     -3622.211          45.000    21614308.227 6  89928186.828 6     -2817.275          36.000
R24  20915557.156 5 111844880.305 5      -880.941          32.000
C14  21600330.492 7 112478582.400 7       320.887          45.000    21600329.383 8  86975573.994 8       248.097          50.000
C24  24446076.125 7 127297205.023 7      3025.086          47.000
C26  22827177.844 6 118867108.798 6       672.855          38.000
C28  24369485.000 4 126898297.572 4     -1310.453          28.000
E05  24225834.336 5 127307614.627 5      1201.949          35.000    24225835.281 6  97547409.081 6       920.953          37.000
E09  21961587.469 8 115408995.483 8     -1012.840          51.000    21961589.195 8  88430284.376 8      -776.087          51.000
E36  25295449.211 8 132928491.595 8     -2689.723          50.000    25295453.227 8 101854308.619 8     -2060.971          49.000
> 2020 05 09 00 15 30.0000000  0 15        .000000000000
G06  21075301.000 6 110751453.501 6      -280.242          39.000    21075301.602 6  86299831.514 6      -218.367          37.000
G07  22241260.461 8 116878601.175 8      2681.680          51.000    22241259.492 8  91074212.508 8      2089.621          51.000
G09  20290544.406 8 106627642.899 8      -352.312          51.000    20290544.562 8  83086454.974 8      -274.529          51.000
R08  20013794.172 7 107172972.067 7     -1073.410          44.000    20013794.438 7  83356729.303 7      -834.875          42.000
R10  20779406.898 6 110765925.069 6      1706.098          36.000
R11  23147227.430 6 123691790.405 6      4338.812          41.000    23147237.688 5  96204724.174 5      3374.632          34.000
R23  21634662.891 7 115730862.556 7     -3642.801          45.000    21634667.820 5  90012895.179 5     -2833.289          35.000
C14  21598509.844 7 112469102.383 7       306.996          45.000    21598508.641 8  86968243.442 8       237.374          49.000
C21  25784140.781 5 134264800.423 5     -2582.281          30.000
C24  24428672.250 7 127206581.570 7      3012.422          45.000
C26  22823358.055 6 118847214.686 6       649.668          37.000
C28  24377093.680 5 126937894.765 5     -1331.668          31.000
E05                                                                  24218991.883 5  97519858.561 5       912.141          35.000
E09  21967388.852 8 115439482.331 8     -1023.812          51.000    21967390.703 8  88453644.414 8      -784.471          51.000
E36  25310832.328 8 133009327.397 8     -2703.473          51.000    25310836.070 8 101916247.724 8     -2071.528          50.000
> 2020 05 09 00 16  0.0000000  0 15        .000000000000
