     3.02           OBSERVATION DATA    M (MIXED)           RINEX VERSION / TYPE
SAVERINEX           SC600               20200518 145932 LCL PGM / RUN BY / DATE
       G = GPS       R = GLONASS       C = COMPASS          COMMENT
       S = SBAS      J = QZSS          E = GALILEO          COMMENT
BEAN                                                        MARKER NAME
1                                                           MARKER NUMBER
GEODETIC                                                    MARKER TYPE
Unige DICCA         GTER                                    OBSERVER / AGENCY
SC60291900056       SC600               2.12(191202)        REC # / TYPE / VERS
                    HEMA45          NONE                    ANT # / TYPE
  4509407.8091   693652.4678  4442337.6214                  APPROX POSITION XYZ
        0.0000        0.0000        0.0000                  ANTENNA: DELTA H/E/N
G    8 C1C L1C D1C S1C C2Y L2Y D2Y S2Y                      SYS / # / OBS TYPES
R    8 C1C L1C D1C S1C C2P L2P D2P S2P                      SYS / # / OBS TYPES
C    8 C1I L1I D1I S1I C7I L7I D7I S7I                      SYS / # / OBS TYPES
E    8 C1C L1C D1C S1C C7Q L7Q D7Q S7Q                      SYS / # / OBS TYPES
DBHZ                                                        COMMENT
     30.000                                                 INTERVAL
  2020    05    18    12    00    0.0000000     GPS         TIME OF FIRST OBS
  2020    05    18    12    59   30.0000000     GPS         TIME OF LAST OBS
     0                                                      RCV CLOCK OFFS APPL
G L1C  0.00000                                              SYS / PHASE SHIFT
G L2Y  0.00000                                              SYS / PHASE SHIFT
R L1C  0.00000                                              SYS / PHASE SHIFT
R L2P  0.25000                                              SYS / PHASE SHIFT
C L1I  0.00000                                              SYS / PHASE SHIFT
C L7I  0.00000                                              SYS / PHASE SHIFT
E L1C  0.50000                                              SYS / PHASE SHIFT
E L7Q -0.25000                                              SYS / PHASE SHIFT
 15 R03  5 R04  6 R05  1 R06 -4 R09 -2 R10 -7 R11  0 R14 -7 GLONASS SLOT / FRQ #
    R15  0 R16 -1 R17  4 R18 -3 R19  3 R20  2 R21  4        GLONASS SLOT / FRQ #
 C1C   71.950 C2C   71.950 C2P   71.950                     GLONASS COD/PHS/BIS
    18                                                      LEAP SECONDS
*** Above antenna height is from mark to ANTENNA BOTTOM.    COMMENT
    17     4        0.0000        ANT MEASURE TYPE/HEIGT    COMMENT
    0.0000    0.0000    0.0458    0.0405    0.0000          COMMENT
                    BASE STATION                            COMMENT
                                                            END OF HEADER
> 2020 05 18 12 00  0.0000000  0 16        .000000000000
G18  21117092.383 8 110971162.629 8      2257.570          51.000    21117092.039 7  86471014.149 7      1759.146          47.000
G21  21379399.266 8 112349521.675 8      2031.984          49.000    21379397.391 7  87545079.020 7      1583.364          46.000
G25  22556452.930 6 118534972.533 6     -2888.156          37.000    22556456.367 6  92364891.090 6     -2250.511          37.000
G29  20899373.773 8 109826944.133 8     -1677.586          51.000    20899373.188 8  85579445.084 8     -1307.213          51.000
G31  21310385.648 8 111986834.330 8     -1109.223          48.000    21310385.250 8  87262459.726 8      -864.332          48.000
R09  19378596.492 8 103480621.841 8     -1549.754          50.000    19378599.430 8  80484919.439 8     -1205.364          49.000
R20  19562917.180 6 104611729.424 6      1194.641          40.000    19562918.875 7  81364687.851 7       929.165          46.000
C05                                                                  39644807.055 6 159633208.705 6        16.719          37.000
C11  23082075.367 7 120194447.471 7     -2120.516          45.000    23082075.156 7  92941980.960 7     -1639.557          43.000
C23  22291742.219 8 116078963.538 8     -1378.152          51.000
C25  25276463.453 5 131621149.912 5     -3348.645          35.000
C28  22840649.070 8 118937245.662 8      1961.285          51.000
E01  23596387.383 8 123999856.355 8      -620.254          51.000    23596389.812 8  95012884.023 8      -475.254          51.000
E21  26506840.055 7 139294369.803 7     -2595.789          45.000    26506841.047 7 106732044.301 7     -1988.957          46.000
E26  22513683.500 8 118310207.702 8      -450.996          51.000    22513686.219 8  90653337.205 8      -345.610          51.000
E33  24733340.836 8 129974614.492 8      2179.367          49.000    24733341.898 8  99590957.106 8      1669.899          51.000
> 2020 05 18 12 00 30.0000000  0 17        .000000000000
G18  21104247.547 8 110903659.648 8      2240.340          51.000    21104246.492 7  86418414.429 7      1745.719          47.000
G21  21367839.766 8 112288775.654 8      2015.582          49.000    21367838.422 7  87497744.494 7      1570.583          47.000
G25  22572959.445 5 118621718.412 5     -2896.992          34.000    22572963.719 5  92432485.288 5     -2257.400          33.000
G29  20908975.023 8 109877399.622 8     -1688.398          51.000    20908974.688 8  85618761.032 8     -1315.635          51.000
G31  21316768.336 8 112020375.331 8     -1128.996          48.000    21316768.805 8  87288595.564 8      -879.737          48.000
R09  19387364.930 8 103527444.800 8     -1574.109          51.000    19387367.672 8  80521337.288 8     -1224.307          50.000
R20  19556270.781 6 104576188.191 6      1172.180          39.000    19556272.375 7  81337044.701 7       911.695          46.000
C05                                                                  39644681.109 6 159632701.217 6        15.746          37.000
C11  23094308.516 7 120258148.657 7     -2128.633          44.000    23094308.039 7  92991238.725 7     -1645.773          44.000
C23  22299722.820 8 116120519.191 8     -1394.480          51.000
C25  25295765.680 5 131721648.795 5     -3353.363          35.000
C28  22829375.031 8 118878542.059 8      1949.965          51.000
E01  23599957.055 8 124018614.425 8      -632.531          51.000    23599959.320 8  95027257.072 8      -484.601          51.000
E13  26561712.906 6 139582737.262 6     -2669.273          36.000
E21  26521671.750 7 139372316.980 7     -2602.910          45.000    26521674.789 7 106791770.000 7     -1994.249          46.000
E26  22516290.727 8 118323910.197 8      -464.625          51.000    22516293.484 8  90663836.525 8      -356.038          51.000
E33  24720922.953 8 129909362.624 8      2168.590          49.000    24720925.820 8  99540958.935 8      1661.617          51.000
> 2020 05 18 12 01  0.0000000  0 17        .000000000000
G18  21091496.172 8 110836648.729 8      2226.160          51.000    21091494.367 7  86366198.159 7      1734.670          47.000
G21  21356367.742 8 112228489.669 8      2002.578          49.000    21356367.055 8  87450768.405 8      1560.450          48.000
G25  22589513.453 5 118708715.349 5     -2903.652          35.000    22589518.141 6  92500275.115 6     -2262.589          36.000
G29  20918632.820 8 109928152.139 8     -1696.062          51.000    20918632.633 8  85658308.442 8     -1321.607          51.000
G31  21323258.227 8 112054479.962 8     -1145.641          48.000    21323259.805 8  87315170.599 8      -892.707          48.000
R09  19396265.500 8 103574971.805 8     -1595.227          50.000    19396268.336 8  80558302.698 8     -1240.732          51.000
R20  19549745.531 6 104541296.053 6      1152.922          39.000    19549746.914 7  81309906.347 7       896.717          45.000
C05                                                                  39644558.062 6 159632206.244 6        16.942          37.000
C11  23106582.789 7 120322063.903 7     -2133.383          43.000    23106582.312 7  93040662.047 7     -1649.685          45.000
C23  22307791.992 8 116162535.661 8     -1407.547          51.000
C25  25315094.234 5 131822286.990 5     -3356.949          33.000
C28  22818160.578 8 118820145.914 8      1942.055          51.000
E01  23603591.414 8 124037712.443 8      -641.664          51.000    23603593.445 8  95041890.608 8      -491.653          51.000
E13  26576957.289 6 139662842.791 6     -2671.570          36.000
E21  26536538.320 7 139450445.465 7     -2606.645          45.000    26536542.562 7 106851634.656 7     -1997.359          46.000
E26  22518970.398 8 118337992.514 8      -475.113          51.000    22518973.156 8  90674626.876 8      -364.057          51.000
E33  24708562.234 8 129844407.843 8      2160.836          49.000    24708566.547 8  99491188.397 8      1655.688          51.000
> 2020 05 18 12 01 30.0000000  0 16        .000000000000
G18  21078835.531 8 110770115.536 8      2208.477          51.000    21078833.047 7  86314354.142 7      1720.891          47.000
G21  21344980.188 8 112168648.440 8      1985.969          48.000    21344980.023 8  87404138.868 8      1547.508          48.000
G25  22606113.234 6 118795946.164 6     -2912.633          41.000    22606117.180 6  92568247.115 6     -2269.587          41.000
G29  20928343.859 8 109979184.484 8     -1707.023          51.000    20928343.820 8  85698073.901 8     -1330.148          51.000
G31  21329852.125 7 112089131.237 7     -1165.418          47.000    21329853.961 7  87342171.589 7      -908.118          47.000
R09  19405294.703 8 103623185.359 8     -1619.832          50.000    19405297.414 8  80595802.096 8     -1259.869          50.000
R20  19543338.328 6 104507036.420 6      1130.062          38.000    19543340.180 7  81283259.986 7       878.941          45.000
C05                                                                  39644435.078 6 159631711.342 6        15.520          37.000
C11  23118894.766 7 120386175.688 7     -2141.590          43.000    23118894.695 7  93090237.344 7     -1655.989          45.000
C23  22315946.445 8 116204996.121 8     -1424.027          51.000
C28  22807002.664 8 118762041.582 8      1930.668          51.000
E01  23607287.195 8 124057134.602 8      -654.090          51.000    23607289.156 8  95056772.503 8      -501.201          51.000
E13  26592222.914 5 139743074.830 5     -2677.047          35.000
E21  26551436.922 7 139528738.404 7     -2613.797          45.000    26551441.711 7 106911625.316 7     -2002.806          47.000
E26  22521719.172 8 118352437.534 8      -488.828          51.000    22521722.016 8  90685695.144 8      -374.572          51.000
E33  24696255.938 8 129779734.683 8      2149.816          51.000    24696260.547 8  99441633.650 8      1647.304          51.000
> 2020 05 18 12 02  0.0000000  0 16        .000000000000
G18  21066263.836 8 110704050.438 8      2193.004          51.000    21066261.227 7  86262874.884 7      1708.834          47.000
G21  21333675.477 8 112109242.509 8      1971.566          49.000    21333675.625 7  87357848.521 7      1536.286          47.000
G25  22622755.422 6 118883398.438 6     -2920.035          40.000    22622758.289 6  92636391.665 6     -2275.355          40.000
G29  20938105.648 8 110030483.355 8     -1715.762          51.000    20938105.711 8  85738047.045 8     -1336.957          51.000
G31  21336547.492 7 112124316.006 7     -1183.074          47.000    21336548.602 7  87369588.288 7      -921.876          47.000
R09  19414450.047 8 103672072.822 8     -1642.160          49.000    19414452.164 8  80633825.678 8     -1277.236          50.000
R20  19537046.719 6 104473397.219 6      1109.789          36.000    19537049.602 7  81257096.228 7       863.169          45.000
C05                                                                  39644310.039 6 159631207.661 6        15.997          37.000
C11  23131242.031 7 120450470.934 7     -2147.551          43.000    23131242.344 7  93139954.499 7     -1660.774          44.000
C23  22324183.688 8 116247888.402 8     -1438.258          51.000
C28  22795898.430 8 118704218.029 8      1921.543          51.000
E01  23611042.500 8 124076869.706 8      -664.410          51.000    23611044.500 8  95071894.174 8      -509.079          51.000
E13  26607506.938 5 139823394.337 5     -2680.492          35.000    26607510.094 5 107137411.838 5     -2054.138          33.000
E21  26566364.531 7 139607183.610 7     -2618.582          45.000    26566370.422 8 106971732.621 8     -2006.566          49.000
E26  22524534.445 8 118367232.814 8      -500.277          51.000    22524537.555 8  90697031.785 8      -383.320          51.000
E33  24684001.617 8 129715332.389 8      2141.023          51.000    24684005.766 8  99392286.459 8      1640.474          51.000
> 2020 05 18 12 02 30.0000000  0 17        .000000000000
G18  21053761.141 8 110638349.309 8      2178.562          51.000    21053758.977 8  86211679.236 8      1697.581          48.000
G21  21322433.625 8 112050166.391 8      1958.410          49.000    21322433.648 7  87311815.186 7      1526.034          46.000
G25  22639419.031 6 118970965.282 6     -2926.238          39.000    22639421.570 6  92704625.514 6     -2280.186          39.000
G29  20947897.820 8 110081941.478 8     -1723.277          51.000    20947897.844 8  85778144.292 8     -1342.814          51.000
G31  21343323.930 7 112159927.211 7     -1199.465          47.000    21343323.695 7  87397337.255 7      -934.648          47.000
R09  19423711.172 8 103721525.847 8     -1663.316          49.000    19423713.062 8  80672289.158 8     -1293.691          51.000
R20  19530850.484 5 104440270.678 5      1090.371          35.000    19530854.672 7  81231331.104 7       848.066          47.000
C05                                                                  39644162.570 6 159630614.029 6        17.121          37.000
C11  23143604.148 7 120514843.346 7     -2152.219          42.000    23143604.672 7  93189731.335 7     -1664.302          43.000
C23  22332483.148 8 116291106.702 8     -1451.312          51.000
C25  25373189.812 4 132124830.401 4     -3365.605          29.000
C28  22784827.430 8 118646570.583 8      1913.324          51.000
E01  23614837.383 8 124096812.137 8      -673.617          51.000    23614839.461 8  95087174.715 8      -516.091          51.000
E13  26622789.852 5 139903712.940 5     -2682.645          35.000    26622794.258 5 107198954.619 5     -2055.461          34.000
E21  26581300.969 7 139685674.383 7     -2622.496          45.000    26581308.320 8 107031874.823 8     -2009.349          50.000
E26  22527396.133 8 118382271.466 8      -510.727          51.000    22527399.391 8  90708554.912 8      -391.282          51.000
E33  24671778.766 8 129651095.751 8      2133.070          51.000    24671782.031 8  99343066.176 8      1634.514          51.000
> 2020 05 18 12 03  0.0000000  0 16        .000000000000
G18  21041380.547 8 110573290.715 8      2161.539          51.000    21041379.008 8  86160984.260 8      1684.319          49.000
G21  21311307.664 8 111991698.353 8      1942.473          51.000    21311306.945 7  87266255.692 7      1513.615          44.000
G25  22656156.367 6 119058922.424 6     -2934.656          38.000    22656158.891 6  92773163.571 6     -2286.745          38.000
G29  20957772.836 8 110133834.473 8     -1733.355          51.000    20957772.562 8  85818580.387 8     -1350.670          51.000
G31  21350234.242 8 112196240.427 8     -1218.484          48.000    21350232.875 8  87425633.234 8      -949.471          48.000
R09  19433130.789 8 103771824.719 8     -1686.965          50.000    19433132.609 8  80711410.497 8     -1312.084          51.000
R20  19524803.867 6 104407938.187 6      1068.293          36.000    19524809.430 8  81206183.625 8       830.895          49.000
C05                                                                  39644045.484 6 159630142.525 6        16.359          37.000
C11  23156033.414 7 120579565.621 7     -2159.621          42.000    23156033.906 7  93239778.678 7     -1669.950          43.000
C23  22340897.305 8 116334924.498 8     -1466.859          51.000
C28  22773842.859 8 118589373.858 8      1902.734          51.000
E01  23618724.438 8 124117239.001 8      -685.266          51.000    23618726.805 8  95102826.448 8      -525.053          51.000
E13  26638124.266 5 139984289.731 5     -2687.242          34.000    26638130.445 5 107260704.439 5     -2059.068          34.000
E21  26596298.773 7 139764486.821 7     -2628.738          46.000    26596307.141 8 107092263.499 8     -2014.225          50.000
E26  22530356.797 8 118397829.342 8      -523.570          51.000    22530360.031 8  90720475.876 8      -401.213          51.000
E33  24659639.719 8 129587302.274 8      2122.711          51.000    24659642.445 8  99294185.466 8      1626.508          51.000
> 2020 05 18 12 03 30.0000000  0 17        .000000000000
G18  21029085.859 8 110508683.081 8      2145.363          51.000    21029085.016 8  86110640.658 8      1671.712          49.000
G21  21300261.031 8 111933646.251 8      1927.422          51.000    21300259.320 7  87221020.333 7      1501.890          45.000
G25  22672930.719 6 119147075.523 6     -2942.363          38.000    22672933.953 6  92841854.300 6     -2292.751          38.000
G29  20967693.531 8 110185967.361 8     -1742.465          51.000    20967692.969 8  85859203.394 8     -1357.765          51.000
G31  21357241.094 8 112233060.831 8     -1236.594          49.000    21357240.062 8  87454324.430 8      -963.580          49.000
R09  19442671.750 8 103822771.632 8     -1709.719          51.000    19442673.352 8  80751035.858 8     -1329.781          50.000
R20  19518869.477 6 104376202.673 6      1047.375          37.000    19518875.570 8  81181500.448 8       814.622          49.000
R21  23289457.156 6 124626593.338 6      3824.305          36.000    23289468.500 5  96931798.438 5      2974.456          35.000
C05                                                                  39643922.000 6 159629644.939 6        16.489          37.000
C11  23168492.688 7 120644444.533 7     -2165.727          42.000    23168493.055 7  93289947.145 7     -1674.834          42.000
C23  22349389.539 8 116379149.328 8     -1481.633          51.000
C28  22762908.734 8 118532436.488 8      1892.934          51.000
E01  23622667.086 8 124137957.186 8      -696.055          51.000    23622669.508 8  95118701.418 8      -533.371          51.000
E13  26653472.812 5 140064949.830 5     -2691.160          34.000    26653480.891 5 107322511.923 5     -2061.687          34.000
E21  26611321.188 7 139843426.732 7     -2634.129          47.000    26611329.258 8 107152749.874 8     -2018.272          49.000
E26  22533379.195 8 118413712.035 8      -535.441          51.000    22533382.539 8  90732645.736 8      -410.285          51.000
E33  24647547.359 8 129523759.247 8      2113.312          49.000    24647550.438 8  99245496.645 8      1619.291          51.000
> 2020 05 18 12 04  0.0000000  0 18        .000000000000
G18  21016885.828 8 110444573.073 8      2128.668          50.000    21016885.789 8  86060684.789 8      1658.699          50.000
G21  21289302.273 8 111876056.109 8      1911.910          51.000    21289300.305 7  87176144.956 7      1489.806          46.000
G25  22689751.477 6 119235468.437 6     -2950.598          41.000    22689754.688 6  92910731.843 6     -2299.170          41.000
G29  20977668.023 8 110238383.345 8     -1751.996          51.000    20977667.391 8  85900047.002 8     -1365.192          51.000
G31  21364352.953 8 112270432.337 8     -1254.941          51.000    21364352.789 8  87483445.053 8      -977.876          51.000
R09  19452342.422 8 103874411.351 8     -1732.934          51.000    19452343.422 8  80791200.080 8     -1347.840          50.000
R20  19513055.523 6 104345109.589 6      1025.336          37.000    19513061.211 8  81157316.916 8       797.484          48.000
R21  23268038.953 6 124511982.901 6      3816.617          38.000    23268048.828 5  96842657.121 5      2968.483          35.000
C05                                                                  39643800.617 6 159629155.630 6        15.985          38.000
C11  23180990.305 7 120709523.149 7     -2172.859          42.000    23180990.438 7  93340269.993 7     -1679.918          42.000
C23  22357968.688 8 116423824.751 8     -1496.691          51.000
C25  25431512.633 4 132428552.566 4     -3380.633          29.000
C28  22752033.273 8 118475803.238 8      1882.648          51.000
E01  23626673.742 8 124159011.853 8      -707.457          51.000    23626676.266 8  95134834.220 8      -542.071          51.000
E13  26668844.680 5 140145732.552 5     -2694.867          35.000    26668853.367 5 107384410.347 5     -2064.650          35.000
E21  26626376.594 8 139922538.291 8     -2640.105          48.000    26626382.648 7 107213367.810 7     -2022.788          47.000
E26  22536471.820 8 118429963.466 8      -547.902          51.000    22536475.203 8  90745098.144 8      -419.854          51.000
E33  24635510.406 8 129460512.276 8      2103.164          48.000    24635514.562 8  99197034.660 8      1611.557          51.000
> 2020 05 18 12 04 30.0000000  0 18        .000000000000
G18  21004801.047 8 110381068.286 8      2112.125          49.000    21004801.656 8  86011200.541 8      1645.812          49.000
G21  21278451.773 8 111819035.221 8      1896.590          51.000    21278450.078 7  87131713.141 7      1477.862          46.000
G25  22706637.867 6 119324206.095 6     -2958.371          38.000    22706639.781 6  92979877.978 6     -2305.230          38.000
G29  20987716.289 8 110291187.455 8     -1761.238          51.000    20987715.844 8  85941193.062 8     -1372.393          51.000
G31  21371589.484 8 112308459.008 8     -1273.082          51.000    21371589.992 8  87513076.215 8      -992.012          51.000
R09  19462162.789 8 103926850.391 8     -1755.805          51.000    19462163.578 8  80831985.982 8     -1365.626          50.000
R20  19507381.938 6 104314766.239 6      1004.422          38.000    19507386.688 8  81133716.551 8       781.217          48.000
R21  23246687.414 5 124397719.983 5      3808.648          33.000    23246695.375 6  96753786.030 6      2962.285          38.000
C05                                                                  39643701.406 6 159628755.702 6        15.779          37.000
C11  23193546.016 7 120774904.687 7     -2179.289          42.000    23193546.180 6  93390827.139 6     -1684.998          41.000
C23  22366654.500 8 116469054.867 8     -1511.637          51.000
C25  25451018.672 5 132530124.834 5     -3384.160          33.000
C28  22741236.289 8 118419579.368 8      1872.680          51.000
E01  23630764.719 8 124180509.215 8      -718.527          51.000    23630767.141 8  95151306.229 8      -550.614          51.000
E13  26684259.898 6 140226738.303 6     -2698.281          37.000    26684268.102 5 107446479.700 5     -2067.757          35.000
E21  26641484.531 7 140001926.661 7     -2645.516          47.000    26641488.539 7 107274197.828 7     -2027.155          46.000
E26  22539654.742 8 118446688.584 8      -560.051          51.000    22539657.805 8  90757913.478 8      -429.130          51.000
E33  24623550.844 8 129397667.879 8      2093.387          49.000    24623555.266 8  99148881.159 8      1604.036          51.000
> 2020 05 18 12 05  0.0000000  0 18        .000000000000
G18  20992765.383 8 110317820.855 8      2097.012          50.000    20992766.281 8  85961916.845 8      1634.035          50.000
G21  21267643.188 8 111762234.717 8      1882.723          51.000    21267641.773 7  87087453.029 7      1467.057          46.000
G25  22723522.820 6 119412937.913 6     -2964.723          38.000    22723524.586 6  93049019.482 6     -2310.180          39.000
G29  20997771.594 8 110344028.551 8     -1768.895          51.000    20997771.258 8  85982367.938 8     -1378.359          51.000
G31  21378883.805 8 112346790.270 8     -1289.645          51.000    21378884.516 8  87542944.736 8     -1004.918          51.000
R09  19472065.492 8 103979732.401 8     -1777.184          51.000    19472066.758 8  80873116.395 8     -1382.254          50.000
R20  19501781.953 6 104284816.624 6       984.738          38.000    19501786.000 8  81110422.406 8       765.908          49.000
R21  23225337.320 5 124283450.272 5      3802.312          35.000    23225341.094 6  96664909.630 6      2957.354          38.000
C05                                                                  39643557.867 6 159628177.317 6        16.912          37.000
C11  23206093.031 6 120840241.231 6     -2183.746          40.000    23206093.305 6  93441349.550 6     -1688.946          41.000
C23  22375380.227 8 116514492.364 8     -1524.957          51.000
C25  25470500.578 6 132631575.657 6     -3386.430          38.000
C28  22730451.219 8 118363418.766 8      1864.141          51.000
E01  23634873.586 8 124202099.910 8      -728.191          51.000    23634875.531 8  95167849.760 8      -557.974          51.000
E13  26699651.320 6 140307615.906 6     -2700.805          38.000    26699658.508 6 107508450.809 6     -2069.403          36.000
E21  26656577.961 7 140081241.474 7     -2649.566          47.000    26656580.922 7 107334971.427 7     -2030.151          45.000
E26  22542860.961 8 118463536.707 8      -570.520          51.000    22542863.734 8  90770823.084 8      -437.190          51.000
E33  24611602.719 8 129334877.087 8      2085.172          51.000    24611606.273 8  99100768.768 8      1597.732          51.000
> 2020 05 18 12 05 30.0000000  0 18        .000000000000
G18  20980849.602 8 110255202.774 8      2079.410          51.000    20980850.453 8  85913123.531 8      1620.320          49.000
G21  21256946.969 8 111706026.604 8      1866.375          49.000    21256945.875 7  87043654.495 7      1454.318          46.000
G25  22740477.500 7 119502032.998 7     -2973.363          42.000    22740479.961 7  93118444.204 7     -2316.903          42.000
G29  21007904.086 8 110397275.208 8     -1778.992          51.000    21007903.617 8  86023858.821 8     -1386.228          51.000
G31  21386306.195 8 112385794.788 8     -1308.785          51.000    21386306.414 8  87573337.855 8     -1019.833          51.000
R09  19482121.594 8 104033432.366 8     -1800.922          51.000    19482122.773 8  80914883.035 8     -1400.717          49.000
R20  19496325.617 6 104255637.047 6       962.730          37.000    19496329.297 8  81087727.179 8       748.790          49.000
R21  23204054.969 6 124169552.571 6      3793.125          37.000    23204056.891 6  96576322.652 6      2950.214          38.000
C05                                                                  39643440.320 6 159627704.087 6        16.060          37.000
C11  23218701.750 6 120905898.186 6     -2191.328          40.000    23218702.250 7  93492119.681 7     -1694.344          42.000
C23  22384216.352 8 116560503.259 8     -1540.621          51.000
C25  25490029.625 6 132733269.490 6     -3390.832          39.000
C28  22719748.781 8 118307688.548 8      1853.215          51.000
E01  23639070.883 8 124224154.448 8      -740.160          51.000    23639072.312 8  95184748.699 8      -567.139          51.000
E13  26715088.766 6 140388734.042 6     -2705.238          38.000    26715094.852 6 107570606.266 6     -2072.710          36.000
E21  26671727.422 7 140160852.182 7     -2655.848          47.000    26671730.141 7 107395971.777 7     -2035.027          46.000
E26  22546160.773 8 118480877.136 8      -583.441          51.000    22546163.523 8  90784109.922 8      -447.136          51.000
E33  24599735.859 8 129272510.859 8      2074.422          51.000    24599738.062 8  99052981.711 8      1589.531          51.000
> 2020 05 18 12 06  0.0000000  0 18        .000000000000
G18  20969024.070 8 110193059.080 8      2062.828          51.000    20969024.672 8  85864699.891 8      1607.399          48.000
G21  21246333.297 8 111650254.810 8      1851.203          49.000    21246332.719 7  87000195.952 7      1442.496          45.000
G25  22757471.867 7 119591333.846 7     -2980.812          42.000    22757474.844 7  93188029.276 7     -2322.714          42.000
G29  21018083.734 8 110450769.514 8     -1787.941          51.000    21018083.039 8  86065542.682 8     -1393.201          51.000
G31  21393826.648 8 112425314.477 8     -1326.543          51.000    21393825.711 8  87604132.417 8     -1033.667          51.000
R09  19492301.070 8 104087789.981 8     -1823.492          51.000    19492302.195 8  80957161.168 8     -1418.272          50.000
R20  19490982.898 6 104227067.709 6       941.508          37.000    19490986.258 8  81065506.572 8       732.284          48.000
R21  23182812.273 6 124055869.339 6      3785.164          38.000    23182812.625 6  96487902.494 6      2944.020          38.000
C05                                                                  39643319.000 6 159627215.962 6        16.163          37.000
C11  23231342.125 6 120971718.866 6     -2197.223          41.000    23231342.773 7  93543016.429 7     -1699.280          42.000
C23  22393132.898 8 116606931.366 8     -1555.254          51.000
C25  25509575.172 6 132835049.388 6     -3394.605          38.000
C28  22709099.422 8 118252233.805 8      1843.285          51.000
E01  23643326.430 8 124246516.502 8      -751.164          51.000    23643327.656 8  95201883.252 8      -575.603          51.000
E13  26730541.812 6 140469934.529 6     -2708.539          37.000    26730547.203 6 107632824.839 6     -2075.608          36.000
E21  26686903.273 8 140240601.448 8     -2661.332          48.000    26686906.953 7 107457078.281 7     -2039.152          46.000
E26  22549524.273 8 118498552.263 8      -595.434          51.000    22549526.969 8  90797653.189 8      -456.214          51.000
E33  24587920.094 8 129210413.198 8      2064.793          51.000    24587920.484 8  99005400.436 8      1582.051          51.000
> 2020 05 18 12 06 30.0000000  0 18        .000000000000
G18  20957293.711 8 110131416.031 8      2046.262          49.000    20957294.359 8  85816666.362 8      1594.493          49.000
G21  21235807.766 8 111594945.113 8      1835.863          49.000    21235807.258 7  86957097.496 7      1430.543          46.000
G25  22774509.344 6 119680863.993 6     -2988.074          41.000    22774512.695 6  93257792.985 6     -2328.370          41.000
G29  21028314.898 8 110504534.634 8     -1796.758          51.000    21028314.188 8  86107437.569 8     -1400.071          51.000
G31  21401449.391 8 112465372.470 8     -1344.332          51.000    21401447.219 8  87635346.416 8     -1047.531          51.000
R09  19502608.133 8 104142828.992 8     -1846.125          51.000    19502609.008 8  80999969.263 8     -1435.875          49.000
R20  19485758.711 6 104199133.484 6       920.754          37.000    19485762.047 8  81043779.955 8       716.139          48.000
R21  23161614.477 6 123942427.489 6      3777.469          40.000    23161613.586 6  96399670.068 6      2938.034          37.000
C05                                                                  39643198.789 6 159626731.834 6        15.710          37.000
C11  23244018.578 6 121037726.121 6     -2203.461          41.000    23244018.750 6  93594057.389 6     -1703.732          41.000
C23  22402134.062 8 116653800.132 8     -1569.762          51.000
C25  25529141.828 6 132936937.832 6     -3397.973          38.000
C28  22698507.742 8 118197079.152 8      1833.352          51.000
E01  23647644.930 8 124269210.880 8      -762.156          51.000    23647646.023 8  95219272.430 8      -583.957          51.000
E13  26746014.602 6 140551240.566 6     -2712.027          36.000    26746019.703 6 107695124.256 6     -2078.101          37.000
E21  26702110.336 8 140320513.051 8     -2666.473          49.000    26702114.344 7 107518309.220 7     -2043.186          46.000
E26  22552955.852 8 118516585.559 8      -607.145          51.000    22552958.375 8  90811470.915 8      -465.203          51.000
E33  24576159.820 8 129148609.350 8      2055.098          51.000    24576158.539 8  98958044.281 8      1574.676          50.000
> 2020 05 18 12 07  0.0000000  0 18        .000000000000
G18  20945657.398 8 110070268.063 8      2029.969          49.000    20945658.422 8  85769018.610 8      1581.794          49.000
G21  21225369.508 8 111540091.218 8      1820.719          51.000    21225368.688 8  86914354.222 8      1418.742          48.000
G25  22791588.547 6 119770615.110 6     -2995.164          40.000    22791592.242 6  93327728.889 6     -2333.897          40.000
G29  21038596.000 8 110558561.838 8     -1805.309          51.000    21038595.328 8  86149536.673 8     -1406.734          51.000
G31  21409172.867 8 112505960.237 8     -1361.902          51.000    21409170.273 8  87666973.222 8     -1061.223          51.000
R09  19513041.500 8 104198540.836 8     -1868.422          51.000    19513042.000 8  81043300.675 8     -1453.217          48.000
R20  19480651.492 6 104171826.123 6       899.688          36.000    19480655.508 8  81022540.933 8       699.757          48.000
R21  23140460.320 6 123829221.345 6      3769.379          37.000    23140458.375 6  96311620.916 6      2931.742          36.000
C05                                                                  39643078.102 6 159626246.017 6        16.045          37.000
C11  23256729.227 6 121103911.190 6     -2209.133          40.000    23256728.445 6  93645235.898 6     -1708.387          40.000
C23  22411218.164 8 116701101.455 8     -1584.027          51.000
C25  25548727.664 6 133038925.799 6     -3401.430          36.000
C28  22687972.258 8 118142217.642 8      1823.738          51.000
E01  23652025.453 8 124292230.548 8      -772.848          51.000    23652026.281 8  95236910.869 8      -592.173          51.000
E13  26761505.516 5 140632643.239 5     -2715.301          35.000    26761510.766 6 107757497.711 6     -2080.358          38.000
E21  26717346.922 8 140400579.010 8     -2671.488          50.000    26717350.430 8 107579658.430 8     -2047.026          48.000
E26  22556453.961 8 118534968.802 8      -618.672          51.000    22556456.492 8  90825556.780 8      -474.071          51.000
E33  24564453.453 8 129087092.711 8      2045.660          51.000    24564451.703 8  98910908.178 8      1567.502          50.000
> 2020 05 18 12 07 30.0000000  0 18        .000000000000
G18  20934117.969 8 110009629.285 8      2013.000          49.000    20934119.477 8  85721767.638 8      1568.571          49.000
G21  21215020.805 8 111485706.894 8      1805.160          51.000    21215019.711 8  86871976.853 8      1406.618          48.000
G25  22808711.125 6 119860598.620 6     -3003.098          38.000    22808716.055 6  93397845.917 6     -2340.073          39.000
G29  21048929.156 8 110612862.430 8     -1814.258          51.000    21048928.609 8  86191848.806 8     -1413.710          51.000
G31  21416999.305 8 112547088.749 8     -1379.754          51.000    21416997.125 8  87699021.405 8     -1075.133          51.000
R09  19523602.992 8 104254937.012 8     -1891.078          51.000    19523603.219 7  81087164.306 7     -1470.842          47.000
R20  19475664.172 6 104145158.095 6       878.359          37.000    19475668.430 8  81001799.115 8       683.168          49.000
R21  23119351.938 6 123716265.463 6      3761.523          36.000    23119349.734 6  96223766.378 6      2925.629          36.000
C05                                                                  39642959.430 6 159625768.139 6        15.849          37.000
C11  23269475.867 6 121170284.922 6     -2215.449          39.000    23269474.188 6  93696560.195 6     -1713.223          40.000
C23  22420387.320 8 116748846.722 8     -1598.660          51.000
C25  25568334.422 5 133141023.884 5     -3405.043          32.000
C28  22677495.500 8 118087661.907 8      1813.676          51.000
E01  23656470.195 8 124315588.218 8      -784.078          51.000    23656471.055 8  95254808.287 8      -600.793          51.000
E13  26777016.609 5 140714171.576 5     -2718.117          34.000    26777022.234 6 107819953.701 6     -2083.129          38.000
E21  26732614.992 8 140480811.034 8     -2676.938          50.000    26732617.875 8 107641134.847 8     -2051.154          50.000
E26  22560021.008 8 118553713.431 8      -630.617          51.000    22560023.555 8  90839919.544 8      -483.230          51.000
E33  24552803.414 8 129025876.375 8      2035.684          49.000    24552802.648 8  98864002.183 8      1559.774          51.000
> 2020 05 18 12 08  0.0000000  0 18        .000000000000
G18  20922692.070 8 109949586.233 8      1995.480          49.000    20922693.477 8  85674980.845 8      1554.920          48.000
G21  21204777.875 8 111431878.029 8      1789.055          51.000    21204776.625 8  86830032.316 8      1394.072          49.000
G25  22825894.336 6 119950898.399 6     -3011.227          41.000    22825899.898 6  93468209.453 6     -2346.407          41.000
G29  21059330.195 8 110667519.885 8     -1823.922          51.000    21059329.727 8  86234439.021 8     -1421.238          51.000
G31  21424944.648 8 112588841.671 8     -1398.164          51.000    21424943.258 8  87731556.151 8     -1089.482          51.000
R09  19534308.180 8 104312101.983 8     -1914.238          51.000    19534308.562 8  81131625.885 8     -1488.855          48.000
R20  19470812.188 6 104119214.939 6       856.539          38.000    19470817.148 8  80981621.115 8       666.197          49.000
R21  23098305.320 6 123603648.061 6      3752.227          38.000    23098303.586 5  96136175.116 5      2918.398          35.000
C05                                                                  39642858.742 6 159625363.158 6        15.136          37.000
C11  23282273.992 6 121236929.887 6     -2221.945          38.000    23282272.531 6  93748094.235 6     -1718.113          41.000
C23  22429657.242 8 116797119.051 8     -1613.891          51.000
C25  25587978.047 5 133243315.349 5     -3409.641          31.000
C28  22667093.445 8 118033496.266 8      1802.992          51.000
E01  23660995.203 8 124339369.006 8      -795.754          51.000    23660996.391 8  95273029.894 8      -609.731          51.000
E13  26792564.164 5 140795873.973 5     -2722.789          34.000    26792569.828 6 107882556.015 6     -2086.188          38.000
E21  26747930.719 8 140561293.103 8     -2682.922          50.000    26747933.070 8 107702802.874 8     -2055.763          51.000
E26  22563672.578 8 118572903.258 8      -643.066          51.000    22563675.344 8  90854623.448 8      -492.817          51.000
E33  24541226.266 8 128965045.860 8      2025.234          48.000    24541227.586 8  98817391.775 8      1551.800          51.000
> 2020 05 18 12 08 30.0000000  0 18        .000000000000
G18  20911341.586 8 109889938.204 8      1979.719          50.000    20911342.602 7  85628501.886 7      1542.641          47.000
G21  21194602.219 8 111378403.768 8      1774.566          51.000    21194601.086 8  86788364.085 8      1382.782          48.000
G25  22843099.516 6 120041311.222 6     -3017.723          39.000    22843105.312 6  93538660.984 6     -2351.475          38.000
G29  21069760.266 8 110722330.359 8     -1831.641          51.000    21069759.742 8  86277148.477 8     -1427.252          51.000
G31  21432970.016 8 112631014.794 8     -1414.840          51.000    21432969.438 8  87764418.332 8     -1102.470          51.000
R09  19545118.477 8 104369829.455 8     -1935.750          51.000    19545119.766 8  81176524.992 8     -1505.583          49.000
R20  19466057.812 6 104093790.770 6       837.195          39.000    19466062.273 7  80961846.790 7       651.152          47.000
R21  23077282.297 6 123491165.066 6      3745.180          37.000    23077281.656 5  96048688.411 5      2912.921          35.000
C05                                                                  39642737.750 6 159624876.089 6        16.220          37.000
C11  23295084.625 5 121303644.181 5     -2227.027          35.000    23295084.727 6  93799681.936 6     -1721.964          41.000
C23  22438989.586 8 116845717.061 8     -1627.363          51.000
C25  25607620.047 4 133345596.718 4     -3410.957          29.000
C28  22656727.383 8 117979520.578 8      1794.008          50.000
E01  23665562.344 8 124363370.850 8      -805.742          51.000    23665563.742 8  95291420.897 8      -617.429          51.000
E13  26808109.328 5 140877563.574 5     -2725.016          34.000    26808114.766 6 107945148.563 6     -2087.873          38.000
E21  26763255.461 8 140641822.274 8     -2687.195          50.000    26763257.289 8 107764506.972 8     -2058.885          50.000
E26  22567370.297 8 118592335.007 8      -653.742          51.000    22567373.203 8  90869512.703 8      -500.904          51.000
E33  24529684.625 8 128904399.522 8      2016.449          49.000    24529687.602 8  98770922.478 8      1545.101          51.000
> 2020 05 18 12 09  0.0000000  0 18        .000000000000
G18  20900090.305 8 109830811.734 8      1962.539          50.000    20900090.859 7  85582429.336 7      1529.254          47.000
G21  21184517.516 8 111325409.530 8      1758.887          49.000    21184516.617 8  86747069.885 8      1370.561          48.000
G25  22860349.523 6 120131960.877 6     -3025.086          38.000    22860353.359 6  93609296.990 6     -2357.213          38.000
G29  21080242.977 8 110777417.359 8     -1840.391          51.000    21080242.328 8  86320073.400 8     -1434.071          51.000
G31  21441098.945 8 112673731.640 8     -1432.500          51.000    21441098.422 8  87797704.167 8     -1116.234          51.000
R09  19556056.711 8 104428244.930 8     -1958.191          48.000    19556059.477 8  81221959.203 8     -1523.038          50.000
R20  19461424.352 6 104069011.964 6       815.734          39.000    19461428.195 8  80942574.412 8       634.460          48.000
R21  23056308.500 6 123378945.312 6      3736.594          37.000    23056310.242 6  95961406.478 6      2906.243          36.000
C05                                                                  39642620.117 6 159624402.643 6        15.900          37.000
C11  23307932.594 5 121370550.219 5     -2233.230          34.000    23307933.891 6  93851417.966 6     -1726.712          40.000
C23  22448408.297 8 116894763.528 8     -1641.961          51.000
C25  25627283.898 5 133447989.196 5     -3414.434          31.000
C28  22646421.891 8 117925858.831 8      1783.910          51.000
E01  23670195.609 8 124387718.879 8      -816.891          51.000    23670197.109 8  95310077.150 8      -625.947          51.000
E13  26823675.641 5 140959365.793 5     -2727.965          33.000    26823680.531 6 108007825.915 6     -2090.331          37.000
E21  26778612.273 7 140722522.594 7     -2692.426          47.000    26778614.000 8 107826342.272 8     -2063.040          50.000
E26  22571137.766 8 118612132.547 8      -665.613          51.000    22571140.727 8  90884682.242 8      -509.976          51.000
E33  24518202.875 8 128844062.788 8      2006.512          50.000    24518206.156 8  98724690.444 8      1537.454          51.000
> 2020 05 18 12 09 30.0000000  0 18        .000000000000
G18  20888934.938 8 109772188.698 8      1945.316          51.000    20888935.078 7  85536749.064 7      1515.831          47.000
G21  21174520.305 8 111272876.664 8      1743.047          48.000    21174519.641 7  86706135.169 7      1358.218          47.000
G25  22877640.305 6 120222826.575 6     -3032.141          38.000    22877639.070 6  93680101.235 6     -2362.707          37.000
G29  21090774.406 8 110832760.121 8     -1849.297          51.000    21090773.562 8  86363197.608 8     -1441.011          51.000
G31  21449327.180 8 112716970.998 8     -1450.367          51.000    21449326.188 8  87831397.151 8     -1130.156          51.000
R09  19567119.703 7 104487326.623 7     -1980.801          46.000    19567123.711 8  81267911.643 8     -1540.623          51.000
R20  19456907.484 6 104044857.799 6       794.422          40.000    19456911.602 8  80923787.851 8       617.884          50.000
R21  23035382.078 6 123266970.650 6      3728.043          36.000    23035385.820 6  95874315.092 6      2899.589          37.000
C05                                                                  39642502.156 6 159623927.740 6        15.589          37.000
C11  23320814.375 6 121437626.954 6     -2239.312          36.000    23320815.359 6  93903285.968 6     -1731.258          39.000
C23  22457909.430 8 116944237.871 8     -1656.625          51.000
C25  25646966.180 5 133550472.474 5     -3418.125          32.000
C28  22636173.281 8 117872491.726 8      1773.598          51.000
E01  23674891.148 8 124412393.641 8      -828.219          51.000    23674892.695 8  95328983.774 8      -634.621          51.000
E13  26839259.062 5 141041257.528 5     -2731.539          32.000    26839263.156 6 108070571.799 6     -2092.692          36.000
E21  26793996.094 7 140803373.614 7     -2697.844          43.000    26793999.789 8 107888293.036 8     -2067.167          50.000
E26  22574970.750 8 118632275.080 8      -677.371          51.000    22574973.852 8  90900116.150 8      -519.049          51.000
E33  24506777.156 8 128784016.634 8      1996.336          51.000    24506779.672 8  98678681.059 8      1529.708          51.000
> 2020 05 18 12 10  0.0000000  0 18        .000000000000
G18  20877875.914 8 109714070.585 8      1928.691          51.000    20877875.797 8  85491462.243 8      1502.876          48.000
G21  21164611.367 8 111220806.181 8      1727.852          48.000    21164610.703 7  86665560.744 7      1346.378          47.000
G25  22894971.883 6 120313907.222 6     -3039.871          37.000    22894972.727 6  93751073.169 6     -2368.731          37.000
G29  21101354.211 8 110888356.959 8     -1857.664          51.000    21101353.219 8  86406519.806 8     -1447.533          51.000
G31  21457654.242 8 112760731.346 8     -1467.551          50.000    21457653.133 8  87865496.088 8     -1143.549          50.000
R09  19578307.641 8 104547073.548 8     -2002.867          48.000    19578312.711 8  81314381.480 8     -1557.786          51.000
R20  19452507.531 6 104021327.643 6       773.898          40.000    19452511.695 8  80905486.608 8       601.921          50.000
R21  23014503.375 6 123155242.540 6      3719.953          37.000    23014508.008 6  95787415.510 6      2893.297          38.000
C05                                                                  39642383.773 6 159623451.222 6        15.849          37.000
C11  23333728.578 6 121504872.791 6     -2244.438          36.000    23333729.023 6  93955284.748 6     -1735.566          39.000
C23  22467492.344 8 116994139.008 8     -1670.652          50.000
C25  25666665.953 5 133653044.613 5     -3421.473          33.000
C28  22625981.203 8 117819419.381 8      1763.980          50.000
E01  23679648.953 8 124437395.188 8      -839.020          51.000    23679650.359 8  95348140.790 8      -642.828          51.000
E13                                                                  26854862.398 6 108133385.123 6     -2095.051          36.000
E21  26809407.578 6 140884374.482 6     -2702.832          41.000    26809414.109 8 107950358.577 8     -2070.881          51.000
E26  22578869.359 8 118652761.484 8      -688.715          51.000    22578872.438 8  90915813.523 8      -527.723          51.000
E33  24495407.117 8 128724261.554 8      1986.816          51.000    24495408.688 8  98632894.709 8      1522.408          51.000
> 2020 05 18 12 10 30.0000000  0 18        .000000000000
G18  20866914.414 8 109656465.815 8      1911.688          50.000    20866914.148 8  85446575.441 8      1489.627          48.000
G21  21154792.344 8 111169206.046 8      1712.355          48.000    21154791.586 8  86625352.843 8      1334.303          48.000
G25  22912346.570 6 120405208.708 6     -3047.199          36.000    22912349.234 6  93822217.173 6     -2374.441          36.000
G29  21111983.414 8 110944213.485 8     -1866.098          51.000    21111982.398 8  86450044.360 8     -1454.102          51.000
G31  21466081.289 8 112805017.947 8     -1484.824          49.000    21466080.656 8  87900005.084 8     -1157.006          49.000
R09  19589622.258 8 104607490.926 8     -2024.859          49.000    19589627.195 8  81361372.794 8     -1574.891          51.000
R20  19448225.133 6 103998428.068 6       752.875          39.000    19448229.453 8  80887675.832 8       585.569          50.000
R21  22993673.008 7 123043770.152 7      3711.594          42.000    22993677.727 6  95700714.829 6      2886.798          37.000
C05                                                                  39642266.383 6 159622978.437 6        15.571          37.000
C11  23346675.969 6 121572293.043 6     -2250.102          36.000    23346676.602 6  94007418.309 6     -1739.695          40.000
C23  22477158.219 8 117044472.735 8     -1684.922          49.000
C25  25686383.898 5 133755710.531 5     -3423.578          32.000
C28  22615847.148 8 117766648.887 8      1754.023          49.000
E01  23684470.211 8 124462730.661 8      -850.016          51.000    23684471.531 8  95367553.675 8      -651.347          51.000
E13                                                                  26870479.172 5 108196269.901 5     -2097.284          34.000
E21  26824850.219 7 140965531.266 7     -2707.793          44.000    26824858.188 8 108012543.579 8     -2074.719          51.000
E26  22582834.469 8 118673597.623 8      -700.289          51.000    22582837.531 8  90931778.872 8      -536.591          51.000
E33  24484093.844 8 128664805.030 8      1976.961          51.000    24484094.523 8  98587337.121 8      1514.850          51.000
> 2020 05 18 12 11  0.0000000  0 18        .000000000000
G18  20856049.391 8 109599370.855 8      1894.098          48.000    20856048.984 7  85402085.900 7      1475.920          46.000
G21  21145062.133 8 111118072.139 8      1696.129          49.000    21145061.273 8  86585508.274 8      1321.662          49.000
G25  22929762.031 5 120496724.787 5     -3053.645          30.000    22929765.516 5  93893528.472 5     -2379.463          31.000
G29  21122660.664 8 111000323.164 8     -1874.930          51.000    21122659.836 8  86493766.174 8     -1460.984          51.000
G31  21474607.266 8 112849823.842 8     -1502.531          50.000    21474607.281 8  87934918.746 8     -1170.804          50.000
R09  19601061.570 8 104668572.177 8     -2047.488          51.000    19601065.758 8  81408880.455 8     -1592.491          51.000
R20  19444059.797 6 103976152.980 6       731.953          40.000    19444063.867 8  80870350.760 8       569.297          50.000
R21  22972889.344 7 122932549.865 7      3702.617          44.000    22972893.812 6  95614210.239 6      2879.816          36.000
C05                                                                  39642148.820 6 159622505.380 6        15.737          37.000
C11  23359655.633 6 121639881.268 6     -2256.074          36.000    23359656.570 6  94059681.811 6     -1744.534          40.000
C23  22486906.617 8 117095232.994 8     -1699.531          50.000
C25  25706118.328 5 133858463.477 5     -3426.875          34.000
C28  22605770.148 8 117714175.441 8      1743.715          49.000
E01  23689354.133 8 124488395.138 8      -861.453          51.000    23689355.523 8  95387218.654 8      -660.065          51.000
E13                                                                  26886112.250 5 108259221.126 5     -2099.564          33.000
E21  26840322.461 7 141046838.070 7     -2713.238          44.000    26840330.680 8 108074843.525 8     -2078.903          50.000
E26  22586864.828 8 118694777.289 8      -712.152          51.000    22586867.891 8  90948007.445 8      -545.660          51.000
E33  24472836.234 8 128605642.560 8      1966.707          51.000    24472836.305 8  98542004.862 8      1507.002          51.000
> 2020 05 18 12 11 30.0000000  0 17        .000000000000
G18  20845283.406 8 109542797.060 8      1878.047          49.000    20845282.688 7  85358002.429 7      1463.413          45.000
G21  21135422.602 8 111067415.108 8      1681.578          50.000    21135421.664 8  86546035.301 8      1310.321          48.000
G29  21133387.664 8 111056694.471 8     -1882.438          51.000    21133387.195 8  86537691.853 8     -1466.834          51.000
G31  21483233.828 8 112895157.330 8     -1519.141          50.000    21483234.359 8  87970243.531 8     -1183.746          50.000
R09  19612626.820 8 104730325.855 8     -2068.770          51.000    19612630.062 8  81456911.089 8     -1609.040          51.000
R20  19440012.922 6 103954511.965 6       711.797          40.000    19440016.852 8  80853518.881 8       553.620          50.000
R21  22952154.648 7 122821593.575 7      3695.055          46.000    22952158.367 5  95527911.002 5      2873.934          34.000
C05                                                                  39642033.148 6 159622039.619 6        16.214          37.000
C11  23372669.523 6 121707645.748 6     -2260.746          37.000    23372670.570 6  94112081.587 6     -1748.309          39.000
C23  22496738.922 8 117146428.472 8     -1712.828          51.000
C25  25725870.039 5 133961311.288 5     -3428.484          35.000
C28  22595752.070 8 117662008.914 8      1734.648          50.000
E01  23694302.742 8 124514398.616 8      -871.488          51.000    23694304.258 8  95407143.391 8      -667.743          51.000
E13                                                                  26901763.406 5 108322245.234 5     -2101.211          33.000
E21  26855824.992 7 141128303.878 7     -2717.094          45.000    26855832.844 8 108137265.344 8     -2081.998          49.000
E26  22590962.336 8 118716309.219 8      -722.602          51.000    22590965.352 8  90964505.932 8      -553.637          51.000
E33  24461636.078 8 128546784.506 8      1957.859          51.000    24461635.789 8  98496905.865 8      1500.235          51.000
> 2020 05 18 12 12  0.0000000  0 18        .000000000000
G18  20834607.758 8 109486696.531 8      1851.371          50.000    20834606.461 7  85314287.717 7      1442.627          45.000
G21  21125864.594 8 111017186.353 8      1656.477          51.000    21125863.438 8  86506896.045 8      1290.761          48.000
G25  22964709.719 5 120680357.213 5     -3077.645          34.000    22964715.375 5  94036650.218 5     -2398.165          33.000
G29  21144154.867 8 111113276.870 8     -1900.324          51.000    21144154.719 8  86581782.010 8     -1480.772          51.000
G31  21491951.250 8 112940967.768 8     -1545.660          50.000    21491951.938 8  88005939.966 8     -1204.411          50.000
R09  19624308.297 8 104792700.161 8     -2100.359          51.000    19624310.547 8  81505424.430 8     -1633.613          51.000
R20  19436075.086 6 103933453.897 6       681.402          40.000    19436079.094 8  80837140.382 8       529.980          50.000
R21  22931460.117 7 122710852.723 7      3676.867          45.000    22931462.703 5  95441779.364 5      2859.792          34.000
C05                                                                  39641909.930 6 159621543.307 6         8.717          37.000
C11  23385707.570 6 121775536.052 6     -2275.477          38.000    23385708.422 6  94164578.617 6     -1759.791          37.000
C23  22506644.820 8 117198009.132 8     -1736.379          51.000
C25  25745629.320 6 134064203.155 6     -3440.746          38.000
C28  22585783.938 8 117610100.560 8      1715.391          51.000
E01  23699306.336 8 124540691.871 8      -891.996          51.000    23699308.117 8  95427290.170 8      -683.469          51.000
E13                                                                  26917423.227 5 108385309.229 5     -2110.585          32.000
E21  26871347.898 7 141209878.530 7     -2731.617          43.000    26871355.562 8 108199770.579 8     -2093.099          48.000
E26  22595117.117 8 118738142.953 8      -743.523          51.000    22595120.141 8  90981235.681 8      -569.731          51.000
E33  24450484.180 8 128488182.072 8      1938.414          51.000    24450483.422 8  98452002.739 8      1485.296          51.000
> 2020 05 18 12 12 30.0000000  0 18        .000000000000
G18  20824048.367 8 109431205.784 8      1843.992          51.000    20824046.312 7  85271048.164 7      1436.880          45.000
G21  21116414.086 8 110967522.034 8      1650.551          51.000    21116412.555 8  86468196.598 8      1286.143          48.000
G25  22982260.078 6 120772576.840 6     -3074.355          38.000    22982262.828 6  94108509.633 6     -2395.605          38.000
G29  21154987.695 8 111170203.846 8     -1898.789          51.000    21154987.570 8  86626140.678 8     -1479.576          51.000
G31  21500784.828 8 112987388.249 8     -1552.984          50.000    21500785.266 8  88042111.764 8     -1210.115          51.000
R09  19636130.828 8 104855830.934 8     -2112.492          51.000    19636132.938 8  81554526.082 8     -1643.053          51.000
R20  19432271.617 6 103913115.766 6       670.406          39.000    19432275.875 8  80821321.824 8       521.427          49.000
R21  22910831.422 7 122600466.263 7      3678.227          42.000    22910834.125 6  95355923.352 6      2860.849          36.000
C05                                                                  39641804.773 6 159621119.898 6        16.516          37.000
C11  23398795.414 6 121843684.518 6     -2271.215          38.000    23398795.539 6  94217275.308 6     -1756.335          37.000
C23  22516649.938 8 117250107.746 8     -1740.832          51.000
C25  25765421.930 6 134167271.128 6     -3434.402          37.000
C28  22575891.234 8 117558584.436 8      1715.137          50.000
E01  23704390.453 8 124567410.175 8      -893.242          51.000    23704392.539 8  95447762.625 8      -684.396          51.000
E13                                                                  26933117.086 5 108448501.512 5     -2105.200          31.000
E21  26886916.742 7 141291696.251 7     -2726.766          44.000    26886923.938 7 108262462.077 7     -2089.352          46.000
E26  22599354.844 8 118760412.482 8      -745.059          51.000    22599357.672 8  90998299.346 8      -570.895          51.000
E33  24439406.562 8 128429970.887 8      1938.477          51.000    24439405.438 8  98407399.391 8      1485.248          51.000
> 2020 05 18 12 13  0.0000000  0 19        .000000000000
G18  20813574.680 8 109376165.738 8      1824.961          51.000    20813572.344 7  85228159.849 7      1422.051          46.000
G21  21107040.672 8 110918262.329 8      1633.008          51.000    21107038.562 7  86429812.417 7      1272.474          47.000
G25  22999837.680 6 120864941.953 6     -3083.242          38.000    22999837.359 6  94180482.193 6     -2402.536          38.000
G29  21165855.375 8 111227313.724 8     -1908.891          51.000    21165855.031 8  86670641.864 8     -1487.447          51.000
G31  21509703.797 8 113034256.710 8     -1571.941          51.000    21509703.680 8  88078632.645 8     -1224.889          51.000
R09  19648064.250 8 104919553.312 8     -2136.250          51.000    19648066.141 8  81604087.893 8     -1661.531          51.000
R10  19415692.086 6 103496564.505 6      1067.191          37.000
R20  19428572.102 6 103893333.188 6       648.152          40.000    19428576.227 8  80805935.386 8       504.118          49.000
R21  22890237.148 5 122490272.767 5      3667.988          34.000    22890241.961 6  95270217.377 6      2852.880          39.000
C05                                                                  39641687.172 6 159620646.397 6        14.755          37.000
