     3.02           OBSERVATION DATA    M (MIXED)           RINEX VERSION / TYPE
SAVERINEX           SC600               20200517 115931 LCL PGM / RUN BY / DATE
       G = GPS       R = GLONASS       C = COMPASS          COMMENT
       S = SBAS      J = QZSS          E = GALILEO          COMMENT
BEAN                                                        MARKER NAME
1                                                           MARKER NUMBER
GEODETIC                                                    MARKER TYPE
Unige DICCA         GTER                                    OBSERVER / AGENCY
SC60291900056       SC600               2.12(191202)        REC # / TYPE / VERS
                    HEMA45          NONE                    ANT # / TYPE
  4509407.8091   693652.4678  4442337.6214                  APPROX POSITION XYZ
        0.0000        0.0000        0.0000                  ANTENNA: DELTA H/E/N
G    8 C1C L1C D1C S1C C2Y L2Y D2Y S2Y                      SYS / # / OBS TYPES
R    8 C1C L1C D1C S1C C2P L2P D2P S2P                      SYS / # / OBS TYPES
C    8 C1I L1I D1I S1I C7I L7I D7I S7I                      SYS / # / OBS TYPES
E    8 C1C L1C D1C S1C C7Q L7Q D7Q S7Q                      SYS / # / OBS TYPES
DBHZ                                                        COMMENT
     30.000                                                 INTERVAL
  2020    05    17    09    00    0.0000000     GPS         TIME OF FIRST OBS
  2020    05    17    09    59   30.0000000     GPS         TIME OF LAST OBS
     0                                                      RCV CLOCK OFFS APPL
G L1C  0.00000                                              SYS / PHASE SHIFT
G L2Y  0.00000                                              SYS / PHASE SHIFT
R L1C  0.00000                                              SYS / PHASE SHIFT
R L2P  0.25000                                              SYS / PHASE SHIFT
C L1I  0.00000                                              SYS / PHASE SHIFT
C L7I  0.00000                                              SYS / PHASE SHIFT
E L1C  0.50000                                              SYS / PHASE SHIFT
E L7Q -0.25000                                              SYS / PHASE SHIFT
 12 R02 -4 R03  5 R04  6 R05  1 R10 -5 R12 -1 R13 -2 R14 -7 GLONASS SLOT / FRQ #
    R15  0 R17  4 R18 -3 R23  3                             GLONASS SLOT / FRQ #
 C1C   71.950 C2C   71.950 C2P   71.950                     GLONASS COD/PHS/BIS
    18                                                      LEAP SECONDS
*** Above antenna height is from mark to ANTENNA BOTTOM.    COMMENT
    17     4        0.0000        ANT MEASURE TYPE/HEIGT    COMMENT
    0.0000    0.0000    0.0458    0.0405    0.0000          COMMENT
                    BASE STATION                            COMMENT
                                                            END OF HEADER
> 2020 05 17 09 00  0.0000000  0 19        .000000000000
G02  23146959.945 6 121638118.365 6      1130.527          36.000    23146959.102 5  94782926.406 5       880.933          32.000
G12  20243311.953 8 106379351.133 8      -881.859          51.000    20243310.312 8  82892985.133 8      -687.163          51.000
G24  21671137.078 8 113882584.894 8     -2632.277          50.000    21671140.117 8  88739682.183 8     -2051.125          50.000
G25  20421215.664 6 107314210.152 6      1043.227          36.000
G29  22624012.641 8 118889977.424 8      3366.391          48.000    22624014.195 8  92641555.006 8      2623.162          48.000
G32  22143762.148 5 116366270.573 5       183.789          35.000
R05  23307372.172 7 124591235.408 7     -3775.238          44.000    23307374.664 6  96904298.321 6     -2936.299          37.000
R15  19523023.383 6 104325051.462 6       392.383          38.000    19523025.047 5  81141737.347 5       305.187          32.000
R17  19825878.086 8 106092310.669 8      1775.094          51.000    19825879.750 8  82516296.858 8      1380.632          48.000
R18  22494161.086 6 120075359.532 6      4481.109          38.000    22494165.680 5  93391948.889 5      3485.310          33.000
C11  22797768.047 6 118714043.460 6      -844.133          40.000    22797765.953 7  91797246.779 7      -652.882          44.000
C23  21846456.289 8 113760225.378 8       -82.625          51.000
C25  24149582.430 5 125753249.265 5     -2404.801          35.000
C28  24294512.953 6 126507910.604 6      3211.406          36.000
E09  25293750.094 5 132919583.967 5     -2934.629          35.000    25293742.273 5 101847445.042 5     -2248.510          34.000
E12  24091287.531 7 126600532.898 7      2818.453          47.000    24091288.766 7  97005638.767 7      2159.639          47.000
E24  22266274.797 5 117010083.925 5      1062.637          33.000    22266284.023 5  89657081.141 5       814.010          34.000
E31  24177322.031 7 127052719.067 7     -1092.578          46.000    24177325.055 7  97352095.283 7      -837.146          42.000
E33  25127274.672 6 132044706.569 6       523.875          37.000    25127270.852 6 101177124.651 6       401.438          38.000
> 2020 05 17 09 00 30.0000000  0 20        .000000000000
G02  23140528.531 6 121604329.436 6      1120.055          39.000    23140529.141 5  94756594.405 5       872.770          31.000
G12  20248361.234 8 106405885.578 8      -888.621          51.000    20248359.492 8  82913661.316 8      -692.432          51.000
G24  21686179.453 8 113961631.229 8     -2638.930          51.000    21686182.820 8  88801276.724 8     -2056.309          51.000
G25  20415272.242 5 107283003.006 5      1035.988          35.000    20415278.547 5  83597135.308 5       807.258          34.000
G29  22604804.430 8 118789034.438 8      3361.602          49.000    22604805.422 8  92562898.148 8      2619.433          49.000
G32  22142753.008 5 116360968.917 5       168.875          35.000    22142758.969 5  90670895.391 5       131.591          31.000
R05  23328561.133 7 124704497.904 7     -3777.262          43.000    23328562.930 6  96992391.307 6     -2937.870          38.000
R14  21487249.844 5 114539138.702 5     -2520.227          30.000    21487258.344 4  89086007.698 4     -1960.173          26.000
R15  19520838.398 6 104313376.066 6       384.469          39.000    19520841.922 5  81132656.435 5       299.031          35.000
R17  19815982.242 8 106039355.276 8      1753.734          51.000    19815983.727 8  82475109.360 8      1364.016          49.000
R18  22468977.656 6 119940935.860 6      4479.402          36.000    22468984.719 4  93287397.098 4      3483.980          28.000
C11  22802663.367 5 118739534.014 5      -856.109          35.000    22802661.242 7  91816957.732 7      -662.234          43.000
C23  21846945.102 8 113762771.590 8       -88.543          51.000
C25  24163445.836 6 125825412.504 6     -2407.414          37.000
C28  24276017.836 6 126411579.224 6      3209.074          36.000
E09  25310488.500 6 133007517.517 6     -2931.770          37.000    25310482.516 5 101914841.004 5     -2246.331          34.000
E12  24075198.875 7 126515988.288 7      2816.418          47.000    24075201.062 8  96940857.856 8      2158.020          48.000
E24  22260203.008 5 116978156.603 5      1062.230          30.000    22260214.234 5  89632635.810 5       814.052          33.000
E31  24183555.750 7 127085479.274 7     -1093.098          47.000    24183558.367 6  97377197.244 6      -837.553          41.000
E33  25124309.492 5 132029123.023 5       513.594          32.000    25124304.125 6 101165183.977 6       393.605          39.000
> 2020 05 17 09 01  0.0000000  0 19        .000000000000
G02  23134182.469 6 121570983.226 6      1102.852          36.000    23134182.633 4  94730610.355 4       859.374          26.000
G12  20253471.805 8 106432741.696 8      -901.656          51.000    20253470.117 8  82934588.169 8      -702.586          51.000
G24  21701283.031 8 114040998.382 8     -2652.090          51.000    21701286.516 8  88863121.244 8     -2066.564          51.000
G25  20409392.852 5 107252124.821 5      1023.090          31.000    20409398.094 5  83573074.311 5       797.216          30.000
G29  22585647.367 8 118688361.196 8      3350.105          50.000    22585647.703 8  92484451.508 8      2610.472          50.000
R05  23349785.945 7 124817990.385 7     -3785.785          42.000    23349789.594 6  97080659.643 6     -2944.500          38.000
R14  21501452.445 5 114614919.301 5     -2531.664          33.000
R15  19518721.586 6 104302062.375 6       369.891          41.000    19518726.617 5  81123856.848 5       287.690          35.000
R17  19806229.352 8 105987165.899 8      1725.648          51.000    19806230.969 8  82434517.665 8      1342.174          48.000
R18  22443832.945 6 119806716.546 6      4469.301          36.000    22443840.648 4  93183004.230 4      3476.120          29.000
C11  22807650.992 6 118765505.782 6      -874.863          38.000    22807648.805 7  91837040.740 7      -676.557          42.000
C23  21847490.953 8 113765615.978 8      -100.969          51.000
C25  24177339.562 5 125897759.581 5     -2415.715          35.000
C28  24257552.875 6 126315432.910 6      3200.820          40.000
E09  25327232.641 6 133095522.031 6     -2935.316          38.000    25327231.062 5 101982273.734 5     -2249.007          35.000
E12  24059145.414 7 126431627.546 7      2807.758          47.000    24059147.914 8  96876217.815 8      2151.447          49.000
E24                                                                  22254166.633 4  89608306.686 4       809.095          29.000
E31  24189815.250 7 127118373.705 7     -1099.891          47.000    24189816.969 6  97402402.042 6      -842.654          40.000
E33                                                                  25121422.477 6 101153580.572 6       380.190          39.000
> 2020 05 17 09 01 30.0000000  0 19        .000000000000
G02  23127926.391 5 121538111.907 5      1089.008          34.000    23127917.398 5  94704954.194 5       848.578          31.000
G12  20258649.320 8 106459949.298 8      -911.398          51.000    20258647.672 8  82955788.906 8      -710.181          51.000
G24  21716453.086 8 114120715.358 8     -2661.605          51.000    21716456.641 8  88925238.347 8     -2073.978          51.000
G25  20403587.102 5 107221574.149 5      1012.609          31.000    20403589.000 5  83549297.516 5       789.046          32.000
G29  22566547.977 8 118587990.899 8      3341.883          51.000    22566546.773 8  92406240.934 8      2604.068          51.000
G32  22141085.859 5 116352189.454 5       127.695          31.000
R05  23371047.508 6 124931645.562 6     -3790.379          40.000    23371053.172 6  97169058.076 6     -2948.072          38.000
R14  21515715.781 5 114690985.054 5     -2538.590          33.000    21515728.930 5  89204023.509 5     -1974.462          32.000
R15  19516678.695 6 104291142.911 6       358.637          40.000    19516683.000 5  81115363.946 5       278.937          34.000
R17  19796625.648 8 105935776.103 8      1701.090          51.000    19796627.562 8  82394547.859 8      1323.073          48.000
R18  22418733.484 6 119672736.797 6      4463.449          36.000    22418742.984 4  93078797.814 4      3471.578          29.000
C11  22812735.961 6 118791987.960 6      -890.043          37.000    22812734.312 7  91857518.463 7      -688.093          44.000
C23  21848100.211 8 113768789.553 8      -109.875          51.000
C25  24191269.414 5 125970320.571 5     -2421.070          31.000
C28  24239126.812 7 126219504.137 7      3195.383          44.000
E09  25343990.008 6 133183591.219 6     -2934.922          37.000    25343991.336 5 102049755.296 5     -2249.282          35.000
E12  24043133.375 7 126347483.339 7      2802.570          47.000    24043136.047 8  96811743.692 8      2147.355          50.000
E31  24196106.273 7 127151433.210 7     -1103.445          47.000    24196108.242 6  97427733.325 6      -845.413          39.000
E33                                                                  25118631.094 6 101142338.198 6       369.678          39.000
> 2020 05 17 09 02  0.0000000  0 17        .000000000000
G06  23479842.758 5 123387373.991 5      -195.680          32.000
G12  20263889.312 8 106487485.268 8      -923.863          51.000    20263887.703 8  82977245.520 8      -719.890          51.000
G24  21731685.180 8 114200758.519 8     -2673.922          51.000    21731688.406 8  88987609.623 8     -2083.575          51.000
G29  22547502.219 8 118487903.142 8      3330.832          51.000    22547499.539 8  92328250.518 8      2595.454          51.000
R05  23392343.758 5 125045482.692 5     -3798.289          35.000    23392350.891 6  97257598.025 6     -2954.225          38.000
R14  21530034.594 5 114767316.838 5     -2549.211          34.000    21530045.664 5  89263392.496 5     -1982.726          32.000
R15  19514705.289 6 104280595.813 6       344.664          41.000    19514707.719 5  81107160.648 5       268.075          33.000
R17  19787167.375 8 105885165.036 8      1673.508          49.000    19787169.609 8  82355183.714 8      1301.617          48.000
R18  22393676.836 6 119538977.764 6      4454.414          37.000    22393685.625 4  92974762.952 4      3464.541          28.000
C11  22817914.383 6 118818956.922 6      -907.773          40.000    22817913.039 7  91878372.643 7      -702.063          43.000
C23  21848768.680 8 113772270.409 8      -121.688          51.000
C25  24205238.328 5 126043072.318 5     -2428.883          33.000
C28  24220738.523 7 126123772.480 7      3187.000          45.000
E09  25360754.070 6 133271699.578 6     -2938.246          36.000    25360758.922 6 102117266.841 6     -2251.620          36.000
E12  24027158.305 7 126263534.947 7      2794.324          46.000    24027161.211 8  96747419.602 8      2141.103          49.000
E31  24202424.320 7 127184635.075 7     -1109.633          47.000    24202426.516 6  97453173.667 6      -850.130          38.000
E33  25115924.703 5 131985074.279 5       466.051          33.000    25115924.508 6 101131439.782 6       356.957          38.000
> 2020 05 17 09 02 30.0000000  0 16        .000000000000
G02  23115671.555 5 121473668.873 5      1060.965          35.000
G12  20269186.219 8 106515320.642 8      -930.684          51.000    20269184.766 8  82998935.436 8      -725.208          51.000
G24  21746973.578 8 114281098.122 8     -2680.711          51.000    21746976.039 8  89050211.875 8     -2088.866          51.000
G29  22528504.664 8 118388071.260 8      3325.660          49.000    22528501.773 8  92250459.475 8      2591.423          49.000
R14  21544398.906 5 114843885.661 5     -2553.535          30.000    21544402.586 4  89322951.110 4     -1986.080          29.000
R15  19512795.797 6 104270393.835 6       336.637          39.000    19512797.211 5  81099225.753 5       261.826          35.000
R17  19777849.289 8 105835306.382 8      1651.664          48.000    19777852.289 8  82316404.746 8      1284.628          48.000
R18  22368656.289 5 119405415.127 5      4450.730          35.000    22368664.375 4  92870880.911 4      3461.685          29.000
C11  22823181.484 6 118846384.033 6      -919.723          39.000    22823180.000 7  91899580.978 7      -711.031          42.000
C23  21849491.016 8 113776031.522 8      -127.809          51.000
C25  24219239.391 5 126115986.786 5     -2430.980          34.000
C28  24202383.578 7 126028212.245 7      3184.660          45.000
E09  25377519.312 5 133359768.915 5     -2935.230          35.000    25377528.070 6 102184785.298 6     -2249.079          36.000
E12  24011215.352 7 126179756.370 7      2791.996          45.000    24011218.164 8  96683225.615 8      2139.331          50.000
E31  24208764.336 8 127217951.492 8     -1110.184          48.000    24208766.141 6  97478701.793 6      -850.828          38.000
E33  25113300.781 6 131971278.328 6       455.312          36.000    25113298.516 6 101120864.232 6       348.837          38.000
> 2020 05 17 09 03  0.0000000  0 19        .000000000000
G02  23109672.359 5 121442146.733 5      1041.941          33.000
G12  20274547.234 8 106543493.754 8      -946.066          51.000    20274546.078 8  83020888.529 8      -737.195          51.000
G24  21762325.523 8 114361772.803 8     -2696.207          51.000    21762326.766 8  89113075.235 8     -2100.944          51.000
G25  20386543.125 5 107131989.155 5       975.500          32.000
G29  22509562.969 7 118288536.965 7      3311.410          47.000    22509561.117 7  92172900.282 7      2580.320          47.000
G32  22139405.555 5 116343357.681 5        66.570          33.000
R05  23435021.773 5 125273606.324 5     -3810.004          35.000    23435036.344 6  97435027.336 6     -2963.333          37.000
R14  21558813.055 5 114920607.177 5     -2567.590          35.000    21558822.406 5  89382720.742 5     -1997.011          32.000
R15  19510959.250 7 104260577.910 7       319.527          43.000    19510960.062 6  81091591.117 6       248.524          36.000
R17  19768680.023 8 105786242.185 8      1620.812          49.000    19768683.469 7  82278243.707 7      1260.632          47.000
R18  22343680.742 5 119272092.885 5      4438.203          34.000    22343686.242 4  92767201.874 4      3451.945          28.000
C11  22828543.266 6 118874307.004 6      -940.703          39.000    22828542.594 7  91921172.814 7      -727.158          43.000
C23  21850274.555 8 113780112.414 8      -142.730          51.000
C25  24233280.852 5 126189102.451 5     -2441.840          35.000
C28  24184070.102 7 125932864.331 7      3173.391          44.000
E09                                                                  25394305.602 5 102252339.228 5     -2253.128          34.000
E12  23995312.789 7 126096188.825 7      2780.613          46.000    23995315.453 8  96619193.342 8      2130.624          49.000
E31  24215133.617 8 127251421.673 8     -1119.562          48.000    24215135.312 6  97504347.772 6      -858.077          39.000
E33  25110761.836 5 131957946.195 5       435.910          34.000    25110761.031 6 101110641.856 6       333.931          36.000
> 2020 05 17 09 03 30.0000000  0 17        .000000000000
G02  23103764.859 6 121411108.240 6      1029.184          36.000
G12  20279968.836 8 106571985.299 8      -954.438          51.000    20279967.617 8  83043089.740 8      -743.718          51.000
G24  21777736.992 8 114442762.268 8     -2704.141          49.000    21777737.391 8  89176183.877 8     -2107.126          49.000
G25  20380989.148 5 107102805.461 5       968.344          35.000    20380985.883 5  83456743.299 5       754.557          34.000
G29  22490674.977 8 118189283.896 8      3304.258          49.000    22490674.539 8  92095560.223 8      2574.746          48.000
G32  22139073.797 5 116341647.162 5        48.789          31.000    22139079.422 5  90655828.484 5        38.017          31.000
R05  23456412.867 6 125387937.835 6     -3812.875          36.000    23456423.914 5  97523951.849 5     -2965.569          32.000
R15  19509191.391 7 104251130.270 7       309.500          43.000    19509190.508 6  81084242.978 6       240.722          37.000
R17  19759656.203 8 105737955.335 8      1597.168          50.000    19759659.984 7  82240687.310 7      1242.245          46.000
C11  22833997.422 6 118902706.269 6      -953.902          40.000    22833996.539 7  91943132.961 7      -737.672          43.000
C23  21851116.219 8 113784495.137 8      -150.566          51.000
C25  24247358.828 6 126262400.444 6     -2446.090          36.000
C28  24165794.867 7 125837712.289 7      3169.102          45.000
E09                                                                  25411088.195 5 102319912.955 5     -2252.419          33.000
E12  23979447.641 8 126012815.596 8      2776.523          48.000    23979449.734 8  96555310.010 8      2127.367          49.000
E31  24221528.828 8 127285027.088 8     -1121.758          49.000    24221531.555 6  97530097.317 6      -859.654          41.000
E33  25108307.242 7 131945047.851 7       423.145          42.000    25108305.664 5 101100743.680 5       324.701          31.000
> 2020 05 17 09 04  0.0000000  0 17        .000000000000
G12  20285454.844 8 106600814.809 8      -968.641          51.000    20285453.242 8  83065554.301 8      -754.785          51.000
G24  21793211.219 7 114524085.722 7     -2718.176          44.000    21793211.852 7  89239552.793 7     -2118.059          44.000
G25  20375511.539 5 107074026.370 5       953.387          32.000
G29  22471845.484 8 118090334.570 8      3291.191          51.000    22471846.164 8  92018456.876 8      2564.565          51.000
R05  23477835.461 5 125502446.565 5     -3822.008          35.000    23477844.023 4  97613080.157 4     -2972.679          27.000
R14  21587802.938 5 115075102.801 5     -2586.383          31.000    21587807.477 5  89502917.045 5     -2011.619          31.000
R15  19507496.016 7 104242073.022 7       293.492          43.000    19507495.047 6  81077198.483 6       228.275          38.000
R17  19750782.359 8 105690468.865 8      1567.469          51.000    19750785.969 7  82203753.454 7      1219.145          45.000
C11  22839546.016 6 118931600.832 6      -973.219          39.000    22839545.633 6  91965476.148 6      -752.832          41.000
C23  21852019.906 8 113789200.638 8      -164.301          51.000
C25  24261474.969 6 126335900.683 6     -2455.262          37.000
C28  24147562.875 7 125742778.454 7      3158.699          47.000
E09                                                                  25427879.391 5 102387530.554 5     -2255.523          33.000
E12  23963623.969 8 125929659.163 8      2766.207          49.000    23963625.398 8  96491592.799 8      2119.516          50.000
E24  22218416.555 5 116758565.988 5      1027.602          32.000
E31  24227953.633 8 127318788.254 8     -1130.008          48.000    24227957.406 7  97555966.206 7      -865.727          42.000
E33  25105941.812 6 131932613.016 6       404.809          38.000
> 2020 05 17 09 04 30.0000000  0 18        .000000000000
G06  23486754.953 5 123423702.077 5      -290.434          32.000    23486754.805 5  96174333.367 5      -226.312          30.000
G12  20290978.117 8 106629839.960 8      -975.898          51.000    20290976.242 8  83088171.289 8      -760.440          51.000
G24  21808720.664 7 114605599.803 7     -2725.328          43.000    21808722.859 7  89303070.278 7     -2123.629          43.000
G29  22453047.453 8 117991549.823 8      3284.910          51.000    22453049.094 8  91941481.764 8      2559.670          51.000
G32  22138749.289 5 116339930.646 5         9.758          34.000
R05  23499261.883 5 125616983.994 5     -3823.594          33.000
R15  19505846.812 7 104233263.421 7       284.125          42.000    19505846.531 6  81070346.591 6       220.986          38.000
R17  19742031.727 8 105643640.786 8      1544.676          51.000    19742034.703 7  82167331.664 7      1201.418          46.000
R18  22269000.195 5 118873349.729 5      4417.465          30.000    22268997.883 6  92457095.431 6      3435.803          39.000
C11  22845163.141 6 118960849.470 6      -985.945          41.000    22845162.938 6  91988093.006 6      -762.429          40.000
C23  21852958.820 8 113794089.421 8      -171.105          51.000
C25  24275602.906 6 126409462.553 6     -2457.973          38.000
C28  24129347.305 8 125647924.757 8      3155.465          48.000
E09                                                                  25444649.641 5 102455059.360 5     -2253.562          30.000
E12  23947815.109 8 125846580.109 8      2762.938          51.000    23947815.906 8  96427934.881 8      2117.107          49.000
E24  22212526.133 5 116727613.221 5      1026.938          32.000
E31  24234381.055 8 127352563.904 8     -1131.223          49.000    24234385.086 7  97581846.240 7      -866.640          43.000
E33  25103636.141 6 131920497.398 6       393.441          36.000
> 2020 05 17 09 05  0.0000000  0 14        .000000000000
G12  20296619.734 8 106659487.195 8      -988.195          51.000    20296617.875 8  83111273.022 8      -770.022          51.000
G24  21824348.680 7 114687731.235 7     -2737.422          42.000    21824351.586 7  89367068.850 7     -2133.056          42.000
G29  22434362.359 8 117893358.877 8      3273.496          51.000    22434364.617 8  91864969.351 8      2550.779          51.000
R14  21616993.688 6 115230757.752 6     -2601.527          38.000    21616995.555 6  89623909.029 6     -2023.407          37.000
R15  19504326.109 7 104225137.234 7       270.164          45.000    19504326.883 6  81064026.212 6       210.131          39.000
R17  19733485.734 8 105597908.160 8      1516.832          51.000    19733488.562 7  82131761.884 7      1179.758          47.000
C11  22850929.148 6 118990874.286 6     -1003.289          38.000    22850928.719 6  92011310.104 6      -775.888          38.000
C23  21854014.305 8 113799585.473 8      -182.957          51.000
C25  24289822.781 5 126483509.095 5     -2465.652          35.000
C28  24111229.242 8 125553576.632 8      3146.789          48.000
E09  25461479.961 5 133800976.012 5     -2943.289          33.000    25461481.867 5 102522836.137 5     -2255.672          32.000
E12  23932102.672 8 125764007.672 8      2754.613          51.000    23932102.648 8  96364665.143 8      2110.627          49.000
E31  24240892.406 8 127386781.302 8     -1137.340          49.000    24240896.328 7  97608064.778 7      -871.516          43.000
E33  25101474.898 6 131909135.034 6       376.793          38.000
> 2020 05 17 09 05 30.0000000  0 15        .000000000000
G12  20302291.562 8 106689293.222 8      -998.984          51.000    20302289.875 8  83134498.490 8      -778.429          51.000
G24  21840007.508 7 114770015.781 7     -2748.027          46.000    21840009.891 7  89431186.636 7     -2141.323          46.000
G25  20359424.219 5 106989450.213 5       922.219          35.000    20359431.906 6  83368439.964 6       718.609          36.000
G29  22415702.867 8 117795301.196 8      3263.414          51.000    22415704.836 8  91788560.782 8      2542.920          51.000
R14  21631657.273 5 115308937.318 5     -2610.234          32.000    21631658.734 5  89684715.431 5     -2030.185          34.000
R15  19502845.594 7 104217225.100 7       257.188          45.000    19502847.141 6  81057872.308 6       200.032          40.000
R17  19725056.891 8 105552801.817 8      1490.262          51.000    19725059.453 8  82096679.205 8      1159.095          48.000
C11  22856755.672 6 119021215.809 6     -1019.551          39.000    22856756.055 6  92034772.127 6      -788.224          41.000
C23  21855098.523 8 113805230.931 8      -193.453          51.000
C25  24304046.883 5 126557581.332 5     -2472.359          35.000
C28  24093120.734 7 125459277.618 7      3139.688          47.000
E09  25478285.883 5 133889306.592 5     -2944.379          35.000    25478287.586 5 102590509.825 5     -2256.424          33.000
E12  23916398.586 8 125681481.140 8      2747.250          50.000    23916398.297 8  96301430.582 8      2105.057          49.000
E31  24247399.766 8 127420977.943 8     -1142.305          48.000    24247403.188 7  97634267.399 7      -875.296          44.000
E33  25099366.852 5 131898062.346 5       361.637          31.000    25099372.070 5 101064761.217 5       277.203          34.000
> 2020 05 17 09 06  0.0000000  0 16        .000000000000
G12  20308032.484 8 106719462.240 8     -1010.855          51.000    20308031.086 8  83158006.815 8      -787.680          51.000
G24  21855734.703 8 114852657.346 8     -2759.930          49.000    21855736.508 8  89495582.621 8     -2150.595          49.000
G25  20354200.750 5 106962006.701 5       908.711          34.000    20354206.008 5  83347055.356 5       708.086          33.000
G29  22397108.352 8 117697584.027 8      3252.348          51.000    22397109.055 8  91712417.592 8      2534.300          51.000
G32  22139145.492 5 116341987.174 5       -51.910          35.000
R14  21646375.680 6 115387422.605 6     -2620.477          37.000    21646380.180 5  89745759.539 5     -2038.148          35.000
R15  19501443.938 7 104209736.671 7       243.203          44.000    19501445.805 6  81052047.994 6       189.158          40.000
R17  19716784.273 8 105508532.582 8      1462.434          51.000    19716786.602 8  82062247.591 8      1137.448          48.000
C11  22862681.992 6 119052076.103 6     -1036.375          37.000    22862683.438 6  92058635.314 6      -801.509          38.000
C23  21856250.750 8 113811229.827 8      -205.133          51.000
C25  24318313.562 5 126631882.201 5     -2479.777          32.000
C28  24075060.922 7 125365233.195 7      3131.281          47.000
E09  25495102.898 5 133977694.131 5     -2946.590          34.000    25495105.875 5 102658235.247 5     -2258.136          34.000
E12  23900742.336 8 125599207.730 8      2738.906          48.000    23900741.812 7  96238389.994 7      2098.681          47.000
E31  24253942.305 7 127455359.164 7     -1148.406          47.000    24253945.570 7  97660611.422 7      -879.870          44.000
E33                                                                  25097357.930 5 101056653.337 5       264.390          35.000
> 2020 05 17 09 06 30.0000000  0 16        .000000000000
G06  23494357.047 5 123463653.571 5      -376.387          34.000    23494344.641 5  96205411.297 5      -293.288          33.000
G12  20313833.250 8 106749945.079 8     -1026.797          51.000    20313832.039 8  83181759.675 8      -800.101          51.000
G24  21871520.305 8 114935605.561 8     -2775.441          51.000    21871521.648 8  89560217.558 8     -2162.679          51.000
G25  20349040.648 5 106934894.228 5       892.828          34.000    20349046.375 5  83325928.738 5       695.704          33.000
G29  22378569.734 8 117600160.875 8      3236.930          51.000    22378569.203 8  91636503.532 8      2522.286          51.000
R14  21661144.398 6 115466163.522 6     -2634.562          36.000    21661156.539 5  89807002.374 5     -2049.107          34.000
R15  19500112.414 7 104202623.885 7       225.250          45.000    19500115.055 6  81046515.792 6       175.194          40.000
R17  19708659.227 8 105465052.974 8      1430.539          51.000    19708661.289 8  82028430.142 8      1112.641          48.000
C11  22868697.594 5 119083405.692 5     -1057.738          32.000    22868699.539 5  92082861.400 5      -817.874          35.000
C23  21857461.805 8 113817534.500 8      -220.691          51.000
C25  24332615.555 6 126706362.962 6     -2491.129          36.000
C28  24057040.141 7 125271397.167 7      3119.090          46.000
E09  25511924.078 5 134066067.970 5     -2952.453          32.000    25511927.141 5 102725971.686 5     -2262.230          35.000
E12  23885124.867 7 125517140.742 7      2726.680          47.000    23885124.117 7  96175507.577 7      2089.307          46.000
E31  24260510.531 7 127489876.366 7     -1158.141          46.000    24260513.227 7  97687059.674 7      -887.538          44.000
E33                                                                  25095424.406 5 101048886.224 5       249.101          35.000
> 2020 05 17 09 07  0.0000000  0 17        .000000000000
G06  23496530.461 5 123475075.160 5      -388.523          35.000    23496528.914 5  96214362.297 5      -302.746          33.000
G12  20319695.766 8 106780752.055 8     -1030.891          51.000    20319694.500 8  83205765.102 8      -803.291          51.000
G24  21887366.164 8 115018870.754 8     -2779.359          51.000    21887366.992 8  89625099.497 8     -2165.738          51.000
G25  20343946.977 5 106908124.274 5       887.875          35.000    20343951.766 5  83305069.049 5       691.848          34.000
G29  22360089.445 8 117503045.133 8      3233.457          51.000    22360088.586 8  91560828.994 8      2519.580          51.000
R14  21675965.555 5 115545170.916 5     -2636.715          31.000    21675981.727 4  89868452.749 4     -2050.766          28.000
R15  19498853.539 7 104195899.247 7       219.191          45.000    19498856.453 6  81041285.514 6       170.482          40.000
R17  19700683.969 8 105422375.806 8      1410.609          51.000    19700685.875 8  81995236.813 8      1097.141          48.000
R18  22145547.898 5 118214430.559 5      4373.418          31.000    22145554.805 7  91944556.947 7      3401.553          43.000
C11  22874806.266 5 119115214.481 5     -1066.137          34.000    22874806.852 5  92107457.959 5      -825.142          34.000
C23  21858733.719 8 113824156.584 8      -224.633          51.000
C25  24346955.164 5 126781034.375 5     -2490.680          32.000
C28  24039061.508 7 125177782.579 7      3118.152          47.000
E09                                                                  25528753.977 5 102793726.138 5     -2257.771          34.000
E12  23869548.719 7 125435293.244 7      2726.012          46.000    23869547.812 7  96112793.333 7      2088.717          45.000
E31  24267106.805 7 127524540.792 7     -1156.465          46.000    24267108.828 7  97713620.702 7      -886.179          44.000
E33  25093613.008 5 131867742.433 5       316.562          33.000    25093580.656 6 101041468.774 6       242.456          37.000
> 2020 05 17 09 07 30.0000000  0 17        .000000000000
G06  23498805.742 6 123487033.476 6      -404.863          38.000    23498799.172 5  96223670.604 5      -315.469          34.000
G12  20325610.398 8 106811832.942 8     -1037.777          51.000    20325608.930 8  83229983.971 8      -808.658          51.000
G24  21903262.211 8 115102401.786 8     -2785.984          51.000    21903262.266 8  89690188.578 8     -2170.897          51.000
G25  20338908.484 5 106881647.248 5       880.824          30.000    20338912.570 5  83284437.748 5       686.366          31.000
G29  22341658.195 8 117406189.277 8      3226.934          51.000    22341657.648 8  91485356.948 8      2514.494          50.000
G32  22140537.812 5 116349287.093 5      -106.332          32.000    22140546.680 5  90661789.736 5       -82.856          32.000
R15  19497658.703 7 104189513.607 7       210.059          46.000    19497661.617 6  81036318.912 6       163.379          41.000
R17  19692849.828 8 105380452.595 8      1387.688          51.000    19692851.531 8  81962629.896 8      1079.316          49.000
R18  22120990.383 5 118083352.925 5      4367.699          30.000    22121000.633 6  91842613.989 6      3397.109          41.000
C11                                                                  22880998.180 5  92132386.230 5      -834.475          35.000
C23  21860057.211 8 113831047.635 8      -231.414          51.000
C25  24361321.461 5 126855846.921 5     -2492.910          33.000
C28  24021117.352 8 125084342.359 8      3114.543          49.000
E09  25545573.219 5 134242892.714 5     -2942.926          31.000    25545576.125 5 102861459.184 5     -2255.188          34.000
E12  23854005.367 7 125353617.717 7      2722.461          45.000    23854005.172 7  96050210.836 7      2085.967          46.000
E31  24273721.805 7 127559302.995 7     -1157.570          45.000    24273723.812 7  97740256.662 7      -886.940          44.000
E33                                                                  25091822.211 6 101034368.234 6       234.010          39.000
> 2020 05 17 09 08  0.0000000  0 16        .000000000000
G06  23501168.250 6 123499453.044 6      -420.348          36.000    23501169.102 6  96233348.250 6      -327.538          37.000
G12  20331562.516 8 106843111.028 8     -1044.625          51.000    20331560.945 8  83254356.500 8      -813.994          51.000
G24  21919193.719 8 115186122.216 8     -2792.562          50.000    21919193.703 8  89755425.233 8     -2176.026          50.000
G29  22323262.180 8 117309519.813 8      3220.406          50.000    22323261.844 8  91410030.118 8      2509.407          50.000
R14  21705726.836 5 115703635.118 5     -2646.383          31.000
R15  19496513.211 7 104183391.174 7       200.859          47.000    19496516.383 7  81031557.029 7       156.224          42.000
R17  19685142.719 8 105339208.260 8      1364.750          51.000    19685144.242 8  81930550.991 8      1061.472          49.000
R18  22096461.711 5 117952431.041 5      4362.871          30.000    22096474.023 6  91740785.971 6      3393.347          37.000
C11  22887274.039 5 119180054.514 5     -1091.223          35.000    22887256.633 5  92157587.381 5      -843.812          34.000
C23  21861418.086 8 113838133.527 8      -238.227          51.000
C25  24375701.461 5 126930725.367 5     -2495.430          32.000
C28  24003193.727 8 124991003.815 8      3110.848          51.000
E09                                                                  25562377.859 5 102929101.609 5     -2253.009          33.000
E12  23838481.211 7 125272040.635 7      2718.934          46.000    23838482.156 7  95987703.790 7      2083.216          47.000
E31  24280341.172 7 127594087.723 7     -1158.664          44.000    24280343.852 7  97766909.845 7      -887.751          45.000
E33                                                                  25090117.836 6 101027516.937 6       225.012          38.000
> 2020 05 17 09 08 30.0000000  0 16        .000000000000
G06  23503670.203 5 123512605.428 5      -450.336          35.000    23503674.109 5  96243596.903 5      -350.908          35.000
G12  20337603.656 8 106874857.452 8     -1065.820          51.000    20337602.320 8  83279093.967 8      -830.509          51.000
G24  21935212.070 7 115270301.829 7     -2813.500          46.000    21935212.836 7  89821019.719 7     -2192.338          46.000
G25  20329010.039 5 106829605.346 5       851.641          34.000    20329013.570 5  83243859.568 5       663.613          34.000
G29  22304953.953 8 117213310.359 8      3199.418          50.000    22304953.445 8  91335061.731 8      2493.056          50.000
R14  21720687.969 5 115783502.416 5     -2666.312          33.000    21720715.945 4  90053937.880 4     -2073.789          24.000
R15  19495469.086 7 104177809.607 7       177.242          47.000    19495472.070 7  81027215.825 7       137.858          42.000
R17  19677614.398 8 105298921.242 8      1327.109          51.000    19677615.789 8  81899216.652 8      1032.196          49.000
C11  22893657.367 5 119213276.998 5     -1117.551          30.000    22893634.789 6  92183268.352 6      -864.276          36.000
C23  21862868.117 8 113845683.958 8      -259.328          51.000
C25  24390148.531 5 127005894.157 5     -2512.559          30.000
C28  23985341.836 8 124898038.099 8      3092.797          51.000
E09                                                                  25579211.000 5 102996881.935 5     -2261.488          32.000
E12  23823028.578 7 125190835.609 7      2700.773          46.000    23823029.930 7  95925481.798 7      2069.448          47.000
E31  24287016.391 7 127629166.565 7     -1173.844          43.000    24287019.453 7  97793788.431 7      -899.543          45.000
E33                                                                  25088529.555 6 101021128.215 6       205.363          39.000
> 2020 05 17 09 09  0.0000000  0 16        .000000000000
G06  23506285.211 5 123526352.485 5      -467.355          34.000    23506289.266 5  96254308.949 5      -364.173          35.000
G12  20343707.438 8 106906933.267 8     -1073.941          51.000    20343706.398 8  83304088.101 8      -836.837          51.000
G24  21951290.859 7 115354801.660 7     -2821.160          46.000    21951292.484 7  89886863.745 7     -2198.307          45.000
G25  20324174.156 6 106804187.309 6       842.184          37.000    20324176.414 6  83224053.280 6       656.244          37.000
G29  22286707.711 8 117117425.242 8      3191.496          51.000    22286706.891 8  91260346.079 8      2486.880          51.000
R15  19494500.070 7 104172629.761 7       166.691          47.000    19494502.406 7  81023187.046 7       129.649          43.000
R17  19670238.570 8 105259452.428 8      1302.746          50.000    19670240.406 8  81868518.695 8      1013.247          49.000
C11  22900140.531 5 119247017.455 5     -1130.473          31.000    22900105.742 5  92209322.731 5      -874.017          33.000
C23  21864381.109 8 113853562.867 8      -267.328          51.000
C25  24404639.086 5 127081309.744 5     -2516.773          34.000
C28  23967535.391 8 124805310.630 8      3087.746          51.000
E09                                                                  25596049.234 5 103064682.132 5     -2259.740          32.000
E12  23807620.547 7 125109866.720 7      2695.770          43.000    23807622.391 7  95863440.700 7      2065.533          47.000
E24  22160958.805 5 116456630.540 5       983.082          34.000
E31  24293721.320 6 127664401.886 6     -1176.348          41.000    24293724.734 7  97820786.874 7      -901.339          46.000
E33                                                                  25087029.297 6 101015096.517 6       195.611          38.000
> 2020 05 17 09 09 30.0000000  0 17        .000000000000
G02  23039774.805 5 121074833.173 5       836.746          34.000    23039771.445 5  94344010.826 5       652.010          31.000
G06  23509011.766 5 123540681.201 5      -489.621          30.000    23509015.305 4  96265474.213 4      -381.523          29.000
G12  20349871.172 8 106939324.721 8     -1086.777          51.000    20349870.328 8  83329328.175 8      -846.839          51.000
G24  21967428.320 8 115439606.863 8     -2833.812          48.000    21967430.367 8  89952945.685 8     -2208.166          48.000
G25  20319400.852 6 106779108.027 6       828.629          36.000    20319404.047 5  83204510.948 5       645.682          35.000
G29  22268521.227 8 117021853.601 8      3178.602          51.000    22268519.703 8  91185874.706 8      2476.835          51.000
R15  19493603.898 8 104167839.356 8       151.375          48.000    19493605.742 7  81019461.179 7       117.739          43.000
R17  19663013.398 8 105220790.267 8      1273.535          50.000    19663015.406 8  81838448.108 8       990.527          48.000
R24  21469383.078 5 114806351.140 5     -2755.500          32.000
C11  22906708.383 4 119281180.348 4     -1147.828          28.000    22906665.656 5  92235739.389 5      -888.247          32.000
C23  21865954.742 8 113861757.872 8      -280.168          51.000
C25  24419156.539 5 127156904.429 5     -2524.520          33.000
C28  23949772.297 8 124712810.415 8      3077.777          50.000
E09                                                                  25612890.719 5 103132495.650 5     -2261.548          30.000
E12  23792253.945 6 125029122.821 6      2686.078          40.000    23792257.656 8  95801571.954 8      2058.101          48.000
E31  24300453.031 6 127699780.480 6     -1183.324          39.000    24300457.094 7  97847895.201 7      -906.868          46.000
E33  25085619.164 5 131825818.022 5       238.109          31.000    25085617.352 6 101009412.030 6       182.208          39.000
> 2020 05 17 09 10  0.0000000  0 18        .000000000000
G02  23035036.898 5 121049946.426 5       832.980          35.000
G06  23511856.336 5 123555632.398 5      -496.828          35.000    23511861.281 5  96277124.458 5      -387.139          34.000
G12  20356102.680 8 106972072.164 8     -1085.539          51.000    20356101.789 8  83354845.663 8      -845.875          51.000
G24  21983632.297 8 115524757.372 8     -2832.090          51.000    21983634.203 8  90019296.669 8     -2206.826          51.000
G25  20314700.352 5 106754408.854 5       829.020          35.000    20314703.633 6  83185264.884 6       645.992          36.000
G29  22250402.422 8 116926638.524 8      3179.805          51.000    22250400.297 8  91111681.190 8      2477.770          50.000
R14  21765894.336 5 116024448.166 5     -2679.871          35.000
R15  19492788.445 8 104163481.595 8       150.281          48.000    19492790.703 7  81016071.807 7       116.885          44.000
R17  19655947.211 8 105182978.384 8      1258.438          50.000    19655949.266 7  81809038.869 7       978.785          47.000
R18  21999020.688 5 117432228.053 5      4326.137          35.000    21999025.984 6  91336176.957 6      3364.782          39.000
R24  21484899.008 4 114889408.294 4     -2764.168          28.000
C11  22913325.078 5 119315709.411 5     -1152.215          34.000    22913323.484 6  92262548.805 6      -890.978          37.000
C23  21867596.719 8 113870310.412 8      -279.148          51.000
C25  24433714.258 5 127232723.703 5     -2518.902          32.000
C28  23932060.617 8 124620580.316 8      3081.625          48.000
E12  23776938.656 7 124948647.023 7      2689.965          43.000    23776944.250 8  95739908.623 8      2061.244          49.000
E31  24307219.945 6 127735303.974 6     -1176.793          37.000    24307223.977 7  97875145.053 7      -901.474          46.000
E33                                                                  25084302.188 6 101004106.477 6       179.640          38.000
> 2020 05 17 09 10 30.0000000  0 17        .000000000000
G02  23030406.148 5 121025616.512 5       807.062          34.000    23030414.875 5  94305686.401 5       628.880          30.000
G12  20362409.164 8 107005212.686 8     -1105.805          51.000    20362408.109 8  83380669.441 8      -861.666          51.000
G24  21999909.219 8 115610289.753 8     -2852.008          51.000    21999911.406 8  90085945.212 8     -2222.347          51.000
G25  20310079.125 5 106730127.753 5       807.691          31.000    20310080.820 5  83166344.583 5       629.373          30.000
G29  22232358.883 8 116831819.761 8      3159.410          50.000    22232357.258 8  91037796.486 8      2461.881          50.000
G32  22146381.016 5 116380027.622 5      -229.609          34.000    22146372.062 4  90685690.040 4      -178.916          28.000
R14  21781080.406 5 116105402.045 5     -2698.832          35.000
R15  19492061.000 7 104159595.992 7       127.004          47.000    19492063.797 7  81013049.676 7        98.781          45.000
R17  19649047.148 8 105146056.710 8      1221.426          51.000    19649049.453 7  81780322.028 7       950.001          46.000
R18  21974804.320 6 117303007.652 6      4306.953          36.000    21974819.953 6  91235672.258 6      3349.852          37.000
C11  22920085.352 5 119350924.263 5     -1177.352          33.000    22920086.836 6  92289779.220 6      -910.660          37.000
C23  21869314.633 8 113879258.556 8      -299.527          51.000
C25  24448321.977 5 127308804.424 5     -2534.723          34.000
C28  23914407.383 7 124528659.886 7      3064.289          47.000
E12  23761684.141 7 124868479.032 7      2672.496          45.000    23761689.203 8  95678481.208 8      2047.826          49.000
E31  24314029.258 6 127771089.993 6     -1191.125          38.000    24314033.523 7  97902565.578 7      -912.698          47.000
E33  25083085.086 6 131812520.055 6       209.918          36.000    25083083.938 5 100999208.883 5       160.682          34.000
> 2020 05 17 09 11  0.0000000  0 16        .000000000000
G02  23025846.703 5 121001659.458 5       803.988          33.000
G12  20368755.180 8 107038560.567 8     -1103.098          51.000    20368754.008 8  83406654.804 8      -859.557          51.000
G24  22016223.289 8 115696017.961 8     -2849.047          51.000    22016225.539 8  90152746.363 8     -2220.040          51.000
G29  22214356.180 8 116737214.712 8      3161.988          51.000    22214355.727 8  90964078.298 8      2463.887          51.000
G32  22147755.742 5 116387228.344 5      -236.180          34.000    22147751.484 5  90691341.881 5      -184.027          34.000
R14  21796297.438 5 116186507.796 5     -2693.730          35.000    21796302.664 4  90367321.297 4     -2095.124          26.000
R15  19491386.633 7 104155996.083 7       127.375          47.000    19491389.836 7  81010249.726 7        99.069          44.000
R17  19642278.531 8 105109838.586 8      1207.699          51.000    19642280.766 7  81752152.421 7       939.325          45.000
R18  21950631.211 6 117173974.996 6      4310.289          38.000    21950652.117 4  91135313.487 4      3352.438          28.000
C11  22926913.875 5 119386498.728 5     -1179.867          32.000    22926918.758 4  92317200.763 4      -912.472          28.000
C23  21871073.523 8 113888419.770 8      -297.199          51.000
C25  24462946.609 5 127384963.039 5     -2528.691          31.000
C28  23896778.430 8 124436867.955 8      3069.434          48.000
E12  23746453.992 8 124788436.017 8      2677.895          48.000    23746457.875 8  95617149.600 8      2051.905          49.000
E31  24320846.133 6 127806913.970 6     -1182.992          39.000    24320850.953 8  97930015.235 8      -906.326          48.000
E33  25081932.781 5 131806453.234 5       207.238          35.000    25081934.172 6 100994577.896 6       159.059          36.000
> 2020 05 17 09 11 30.0000000  0 18        .000000000000
G02  23021365.945 5 120978109.878 5       766.441          35.000
G06  23521050.992 5 123603899.340 5      -574.117          30.000
G12  20375146.859 8 107072148.654 8     -1135.090          51.000    20375145.602 8  83432827.346 8      -884.486          51.000
G24  22032580.406 8 115781973.422 8     -2880.375          51.000    22032582.695 8  90219724.594 8     -2244.451          51.000
G25  20300978.117 6 106682287.295 6       776.875          37.000    20300979.625 6  83129098.693 6       605.354          36.000
G29  22196401.094 8 116642858.859 8      3129.492          51.000    22196401.633 8  90890554.271 8      2438.565          51.000
R14  21811547.578 5 116267799.348 5     -2724.391          34.000
R15  19490772.859 8 104152716.585 8        92.305          48.000    19490776.336 7  81007699.008 7        71.793          45.000
R17  19635648.188 8 105074359.448 8      1158.582          51.000    19635650.406 7  81724557.595 7       901.119          45.000
R18  21926521.938 4 117045253.317 4      4278.051          28.000    21926524.570 5  91035122.014 5      3327.376          35.000
R24  21532107.492 5 115141756.222 5     -2841.895          33.000
C11  22933821.383 6 119422464.654 6     -1216.617          36.000    22933827.242 5  92344992.727 5      -940.766          32.000
C23  21872880.055 8 113897827.631 8      -329.012          51.000
C25  24477594.453 5 127461232.113 5     -2555.363          34.000
C28  23879181.602 8 124345239.506 8      3040.215          49.000
E12  23731254.219 8 124708553.256 8      2648.652          49.000    23731256.773 8  95555940.776 8      2029.478          49.000
E31  24327678.000 6 127842809.547 6     -1209.191          40.000    24327682.117 8  97957519.618 8      -926.416          48.000
E33  25080854.945 6 131800790.818 6       170.852          38.000    25080858.602 5 100990239.154 5       131.170          34.000
> 2020 05 17 09 12  0.0000000  0 17        .000000000000
G02  23016998.258 5 120955151.501 5       759.043          35.000
G12  20381618.781 8 107106158.674 8     -1136.949          51.000    20381617.414 8  83459328.660 8      -885.934          51.000
G24  22049015.039 8 115868337.713 8     -2881.824          49.000    22049017.391 8  90287021.418 8     -2245.580          49.000
G25  20296538.047 5 106658956.111 5       774.379          35.000    20296540.695 5  83110918.605 5       603.418          33.000
G29  22178528.445 8 116548936.755 8      3127.309          50.000    22178529.539 8  90817368.225 8      2436.864          50.000
R15  19490254.102 8 104149944.271 8        87.781          49.000    19490257.781 7  81005542.751 7        68.271          45.000
R17  19629191.062 8 105039806.617 8      1140.145          51.000    19629192.883 7  81697683.207 7       886.782          46.000
R18  21902460.719 5 116916844.102 5      4276.922          32.000    21902462.438 6  90935315.043 6      3326.495          40.000
R24  21548072.586 5 115227123.743 5     -2853.605          33.000
C11  22940838.547 6 119459001.622 6     -1223.547          38.000    22940852.125 6  92373245.489 6      -946.323          37.000
C23  21874768.883 8 113907663.664 8      -331.215          51.000
C25  24492299.523 6 127537792.121 6     -2553.172          38.000
C28  23861651.914 8 124253957.516 8      3040.617          50.000
E12  23716119.633 8 124629015.325 8      2649.191          50.000    23716121.000 8  95494996.162 8      2029.927          48.000
E24  22127801.805 5 116282383.502 5       954.727          30.000
E31  24334557.969 6 127878959.254 6     -1205.449          40.000    24334561.859 8  97985218.772 8      -923.668          49.000
E33  25079885.305 5 131795692.466 5       164.453          35.000    25079885.844 5 100986332.589 5       126.001          33.000
> 2020 05 17 09 12 30.0000000  0 16        .000000000000
G02  23012712.273 5 120932623.364 5       739.375          35.000    23012697.117 5  94233146.216 5       576.136          33.000
G12  20388139.922 8 107140427.223 8     -1150.691          51.000    20388138.391 8  83486031.415 8      -896.646          51.000
G24  22065496.000 8 115954946.653 8     -2895.133          48.000    22065498.789 8  90354508.882 8     -2255.948          48.000
G25  20292151.844 5 106635912.157 5       759.039          34.000    20292155.492 5  83092962.315 5       591.459          33.000
G29  22160707.328 8 116455287.840 8      3112.879          49.000    22160708.531 8  90744395.049 8      2425.620          49.000
R15  19489799.828 8 104147515.336 8        71.121          49.000    19489802.750 7  81003653.572 7        55.316          45.000
R17  19622876.195 8 105006015.932 8      1109.375          51.000    19622878.062 7  81671401.581 7       862.847          47.000
R18  21878448.602 5 116788706.101 5      4262.477          35.000    21878455.328 7  90835652.072 7      3315.260          44.000
R24  21564137.180 5 115313027.595 5     -2877.449          31.000
C11  22947934.016 6 119495947.243 6     -1242.551          37.000    22947954.125 6  92401814.309 6      -960.547          38.000
C23  21876709.117 8 113917767.395 8      -345.359          51.000
C25  24507028.453 6 127614481.552 6     -2562.469          38.000
C28  23844158.273 8 124162862.910 8      3029.242          49.000
E12  23701019.352 8 124549661.554 8      2637.895          50.000    23701019.656 8  95434192.674 8      2021.298          48.000
E31  24341454.570 6 127915200.829 6     -1213.762          41.000    24341458.820 8  98012988.232 8      -929.950          49.000
E33  25078990.477 6 131790995.809 6       145.938          38.000    25078993.711 5 100982733.864 5       111.978          35.000
> 2020 05 17 09 13  0.0000000  0 17        .000000000000
G12  20394715.016 8 107174979.112 8     -1150.527          51.000    20394713.352 8  83512954.965 8      -896.515          51.000
G24  22082027.945 7 116041824.888 7     -2894.680          47.000    22082031.570 7  90422206.188 7     -2255.595          47.000
G25  20287826.414 6 106613181.434 6       758.520          36.000    20287827.258 5  83075250.076 5       591.051          35.000
G29  22142943.266 8 116361939.900 8      3112.688          49.000    22142944.219 8  90671656.392 8      2425.471          49.000
G32  22154331.250 5 116421820.721 5      -320.441          32.000    22154328.375 5  90718296.874 5      -249.701          32.000
R14  21857626.734 5 116513497.327 5     -2733.809          33.000    21857635.945 4  90621616.196 4     -2126.299          29.000
R15  19489414.875 8 104145457.212 8        68.520          50.000    19489417.172 7  81002052.818 7        53.293          45.000
R17  19616709.320 8 104973015.163 8      1092.898          51.000    19616711.156 8  81645734.319 8       850.032          48.000
R18  21854491.680 6 116660853.239 6      4262.852          40.000    21854503.680 7  90736210.976 7      3315.551          46.000
R24  21580306.258 5 115399490.259 5     -2885.426          32.000
C11  22955112.531 6 119533325.705 6     -1247.492          37.000    22955136.555 5  92430717.827 5      -964.598          33.000
C23  21878705.773 8 113928165.007 8      -345.543          51.000
C25  24521785.055 5 127691325.522 5     -2558.000          33.000
C28  23826706.016 8 124071983.303 8      3031.625          49.000
E12  23685959.086 8 124470519.784 8      2640.473          51.000    23685958.445 8  95373551.630 8      2023.198          48.000
E31  24348373.828 7 127951560.089 7     -1207.855          44.000    24348377.562 8  98040847.957 8      -925.533          49.000
E33  25078178.625 6 131786726.891 6       140.883          36.000    25078184.688 5 100979462.937 5       108.147          33.000
> 2020 05 17 09 13 30.0000000  0 18        .000000000000
G02  23004415.930 6 120889026.520 6       709.453          37.000    23004423.734 5  94199265.731 5       552.821          30.000
G12  20401351.977 8 107209856.259 8     -1169.602          51.000    20401350.312 8  83540131.954 8      -911.378          51.000
G24  22098618.539 7 116129013.319 7     -2913.074          46.000    22098622.703 7  90490145.231 7     -2269.928          46.000
G25  20283569.141 5 106590806.712 5       737.805          34.000    20283567.734 5  83057815.123 5       574.910          34.000
G29  22125245.094 8 116268937.570 8      3092.699          49.000    22125245.586 8  90599187.066 8      2409.895          49.000
G32  22156255.234 6 116431926.480 6      -348.777          36.000    22156255.844 6  90726171.509 6      -271.768          36.000
R15  19489107.594 8 104143814.229 8        46.070          50.000    19489109.477 7  81000774.947 7        35.832          45.000
R17  19610698.797 8 104940848.657 8      1056.617          51.000    19610700.312 8  81620715.935 8       821.816          49.000
R18  21830602.453 7 116533332.529 7      4243.531          43.000    21830614.320 7  90637028.223 7      3300.527          47.000
R24  21596585.820 5 115486551.409 5     -2913.664          32.000
C11  22962382.609 6 119571177.801 6     -1271.141          37.000    22962410.273 5  92459987.447 5      -982.914          30.000
C23  21880767.117 8 113938899.239 8      -365.051          51.000
C25  24536576.414 5 127768392.846 5     -2572.719          30.000
C28  23809303.500 8 123981362.899 8      3014.727          50.000
E12  23670947.680 8 124391634.478 8      2623.523          51.000    23670946.172 8  95313107.099 8      2010.226          48.000
E24  22111571.133 5 116197089.201 5       938.738          35.000
E31  24355323.984 7 127988079.865 7     -1221.770          43.000    24355326.523 8  98068830.635 8      -936.128          49.000
E33  25077456.688 6 131782928.275 6       117.129          38.000
> 2020 05 17 09 14  0.0000000  0 17        .000000000000
G12  20408067.961 8 107245148.715 8     -1182.293          51.000    20408066.359 8  83567632.560 8      -921.267          51.000
G24  22115285.109 7 116216601.212 7     -2925.316          45.000    22115289.445 7  90558395.605 7     -2279.464          45.000
G25  20279396.523 5 106568878.383 5       724.262          35.000    20279396.359 5  83040728.198 5       564.360          34.000
G29  22107630.703 8 116176373.441 8      3079.098          49.000    22107630.172 8  90527059.183 8      2399.300          49.000
R15  19488895.258 8 104142679.465 8        30.359          50.000    19488897.258 7  80999892.349 7        23.613          45.000
R17  19604861.508 8 104909610.174 8      1026.832          51.000    19604862.570 8  81596419.351 8       798.650          48.000
R18  21806794.094 7 116406240.281 7      4230.180          46.000    21806805.062 7  90538178.713 7      3290.140          47.000
R24  21612994.844 5 115574299.378 5     -2934.770          30.000
C11  22969759.578 6 119609591.758 6     -1288.992          36.000    22969767.383 4  92489733.545 4      -996.368          27.000
C23  21882910.641 8 113950060.388 8      -378.211          51.000
