     3.02           OBSERVATION DATA    M (MIXED)           RINEX VERSION / TYPE
SAVERINEX           SC600               20200510 165932 LCL PGM / RUN BY / DATE
       G = GPS       R = GLONASS       C = COMPASS          COMMENT
       S = SBAS      J = QZSS          E = GALILEO          COMMENT
BEAN                                                        MARKER NAME
1                                                           MARKER NUMBER
GEODETIC                                                    MARKER TYPE
Unige DICCA         GTER                                    OBSERVER / AGENCY
SC60291900056       SC600               2.12(191226)        REC # / TYPE / VERS
                    HEMA45          NONE                    ANT # / TYPE
  4509407.8091   693652.4678  4442337.6214                  APPROX POSITION XYZ
        0.0000        0.0000        0.0000                  ANTENNA: DELTA H/E/N
G    8 C1C L1C D1C S1C C2Y L2Y D2Y S2Y                      SYS / # / OBS TYPES
R    8 C1C L1C D1C S1C C2P L2P D2P S2P                      SYS / # / OBS TYPES
C    4 C1I L1I D1I S1I                                      SYS / # / OBS TYPES
E    8 C1C L1C D1C S1C C7Q L7Q D7Q S7Q                      SYS / # / OBS TYPES
DBHZ                                                        COMMENT
     30.000                                                 INTERVAL
  2020    05    10    14    00    0.0000000     GPS         TIME OF FIRST OBS
  2020    05    10    14    59   30.0000000     GPS         TIME OF LAST OBS
     0                                                      RCV CLOCK OFFS APPL
G L1C  0.00000                                              SYS / PHASE SHIFT
G L2Y  0.00000                                              SYS / PHASE SHIFT
R L1C  0.00000                                              SYS / PHASE SHIFT
R L2P  0.25000                                              SYS / PHASE SHIFT
C L1I  0.00000                                              SYS / PHASE SHIFT
E L1C  0.50000                                              SYS / PHASE SHIFT
E L7Q -0.25000                                              SYS / PHASE SHIFT
 13 R04  6 R05  1 R06 -4 R07  5 R09 -2 R10 -7 R11  0 R16 -1 GLONASS SLOT / FRQ #
    R18 -3 R19  3 R20  2 R21  4 R22 -3                      GLONASS SLOT / FRQ #
 C1C   71.950 C2C   71.950 C2P   71.950                     GLONASS COD/PHS/BIS
    18                                                      LEAP SECONDS
*** Above antenna height is from mark to ANTENNA BOTTOM.    COMMENT
    17     4        0.0000        ANT MEASURE TYPE/HEIGT    COMMENT
    0.0000    0.0000    0.0458    0.0405    0.0000          COMMENT
                    BASE STATION                            COMMENT
                                                            END OF HEADER
> 2020 05 10 14 00  0.0000000  0 13        .000000000000
G18  20483845.852 8 107643340.963 8     -1012.555          51.000    20483845.844 8  83878009.252 8      -789.004          49.000
G20  22627687.680 8 118909306.501 8      2874.473          48.000    22627683.648 6  92656628.819 6      2239.852          36.000
G21  20881583.156 8 109733529.178 8     -1054.516          50.000    20881581.664 8  85506631.781 8      -821.697          49.000
G26  20273588.453 8 106538422.006 8        71.156          51.000    20273590.922 8  83016960.418 8        55.446          51.000
G29  23160529.930 5 121709399.005 5     -2750.406          32.000
R09  22557561.836 5 120456120.668 5     -4431.566          34.000
R10  20088052.555 7 107080649.125 7     -2647.035          47.000
R21  20509330.656 5 109749546.720 5      1898.234          33.000
C05  39616476.211 5 206293386.754 5        -7.512          34.000
C27  21518472.156 8 112052321.299 8      -180.816          51.000
E02  23410921.570 8 123025244.224 8      -437.625          51.000    23410922.648 8  94266079.799 8      -335.368          51.000
E25  25777170.992 8 135459928.925 8     -2772.312          48.000    25777176.820 8 103794011.638 8     -2124.201          50.000
E36  23074671.344 8 121258233.860 8      -165.949          51.000    23074672.961 8  92912165.732 8      -127.150          51.000
> 2020 05 10 14 00 30.0000000  0 11        .000000000000
G18  20489533.602 8 107673229.775 8     -1003.855          51.000    20489533.641 8  83901299.249 8      -782.225          49.000
G20  22611164.977 8 118822475.328 8      2890.293          49.000    22611157.211 5  92588968.201 5      2252.176          34.000
G21  20887500.172 8 109764623.397 8     -1042.203          50.000    20887498.758 8  85530861.043 8      -812.106          50.000
G26  20273090.953 8 106535807.287 8        79.195          51.000    20273093.453 8  83014922.967 8        61.711          51.000
R09  22582332.539 5 120588415.152 5     -4412.566          32.000    22582358.594 4  93791077.410 4     -3431.996          26.000
R10  20102871.070 8 107159636.539 8     -2643.027          49.000
C27  21519399.367 8 112057150.171 8      -164.609          51.000
C30  23758349.938 4 123715943.971 4      2223.047          29.000
E02  23413317.500 8 123037836.664 8      -425.660          51.000    23413318.891 8  94275728.544 8      -326.152          51.000
E25  25792875.328 8 135542458.074 8     -2753.465          49.000    25792881.820 8 103857248.233 8     -2109.837          51.000
E36  23075505.273 8 121262616.411 8      -150.004          51.000    23075506.758 8  92915523.802 8      -114.935          51.000
> 2020 05 10 14 01  0.0000000  0 13        .000000000000
G18  20495368.766 8 107703893.176 8     -1033.020          51.000    20495368.797 8  83925192.809 8      -804.950          50.000
G20  22594748.289 8 118736201.202 8      2868.625          49.000    22594740.359 6  92521741.665 6      2235.292          36.000
G21  20893543.625 8 109796382.689 8     -1067.594          49.000    20893542.539 8  85555608.541 8      -831.894          49.000
G26  20272744.727 8 106533987.077 8        49.609          51.000    20272747.078 8  83013504.629 8        38.657          51.000
G29  23191736.922 5 121873405.937 5     -2744.348          35.000
R09  22607196.656 6 120721194.067 6     -4432.094          38.000    22607218.508 4  93894342.905 4     -3447.187          24.000
R10  20117864.539 8 107239554.486 8     -2677.289          51.000
C27  21520430.812 8 112062521.927 8      -186.066          51.000
C28  23915781.484 5 124535740.367 5     -2406.586          31.000
C30  23745613.148 5 123649645.271 5      2205.367          31.000
E02  23415842.758 8 123051108.585 8      -451.672          51.000    23415844.430 8  94285897.926 8      -346.107          51.000
E25  25808671.680 8 135625467.338 8     -2773.066          50.000    25808678.586 8 103920852.705 8     -2124.766          51.000
E36  23076446.117 8 121267560.080 8      -172.074          51.000    23076447.562 8  92919311.820 8      -131.852          51.000
> 2020 05 10 14 01 30.0000000  0 12        .000000000000
G18  20501302.961 8 107735077.142 8     -1045.039          51.000    20501302.750 8  83949492.011 8      -814.313          50.000
G20  22578389.961 8 118650234.613 8      2863.469          49.000    22578383.828 6  92454754.764 6      2231.274          39.000
G21  20899665.156 8 109828552.538 8     -1076.086          48.000    20899664.273 8  85580675.948 8      -838.509          48.000
G26  20272501.688 8 106532709.775 8        36.617          51.000    20272504.039 8  83012509.321 8        28.533          51.000
R09  22632104.258 6 120854197.035 6     -4434.012          38.000
R10  20132984.148 8 107320143.937 8     -2694.316          51.000
C27  21521518.078 8 112068185.855 8      -190.680          51.000
C28  23929646.664 5 124607924.960 5     -2405.035          34.000
C30  23732909.672 5 123583501.968 5      2204.062          32.000
E02  23418449.711 8 123064807.816 8      -460.727          51.000    23418451.352 8  94296394.725 8      -352.994          51.000
E25  25824511.508 8 135708703.094 8     -2775.176          51.000    25824518.070 8 103984630.708 8     -2126.391          50.000
E36  23077445.477 8 121272811.646 8      -177.078          51.000    23077447.078 8  92923335.765 8      -135.710          51.000
> 2020 05 10 14 02  0.0000000  0 12        .000000000000
G18  20507335.141 8 107766776.411 8     -1066.027          51.000    20507335.055 8  83974192.738 8      -830.671          49.000
G20  22562089.586 8 118564574.627 8      2849.348          48.000    22562085.672 7  92388006.760 7      2220.271          42.000
G21  20905863.875 8 109861127.731 8     -1093.461          49.000    20905863.266 8  85606059.207 8      -852.047          49.000
G26  20272361.211 8 106531972.281 8        14.727          51.000    20272363.477 8  83011934.627 8        11.475          51.000
R09  22657052.836 6 120987416.667 6     -4444.938          39.000    22657067.539 4  94101365.912 4     -3457.177          27.000
R10  20148227.766 8 107401397.824 8     -2720.410          51.000
C27  21522661.078 8 112074137.723 8      -203.980          51.000
C28  23943530.125 5 124680217.674 5     -2411.844          34.000
C30  23720238.953 5 123517565.170 5      2193.680          35.000
E02  23421137.609 8 123078930.839 8      -478.676          51.000    23421138.992 8  94307216.251 8      -366.772          51.000
E25  25840393.672 8 135792160.350 8     -2786.484          51.000    25840399.055 8 104048578.454 8     -2135.152          48.000
E36  23078502.648 8 121278366.596 8      -191.066          51.000    23078504.328 8  92927592.151 8      -146.399          51.000
> 2020 05 10 14 02 30.0000000  0 12        .000000000000
G18  20513463.062 8 107798979.207 8     -1081.273          51.000    20513463.156 8  83999285.842 8      -842.551          49.000
G20  22545845.680 7 118479213.905 7      2840.859          47.000    22545843.828 7  92321491.951 7      2213.660          44.000
G21  20912137.594 8 109894096.604 8     -1104.785          49.000    20912137.195 8  85631749.226 8      -860.872          49.000
G26  20272321.734 8 106531765.118 8        -1.426          51.000    20272323.969 8  83011773.201 8        -1.111          51.000
R09  22682038.961 6 121120839.126 6     -4449.906          38.000    22682049.570 4  94205138.848 4     -3461.038          28.000
R10  20163592.734 8 107483303.289 8     -2740.410          50.000
C27  21523857.555 8 112080366.905 8      -211.715          51.000
C28  23957430.352 5 124752607.892 5     -2413.945          35.000
C30  23707603.945 5 123451806.231 5      2189.570          34.000
E02  23423904.328 8 123093467.704 8      -490.809          51.000    23423905.219 8  94318354.880 8      -376.080          51.000
E25  25856315.867 8 135875827.755 8     -2791.707          51.000    25856319.320 7 104112687.189 7     -2138.971          46.000
E36  23079615.336 8 121284213.967 8      -199.148          51.000    23079617.195 8  92932072.612 8      -152.552          51.000
> 2020 05 10 14 03  0.0000000  0 13        .000000000000
G18  20519673.039 8 107831613.165 8     -1094.277          51.000    20519673.031 8  84024714.898 8      -852.681          49.000
G20  22529645.555 7 118394084.706 7      2834.367          46.000    22529645.227 7  92255157.542 7      2208.601          44.000
G21  20918472.445 8 109927386.682 8     -1114.320          50.000    20918471.828 8  85657689.554 8      -868.302          50.000
G26  20272369.883 8 106532018.176 8       -15.453          51.000    20272372.164 8  83011970.377 8       -12.044          51.000
G29  23254538.414 5 122203419.003 5     -2753.609          33.000
R09  22707048.688 6 121254388.463 6     -4452.633          36.000    22707056.844 5  94309010.565 5     -3463.159          30.000
R10  20179065.438 8 107565785.286 8     -2758.207          48.000
C27  21525093.289 8 112086802.652 8      -217.238          51.000
C28  23971336.984 5 124825024.667 5     -2413.766          34.000
C30  23694996.188 4 123386059.249 4      2186.805          29.000
E02  23426736.281 8 123108347.850 8      -500.988          51.000    23426736.688 8  94329756.532 8      -383.853          51.000
E25  25872264.086 8 135959633.337 8     -2795.066          51.000    25872265.281 7 104176901.786 7     -2141.635          44.000
E36  23080770.039 8 121290282.191 8      -205.188          51.000    23080771.859 8  92936722.298 8      -157.231          51.000
> 2020 05 10 14 03 30.0000000  0 12        .000000000000
G18  20525946.078 8 107864578.223 8     -1127.453          51.000    20525945.984 8  84050401.948 8      -878.535          50.000
G20  22513471.492 7 118309091.346 7      2807.805          47.000    22513471.883 7  92188928.978 7      2187.900          45.000
G21  20924849.547 8 109960897.912 8     -1143.809          50.000    20924848.617 8  85683802.189 8      -891.279          50.000
G26  20272486.922 8 106532633.602 8       -49.633          51.000    20272489.109 8  83012449.926 8       -38.675          51.000
G29  23270247.523 5 122285981.417 5     -2773.703          30.000
R09  22732061.172 5 121387961.288 5     -4476.422          34.000    22732071.414 5  94412900.446 5     -3481.664          31.000
R10  20194627.141 8 107648741.057 8     -2796.434          49.000
C27  21526350.000 8 112093346.843 8      -242.855          51.000
C30  23682396.812 4 123320452.769 4      2163.848          29.000
E02  23429614.758 8 123123472.938 8      -531.312          51.000    23429615.242 8  94341345.874 8      -407.116          51.000
E25  25888219.562 8 136043477.361 8     -2818.453          51.000    25888219.500 7 104241145.855 7     -2159.657          45.000
E36  23081947.961 8 121296471.992 8      -231.402          51.000    23081949.461 8  92941465.129 8      -177.308          51.000
> 2020 05 10 14 04  0.0000000  0 12        .000000000000
G18  20532394.625 8 107898466.035 8     -1140.359          50.000    20532394.750 8  84076808.057 8      -888.592          50.000
G20  22497436.555 7 118224829.992 7      2801.117          46.000    22497437.273 7  92123270.776 7      2182.689          45.000
G21  20931381.359 8 109995222.041 8     -1153.059          51.000    20931380.414 8  85710548.274 8      -898.487          50.000
G26  20272785.977 8 106534205.387 8       -63.707          51.000    20272788.023 8  83013674.693 8       -49.642          51.000
R09  22757191.664 6 121522156.707 6     -4478.883          36.000    22757201.070 5  94517274.561 5     -3483.579          30.000
R10  20210390.641 8 107732769.244 8     -2814.051          49.000
R21  20425897.586 5 109303071.907 5      1795.027          30.000    20425886.156 4  85013470.951 4      1396.132          25.000
C27  21527740.547 8 112100586.855 8      -248.391          51.000
C30  23669895.219 4 123255362.681 4      2163.605          27.000
E02  23432652.695 8 123139436.499 8      -541.469          51.000    23432653.594 8  94353577.664 8      -414.886          51.000
E25  25904295.164 8 136127951.969 8     -2821.691          51.000    25904294.961 7 104305873.101 7     -2162.036          46.000
E36  23083261.594 8 121303375.905 8      -237.406          51.000    23083263.422 8  92946755.142 8      -181.861          51.000
> 2020 05 10 14 04 30.0000000  0 14        .000000000000
G18  20538844.422 8 107932359.854 8     -1154.543          51.000    20538844.578 8  84103218.827 8      -899.644          50.000
G20  22481366.773 7 118140388.064 7      2793.031          44.000    22481368.203 7  92057471.849 7      2176.388          44.000
G21  20937893.305 8 110029441.854 8     -1163.582          51.000    20937892.242 8  85737213.077 8      -906.684          50.000
G26  20273092.930 8 106535818.929 8       -79.160          51.000    20273095.086 8  83014931.980 8       -61.683          51.000
G29  23301803.156 5 122451805.699 5     -2775.559          31.000
G31  23839118.430 6 125275398.593 6     -3296.066          37.000    23839108.242 6  97617186.559 6     -2568.366          37.000
R09  22782265.141 6 121656041.211 6     -4482.336          36.000    22782272.273 4  94621406.885 4     -3486.264          29.000
R10  20226181.102 8 107816938.220 8     -2832.910          49.000
C27  21529090.164 8 112107615.215 8      -255.148          51.000
C28  24013146.992 5 125042763.426 5     -2432.820          32.000
C30  23657353.836 5 123190093.806 5      2158.809          31.000
E02  23435675.938 8 123155323.477 8      -552.918          51.000    23435676.812 8  94365750.795 8      -423.691          51.000
E25  25920316.383 8 136212140.683 8     -2826.285          51.000    25920316.266 7 104370381.293 7     -2165.529          47.000
E36  23084536.906 8 121310077.915 8      -244.711          51.000    23084539.289 8  92951890.470 8      -187.512          51.000
> 2020 05 10 14 05  0.0000000  0 13        .000000000000
G18  20545462.570 8 107967138.023 8     -1159.168          51.000    20545462.656 8  84130318.695 8      -903.248          50.000
G20  22465430.969 7 118056648.864 7      2794.508          43.000    22465433.070 7  91992220.498 7      2177.536          42.000
G21  20944552.578 8 110064436.067 8     -1164.438          51.000    20944551.312 8  85764481.307 8      -907.354          49.000
G26  20273575.531 8 106538354.853 8       -85.004          51.000    20273577.500 8  83016908.019 8       -66.237          51.000
G31  23857923.172 6 125374228.659 6     -3287.766          39.000    23857914.992 6  97694196.934 6     -2561.895          37.000
R09  22807447.992 6 121790505.682 6     -4476.777          36.000    22807452.477 5  94725990.212 5     -3481.944          30.000
R10  20242164.820 8 107902137.880 8     -2842.059          49.000
R21  20405766.469 5 109195364.591 5      1782.898          34.000
C27  21530566.469 8 112115303.397 8      -252.477          51.000
C30  23644911.711 5 123125308.991 5      2164.602          35.000
E02  23438851.945 8 123172014.080 8      -554.801          51.000    23438852.344 8  94378539.687 8      -425.053          51.000
E25  25936450.258 8 136296922.282 8     -2820.836          51.000    25936450.531 8 104435343.784 8     -2161.414          48.000
E36  23085941.250 8 121317457.276 8      -242.281          51.000    23085943.453 8  92957544.787 8      -185.617          51.000
> 2020 05 10 14 05 30.0000000  0 12        .000000000000
G18  20552131.805 8 108002184.652 8     -1175.887          51.000    20552131.984 8  84157627.763 8      -916.275          51.000
G20  22449513.172 6 117973000.559 6      2783.484          41.000    22449515.539 6  91927040.023 6      2168.952          41.000
G21  20951242.023 8 110099588.819 8     -1177.578          51.000    20951240.586 8  85791873.059 8      -917.593          50.000
G26  20274116.961 8 106541199.480 8      -103.293          51.000    20274118.586 8  83019124.611 8       -80.488          51.000
G31  23876708.812 6 125472956.047 6     -3292.191          38.000    23876701.289 5  97771127.366 5     -2565.341          33.000
R09  22832621.578 6 121924921.983 6     -4483.391          36.000    22832623.430 4  94830536.086 4     -3487.088          27.000
R10  20258224.023 8 107987741.743 8     -2863.469          49.000
C27  21532052.875 8 112123042.157 8      -261.973          51.000
C28  24041108.445 5 125188348.252 5     -2428.441          31.000
E02  23442064.094 8 123188894.150 8      -569.012          51.000    23442063.961 8  94391473.758 8      -436.032          51.000
E25  25952579.680 8 136381681.306 8     -2828.184          50.000    25952580.203 8 104500288.976 8     -2166.963          48.000
E36  23087357.266 8 121324898.911 8      -252.219          51.000    23087359.172 8  92963246.818 8      -193.282          51.000
> 2020 05 10 14 06  0.0000000  0 13        .000000000000
G18  20558896.359 8 108037732.009 8     -1190.574          51.000    20558896.391 8  84185327.020 8      -927.720          50.000
G20  22433658.156 7 117889680.193 7      2774.539          44.000    22433660.109 7  91862115.101 7      2161.982          43.000
G21  20958005.727 8 110135132.218 8     -1188.785          51.000    20958004.375 8  85819569.227 8      -926.326          51.000
G26  20274761.734 8 106544587.330 8      -119.371          51.000    20274763.430 8  83021764.493 8       -93.016          51.000
G31  23895518.539 6 125571811.911 6     -3294.695          39.000    23895513.367 6  97848157.820 6     -2567.295          36.000
R09  22857828.984 5 122059524.126 5     -4487.191          34.000
R10  20274402.750 8 108073984.454 8     -2882.832          48.000
C27  21533593.414 8 112131062.793 8      -269.543          51.000
C28  24055123.445 5 125261266.412 5     -2429.449          33.000
C30  23620039.375 5 122995716.797 5      2154.145          34.000
E02  23445356.953 8 123206197.819 8      -581.406          51.000    23445356.773 8  94404732.394 8      -445.460          51.000
E25  25968748.578 8 136466650.416 8     -2833.246          48.000    25968749.570 8 104565395.156 8     -2171.058          48.000
E36  23088829.516 8 121332635.963 8      -260.367          51.000    23088831.641 8  92969175.222 8      -199.472          51.000
> 2020 05 10 14 06 30.0000000  0 13        .000000000000
G18  20565736.828 8 108073678.352 8     -1206.273          51.000    20565736.555 8  84213337.150 8      -939.953          50.000
G20  22417847.219 7 117806590.413 7      2764.426          45.000    22417848.930 7  91797369.859 7      2154.098          44.000
G21  20964824.398 8 110170964.406 8     -1200.637          51.000    20964822.953 8  85847490.406 8      -935.561          50.000
G26  20275490.828 8 106548418.890 8      -136.578          51.000    20275492.625 8  83024750.108 8      -106.425          51.000
G31  23914333.023 6 125670693.240 6     -3297.535          39.000    23914325.781 5  97925208.176 5     -2569.508          30.000
R10  20290681.094 7 108160760.846 7     -2902.836          47.000
R11  20271986.766 5 108327329.480 5      1725.648          33.000    20271967.344 4  84254524.920 4      1342.171          26.000
C27  21535168.414 8 112139265.536 8      -277.914          51.000
C28  24069139.961 6 125334185.592 6     -2432.066          36.000
C30  23607648.078 5 122931165.062 5      2148.781          34.000
E02  23448711.492 8 123223825.094 8      -594.383          51.000    23448711.531 8  94418238.986 8      -455.493          51.000
E25  25984937.117 7 136551728.324 7     -2839.211          45.000    25984939.203 8 104630584.690 8     -2175.547          49.000
E36  23090338.891 8 121340567.513 8      -269.117          51.000    23090341.297 8  92975252.639 8      -206.222          51.000
> 2020 05 10 14 07  0.0000000  0 11        .000000000000
G18  20572707.883 8 108110311.364 8     -1235.504          51.000    20572707.688 8  84241882.350 8      -962.727          50.000
G20  22402135.703 7 117724023.501 7      2740.391          47.000    22402137.305 7  91733032.050 7      2135.372          45.000
G21  20971752.828 8 110207373.191 8     -1226.230          51.000    20971751.156 8  85875860.878 8      -955.504          49.000
G26  20276359.641 8 106552984.020 8      -167.496          51.000    20276361.422 8  83028307.364 8      -130.516          51.000
G31  23933206.562 6 125769886.812 6     -3314.676          36.000    23933200.055 5  98002501.791 5     -2582.870          32.000
R10  20307113.953 7 108248361.325 7     -2936.805          47.000
C27  21536833.234 8 112147936.553 8      -299.879          51.000
C28  24083207.602 5 125407391.786 5     -2447.867          30.000
E02  23452182.812 8 123242065.440 8      -621.289          51.000    23452182.727 8  94432215.345 8      -476.077          51.000
E25  26001200.148 7 136637203.138 7     -2858.836          43.000    26001204.391 8 104696078.330 8     -2190.471          49.000
E36  23091940.234 8 121348982.123 8      -291.594          51.000    23091942.523 8  92981700.186 8      -223.432          51.000
> 2020 05 10 14 07 30.0000000  0 13        .000000000000
G18  20579740.516 8 108147268.068 8     -1236.289          51.000    20579740.422 8  84270679.783 8      -963.342          50.000
G20  22386455.070 7 117641620.929 7      2745.082          46.000    22386456.438 7  91668822.298 7      2139.025          45.000
G21  20978721.914 8 110243995.595 8     -1223.242          51.000    20978720.273 8  85904397.818 8      -953.176          50.000
G26  20277299.430 8 106557921.985 8      -169.859          51.000    20277301.297 8  83032155.117 8      -132.358          51.000
G31  23952069.703 6 125869028.312 6     -3302.719          37.000    23952063.016 5  98079754.797 5     -2573.553          35.000
R10  20323632.984 8 108336416.563 8     -2941.703          48.000
R11  20252919.062 5 108225461.098 5      1679.414          33.000    20252907.031 4  84175306.439 4      1306.211          25.000
C27  21538519.344 8 112156717.315 8      -293.535          51.000
C28  24097235.172 4 125480622.911 4     -2435.418          28.000
C30  23583009.875 5 122802932.579 5      2138.973          30.000
E02  23455701.711 8 123260557.710 8      -619.652          51.000    23455701.672 8  94446384.745 8      -474.778          51.000
E25  26017469.461 7 136722712.283 7     -2849.859          42.000    26017476.430 8 104761598.290 8     -2183.697          50.000
E36  23093564.336 8 121357517.714 8      -285.492          51.000    23093566.773 8  92988240.448 8      -218.793          51.000
> 2020 05 10 14 08  0.0000000  0 11        .000000000000
G18  20586875.398 8 108184762.600 8     -1269.539          51.000    20586875.414 8  84299896.288 8      -989.251          50.000
G20  22370846.836 7 117559601.419 7      2716.582          45.000    22370848.453 7  91604911.013 7      2116.820          44.000
G21  20985772.367 8 110281045.753 8     -1252.934          51.000    20985770.680 8  85933268.083 8      -976.312          49.000
G26  20278351.250 8 106563449.120 8      -204.836          51.000    20278353.250 8  83036461.972 8      -159.612          51.000
G31  23970964.164 6 125968330.836 6     -3323.516          37.000    23970958.383 5  98157133.253 5     -2589.752          34.000
R10  20340278.305 8 108425141.835 8     -2979.637          49.000
R21  20347213.750 5 108882094.542 5      1687.191          31.000
C27  21540267.617 8 112165821.125 8      -319.523          51.000
E02  23459309.469 8 123279517.796 8      -650.605          51.000    23459309.727 8  94460912.601 8      -498.507          51.000
E25  26033787.969 7 136808470.369 7     -2873.398          43.000    26033796.164 8 104827308.981 8     -2201.821          51.000
E36  23095252.406 8 121366389.300 8      -312.062          51.000    23095255.000 8  92995038.152 8      -239.143          51.000
> 2020 05 10 14 08 30.0000000  0 11        .000000000000
G18  20594113.961 8 108222802.003 8     -1272.730          51.000    20594114.359 8  84329537.377 8      -991.738          51.000
G20  22355313.695 7 117477976.546 7      2718.672          46.000    22355315.844 7  91541307.240 7      2118.446          46.000
G21  20992905.578 8 110318530.862 8     -1252.438          51.000    20992903.734 8  85962477.251 8      -975.925          50.000
G26  20279516.820 8 106569574.675 8      -209.844          51.000    20279519.086 8  83041235.131 8      -163.515          51.000
G31  23989891.266 6 126067800.405 6     -3313.988          37.000    23989888.086 5  98234641.901 5     -2582.335          34.000
R10  20357050.469 8 108514543.196 8     -2986.801          50.000
C27  21542079.711 8 112175256.092 8      -315.695          51.000
C28  24125384.320 4 125627213.094 4     -2446.219          29.000
E02  23463007.820 8 123298954.527 8      -651.348          51.000    23463008.492 8  94475805.688 8      -499.100          51.000
E25  26050156.211 7 136894484.953 7     -2867.148          44.000    26050164.969 8 104893216.187 8     -2196.780          51.000
E36  23097005.984 8 121375604.859 8      -308.602          51.000    23097008.406 8  93002099.407 8      -236.404          51.000
> 2020 05 10 14 09  0.0000000  0 12        .000000000000
G18  20601414.719 8 108261168.521 8     -1286.984          50.000    20601415.352 8  84359433.365 8     -1002.845          50.000
G20  22339815.766 8 117396532.911 8      2709.035          48.000    22339817.766 7  91477844.673 7      2110.936          46.000
G21  21000080.133 8 110356233.212 8     -1263.109          51.000    21000078.281 8  85991855.719 8      -984.241          49.000
G26  20280755.273 8 106576083.062 8      -226.043          51.000    20280757.773 8  83046306.594 8      -176.137          51.000
G31  24008808.859 6 126167218.027 6     -3315.344          36.000    24008808.492 5  98312110.086 5     -2583.394          31.000
R10  20373907.531 8 108604397.753 8     -3005.496          51.000
C27  21543914.320 8 112184807.620 8      -323.012          51.000
C28  24139481.453 5 125700573.170 5     -2447.613          30.000
C30  23546267.383 5 122611600.137 5      2119.457          30.000
E02  23466755.812 8 123318651.965 8      -663.680          51.000    23466756.789 8  94490898.537 8      -508.507          51.000
E25  26066532.352 7 136980538.643 7     -2872.043          45.000    26066541.281 8 104959153.377 8     -2200.504          51.000
E36  23098783.523 8 121384947.473 8      -316.336          51.000    23098786.125 8  93009258.045 8      -242.372          51.000
> 2020 05 10 14 09 30.0000000  0 12        .000000000000
G18  20608818.797 8 108300077.818 8     -1305.734          51.000    20608819.305 8  84389752.290 8     -1017.455          50.000
G20  22324394.820 8 117315491.052 8      2694.922          50.000    22324396.133 7  91414695.175 7      2099.942          46.000
G21  21007337.109 8 110394368.491 8     -1278.113          51.000    21007335.180 8  86021571.519 8      -995.932          49.000
G26  20282108.062 8 106583192.114 8      -246.684          51.000    20282110.695 8  83051846.111 8      -192.221          51.000
G31  24027757.555 5 126266717.182 5     -3322.492          32.000    24027761.195 4  98389705.804 4     -2588.958          29.000
R10  20390889.906 8 108694923.165 8     -3028.379          50.000
R21  20318967.320 6 108730917.277 6      1658.844          38.000
C27  21545812.484 8 112194690.536 8      -334.676          51.000
C30  23534085.594 5 122548186.777 5      2109.727          30.000
E02  23470595.039 8 123338827.540 8      -680.195          51.000    23470595.984 8  94506357.755 8      -521.231          51.000
E25  26082956.609 7 137066847.518 7     -2880.902          43.000    26082965.938 8 105025286.141 8     -2207.472          51.000
E36  23100626.766 8 121394633.722 8      -328.328          51.000    23100629.523 8  93016679.975 8      -251.582          51.000
> 2020 05 10 14 10  0.0000000  0 11        .000000000000
G18  20616293.320 8 108339356.403 8     -1314.289          51.000    20616293.891 8  84420358.966 8     -1024.121          50.000
G20  22309018.156 8 117234681.670 8      2690.957          51.000    22309019.219 7  91351726.865 7      2096.853          46.000
G21  21014643.375 8 110432763.138 8     -1283.105          51.000    21014641.555 8  86051489.436 8      -999.822          49.000
G26  20283542.555 8 106590730.555 8      -257.383          51.000    20283545.164 8  83057720.214 8      -200.558          51.000
R10  20407964.336 8 108785941.678 8     -3041.016          49.000
R21  20309682.391 5 108681225.900 5      1652.527          34.000
C27  21547741.422 8 112204734.097 8      -336.348          51.000
C28  24167708.930 5 125847635.389 5     -2448.758          33.000
E02  23474492.516 8 123359309.577 8      -686.715          51.000    23474493.539 8  94522051.765 8      -526.259          51.000
E25  26099396.047 7 137153238.571 7     -2880.043          44.000    26099405.938 8 105091481.901 8     -2206.789          51.000
E36  23102502.867 8 121404491.040 8      -330.309          51.000    23102505.469 8  93024232.972 8      -253.088          51.000
> 2020 05 10 14 10 30.0000000  0 12        .000000000000
G18  20623867.234 8 108379157.226 8     -1326.945          51.000    20623867.758 8  84451372.592 8     -1033.983          50.000
G20  22293715.461 8 117154262.346 8      2682.512          50.000    22293716.117 7  91289062.516 7      2090.272          45.000
G21  21022028.078 8 110471570.202 8     -1291.855          51.000    21022026.289 8  86081728.714 8     -1006.641          48.000
G26  20285088.148 8 106598853.444 8      -272.059          50.000    20285090.898 8  83064049.728 8      -211.994          51.000
R09  23086004.984 5 123277944.917 5     -4525.609          32.000
R10  20425160.000 7 108877606.846 7     -3057.633          47.000
C27  21549730.594 8 112215091.067 8      -342.031          51.000
C28  24181843.641 5 125921255.718 5     -2448.641          31.000
C30  23509823.391 5 122421765.943 5      2107.379          30.000
E02  23478477.656 8 123380252.779 8      -697.379          51.000    23478478.938 8  94538099.139 8      -534.322          51.000
E25  26115881.633 8 137239865.296 8     -2882.902          48.000    26115890.578 8 105157858.215 8     -2209.016          51.000
E36  23104440.383 8 121414673.299 8      -336.316          51.000    23104443.367 8  93032034.981 8      -257.694          51.000
> 2020 05 10 14 11  0.0000000  0 12        .000000000000
G18  20631502.312 8 108419278.716 8     -1358.105          51.000    20631502.523 8  84482636.087 8     -1058.264          49.000
G20  22278448.562 8 117074036.077 8      2655.445          48.000    22278449.125 7  91226548.625 7      2069.181          43.000
G21  21029452.891 8 110510588.211 8     -1319.523          51.000    21029450.969 8  86112132.350 8     -1028.200          48.000
G26  20286706.984 8 106607361.415 8      -305.469          51.000    20286709.922 8  83070679.310 8      -238.028          50.000
R09  23111458.797 5 123413862.848 5     -4546.125          33.000    23111458.398 4  95988587.293 4     -3535.875          26.000
R10  20442438.500 7 108969712.679 7     -3093.176          47.000
C27  21551741.750 8 112225562.882 8      -366.242          51.000
C28  24195969.344 5 125994808.770 5     -2466.066          33.000
C30  23497716.680 4 122358776.405 4      2086.641          28.000
E02  23482512.633 8 123401457.348 8      -726.781          51.000    23482514.156 8  94554346.793 8      -556.908          51.000
E25  26132374.594 8 137326526.655 8     -2904.949          51.000    26132381.500 8 105224261.045 8     -2225.876          51.000
E36  23106401.562 8 121424979.894 8      -361.145          51.000    23106405.008 8  93039932.248 8      -276.826          51.000
> 2020 05 10 14 11 30.0000000  0 10        .000000000000
G18  20639294.438 8 108460225.606 8     -1359.316          50.000    20639294.688 8  84514542.748 8     -1059.208          50.000
G20  22263314.820 7 116994512.277 7      2658.301          45.000    22263315.609 7  91164582.109 7      2071.406          43.000
G21  21037013.820 8 110550321.899 8     -1316.848          50.000    21037012.070 8  86143093.671 8     -1026.112          48.000
G26  20288495.742 8 106616761.327 8      -308.887          51.000    20288498.547 8  83078003.909 8      -240.691          51.000
R10  20459895.945 8 109062770.218 8     -3098.203          48.000
C27  21553871.117 8 112236650.919 8      -360.684          51.000
C28  24210183.078 5 126068795.741 5     -2453.773          31.000
E02  23486693.609 8 123423429.795 8      -725.750          51.000    23486695.609 8  94571182.816 8      -556.091          51.000
E25  26148970.070 8 137413727.782 8     -2896.094          51.000    26148974.867 8 105291077.426 8     -2219.079          51.000
E36  23108482.914 8 121435916.472 8      -355.672          51.000    23108486.227 8  93048312.202 8      -272.447          51.000
> 2020 05 10 14 12  0.0000000  0 12        .000000000000
G18  20647032.211 8 108500887.205 8     -1357.660          51.000    20647032.383 8  84546227.131 8     -1057.917          50.000
G20  22248104.227 7 116914584.807 7      2663.777          45.000    22248105.148 7  91102301.012 7      2075.671          42.000
G21  21044499.695 8 110589660.884 8     -1311.844          51.000    21044497.945 8  86173747.422 8     -1022.216          48.000
G26  20290243.336 8 106625944.653 8      -309.488          51.000    20290246.297 8  83085159.731 8      -241.160          51.000
R04  22896673.633 6 122610666.054 6       397.910          36.000    22896673.984 4  95363841.479 4       309.489          28.000
R10  20477319.984 8 109155650.120 8     -3100.164          48.000
R21  20273241.359 5 108486240.774 5      1618.086          31.000
C27  21555907.656 8 112247255.778 8      -352.461          51.000
C28  24224302.766 4 126142301.084 4     -2439.730          28.000
E02  23490809.586 8 123445061.279 8      -722.441          51.000    23490812.211 8  94587757.568 8      -553.613          51.000
E25  26165456.328 8 137500358.492 8     -2885.379          51.000    26165459.414 8 105357456.730 8     -2210.899          51.000
E36  23110472.711 8 121446373.287 8      -347.645          51.000    23110475.992 8  93056324.555 8      -266.434          51.000
> 2020 05 10 14 12 30.0000000  0 13        .000000000000
G18  20654971.875 8 108542609.549 8     -1410.234          51.000    20654971.812 8  84578738.048 8     -1098.884          50.000
G20  22233074.352 7 116835604.192 7      2614.926          46.000    22233075.062 7  91040757.668 7      2037.601          42.000
G21  21052166.625 8 110629950.984 8     -1360.570          51.000    21052164.734 8  86205142.303 8     -1060.185          48.000
G26  20292206.352 8 106636259.520 8      -364.496          51.000    20292209.312 8  83093197.274 8      -284.026          51.000
R04  22894658.500 6 122599886.692 6       334.738          36.000    22894660.961 4  95355457.615 4       260.352          26.000
R09  23187991.844 5 123822585.390 5     -4563.879          32.000
R10  20494966.500 8 109249716.566 8     -3157.043          48.000
R11  20165831.078 5 107760076.722 5      1410.047          32.000    20165829.500 5  83813379.143 5      1096.703          30.000
C27  21558107.719 8 112258712.452 8      -397.832          51.000
C28  24238500.555 5 126216278.688 5     -2479.035          35.000
E02  23495117.430 8 123467699.466 8      -773.027          51.000    23495120.156 8  94605103.719 8      -592.365          51.000
E25  26182089.586 8 137587765.253 8     -2928.172          51.000    26182091.500 8 105424430.683 8     -2243.673          50.000
E36  23112627.547 8 121457697.296 8      -393.594          51.000    23112631.172 8  93065001.401 8      -301.600          51.000
> 2020 05 10 14 13  0.0000000  0 14        .000000000000
G18  20663034.203 8 108584977.323 8     -1410.090          51.000    20663034.188 8  84611751.898 8     -1098.771          50.000
G20  22218146.594 7 116757159.678 7      2618.523          47.000    22218147.469 7  90979632.083 7      2040.405          42.000
G21  21059935.516 8 110670777.086 8     -1357.023          50.000    21059933.664 8  86236954.852 8     -1057.421          48.000
G26  20294306.109 8 106647292.834 8      -366.836          51.000    20294308.750 8  83101794.654 8      -285.846          51.000
G29  23572975.961 5 123876806.633 5     -2820.332          33.000
G31  24160771.469 5 126965710.557 5     -3336.777          31.000
R04  22892821.672 6 122590053.911 6       325.273          37.000    22892825.227 5  95347804.850 5       252.990          31.000
R09  23213613.023 5 123959401.621 5     -4553.496          31.000    23213610.664 4  96412848.299 4     -3541.611          26.000
R10  20512756.602 8 109344546.845 8     -3160.637          49.000
C27  21560392.352 8 112270610.691 8      -391.297          51.000
C28  24252749.773 5 126290528.796 5     -2466.703          35.000
E02  23499538.445 8 123490930.965 8      -771.516          51.000    23499541.148 8  94622904.488 8      -591.215          51.000
E25  26198790.984 8 137675533.306 8     -2918.910          50.000    26198792.539 8 105491681.472 8     -2236.624          50.000
E36  23114868.859 8 121469474.272 8      -387.297          51.000    23114872.531 8  93074025.319 8      -296.829          51.000
> 2020 05 10 14 13 30.0000000  0 14        .000000000000
G18  20671132.125 8 108627532.390 8     -1427.000          51.000    20671132.227 8  84644911.680 8     -1111.948          50.000
G20  22203234.883 8 116678797.629 8      2605.289          49.000    22203235.414 7  90918570.745 7      2030.095          42.000
G21  21067719.188 8 110711680.752 8     -1370.121          50.000    21067717.242 8  86268827.845 8     -1067.627          48.000
G26  20296455.844 8 106658588.448 8      -386.176          51.000    20296458.172 8  83110596.425 8      -300.916          51.000
G29  23589081.117 5 123961453.862 5     -2824.621          34.000
G31  24179824.516 5 127065847.236 5     -3339.578          32.000
R04  22891076.508 5 122580703.462 5       298.539          35.000    22891080.711 5  95340532.364 5       232.200          34.000
R09  23239203.141 5 124096058.232 5     -4558.723          32.000    23239203.086 4  96519147.615 4     -3545.676          26.000
R10  20530602.219 8 109439674.534 8     -3181.246          48.000
C27  21562674.922 8 112282497.689 8      -401.371          51.000
C28  24266969.141 5 126364585.008 5     -2470.418          32.000
E02  23503985.508 8 123514299.263 8      -786.543          51.000    23503988.445 8  94640810.053 8      -602.658          51.000
E25  26215473.906 8 137763204.948 8     -2926.121          50.000    26215475.242 8 105558858.391 8     -2242.057          48.000
E36  23117109.148 8 121481246.863 8      -397.656          51.000    23117112.484 8  93083045.885 8      -304.698          51.000
> 2020 05 10 14 14  0.0000000  0 11        .000000000000
G18  20679317.289 8 108670546.074 8     -1429.902          49.000    20679317.414 8  84678428.833 8     -1114.210          49.000
G20  22188391.586 8 116600794.027 8      2605.578          49.000    22188392.102 7  90857788.734 7      2030.321          44.000
G21  21075569.344 8 110752933.807 8     -1369.539          50.000    21075567.484 8  86300973.090 8     -1067.173          48.000
G26  20298707.570 8 106670419.893 8      -391.754          51.000    20298709.703 8  83119815.721 8      -305.260          51.000
R04  22889473.938 6 122572114.983 6       285.320          36.000    22889478.164 5  95333852.546 5       221.919          34.000
R09  23264816.664 5 124232828.872 5     -4548.648          32.000    23264817.062 4  96625528.593 4     -3537.844          27.000
R10  20548555.211 8 109535373.377 8     -3187.766          50.000
C27  21565007.398 8 112294643.618 8      -397.785          51.000
E02  23508510.602 8 123538077.583 8      -788.031          51.000    23508513.562 8  94659029.783 8      -603.828          51.000
E25  26232190.414 8 137851052.093 8     -2919.691          51.000    26232191.305 8 105626169.779 8     -2237.202          48.000
E36  23119400.258 8 121493287.509 8      -394.418          51.000    23119403.312 8  93092271.839 8      -302.276          51.000
> 2020 05 10 14 14 30.0000000  0 13        .000000000000
G18  20687611.602 8 108714133.806 8     -1468.527          50.000    20687611.617 8  84712393.302 8     -1144.307          48.000
G20  22173639.359 8 116523268.650 8      2570.227          49.000    22173639.648 7  90797379.371 7      2002.777          45.000
G21  21083508.086 8 110794652.171 8     -1404.488          50.000    21083506.133 7  86333480.910 7     -1094.406          47.000
G26  20301083.461 8 106682904.667 8      -433.094          51.000    20301085.547 8  83129544.106 8      -337.476          51.000
G31  24218001.523 5 127266456.160 5     -3353.906          32.000
R04  22888035.555 5 122564408.748 5       235.840          34.000    22888038.531 5  95327858.849 5       183.431          30.000
R09  23290473.625 5 124369828.909 5     -4576.566          33.000    23290472.547 4  96732084.181 4     -3559.552          26.000
R10  20566637.594 8 109631758.493 8     -3230.328          51.000
R21  20229549.000 5 108252406.853 5      1515.973          31.000
C27  21567411.773 8 112307164.104 8      -429.555          51.000
E02  23513136.195 8 123562383.028 8      -824.984          51.000    23513138.547 8  94677653.426 8      -632.173          51.000
E25  26248962.734 8 137939190.711 8     -2948.812          51.000    26248962.414 7 105693704.479 7     -2259.599          47.000
E36  23121764.688 8 121505712.578 8      -426.602          51.000    23121767.812 8  93101792.335 8      -326.880          51.000
> 2020 05 10 14 15  0.0000000  0 11        .000000000000
G18  20695957.086 8 108757989.897 8     -1470.543          50.000    20695957.164 8  84746566.849 8     -1145.878          48.000
G20  22158920.953 8 116445920.468 8      2571.246          50.000    22158920.453 7  90737108.084 7      2003.568          46.000
G21  21091477.094 8 110836529.444 8     -1402.785          50.000    21091475.055 7  86366112.549 7     -1093.079          47.000
G26  20303525.680 8 106695739.116 8      -437.930          51.000    20303527.859 8  83139544.957 8      -341.244          51.000
R09  23316114.141 5 124506746.168 5     -4567.129          30.000    23316113.617 4  96838575.293 4     -3552.214          27.000
R10  20584790.344 8 109728518.295 8     -3235.832          50.000
C27  21569830.172 8 112319757.477 8      -425.156          51.000
C30  23402202.805 5 121861404.420 5      2049.465          30.000
E02  23517804.375 8 123586911.652 8      -825.500          51.000    23517805.812 8  94696448.069 8      -632.550          51.000
E25  26265732.797 8 138027315.549 8     -2941.465          51.000    26265731.578 8 105761228.594 8     -2253.847          48.000
E36  23124144.211 8 121518217.310 8      -422.301          51.000    23124147.750 8  93111373.883 8      -323.575          51.000
> 2020 05 10 14 15 30.0000000  0 10        .000000000000
G18  20704433.055 8 108802532.150 8     -1482.465          49.000    20704433.289 8  84781275.110 8     -1155.167          48.000
G20  22144316.484 8 116369171.814 8      2561.945          51.000    22144315.383 7  90677303.992 7      1996.321          45.000
G21  21099556.000 8 110878984.393 8     -1411.262          49.000    21099554.148 7  86399194.320 7     -1099.684          47.000
G26  20306114.336 8 106709343.179 8      -452.652          51.000    20306116.508 8  83150145.524 8      -352.713          51.000
R10  20603091.602 8 109826075.120 8     -3251.383          48.000
C27  21572342.383 8 112332839.050 8      -430.691          51.000
C30  23390447.914 5 121800188.631 5      2047.246          34.000
E02  23522594.773 8 123612083.090 8      -836.121          51.000    23522595.445 8  94715735.248 8      -640.682          51.000
E25  26282579.727 8 138115844.968 8     -2944.168          51.000    26282578.430 8 105829062.734 8     -2255.888          48.000
E36  23126618.625 8 121531220.554 8      -428.117          51.000    23126622.312 8  93121337.411 8      -328.029          51.000
> 2020 05 10 14 16  0.0000000  0 12        .000000000000
G18  20712931.586 8 108847193.006 8     -1485.887          49.000    20712931.719 7  84816075.761 7     -1157.834          47.000
G20  22129718.859 8 116292459.966 8      2561.156          50.000    22129717.008 7  90617528.548 7      1995.706          45.000
G21  21107636.625 8 110921448.895 8     -1410.945          49.000    21107635.039 8  86432283.534 8     -1099.438          48.000
G26  20308741.852 8 106723151.378 8      -459.004          51.000    20308744.008 8  83160905.155 8      -357.665          51.000
G29  23669920.977 5 124386246.774 5     -2824.434          32.000
R09  23367480.219 5 124781051.481 5     -4558.062          34.000    23367477.953 4  97051910.974 4     -3545.157          24.000
R10  20621433.008 7 109923851.420 7     -3258.113          46.000
C27  21574840.570 8 112345847.700 8      -427.754          51.000
C28  24338303.188 5 126735896.121 5     -2466.500          34.000
E02  23527399.594 8 123637331.483 8      -838.137          51.000    23527399.578 8  94735081.376 8      -642.188          51.000
E25  26299395.406 8 138204211.897 8     -2937.953          49.000    26299395.195 8 105896772.388 8     -2251.141          50.000
E36  23129080.086 8 121544155.767 8      -425.254          51.000    23129083.648 8  93131248.785 8      -325.844          51.000
> 2020 05 10 14 16 30.0000000  0 13        .000000000000
G18  20721550.211 8 108892484.430 8     -1522.156          49.000    20721550.359 7  84851367.777 7     -1186.096          47.000
G20  22115226.227 8 116216300.949 8      2527.387          49.000    22115224.688 7  90558183.900 7      1969.392          46.000
G21  21115816.570 8 110964435.072 8     -1443.398          49.000    21115815.078 8  86465779.251 8     -1124.726          48.000
G26  20311506.000 8 106737677.655 8      -498.047          51.000    20311508.680 8  83172224.329 8      -388.088          51.000
G29  23686143.062 5 124471502.409 5     -2848.293          31.000
R09  23393194.109 5 124918350.661 5     -4583.250          31.000
R10  20639912.766 7 110022364.834 7     -3297.891          46.000
C27  21577422.422 8 112359292.035 8      -457.297          51.000
C28  24352612.492 5 126810413.653 5     -2489.508          30.000
C30  23366950.344 5 121677855.081 5      2024.660          32.000
E02  23532316.578 8 123663170.543 8      -873.062          51.000    23532315.969 8  94754880.108 8      -668.994          51.000
E25  26316277.047 7 138292928.887 7     -2965.156          47.000    26316279.094 8 105964750.311 8     -2271.952          51.000
E36  23131626.086 8 121557535.916 8      -455.332          51.000    23131629.695 8  93141501.097 8      -348.948          51.000
> 2020 05 10 14 17  0.0000000  0 12        .000000000000
G18  20730255.016 8 108938228.446 8     -1528.648          49.000    20730255.312 8  84887012.465 8     -1191.152          48.000
G20  22100805.891 8 116140521.800 8      2523.422          49.000    22100805.016 7  90499135.263 7      1966.303          45.000
G21  21124062.055 8 111007765.303 8     -1446.422          49.000    21124060.586 8  86499543.061 8     -1127.082          49.000
G26  20314373.258 8 106752746.187 8      -507.586          51.000    20314376.250 8  83183966.018 8      -395.522          51.000
R04  22882867.578 5 122536689.074 5       123.422          33.000    22882864.836 4  95306324.139 4        95.989          29.000
R09  23418921.461 5 125055717.151 5     -4577.602          30.000    23418918.984 4  97265564.332 4     -3560.357          26.000
R10  20658497.453 8 110121433.292 8     -3307.742          48.000
C27  21580054.258 8 112372997.029 8      -457.453          51.000
C30  23355267.078 4 121617030.114 4      2028.070          29.000
E02  23537312.195 8 123689424.062 8      -878.320          51.000    23537311.445 8  94774996.418 8      -673.023          51.000
E25  26333191.055 7 138381818.450 7     -2962.059          47.000    26333195.836 8 106032860.479 8     -2269.650          51.000
E36  23134223.273 8 121571184.018 8      -455.645          51.000    23134226.836 8  93151958.726 8      -349.136          51.000
> 2020 05 10 14 17 30.0000000  0 10        .000000000000
G18  20738999.977 8 108984182.736 8     -1547.527          49.000    20739000.109 7  84922821.001 7     -1205.865          47.000
G20  22086412.383 8 116064884.587 8      2506.734          50.000    22086412.414 7  90440197.206 7      1953.303          46.000
G21  21132326.859 8 111051197.273 8     -1461.688          48.000    21132325.297 8  86533386.155 8     -1138.974          48.000
G26  20317298.023 8 106768116.638 8      -529.582          51.000    20317300.836 8  83195942.982 8      -412.661          51.000
R04  22882222.000 4 122533235.562 4        94.367          29.000    22882217.188 5  95303638.168 5        73.403          30.000
R10  20677140.586 8 110220809.206 8     -3329.949          48.000
C27  21582690.273 8 112386723.860 8      -470.016          51.000
E02  23542340.805 8 123715851.453 8      -895.977          51.000    23542340.266 8  94795245.972 8      -686.578          51.000
E25  26350092.422 7 138470638.862 7     -2971.848          47.000    26350099.000 8 106100917.662 8     -2277.067          51.000
E36  23136825.539 8 121584858.793 8      -468.410          51.000    23136828.984 8  93162436.802 8      -358.918          51.000
> 2020 05 10 14 18  0.0000000  0 12        .000000000000
G18  20747877.688 8 109030834.603 8     -1559.152          50.000    20747877.180 7  84959173.095 7     -1214.924          46.000
G20  22072139.727 8 115989881.297 8      2496.934          50.000    22072140.062 7  90381753.088 7      1945.663          44.000
G21  21140703.930 8 111095218.741 8     -1469.750          49.000    21140702.328 8  86567688.591 8     -1145.257          49.000
G26  20320373.398 8 106784278.363 8      -544.543          51.000    20320375.969 8  83208536.530 8      -424.316          51.000
R04  22881767.930 4 122530809.195 4        71.703          29.000    22881764.539 5  95301750.977 5        55.769          30.000
R09  23470391.250 4 125330582.347 4     -4583.938          28.000
R10  20695934.211 8 110320985.503 8     -3345.004          49.000
R11  20086668.648 6 107337083.509 6      1140.535          36.000
C27  21585423.648 8 112400956.748 8      -475.496          51.000
E02  23547495.656 8 123742941.782 8      -906.664          51.000    23547495.250 8  94816003.473 8      -694.705          51.000
E25  26367074.039 7 138559877.981 7     -2974.117          47.000    26367081.438 8 106169295.668 8     -2278.911          51.000
E36  23139525.539 8 121599048.562 8      -474.168          51.000    23139528.945 8  93173309.494 8      -363.282          51.000
> 2020 05 10 14 18 30.0000000  0  9        .000000000000
G18  20756869.531 8 109078086.404 8     -1583.242          49.000    20756868.906 7  84995992.670 7     -1233.695          47.000
G20  22057969.930 8 115915418.697 8      2474.781          51.000    22057970.180 7  90323730.269 7      1928.398          44.000
G21  21149174.562 8 111139731.999 8     -1490.289          49.000    21149173.047 8  86602374.227 8     -1161.264          49.000
G26  20323581.125 8 106801135.734 8      -571.805          51.000    20323583.617 8  83221672.130 8      -445.565          51.000
R10  20714859.250 8 110421860.980 8     -3372.402          49.000
C27  21588236.000 8 112415600.244 8      -493.277          51.000
E02  23552758.477 8 123770599.105 8      -929.609          51.000    23552758.273 8  94837195.452 8      -712.352          51.000
E25  26384117.039 7 138649438.681 7     -2988.949          46.000    26384124.883 8 106237920.053 8     -2290.243          51.000
E36  23142305.336 8 121613656.729 8      -492.234          51.000    23142308.508 8  93184502.763 8      -377.158          51.000
> 2020 05 10 14 19  0.0000000  0 11        .000000000000
G18  20765888.820 8 109125482.829 8     -1591.672          49.000    20765888.680 7  85032924.973 7     -1240.264          47.000
G20  22043817.367 8 115841046.187 8      2468.113          50.000    22043817.484 7  90265777.683 7      1923.205          44.000
G21  21157652.062 8 111184281.755 8     -1494.910          48.000    21157650.555 8  86637088.342 8     -1164.865          48.000
G26  20326835.031 8 106818235.445 8      -583.469          51.000    20326837.648 8  83234996.548 8      -454.651          51.000
R10  20733828.094 8 110522972.120 8     -3383.871          48.000
R21  20155471.289 4 107856000.892 4      1407.031          28.000
C27  21591040.703 8 112430204.512 8      -495.434          51.000
C30  23308850.266 4 121375299.473 4      2000.457          29.000
E02  23558042.781 8 123798369.848 8      -936.969          50.000    23558043.031 8  94858474.315 8      -717.907          51.000
E25  26401134.586 7 138738866.206 7     -2988.129          42.000    26401142.773 8 106306442.399 8     -2289.620          49.000
E36  23145078.305 8 121628229.014 8      -494.508          51.000    23145081.500 8  93195668.532 8      -378.927          51.000
> 2020 05 10 14 19 30.0000000  0 11        .000000000000
G18  20774992.141 8 109173321.454 8     -1602.109          48.000    20774991.977 7  85070201.808 7     -1248.397          47.000
G20  22029739.617 8 115767065.638 8      2459.180          51.000    22029739.062 7  90208130.529 7      1916.244          44.000
G21  21166193.148 8 111229165.893 8     -1502.074          48.000    21166191.797 8  86672062.991 8     -1170.447          48.000
G26  20330192.234 8 106835877.023 8      -597.371          51.000    20330194.352 8  83248743.234 8      -465.484          51.000
R04  22881238.828 5 122527980.205 5        -5.379          32.000    22881244.703 4  95299569.630 4        -4.184          26.000
R10  20752896.805 7 110624619.012 7     -3397.527          47.000
C27  21593894.695 8 112445065.795 8      -500.008          51.000
C30  23297325.391 5 121315257.599 5      1997.984          34.000
E02  23563405.797 8 123826553.299 8      -946.656          51.000    23563406.430 8  94880069.429 8      -725.357          51.000
E25  26418182.500 5 138828458.623 5     -2989.695          35.000    26418191.711 7 106375091.137 7     -2290.596          47.000
E36  23147901.086 8 121643064.015 8      -499.215          50.000    23147904.680 8  93207035.606 8      -382.482          51.000
> 2020 05 10 14 20  0.0000000  0 12        .000000000000
G18  20784187.977 8 109221646.352 8     -1618.293          48.000    20784187.789 7  85107857.573 7     -1261.008          47.000
G20  22015745.906 8 115693525.725 8      2444.590          51.000    22015744.859 7  90150826.750 7      1904.878          44.000
G21  21174806.234 8 111274428.511 8     -1514.383          48.000    21174805.172 8  86707332.564 8     -1180.039          48.000
G26  20333661.383 8 106854106.579 8      -616.957          51.000    20333662.906 8  83262948.089 8      -480.746          51.000
R04  22881350.914 5 122528547.875 5       -31.984          34.000    22881355.438 4  95300011.364 4       -24.883          28.000
R10  20772073.367 7 110726844.928 7     -3416.539          47.000
R11  20062280.930 5 107206739.579 5      1033.703          35.000    20062278.711 5  83383014.149 5       803.991          30.000
C27  21596806.719 8 112460229.106 8      -509.863          51.000
C30  23285836.320 5 121255445.364 5      1990.098          32.000
E02  23568856.234 8 123855195.238 8      -961.770          51.000    23568857.156 8  94902015.858 8      -736.901          51.000
E25                                                                  26435281.305 7 106443900.524 7     -2295.975          43.000
E36  23150782.734 8 121658206.869 8      -509.227          51.000    23150786.305 8  93218638.577 8      -390.190          51.000
> 2020 05 10 14 20 30.0000000  0 12        .000000000000
G18  20793453.055 8 109270334.815 8     -1615.676          48.000    20793453.109 7  85145796.603 7     -1258.968          47.000
G20  22001813.453 8 115620308.435 8      2448.484          51.000    22001811.984 7  90093774.376 7      1907.913          43.000
G21  21183468.031 8 111319946.779 8     -1508.223          49.000    21183466.977 8  86742801.332 8     -1175.238          49.000
G26  20337219.430 8 106872803.254 8      -617.625          51.000    20337221.234 8  83277516.911 8      -481.266          51.000
R04  22881590.281 5 122529814.962 5       -40.199          34.000    22881592.125 4  95300996.954 4       -31.263          29.000
R10  20791334.820 8 110829523.432 8     -3416.625          48.000
R11  20056534.773 5 107176052.826 5      1024.184          31.000    20056534.367 5  83359146.642 5       796.578          31.000
C27  21599753.688 8 112475574.187 8      -501.371          51.000
C28  24467513.570 4 127408775.121 4     -2486.375          29.000
E02  23574370.930 8 123884174.652 8      -958.234          51.000    23574372.234 8  94924220.869 8      -734.196          51.000
