     3.02           OBSERVATION DATA    M (MIXED)           RINEX VERSION / TYPE
SAVERINEX           SC600               20200509 195931 LCL PGM / RUN BY / DATE
       G = GPS       R = GLONASS       C = COMPASS          COMMENT
       S = SBAS      J = QZSS          E = GALILEO          COMMENT
BEAN                                                        MARKER NAME
1                                                           MARKER NUMBER
GEODETIC                                                    MARKER TYPE
Unige DICCA         GTER                                    OBSERVER / AGENCY
SC60291900056       SC600               2.12(191226)        REC # / TYPE / VERS
                    HEMA45          NONE                    ANT # / TYPE
  4509407.8091   693652.4678  4442337.6214                  APPROX POSITION XYZ
        0.0000        0.0000        0.0000                  ANTENNA: DELTA H/E/N
G    8 C1C L1C D1C S1C C2Y L2Y D2Y S2Y                      SYS / # / OBS TYPES
R    8 C1C L1C D1C S1C C2P L2P D2P S2P                      SYS / # / OBS TYPES
C    8 C1I L1I D1I S1I C7I L7I D7I S7I                      SYS / # / OBS TYPES
E    8 C1C L1C D1C S1C C7Q L7Q D7Q S7Q                      SYS / # / OBS TYPES
DBHZ                                                        COMMENT
     30.000                                                 INTERVAL
  2020    05    09    17    00    0.0000000     GPS         TIME OF FIRST OBS
  2020    05    09    17    59   30.0000000     GPS         TIME OF LAST OBS
     0                                                      RCV CLOCK OFFS APPL
G L1C  0.00000                                              SYS / PHASE SHIFT
G L2Y  0.00000                                              SYS / PHASE SHIFT
R L1C  0.00000                                              SYS / PHASE SHIFT
R L2P  0.25000                                              SYS / PHASE SHIFT
C L1I  0.00000                                              SYS / PHASE SHIFT
C L7I  0.00000                                              SYS / PHASE SHIFT
E L1C  0.50000                                              SYS / PHASE SHIFT
E L7Q -0.25000                                              SYS / PHASE SHIFT
 13 R03  5 R04  6 R05  1 R06 -4 R07  5 R09 -2 R10 -5 R11  0 GLONASS SLOT / FRQ #
    R16 -1 R18 -3 R19  3 R20  2 R21  4                      GLONASS SLOT / FRQ #
 C1C   71.950 C2C   71.950 C2P   71.950                     GLONASS COD/PHS/BIS
    18                                                      LEAP SECONDS
*** Above antenna height is from mark to ANTENNA BOTTOM.    COMMENT
    17     4        0.0000        ANT MEASURE TYPE/HEIGT    COMMENT
    0.0000    0.0000    0.0458    0.0405    0.0000          COMMENT
                    BASE STATION                            COMMENT
                                                            END OF HEADER
> 2020 05 09 17 00  0.0000000  0 16        .000000000000
G10  21017421.789 8 110447304.637 8      -791.418          51.000    21017423.539 8  86062881.261 8      -616.686          51.000
G16  22867323.078 7 120168576.978 7     -3415.918          47.000    22867322.898 7  93637855.202 7     -2661.754          42.000
G27  20357827.867 8 106981110.959 8      -641.730          51.000    20357828.602 8  83361898.899 8      -500.050          51.000
G32  24244926.828 7 127407978.920 7      2946.551          46.000    24244931.172 7  99278926.418 7      2296.014          46.000
R05  20583062.484 6 110028254.602 6      -826.188          39.000    20583063.609 5  85577531.038 5      -642.593          33.000
R06  21007619.000 7 112100668.512 7      3482.344          46.000
R11  22051164.500 6 117834653.129 6     -2817.359          40.000    22051170.867 5  91649243.872 5     -2191.283          35.000
C05  39625593.148 5 206340861.228 5       -17.129          35.000    39625594.695 5 159555850.105 5       -13.269          34.000
C19  23710518.109 8 123466994.079 8      3015.562          49.000
C20  22744612.344 8 118437248.962 8       414.066          51.000
C29  21697524.359 8 112984681.808 8      -609.008          51.000
E07  26907187.070 7 141398224.497 7      2944.652          44.000    26907197.859 5 108344117.022 5      2256.741          34.000
E08  23601335.250 5 124025853.490 5      1254.348          34.000    23601330.367 5  95032768.306 5       961.091          33.000
E13  23761139.008 8 124865643.427 8      -964.562          51.000    23761140.406 8  95676346.533 8      -739.125          51.000
E21  26410874.156 6 138790029.603 6     -2870.805          36.000    26410884.977 6 106345617.358 6     -2199.953          39.000
E26                                                                  23239575.234 5  93576132.843 5       946.212          32.000
> 2020 05 09 17 00 30.0000000  0 16        .000000000000
G10  21021987.523 8 110471297.479 8      -808.246          51.000    21021989.367 8  86081576.986 8      -629.802          51.000
G16  22886842.398 7 120271152.469 7     -3422.711          46.000    22886842.695 7  93717784.132 7     -2667.047          42.000
G27  20361531.570 8 107000574.012 8      -655.801          51.000    20361532.555 8  83377064.898 8      -511.014          51.000
G32  24228113.031 7 127319623.448 7      2943.797          47.000    24228117.469 7  99210078.096 7      2293.868          47.000
R05  20587773.289 6 110053436.949 6      -852.312          40.000    20587775.133 5  85597117.302 5      -662.907          35.000
R06  20988084.672 7 111996424.977 7      3467.188          46.000
R11  22067028.484 5 117919414.832 5     -2833.551          33.000    22067034.023 6  91715169.556 6     -2203.879          36.000
C05  39625688.648 5 206341357.823 5       -15.875          35.000    39625690.180 5 159556233.901 5       -12.771          35.000
C19  23693164.852 7 123376633.779 7      3008.484          46.000
C20  22742273.531 8 118425068.336 8       397.980          51.000
C29  21701056.812 8 113003076.890 8      -617.395          51.000
E07  26890378.875 7 141309899.763 7      2943.391          46.000    26890392.977 5 108276439.642 5      2255.460          32.000
E08  23594207.836 6 123988396.229 6      1242.598          37.000
E13  23766655.883 8 124894635.270 8      -968.188          51.000    23766657.484 8  95698561.057 8      -741.858          51.000
E21                                                                  26427286.930 6 106411661.505 6     -2202.913          40.000
E26                                                                  23232529.812 5  93547769.965 5       944.180          30.000
> 2020 05 09 17 01  0.0000000  0 16        .000000000000
G10  21026660.562 8 110495854.814 8      -825.801          51.000    21026662.172 8  86100712.561 8      -643.481          51.000
G16  22906411.336 7 120373989.382 7     -3430.199          45.000    22906412.266 7  93797916.763 7     -2672.886          43.000
G27  20365326.203 8 107020514.526 8      -670.582          51.000    20365327.281 8  83392602.943 8      -522.531          51.000
G32  24211326.297 7 127231411.783 7      2940.031          46.000    24211330.672 7  99141341.826 7      2290.936          46.000
R05  20592642.195 6 110079465.367 6      -879.887          36.000    20592644.773 5  85617361.666 5      -684.353          31.000
R06  20968647.984 7 111892702.120 7      3450.652          45.000
R11  22082996.430 5 118004723.278 5     -2850.680          35.000    22082997.109 5  91781520.576 5     -2217.192          35.000
C05  39625790.219 5 206341886.797 5       -16.172          35.000    39625791.594 5 159556642.108 5       -12.399          34.000
C19  23675862.195 7 123286542.827 7      3000.582          45.000
C20  22740038.727 8 118413430.957 8       380.875          51.000
C29  21704649.352 8 113021784.415 8      -626.641          51.000
E07  26873591.000 7 141221679.354 7      2940.965          47.000    26873610.922 5 108208883.153 5      2253.392          30.000
E08  23587160.539 5 123951363.878 5      1229.953          31.000
E13  23772204.555 8 124923794.100 8      -972.711          51.000    23772206.641 8  95720903.521 8      -745.318          51.000
E21                                                                  26443722.961 6 106477844.252 6     -2206.813          40.000
E26                                                                  23225513.438 5  93519518.911 5       941.037          31.000
> 2020 05 09 17 01 30.0000000  0 15        .000000000000
G10  21031425.242 8 110520893.898 8      -844.719          51.000    21031426.859 8  86120223.534 8      -658.222          51.000
G16  22926013.805 7 120477003.698 7     -3438.727          43.000    22926015.109 6  93878187.633 6     -2679.527          41.000
G27  20369196.188 8 107040851.262 8      -686.598          51.000    20369197.320 8  83408449.740 8      -535.011          51.000
G32  24194551.914 7 127143265.448 7      2935.090          45.000    24194555.992 7  99072656.460 7      2287.086          45.000
R05  20597652.969 6 110106255.562 6      -907.746          41.000    20597653.500 5  85638198.472 5      -706.028          32.000
R06  20949293.633 7 111789421.689 7      3433.328          44.000
R11  22099028.844 6 118090533.603 6     -2868.914          38.000    22099040.656 5  91848216.802 5     -2231.378          33.000
R21  19883227.578 5 106399128.352 5      1088.648          31.000    19883250.414 4  82754983.568 4       846.727          26.000
C05  39625882.039 5 206342364.312 5       -16.676          35.000    39625883.219 5 159557011.370 5       -13.297          34.000
C19  23658596.078 7 123196642.615 7      2991.418          44.000
C20  22737892.805 8 118402256.342 8       362.742          51.000
C29  21708286.648 8 113040723.948 8      -637.164          51.000
E07  26856808.062 7 141133483.706 7      2937.320          47.000    26856832.102 5 108141326.743 5      2250.839          33.000
E13  23777769.516 8 124953038.308 8      -978.227          50.000    23777772.047 8  95743311.413 8      -749.565          51.000
E21  26460177.445 6 139049176.915 6     -2885.977          37.000    26460177.109 6 106544101.575 6     -2211.569          39.000
> 2020 05 09 17 02  0.0000000  0 15        .000000000000
G10  21036299.445 8 110546508.452 8      -862.320          51.000    21036301.523 8  86140182.921 8      -671.938          51.000
G16  22945667.203 7 120580287.307 7     -3446.043          42.000    22945668.656 6  93958668.359 6     -2685.231          37.000
G27  20373159.672 8 107061679.487 8      -701.277          51.000    20373160.906 8  83424679.514 8      -546.450          51.000
G32  24177808.914 7 127055282.421 7      2931.090          47.000    24177812.344 7  99004098.345 7      2283.969          47.000
R05  20602825.656 6 110133902.840 6      -934.809          36.000    20602827.617 5  85659701.931 5      -727.070          30.000
R06  20930040.570 7 111686684.224 7      3416.641          45.000
R11  22115185.719 6 118176854.473 6     -2885.559          36.000    22115188.570 4  91915338.195 4     -2244.323          29.000
R21  19877148.391 5 106366636.486 5      1078.070          32.000    19877182.312 3  82729712.044 3       838.499          23.000
C05  39625982.109 5 206342887.003 5       -17.105          34.000    39625983.047 5 159557413.364 5       -12.976          35.000
C19  23641386.344 7 123107029.331 7      2983.418          46.000
C20  22735853.945 8 118391638.726 8       345.785          51.000
C29  21711986.508 8 113059989.970 8      -646.473          51.000
E07  26840048.414 8 141045409.730 8      2934.926          48.000    26840074.422 5 108073841.599 5      2249.267          31.000
E13  23783368.789 8 124982462.824 8      -982.781          50.000    23783371.430 8  95765857.455 8      -752.983          51.000
E21  26476664.352 6 139135838.731 6     -2890.906          38.000    26476667.445 5 106610504.655 5     -2214.751          35.000
> 2020 05 09 17 02 30.0000000  0 16        .000000000000
G10  21041273.945 8 110572650.155 8      -880.055          51.000    21041275.984 8  86160553.091 8      -685.757          51.000
G16  22965362.836 7 120683790.373 7     -3453.660          43.000    22965363.391 5  94039320.005 5     -2691.167          34.000
G27  20377207.758 8 107082952.440 8      -716.484          51.000    20377209.188 8  83441255.821 8      -558.300          51.000
G32  24161088.945 8 126967418.728 8      2926.734          49.000    24161091.945 8  98935633.214 8      2280.575          49.000
R05  20608147.414 6 110162357.715 6      -962.039          39.000    20608150.117 4  85681833.527 4      -748.256          29.000
R06  20910880.977 7 111584446.115 7      3399.484          46.000
R11  22131432.312 6 118263675.584 6     -2902.336          36.000
R21  19871123.992 5 106334438.622 5      1068.691          33.000
C05  39626081.391 5 206343403.705 5       -17.125          34.000    39626082.336 5 159557813.072 5       -13.372          35.000
C19  23624224.344 8 123017658.543 8      2975.098          48.000
C20  22733912.820 8 118381531.765 8       328.438          51.000
C29  21715739.742 8 113079536.260 8      -656.145          50.000
E07  26823303.289 8 140957412.439 8      2931.965          48.000    26823296.211 5 108006298.645 5      2246.448          35.000
E13  23788993.406 8 125012020.544 8      -987.469          49.000    23788995.836 8  95788505.566 8      -756.647          50.000
E21  26493178.258 6 139222641.738 6     -2895.574          37.000    26493184.352 5 106677016.006 5     -2218.774          33.000
E26  23204614.234 5 121941070.207 5      1214.090          32.000    23204615.594 6  93435371.818 6       930.339          36.000
> 2020 05 09 17 03  0.0000000  0 16        .000000000000
G10  21046349.375 8 110599321.487 8      -897.887          51.000    21046351.438 8  86181335.943 8      -699.652          51.000
G16  22985101.109 7 120787514.022 7     -3461.023          44.000    22985100.070 5  94120143.545 5     -2696.904          35.000
G27  20381341.180 8 107104674.001 8      -731.598          51.000    20381342.898 8  83458181.703 8      -570.076          51.000
G32  24144393.047 8 126879681.054 8      2922.191          49.000    24144396.039 8  98867266.273 8      2277.035          49.000
R05  20613622.133 5 110191622.885 5      -989.098          33.000    20613627.289 4  85704595.315 4      -769.295          26.000
R06  20891816.297 7 111482715.191 7      3382.508          45.000
R11  22147773.211 6 118350996.435 6     -2919.250          38.000
R21  19865175.711 5 106302519.941 5      1057.977          34.000    19865181.016 4  82679776.877 4       822.871          29.000
C05  39626180.875 5 206343922.290 5       -17.367          34.000    39626182.016 5 159558214.442 5       -13.387          34.000
C19  23607110.312 8 122928536.071 8      2966.488          50.000
C20  22732070.828 8 118371939.291 8       311.055          51.000
C29  21719547.836 8 113099366.762 8      -665.852          51.000
E07  26806573.531 7 140869497.466 7      2928.883          47.000    26806567.523 6 107938935.293 6      2244.203          37.000
E13  23794643.953 8 125041715.115 8      -992.211          50.000    23794646.359 8  95811258.533 8      -760.209          50.000
E21  26509719.836 6 139309587.706 6     -2900.703          36.000    26509726.336 5 106743683.935 5     -2222.626          33.000
E26                                                                  23197695.977 5  93407516.998 5       926.679          35.000
> 2020 05 09 17 03 30.0000000  0 16        .000000000000
G10  21051523.742 8 110626512.588 8      -914.984          51.000    21051526.000 8  86202523.832 8      -712.975          51.000
G16  23004879.695 7 120891446.735 7     -3467.836          44.000    23004878.000 5  94201129.952 5     -2702.213          35.000
G27  20385558.391 8 107126835.925 8      -746.051          51.000    20385560.484 8  83475450.729 8      -581.338          51.000
G32  24127719.852 7 126792063.894 7      2918.523          47.000    24127723.484 7  98798993.237 7      2274.177          47.000
R05  20619245.852 5 110221688.022 5     -1015.664          33.000    20619253.773 4  85727979.358 4      -789.964          25.000
R06  20872845.570 7 111381486.769 7      3366.137          44.000
R11  22164205.047 6 118438804.124 6     -2935.090          41.000    22164236.680 5  92119176.779 5     -2282.848          31.000
R21  19859273.062 5 106270912.758 5      1048.695          32.000    19859273.781 4  82655193.364 4       815.649          28.000
C05  39626278.703 5 206344431.643 5       -16.641          35.000    39626280.336 5 159558609.856 5       -13.345          35.000
C19  23590042.703 8 122839655.607 8      2958.695          51.000
C20  22730325.867 8 118362852.995 8       294.445          51.000
C29  21723409.039 8 113119473.393 8      -674.766          51.000
E07  26789858.078 7 140781658.258 7      2926.688          46.000    26789853.414 6 107871629.991 6      2242.476          38.000
E13  23800318.969 8 125071537.923 8      -996.238          50.000    23800321.641 8  95834109.758 8      -763.354          50.000
E21  26526287.086 6 139396665.861 6     -2904.379          37.000    26526293.266 5 106810406.173 5     -2225.505          35.000
E26                                                                  23190800.453 6  93379753.942 6       923.827          36.000
> 2020 05 09 17 04  0.0000000  0 17        .000000000000
G10  21056797.984 8 110654228.284 8      -932.363          51.000    21056799.461 8  86224120.480 8      -726.520          51.000
G16  23024698.828 7 120995591.921 7     -3474.672          43.000    23024697.195 6  94282281.976 6     -2707.540          37.000
G20  22559795.844 5 118552525.111 5     -2827.055          32.000
G27  20389860.586 8 107149444.545 8      -760.898          51.000    20389862.906 8  83493067.837 8      -592.908          51.000
G32  24111071.156 7 126704576.411 7      2914.320          47.000    24111075.445 7  98730821.273 7      2270.902          47.000
R05  20625019.797 5 110252557.825 5     -1041.930          32.000
R06  20853971.258 7 111280770.683 7      3348.855          45.000
R11  22180729.562 6 118527100.648 6     -2951.074          41.000    22180751.344 5  92187851.831 5     -2295.286          35.000
R21  19853413.836 5 106239627.224 5      1038.047          30.000
C05  39626376.719 5 206344940.951 5       -16.691          35.000    39626378.445 5 159559005.067 5       -13.170          34.000
C19  23573022.734 8 122751025.433 8      2950.352          51.000
C20  22728678.984 8 118354279.130 8       277.379          51.000
C29  21727324.656 8 113139862.612 8      -684.152          51.000
E07  26773158.695 7 140693902.924 7      2923.922          45.000    26773156.305 6 107804388.915 6      2240.491          40.000
E13  23806019.727 8 125101495.100 8     -1000.625          50.000    23806022.641 8  95857063.964 8      -766.743          49.000
E21  26542881.727 5 139483880.533 5     -2909.359          35.000    26542888.953 6 106877232.980 6     -2229.237          37.000
E26                                                                  23183928.414 5  93352087.479 5       920.675          35.000
> 2020 05 09 17 04 30.0000000  0 19        .000000000000
G10  21062166.102 8 110682437.524 8      -947.074          51.000    21062167.484 8  86246101.711 8      -737.980          51.000
G16  23044552.234 7 121099917.364 7     -3479.051          43.000    23044550.828 6  94363574.429 6     -2710.952          37.000
G20  22575961.117 5 118637473.667 5     -2834.777          35.000
G27  20394242.242 8 107172470.374 8      -772.922          51.000    20394244.773 8  83511010.023 8      -602.277          51.000
G32  24094442.023 7 126617191.950 7      2912.531          47.000    24094446.695 7  98662729.545 7      2269.508          47.000
R05  20630939.422 4 110284193.174 4     -1066.703          28.000    20630965.766 4  85776699.374 4      -829.658          28.000
R06  20835188.789 7 111180541.905 7      3334.242          47.000
R11  22197339.945 6 118615851.531 6     -2964.391          36.000    22197354.219 6  92256880.261 6     -2305.640          37.000
R21  19847611.523 6 106208588.157 6      1031.211          36.000
C05  39626469.047 5 206345419.719 5       -13.699          35.000    39626470.289 5 159559375.292 5       -10.835          34.000
C19  23556045.148 8 122662618.156 8      2944.633          51.000
C20  22727125.281 8 118346188.346 8       263.051          51.000
C29  21731289.078 8 113160505.281 8      -690.879          51.000
C30  25113781.570 4 130774036.695 4     -2631.117          28.000
E07  26756469.984 7 140606203.726 7      2923.918          44.000    26756470.547 7 107737190.891 7      2240.327          42.000
E08  23539858.500 5 123702797.319 5      1140.410          33.000
E13  23811740.500 8 125131556.828 8     -1002.340          51.000    23811743.578 8  95880098.250 8      -767.979          49.000
E21  26559497.359 5 139571199.832 5     -2910.691          33.000    26559505.766 6 106944139.946 6     -2230.539          37.000
E26  23177076.656 5 121796359.779 5      1200.387          31.000    23177074.594 5  93324494.872 5       919.807          34.000
> 2020 05 09 17 05  0.0000000  0 15        .000000000000
G10  21067651.258 8 110711261.915 8      -968.836          51.000    21067653.047 8  86268562.300 8      -754.934          51.000
G16  23064462.406 7 121204542.852 7     -3490.066          42.000    23064461.188 6  94445100.725 6     -2719.532          37.000
G27  20398726.938 8 107196036.619 8      -792.246          51.000    20398729.695 8  83529373.309 8      -617.335          51.000
G32  24077856.523 7 126530036.494 7      2903.531          47.000    24077861.117 7  98594816.289 7      2262.492          47.000
R06  20816521.859 7 111080928.436 7      3312.551          47.000
R21  19841888.633 5 106177945.251 5      1016.980          30.000
C05  39626578.625 5 206345992.375 5       -18.117          35.000
C19  23539133.836 8 122574557.844 8      2931.770          49.000
C20  22725687.422 8 118338702.591 8       241.629          50.000
C29  21735325.562 8 113181523.589 8      -704.621          51.000
E07  26739815.031 7 140518685.614 7      2916.379          42.000    26739819.250 7 107670131.607 7      2234.598          43.000
E08  23533414.070 5 123668924.386 5      1123.312          34.000
E13  23817504.578 8 125161846.057 8     -1011.160          51.000    23817507.633 8  95903306.872 8      -774.740          48.000
E21                                                                  26576164.688 6 107011219.783 6     -2237.067          37.000
E26                                                                  23170263.289 5  93297070.497 5       912.917          34.000
> 2020 05 09 17 05 30.0000000  0 15        .000000000000
G10  21073224.438 8 110740548.689 8      -983.055          51.000    21073225.906 8  86291383.166 8      -766.014          51.000
G16  23084399.680 6 121309314.193 6     -3493.621          41.000    23084398.773 6  94526740.679 6     -2722.302          36.000
G27  20403285.766 8 107219991.916 8      -804.098          51.000    20403288.469 8  83548039.758 8      -626.570          51.000
G32  24061286.656 7 126442961.631 7      2901.973          47.000    24061289.984 7  98526965.814 7      2261.280          47.000
R06  20797941.852 7 110981780.641 7      3298.070          46.000
R11  22230852.688 6 118794875.717 6     -2997.168          36.000    22230857.766 6  92396063.710 6     -2331.131          39.000
C05  39626676.875 5 206346503.775 5       -14.637          35.000
C19  23522260.391 8 122486696.475 8      2926.301          48.000
C20  22724337.125 8 118331671.841 8       227.660          51.000
C29  21739405.367 8 113202767.816 8      -711.000          51.000
E07  26723165.547 6 140431199.147 6      2916.512          41.000    26723172.492 6 107603096.508 6      2234.706          41.000
E08  23527031.258 5 123635383.720 5      1113.473          31.000
E13  23823283.070 8 125192211.245 8     -1012.547          51.000    23823285.984 7  95926573.699 7      -775.895          46.000
E21                                                                  26592836.961 6 107078354.886 6     -2238.049          36.000
E26  23163471.750 5 121724850.482 5      1190.246          33.000    23163465.141 5  93269698.337 5       912.243          32.000
> 2020 05 09 17 06  0.0000000  0 15        .000000000000
G10  21078896.523 8 110770355.553 8     -1003.266          51.000    21078898.141 8  86314609.302 8      -781.762          51.000
G16  23104375.078 6 121414287.686 6     -3503.816          41.000    23104375.141 6  94608538.206 6     -2730.244          37.000
G27  20407929.930 8 107244395.657 8      -822.020          51.000    20407932.266 8  83567055.638 8      -640.535          51.000
G32  24044744.070 7 126356029.509 7      2894.230          47.000    24044745.984 7  98459226.584 7      2255.248          47.000
R06  20779460.500 7 110883162.656 7      3277.211          45.000
R11  22247740.773 6 118885091.101 6     -3016.328          39.000    22247740.414 6  92466231.202 6     -2346.033          40.000
C05  39626774.805 5 206347014.537 5       -17.930          35.000
C19  23505436.531 8 122399094.751 8      2914.742          48.000
C20  22723085.734 8 118325154.784 8       207.641          51.000
C29  21743540.016 8 113224296.902 8      -723.438          51.000
E07  26706533.781 7 140343805.367 7      2910.582          43.000    26706542.969 6 107536132.411 6      2230.070          41.000
E08                                                                  23520738.148 6  94708261.774 6       840.523          36.000
E13  23829087.148 8 125222711.535 8     -1020.012          51.000    23829089.797 7  95949944.035 7      -781.478          46.000
E21                                                                  26609534.414 6 107145589.008 6     -2243.649          36.000
E26                                                                  23156690.555 5  93242396.877 5       906.844          30.000
> 2020 05 09 17 06 30.0000000  0 17        .000000000000
G10  21084668.148 8 110800685.319 8     -1018.457          51.000    21084669.961 8  86338242.883 8      -793.603          51.000
G16  23124389.297 7 121519464.852 7     -3508.203          43.000    23124390.414 6  94690494.430 6     -2733.665          37.000
G27  20412660.203 8 107269252.113 8      -835.000          51.000    20412662.141 8  83586424.296 8      -650.652          51.000
G32  24028230.094 8 126269247.330 8      2891.398          48.000    24028231.117 8  98391604.199 8      2253.041          48.000
R05  20656183.352 5 110419111.662 5     -1175.176          33.000    20656159.516 4  85881460.328 4      -914.026          28.000
R06  20761079.367 7 110785082.451 7      3261.488          42.000
R11  22264714.148 7 118975778.674 7     -3029.418          42.000    22264711.016 6  92536765.911 6     -2356.214          39.000
R21  19825019.070 5 106087682.268 5       988.414          30.000    19825022.922 5  82512661.333 5       768.766          30.000
C05  39626873.398 5 206347527.821 5       -16.039          35.000    39626875.055 5 159561004.504 5       -12.384          34.000
C19  23488664.266 8 122311758.904 8      2907.824          48.000
C20  22721933.734 8 118319155.566 8       192.422          51.000
C29  21747730.258 8 113246115.273 8      -731.023          51.000
E07  26689921.828 7 140256510.362 7      2909.344          45.000    26689930.836 6 107469244.096 6      2229.216          40.000
E08  23514506.023 5 123569535.621 5      1085.430          35.000    23514509.250 5  94683180.457 5       831.992          35.000
E13  23834917.625 8 125253351.019 8     -1022.488          51.000    23834919.734 7  95973421.013 7      -783.456          47.000
E21                                                                  26626257.789 6 107212923.741 6     -2245.280          36.000
E26                                                                  23149942.398 5  93215224.343 5       904.991          31.000
> 2020 05 09 17 07  0.0000000  0 17        .000000000000
G10  21090529.859 8 110831488.592 8     -1036.180          51.000    21090531.562 8  86362245.424 8      -807.413          51.000
G16  23144433.430 7 121624795.092 7     -3515.066          43.000    23144434.492 5  94772569.892 5     -2739.016          35.000
G27  20417467.523 8 107294513.510 8      -850.227          51.000    20417469.125 8  83606108.497 8      -662.514          51.000
G32  24011735.961 7 126182570.159 7      2886.102          47.000    24011737.234 7  98324063.628 7      2248.910          47.000
R05  20662842.992 5 110454743.653 5     -1201.922          35.000    20662816.516 4  85909149.758 4      -934.843          29.000
R06  20742790.828 7 110687495.938 7      3243.066          42.000
R11  22281764.375 6 119066885.714 6     -3045.438          41.000    22281760.570 6  92607626.891 6     -2368.677          40.000
C05  39626963.781 6 206347998.125 6       -16.258          36.000
C19  23471934.500 8 122224643.539 8      2898.750          48.000
C20  22720872.266 8 118313626.711 8       175.043          51.000
C29  21751966.891 8 113268175.772 8      -740.871          51.000
C30  25189959.406 4 131170728.819 4     -2652.930          28.000
E07  26673320.219 7 140169268.183 7      2905.777          47.000    26673326.094 6 107402396.338 6      2226.693          40.000
E08  23508346.555 5 123537194.221 5      1072.086          34.000    23508346.625 5  94658373.027 5       821.328          34.000
E13  23840765.352 8 125284081.641 8     -1027.293          51.000    23840767.289 7  95996967.876 7      -787.218          47.000
E21                                                                  26642996.555 5 107280320.824 5     -2248.612          35.000
E26                                                                  23143212.281 5  93188121.035 5       901.594          33.000
> 2020 05 09 17 07 30.0000000  0 15        .000000000000
G10  21096508.977 8 110862908.767 8     -1055.191          51.000    21096510.773 8  86386728.707 8      -822.227          51.000
G16  23164533.688 7 121730420.615 7     -3523.074          43.000    23164533.930 5  94854875.456 5     -2745.256          35.000
G27  20422379.398 8 107320324.797 8      -867.191          51.000    20422381.023 8  83626221.182 8      -675.734          51.000
G32  23995289.844 7 126096145.900 7      2878.922          47.000    23995292.227 7  98256720.146 7      2243.319          47.000
R06  20724623.422 7 110590553.743 7      3223.105          43.000
R11  22298918.695 6 119158555.040 6     -3062.422          39.000    22298914.453 6  92678925.217 6     -2381.887          40.000
C05  39627073.062 6 206348567.046 6       -18.250          36.000
C19  23455274.961 8 122137894.288 8      2887.926          48.000
C20  22719928.453 8 118308711.768 8       155.977          51.000
C29  21756277.508 8 113290622.236 8      -752.289          51.000
E07  26656756.742 8 140082225.697 8      2900.492          48.000    26656759.828 6 107335701.566 6      2222.428          41.000
E08  23502281.523 5 123505321.533 5      1056.918          35.000    23502280.297 6  94633947.275 6       809.670          37.000
E13  23846658.055 8 125315048.330 8     -1033.805          50.000    23846660.055 7  96020695.564 7      -792.079          46.000
E21                                                                  26659776.727 5 107347889.608 5     -2253.254          34.000
E26                                                                  23136525.734 5  93161187.023 5       896.766          33.000
> 2020 05 09 17 08  0.0000000  0 18        .000000000000
G10  21102573.820 8 110894779.693 8     -1070.480          51.000    21102576.078 8  86411563.184 8      -834.141          51.000
G16  23184657.977 6 121836173.472 6     -3528.133          40.000    23184656.586 5  94937280.156 5     -2749.200          31.000
G27  20427364.430 8 107346521.326 8      -880.430          51.000    20427366.078 8  83646634.048 8      -686.052          51.000
G32  23978861.000 7 126009812.803 7      2875.578          46.000    23978864.422 7  98189447.679 7      2240.710          46.000
R05  20676619.594 6 110528402.742 6     -1254.512          36.000    20676625.508 5  85966555.745 5      -975.740          34.000
R06  20706546.531 7 110494092.358 7      3206.523          44.000
R11  22316143.266 6 119250614.827 6     -3075.910          37.000    22316141.023 6  92750527.158 6     -2392.378          40.000
R21  19808673.523 5 106000178.196 5       957.250          33.000    19808665.875 4  82444568.031 4       744.525          28.000
C05  39627170.039 5 206349072.196 5       -16.449          34.000    39627170.797 6 159562196.944 6       -12.641          36.000
C19  23438655.148 8 122051349.998 8      2880.578          48.000
C20  22719071.328 8 118304247.417 8       140.562          51.000
C29  21760630.883 8 113313291.659 8      -760.031          51.000
C30  25220595.531 5 131330223.646 5     -2662.648          33.000
E07  26640200.164 8 139995220.033 8      2898.879          49.000    26640202.320 7 107269034.922 7      2221.234          44.000
E08                                                                  23496277.828 5  94609779.783 5       800.565          32.000
E13  23852564.383 8 125346086.194 8     -1036.395          51.000    23852566.555 7  96044477.786 7      -794.120          46.000
E21  26676571.797 6 140186357.835 6     -2943.051          36.000    26676567.297 5 107415502.351 5     -2254.861          33.000
E26                                                                  23129849.531 5  93134319.196 5       894.790          32.000
> 2020 05 09 17 08 30.0000000  0 18        .000000000000
G10  21108738.633 8 110927176.188 8     -1088.461          48.000    21108740.938 8  86436807.219 8      -848.148          48.000
G16  23204820.461 5 121942127.529 5     -3535.000          35.000    23204817.945 5  95019841.633 5     -2754.564          31.000
G27  20432437.258 8 107373179.577 8      -896.047          51.000    20432438.852 8  83667406.719 8      -698.218          51.000
G32  23962464.523 7 125923650.264 7      2869.418          47.000    23962468.742 7  98122308.128 7      2235.913          47.000
R05  20683740.641 6 110566460.921 6     -1281.586          36.000    20683740.492 5  85996156.404 5      -996.795          32.000
R06  20688575.484 7 110398193.291 7      3187.316          45.000
R11  22333452.688 6 119343138.244 6     -3091.473          37.000    22333453.438 6  92822489.723 6     -2404.482          38.000
R21  19803346.125 5 105971669.489 5       946.555          31.000    19803343.258 4  82422406.528 4       736.209          29.000
C05  39627269.328 6 206349589.330 6       -17.398          36.000    39627270.023 5 159562596.809 5       -13.142          35.000
C19  23422089.992 8 121965088.383 8      2870.848          49.000
C20  22718315.047 8 118300309.295 8       122.645          51.000
C29  21765041.594 8 113336260.069 8      -770.406          51.000
C30  25235955.414 5 131410172.666 5     -2667.164          33.000
E07  26623665.672 8 139908329.551 8      2894.594          51.000    26623668.047 7 107202456.565 7      2217.840          45.000
E08  23490352.414 5 123442631.177 5      1030.660          35.000
E13  23858498.742 8 125377271.615 8     -1041.852          51.000    23858501.133 7  96068373.089 7      -798.251          46.000
E21  26693389.633 6 140274730.068 6     -2947.625          37.000    26693383.727 5 107483195.991 5     -2258.558          33.000
E26                                                                  23123198.938 5  93107540.168 5       890.974          33.000
> 2020 05 09 17 09  0.0000000  0 18        .000000000000
G10  21115000.227 8 110960081.514 8     -1103.754          49.000    21115002.250 8  86462447.703 8      -860.071          49.000
G11  21902511.438 5 115098484.898 5      2758.527          35.000
G27  20437594.961 8 107400284.308 8      -909.328          51.000    20437596.734 8  83688527.275 8      -708.567          51.000
G32  23946098.414 7 125837645.938 7      2865.738          47.000    23946102.859 7  98055291.840 7      2233.046          47.000
R05  20691007.609 5 110605304.556 5     -1305.871          34.000    20691013.031 5  86026368.204 5     -1015.671          35.000
R06  20670707.750 7 110302844.760 7      3170.613          45.000
R11  22350847.516 6 119436105.296 6     -3104.625          40.000    22350850.094 6  92894797.405 6     -2414.714          39.000
R21  19798059.703 4 105943415.950 4       936.793          29.000
C05  39627368.023 6 206350103.211 6       -15.695          36.000    39627368.312 5 159562991.186 5       -12.076          34.000
C19  23405576.781 8 121879096.303 8      2863.379          49.000
C20  22717657.008 8 118296882.131 8       107.258          51.000
C29  21769506.844 8 113359512.515 8      -778.227          51.000
C30  25251333.922 5 131490239.070 5     -2669.578          31.000
E07  26607150.727 8 139821540.859 8      2892.902          51.000    26607153.547 7 107135956.179 7      2216.651          46.000
E08  23484503.336 5 123411897.569 5      1019.332          32.000    23484515.133 6  94562396.661 6       780.990          37.000
E13  23864458.352 8 125408589.160 8     -1044.578          51.000    23864460.805 7  96092369.624 7      -800.415          45.000
E21  26710232.984 6 140363199.555 6     -2950.000          36.000    26710221.984 5 107550991.185 5     -2260.536          33.000
E26  23116581.016 5 121478460.349 5      1160.484          33.000
> 2020 05 09 17 09 30.0000000  0 16        .000000000000
G10  21121357.344 7 110993489.078 7     -1116.246          46.000    21121359.867 7  86488479.561 7      -869.802          46.000
G20  22740661.141 5 119502976.293 5     -2925.074          32.000
G27  20442836.664 8 107427830.562 8      -919.867          51.000    20442838.664 8  83709991.871 8      -716.783          51.000
G32  23929762.258 8 125751797.844 8      2864.754          48.000    23929766.867 8  97988397.287 8      2232.279          49.000
R05  20698418.742 6 110644926.158 6     -1327.434          36.000    20698423.102 5  86057185.032 5     -1032.451          34.000
R06  20652942.711 7 110208045.500 7      3156.504          44.000
R11  22368324.273 7 119529506.376 7     -3114.645          42.000    22368328.102 6  92967442.617 6     -2422.501          39.000
C05  39627465.156 6 206350608.845 6       -10.727          36.000    39627465.734 5 159563383.155 5        -8.778          33.000
C19  23389114.547 8 121793370.855 8      2858.777          49.000
C20  22717095.766 8 118293960.875 8        94.598          49.000
C29  21774025.648 8 113383044.358 8      -783.332          51.000
C30  25266730.898 5 131570417.255 5     -2668.383          30.000
E07  26590654.492 8 139734850.892 8      2893.773          51.000    26590657.984 8 107069531.471 8      2217.382          48.000
E08  23478731.586 5 123381566.859 5      1010.199          32.000    23478736.422 5  94539156.328 5       774.130          31.000
E13  23870442.172 8 125440033.768 8     -1044.535          51.000    23870444.695 7  96116463.503 7      -800.463          44.000
E21  26727094.938 5 140451793.213 5     -2948.922          34.000    26727081.344 5 107618877.594 5     -2260.138          32.000
> 2020 05 09 17 10  0.0000000  0 15        .000000000000
G10  21127823.047 7 111027467.296 7     -1140.938          46.000    21127825.844 7  86514956.138 7      -889.042          46.000
G16  23265518.516 4 122261124.833 4     -3554.340          29.000
G20  22757433.258 5 119591115.369 5     -2940.953          35.000
G27  20448175.805 8 107455888.369 8      -942.496          51.000    20448177.797 8  83731855.077 8      -734.413          51.000
G32  23913469.648 8 125666178.941 8      2851.594          48.000    23913474.570 8  97921681.347 8      2222.027          48.000
R05  20705991.836 5 110685389.552 5     -1361.359          34.000    20705994.266 5  86088641.132 5     -1058.835          34.000
R06  20635294.633 7 110113870.806 7      3130.070          43.000
R11  22385895.016 6 119623408.373 6     -3136.961          41.000    22385900.484 6  93040477.469 6     -2439.865          39.000
C05  39627574.219 5 206351175.635 5       -18.891          35.000
C19  23372716.938 8 121707983.478 8      2841.957          48.000
C20  22716645.031 8 118291614.764 8        69.980          48.000
C29  21778611.523 8 113406925.222 8      -800.578          51.000
E07  26574190.531 8 139648331.598 8      2882.523          50.000    26574194.508 8 107003237.553 8      2208.666          48.000
E13  23876463.359 8 125471675.389 8     -1056.641          49.000    23876465.977 7  96140708.332 7      -809.667          45.000
E21  26743988.922 5 140540609.014 5     -2960.156          31.000
> 2020 05 09 17 10 30.0000000  0 15        .000000000000
G10  21134391.984 7 111061987.624 7     -1157.324          44.000    21134394.383 7  86541855.051 7      -901.811          44.000
G16  23285837.352 5 122367886.770 5     -3559.871          32.000
G20  22774258.727 5 119679531.036 5     -2948.824          35.000
G27  20453607.180 8 107484430.643 8      -957.078          51.000    20453608.875 8  83754095.783 8      -745.775          51.000
G32  23897216.133 8 125580765.194 8      2846.129          49.000    23897220.977 8  97855125.248 8      2217.766          49.000
R05  20713708.867 6 110726659.371 6     -1387.527          36.000    20713718.922 5  86120753.262 5     -1079.191          35.000
R06  20617759.266 7 110020296.892 7      3111.590          45.000
R11  22403554.109 7 119717779.283 7     -3151.062          42.000    22403561.117 6  93113877.008 6     -2450.829          40.000
R21  19782598.930 5 105860668.067 5       903.371          30.000    19782592.555 4  82336061.334 4       702.625          24.000
C05  39627689.570 6 206351777.598 6       -18.141          36.000    39627689.812 5 159564285.145 5       -14.103          35.000
C19  23356378.977 7 121622909.246 7      2832.848          47.000
C20  22716299.422 7 118289816.827 7        53.086          46.000
C29  21783259.359 8 113431128.504 8      -809.695          51.000
E07  26557754.039 8 139561957.780 8      2879.109          50.000    26557757.711 7 106937055.082 7      2206.155          47.000
E13  23882516.898 8 125503486.820 8     -1060.762          50.000    23882519.242 7  96165083.304 7      -812.744          45.000
> 2020 05 09 17 11  0.0000000  0 14        .000000000000
G10  21141043.398 7 111096941.723 7     -1174.230          45.000    21141046.266 7  86569092.019 7      -914.988          45.000
G16  23306177.430 5 122474755.819 5     -3565.574          33.000    23306177.836 5  95434905.323 5     -2778.370          33.000
G27  20459110.492 8 107513350.812 8      -972.391          51.000    20459112.188 8  83776630.948 8      -757.710          51.000
G32  23880981.922 8 125495452.967 8      2840.023          50.000    23880986.625 8  97788648.240 8      2213.008          50.000
R05  20721564.219 6 110768653.812 6     -1413.516          39.000    20721572.703 5  86153415.530 5     -1099.404          35.000
R06  20600317.148 8 109927219.075 8      3092.086          48.000
R11  22421280.023 7 119812506.213 7     -3165.633          43.000    22421287.648 6  93187553.418 6     -2462.162          40.000
R21  19777550.602 4 105833667.508 4       893.402          29.000
C05  39627791.195 5 206352307.112 5       -18.199          34.000    39627791.617 5 159564695.586 5       -14.478          34.000
C19  23340080.719 7 121538044.558 7      2823.305          46.000
C20  22716038.312 7 118288461.205 7        35.684          45.000
C29  21787948.906 8 113455548.840 8      -819.664          51.000
E07  26541324.805 8 139475624.806 8      2874.973          49.000    26541328.203 7 106870903.919 7      2202.853          47.000
E13  23888582.484 8 125535361.474 8     -1065.664          50.000    23888583.922 7  96189506.708 7      -816.476          44.000
> 2020 05 09 17 11 30.0000000  0 14        .000000000000
G10  21147794.438 7 111132418.426 7     -1191.406          45.000    21147797.320 7  86596736.196 7      -928.369          45.000
G16  23326550.477 5 122581814.942 5     -3571.305          35.000
G20  22808009.664 4 119856899.319 4     -2967.543          29.000
G27  20464702.953 8 107542739.021 8      -987.570          51.000    20464704.609 8  83799530.815 8      -769.538          51.000
G32  23864784.531 8 125410335.433 8      2833.785          49.000    23864789.633 8  97722322.977 8      2208.147          49.000
R05  20729570.781 5 110811445.020 5     -1439.562          35.000    20729577.320 6  86186697.573 6     -1119.660          36.000
R06  20582986.008 8 109834732.569 8      3072.895          48.000
R11  22439089.422 6 119907676.256 6     -3179.828          39.000    22439097.039 6  93261574.477 6     -2473.200          38.000
C05  39627896.336 5 206352854.573 5       -18.258          35.000    39627896.469 5 159565117.900 5       -14.272          35.000
C19  23323840.773 8 121453480.887 8      2813.629          48.000
C20  22715880.125 8 118287637.097 8        18.484          48.000
C29  21792697.562 8 113480275.831 8      -829.391          51.000
E07  26524920.328 8 139389424.778 8      2871.078          48.000    26524924.375 8 106804854.601 8      2199.893          48.000
E13  23894677.008 8 125567389.396 8     -1070.203          49.000    23894678.086 7  96214047.613 7      -820.026          45.000
> 2020 05 09 17 12  0.0000000  0 14        .000000000000
G10  21154637.648 7 111168380.317 7     -1206.656          43.000    21154639.953 7  86624758.432 7      -940.252          43.000
G16  23346953.680 6 122689025.751 6     -3576.227          38.000    23346950.070 5  95601857.904 5     -2786.679          33.000
G27  20470377.609 8 107572559.712 8     -1001.000          51.000    20470379.227 8  83822767.702 8      -780.000          51.000
G32  23848617.875 8 125325379.974 8      2829.281          48.000    23848623.039 8  97656123.998 8      2204.641          48.000
R05  20737718.016 6 110854994.689 6     -1464.223          39.000    20737726.461 6  86220569.546 6     -1138.843          36.000
R06  20565759.242 7 109742805.582 7      3055.164          47.000
R11  22456974.891 7 120003249.045 7     -3192.191          44.000    22456981.383 6  93335908.806 6     -2482.816          38.000
C05  39627998.203 6 206353384.654 6       -17.648          36.000    39627998.320 5 159565527.778 5       -13.209          35.000
C19  23307652.531 8 121369184.924 8      2805.449          49.000
C20  22715817.336 8 118287309.037 8         2.961          49.000
C29  21797498.297 8 113505274.487 8      -837.586          51.000
E07  26508534.805 7 139303323.999 7      2868.484          47.000    26508539.789 8 106738881.327 8      2197.912          49.000
E13  23900793.953 8 125599535.064 8     -1073.254          48.000    23900795.180 7  96238678.703 7      -822.426          44.000
E26  23077367.945 5 121272380.767 5      1132.578          31.000    23077372.609 5  92923013.086 5       867.736          34.000
> 2020 05 09 17 12 30.0000000  0 16        .000000000000
G10  21161573.477 7 111204828.235 7     -1224.023          44.000    21161575.953 7  86653159.407 7      -953.784          44.000
G16  23367386.570 6 122796387.950 6     -3582.191          38.000    23367378.758 5  95685516.629 5     -2791.324          31.000
G27  20476134.945 8 107602815.181 8     -1016.773          51.000    20476136.586 8  83846343.368 8      -792.291          51.000
G32  23832482.875 8 125240591.996 8      2822.453          48.000    23832488.328 8  97590055.538 8      2199.314          48.000
R05  20746007.523 6 110899302.826 6     -1490.695          37.000    20746013.953 5  86255031.487 5     -1159.430          34.000
R06  20548637.289 7 109651443.848 7      3034.977          46.000
R11  22474935.281 7 120099222.330 7     -3206.750          42.000    22474941.688 6  93410554.595 6     -2494.145          40.000
R21  19762791.969 5 105754704.142 5       861.531          30.000    19762792.289 4  82253645.515 4       670.083          29.000
C05  39628096.797 5 206353899.542 5       -17.684          34.000    39628097.320 5 159565925.936 5       -13.985          35.000
C19  23291516.688 8 121285160.947 8      2795.234          49.000
C20  22715850.180 8 118287479.102 8       -14.957          50.000
C29  21802351.789 8 113530547.409 8      -847.945          51.000
E07  26492169.406 8 139217326.773 8      2863.883          48.000    26492174.844 8 106672987.382 8      2194.401          50.000
E13  23906933.844 8 125631800.705 8     -1078.574          48.000    23906935.211 7  96263401.705 7      -826.242          44.000
E21                                                                  26828737.836 6 108028203.649 6     -2281.629          37.000
E26  23070912.570 5 121238470.975 5      1127.508          33.000    23070912.227 4  92897008.503 4       863.575          29.000
> 2020 05 09 17 13  0.0000000  0 16        .000000000000
G10  21168606.125 7 111241784.580 7     -1239.078          46.000    21168609.008 7  86681956.583 7      -965.515          46.000
G16  23387852.539 6 122903922.652 6     -3586.129          38.000    23387841.367 3  95769300.655 3     -2794.386          23.000
G27  20481979.430 8 107633529.450 8     -1030.402          51.000    20481981.430 8  83870276.548 8      -802.914          51.000
G32  23816385.211 8 125155998.524 8      2817.559          49.000    23816390.617 8  97524138.634 8      2195.503          49.000
R05  20754443.336 6 110944392.156 6     -1514.688          40.000    20754448.648 5  86290100.862 5     -1178.090          35.000
R06  20531626.695 7 109560675.615 7      3016.734          46.000
R11  22492974.883 7 120195615.897 7     -3218.840          45.000    22492980.359 6  93485527.335 6     -2503.542          40.000
R21  19757993.609 5 105729004.561 5       852.441          31.000    19757988.773 4  82233656.927 4       663.007          28.000
C05  39628197.211 5 206354421.237 5       -16.598          35.000    39628197.875 5 159566330.861 5       -12.572          34.000
C19  23275438.055 8 121201434.824 8      2787.008          49.000
C20  22715983.117 8 118288170.907 8       -30.785          51.000
C29  21807262.438 8 113556118.657 8      -856.297          51.000
E07  26475829.234 8 139131459.108 8      2861.168          49.000    26475834.984 8 106607192.696 8      2192.243          51.000
E08                                                                  23440558.031 6  94385411.208 6       696.791          40.000
E13  23913101.375 8 125664210.299 8     -1081.633          48.000    23913102.906 7  96288235.050 7      -828.843          45.000
E21  26845740.484 6 141075301.418 6     -2979.312          36.000    26845744.812 6 108096676.346 6     -2283.122          37.000
> 2020 05 09 17 13 30.0000000  0 16        .000000000000
G10  21175734.812 7 111279245.126 7     -1257.363          47.000    21175737.328 7  86711146.557 7      -979.767          47.000
G16  23408349.352 6 123011624.581 6     -3593.488          37.000
G27  20487910.719 8 107664699.806 8     -1047.047          51.000    20487913.109 8  83894565.135 8      -815.881          51.000
G32  23800324.883 8 125071599.875 8      2809.637          49.000    23800330.172 8  97458373.544 8      2189.330          49.000
R05  20763024.273 6 110990257.071 6     -1542.336          38.000    20763029.430 5  86325773.625 5     -1199.595          35.000
R06  20514728.273 7 109470502.041 7      2995.547          46.000
R11  22511091.969 7 120292422.728 7     -3234.176          46.000    22511096.281 6  93560821.435 6     -2515.476          41.000
R21  19753256.727 6 105703632.775 6       839.883          36.000    19753249.109 4  82213923.285 4       653.245          26.000
C05  39628298.789 5 206354949.952 5       -18.078          34.000    39628299.602 5 159566740.496 5       -14.160          35.000
C19  23259416.539 8 121118005.950 8      2775.477          49.000
C20  22716216.117 8 118289381.555 8       -49.449          51.000
C29  21812230.062 8 113581985.840 8      -867.625          51.000
E07  26459514.195 8 139045720.213 8      2855.430          50.000    26459519.812 8 106541496.684 8      2187.969          51.000
E08                                                                  23435408.203 5  94364691.722 5       684.824          34.000
E13  23919295.922 8 125696761.167 8     -1087.645          48.000    23919297.734 7  96313176.636 7      -833.348          45.000
E21  26862766.305 6 141164769.431 6     -2984.352          37.000    26862771.375 6 108165229.643 6     -2286.501          38.000
> 2020 05 09 17 14  0.0000000  0 16        .000000000000
G10  21182960.891 7 111317217.265 7     -1273.426          47.000    21182963.312 7  86740735.257 7      -992.280          47.000
G16  23428878.531 5 123119499.854 5     -3598.211          34.000
G27  20493930.609 8 107696335.414 8     -1061.688          51.000    20493933.133 8  83919216.274 8      -827.289          51.000
G32  23784304.047 8 124987408.303 8      2803.613          50.000    23784309.156 8  97392769.815 8      2184.637          50.000
R05  20771751.438 6 111036905.040 6     -1567.316          41.000    20771754.781 5  86362055.267 5     -1219.030          34.000
R06  20497943.891 7 109380935.591 7      2975.941          46.000
R11  22529287.367 7 120389647.727 7     -3246.984          47.000    22529290.539 6  93636440.802 6     -2525.435          40.000
R21  19748567.906 5 105678601.009 5       829.426          32.000    19748573.258 4  82194473.674 4       645.112          26.000
C05  39628403.562 5 206355495.868 5       -17.836          35.000    39628404.352 5 159567161.850 5       -13.638          35.000
C19  23243454.234 8 121034885.389 8      2766.195          48.000
C20  22716550.156 8 118291119.932 8       -66.039          51.000
C29  21817256.367 8 113608158.337 8      -876.750          51.000
E07  26443226.172 8 138960121.222 8      2851.766          51.000    26443231.352 8 106475907.889 8      2185.101          51.000
E08  23430337.742 5 123127256.209 5       880.945          33.000    23430338.844 6  94344299.689 6       675.007          37.000
E13  23925518.898 7 125729462.534 7     -1091.793          47.000    23925520.539 7  96338233.502 7      -836.509          44.000
E21  26879812.953 6 141254349.755 6     -2987.023          39.000    26879819.383 6 108233869.006 6     -2288.950          38.000
> 2020 05 09 17 14 30.0000000  0 17        .000000000000
G10  21190280.805 8 111355682.478 8     -1290.941          49.000    21190282.875 8  86770708.110 8     -1005.931          49.000
G16  23449435.898 4 123227528.647 4     -3604.125          28.000    23449432.758 5  96021506.738 5     -2808.409          30.000
G22  24401515.758 5 128230831.443 5      3581.070          34.000
G27  20500035.906 8 107728419.197 8     -1077.559          51.000    20500038.461 8  83944216.622 8      -839.656          51.000
G32  23768319.758 8 124903409.794 8      2796.000          48.000    23768324.523 8  97327316.485 8      2178.704          48.000
R05  20780620.938 6 111084316.217 6     -1593.668          38.000    20780625.469 5  86398930.694 5     -1239.516          34.000
R06  20481270.430 7 109291963.273 7      2955.176          43.000
R11  22547555.523 7 120487269.024 7     -3261.332          43.000    22547559.359 6  93712368.428 6     -2536.598          41.000
R21  19743947.805 5 105653889.435 5       817.648          35.000    19743959.969 4  82175252.671 4       635.952          26.000
C05  39628507.961 5 206356039.030 5       -18.836          35.000    39628509.000 5 159567582.856 5       -14.426          35.000
C19  23227548.359 8 120952058.310 8      2755.461          49.000
C20  22716982.156 8 118293368.912 8       -84.098          50.000
C29  21822338.266 8 113634619.524 8      -887.480          51.000
E07  26426961.938 8 138874647.095 8      2846.445          51.000    26426966.680 8 106410414.780 8      2180.974          51.000
E08                                                                  23425354.383 6  94324222.926 6       663.328          39.000
E13  23931767.039 7 125762297.338 7     -1097.305          46.000    23931768.742 7  96363392.596 7      -840.855          44.000
E21  26896876.586 6 141344023.277 6     -2991.223          40.000    26896884.648 6 108302579.827 6     -2292.170          36.000
> 2020 05 09 17 15  0.0000000  0 16        .000000000000
G10  21197699.586 8 111394667.926 8     -1306.488          48.000    21197701.484 8  86801086.359 8     -1018.043          48.000
G22  24381097.586 5 128123549.276 5      3577.355          32.000
G27  20506232.188 8 107760979.992 8     -1091.633          51.000    20506234.727 8  83969588.635 8      -850.626          51.000
G32  23752377.500 7 124819636.225 7      2790.277          45.000    23752382.805 7  97262038.446 7      2174.245          45.000
R05  20789638.141 6 111132517.610 6     -1618.160          40.000    20789641.719 5  86436420.611 5     -1258.572          33.000
R06  20464713.539 7 109203617.738 7      2935.875          44.000
R11  22565902.688 7 120585311.356 7     -3273.375          46.000    22565907.836 7  93788623.494 7     -2545.961          42.000
R21  19739398.188 5 105629530.761 5       807.531          32.000    19739411.906 4  82156306.979 4       628.077          26.000
C05  39628617.359 5 206356609.109 5       -17.875          35.000    39628618.609 5 159568025.700 5       -13.979          34.000
C19  23211704.734 8 120869555.288 8      2746.316          49.000
C20  22717517.367 8 118296156.771 8      -100.246          50.000
C29  21827481.016 8 113661398.257 8      -896.309          51.000
E07  26410727.008 8 138789328.633 8      2842.918          51.000    26410731.508 8 106345040.950 8      2178.346          51.000
E08                                                                  23420451.570 5  94304483.925 5       653.813          32.000
E13  23938045.930 7 125795294.391 7     -1101.062          43.000    23938047.844 7  96388676.038 7      -843.701          43.000
E21  26913962.875 6 141433816.896 6     -2993.496          39.000    26913972.578 5 108371382.561 5     -2293.933          34.000
> 2020 05 09 17 15 30.0000000  0 16        .000000000000
G10  21205207.406 8 111434122.011 8     -1321.941          49.000    21205209.797 8  86831829.820 8     -1030.084          49.000
G16  23490637.398 5 123444155.553 5     -3611.848          31.000
G27  20512509.820 8 107793967.846 8     -1105.750          51.000    20512512.305 8  83995293.428 8      -861.626          51.000
G32  23736468.922 7 124736040.768 7      2784.551          44.000    23736475.164 7  97196899.167 7      2169.780          44.000
R05  20798793.727 6 111181456.014 6     -1642.539          41.000    20798795.156 5  86474483.773 5     -1277.533          33.000
R06  20448265.938 7 109115851.555 7      2916.938          46.000
R11  22584318.789 7 120683719.743 7     -3285.234          46.000    22584323.594 6  93865163.260 6     -2555.185          41.000
C05  39628722.477 5 206357156.659 5       -16.797          34.000    39628723.484 5 159568448.096 5       -13.094          35.000
C19  23195914.125 8 120787328.890 8      2737.312          49.000
C20  22718146.688 8 118299433.802 8      -116.402          49.000
C29  21832675.086 8 113688445.386 8      -905.098          51.000
C30  25453363.289 4 132542325.719 4     -2721.773          29.000
E07  26394512.336 8 138704117.907 8      2839.508          51.000    26394516.477 8 106279749.684 8      2175.688          51.000
E08  23415621.266 5 123049916.741 5       839.617          32.000    23415621.570 5  94285045.121 5       643.609          32.000
E13  23944346.031 7 125828403.847 7     -1104.500          44.000    23944347.953 7  96414045.622 7      -846.416          43.000
