     3.02           OBSERVATION DATA    M (MIXED)           RINEX VERSION / TYPE
SAVERINEX           SC600               20200517 035930 LCL PGM / RUN BY / DATE
       G = GPS       R = GLONASS       C = COMPASS          COMMENT
       S = SBAS      J = QZSS          E = GALILEO          COMMENT
BEAN                                                        MARKER NAME
1                                                           MARKER NUMBER
GEODETIC                                                    MARKER TYPE
Unige DICCA         GTER                                    OBSERVER / AGENCY
SC60291900056       SC600               2.12(191202)        REC # / TYPE / VERS
                    HEMA45          NONE                    ANT # / TYPE
  4509407.8091   693652.4678  4442337.6214                  APPROX POSITION XYZ
        0.0000        0.0000        0.0000                  ANTENNA: DELTA H/E/N
G    8 C1C L1C D1C S1C C2Y L2Y D2Y S2Y                      SYS / # / OBS TYPES
R    8 C1C L1C D1C S1C C2P L2P D2P S2P                      SYS / # / OBS TYPES
C    8 C1I L1I D1I S1I C7I L7I D7I S7I                      SYS / # / OBS TYPES
E    8 C1C L1C D1C S1C C7Q L7Q D7Q S7Q                      SYS / # / OBS TYPES
DBHZ                                                        COMMENT
     30.000                                                 INTERVAL
  2020    05    17    01    00    0.0000000     GPS         TIME OF FIRST OBS
  2020    05    17    01    59   30.0000000     GPS         TIME OF LAST OBS
     0                                                      RCV CLOCK OFFS APPL
G L1C  0.00000                                              SYS / PHASE SHIFT
G L2Y  0.00000                                              SYS / PHASE SHIFT
R L1C  0.00000                                              SYS / PHASE SHIFT
R L2P  0.25000                                              SYS / PHASE SHIFT
C L1I  0.00000                                              SYS / PHASE SHIFT
C L7I  0.00000                                              SYS / PHASE SHIFT
E L1C  0.50000                                              SYS / PHASE SHIFT
E L7Q -0.25000                                              SYS / PHASE SHIFT
 12 R01  1 R02 -4 R06 -4 R07  5 R08  6 R09 -2 R10 -7 R11  0 GLONASS SLOT / FRQ #
    R12 -1 R21  4 R22 -3 R23  3                             GLONASS SLOT / FRQ #
 C1C   71.950 C2C   71.950 C2P   71.950                     GLONASS COD/PHS/BIS
    18                                                      LEAP SECONDS
*** Above antenna height is from mark to ANTENNA BOTTOM.    COMMENT
    17     4        0.0000        ANT MEASURE TYPE/HEIGT    COMMENT
    0.0000    0.0000    0.0458    0.0405    0.0000          COMMENT
                    BASE STATION                            COMMENT
                                                            END OF HEADER
> 2020 05 17 01 00  0.0000000  0 15        .000000000000
G02  22494569.695 5 118209774.411 5      -803.199          31.000
G04  24047531.094 5 126370628.052 5     -2955.031          31.000
G06  22608801.672 8 118810066.265 8     -2925.969          48.000    22608802.109 8  92579228.023 8     -2279.976          48.000
G07  20814781.148 8 109382415.210 8       416.652          51.000    20814779.547 8  85233043.233 8       324.664          51.000
G09  21333478.641 7 112108183.214 7     -1899.738          43.000    21333476.859 6  87357026.953 6     -1480.316          39.000
G30  21577612.234 8 113391118.322 8      2512.777          51.000    21577613.906 8  88356778.977 8      1958.008          51.000
R01  19532946.453 7 104414784.344 7      -153.457          47.000    19532949.742 6  81211510.364 6      -119.355          40.000
R11  20097505.258 8 107395019.236 8      2177.707          51.000    20097507.648 7  83529441.496 7      1693.772          46.000
R12  22892243.633 6 122286241.576 6      4517.492          39.000    22892245.461 5  95111520.077 5      3513.605          32.000
R24  23158535.445 6 123839092.788 6     -3753.891          41.000    23158540.398 7  96319300.766 7     -2919.690          44.000
C05  39801864.297 6 207258751.101 6       -16.262          37.000    39801860.977 6 160265595.916 6       -12.173          39.000
C21  23061246.727 8 120085930.906 8     -1878.562          51.000
C26  22164364.531 8 115415602.794 8      1739.098          51.000
E19                                                                  24185087.016 5  97383323.053 5       461.360          33.000
E21  25885141.438 8 136027356.211 8      2695.242          51.000    25885144.070 8 104228745.198 8      2065.227          51.000
> 2020 05 17 01 00 30.0000000  0 14        .000000000000
G04  24064396.703 5 126459259.849 5     -2954.535          32.000
G06  22625533.055 7 118897991.940 7     -2935.027          46.000    22625535.086 7  92647741.562 7     -2287.034          46.000
G07  20812445.828 8 109370142.287 8       402.105          51.000    20812444.305 8  85223479.921 8       313.329          51.000
G09  21344342.891 7 112165274.743 7     -1905.629          42.000    21344340.984 6  87401513.851 6     -1484.906          41.000
G30  21563300.711 8 113315909.509 8      2501.750          51.000    21563302.180 8  88298174.742 8      1949.419          51.000
R01  19533840.727 7 104419566.729 7      -164.785          46.000    19533844.133 6  81215229.996 6      -128.166          40.000
R11  20085342.344 8 107330026.990 8      2155.734          51.000    20085344.820 7  83478892.000 7      1676.682          46.000
R12  22866881.250 6 122150769.614 6      4514.328          40.000    22866885.500 5  95006153.026 5      3511.144          30.000
R24  23179612.336 7 123951804.418 7     -3759.629          42.000    23179618.305 7  96406965.391 7     -2924.156          44.000
C05  39801953.008 6 207259212.681 6       -13.867          36.000    39801949.641 6 160265952.877 6       -11.076          39.000
C21  23072089.539 8 120142393.207 8     -1885.059          50.000
C26  22154383.969 8 115363630.883 8      1726.312          51.000
E19  24181661.211 5 127075484.874 5       598.555          34.000    24181661.859 5  97369531.095 5       458.845          34.000
E21  25869771.867 8 135946588.355 8      2689.781          50.000    25869773.523 8 104166858.139 8      2061.016          49.000
> 2020 05 17 01 01  0.0000000  0 14        .000000000000
G06  22642325.734 7 118986239.012 7     -2955.191          46.000    22642329.172 7  92716505.560 7     -2302.744          46.000
G07  20810202.836 8 109358355.050 8       376.652          51.000    20810201.266 8  85214295.065 8       293.495          51.000
G09  21355250.203 7 112222593.219 7     -1922.754          42.000    21355248.852 6  87446177.614 6     -1498.250          41.000
G30  21549061.836 8 113241083.123 8      2479.598          51.000    21549063.195 8  88239868.495 8      1932.154          51.000
R01  19534807.961 7 104424738.268 7      -187.234          46.000    19534811.680 6  81219252.299 6      -145.627          40.000
R08  21585359.953 5 115588616.127 5     -2512.586          30.000
R11  20073312.695 8 107265743.549 8      2122.617          51.000    20073314.977 7  83428893.770 7      1650.928          46.000
R12  22841547.117 6 122015441.251 6      4500.180          41.000    22841551.023 5  94900897.576 5      3500.140          30.000
R24  23200731.203 7 124064733.199 7     -3776.246          43.000    23200736.992 7  96494798.904 7     -2937.080          44.000
C05  39802040.359 6 207259668.105 6       -23.301          37.000    39802037.094 6 160266305.028 6       -18.063          39.000
C21  23082978.812 8 120199098.276 8     -1902.367          51.000
C26  22144486.461 8 115312091.578 8      1702.590          51.000
E19  24178266.680 5 127057646.181 5       584.133          35.000    24178265.789 5  97355857.164 5       447.256          33.000
E21  25854442.617 8 135866033.560 8      2673.457          50.000    25854443.219 7 104105134.330 7      2048.493          47.000
> 2020 05 17 01 01 30.0000000  0 14        .000000000000
G02  22508754.367 5 118284308.937 5      -851.965          33.000
G06  22659187.250 7 119074846.369 7     -2955.914          47.000    22659191.570 7  92785550.298 7     -2303.310          47.000
G07  20808059.984 8 109347094.946 8       370.156          51.000    20808058.531 8  85205520.980 8       288.436          51.000
G09  21366208.742 6 112280179.727 6     -1920.477          37.000    21366208.094 6  87491050.182 6     -1496.478          36.000
G30  21534903.789 8 113166682.598 8      2476.457          50.000    21534905.172 8  88181894.062 8      1929.704          50.000
R01  19535856.219 7 104430342.684 7      -190.230          47.000    19535860.102 6  81223611.285 6      -147.957          40.000
R11  20061424.195 8 107202214.243 8      2108.730          51.000    20061426.453 7  83379482.134 7      1640.124          46.000
R12  22816248.477 6 121880302.746 6      4505.141          39.000    22816253.430 4  94795789.846 4      3503.998          28.000
R24  23221898.445 6 124177917.044 6     -3773.219          41.000    23221903.656 7  96582830.803 7     -2934.726          43.000
C05  39802134.570 6 207260158.803 6       -13.492          37.000    39802131.352 6 160266684.469 6       -10.448          39.000
C21  23093923.180 8 120256087.354 8     -1900.781          51.000
C26  22134680.008 8 115261027.525 8      1697.742          51.000
E19  24174908.602 5 127039996.713 5       588.789          35.000    24174907.492 5  97342333.522 5       450.902          34.000
E21  25839161.945 8 135785735.566 8      2675.949          49.000    25839161.141 7 104043607.320 7      2050.466          45.000
> 2020 05 17 01 02  0.0000000  0 16        .000000000000
G02  22513667.109 5 118310135.804 5      -870.375          35.000
G04  24115051.633 5 126725447.700 5     -2959.414          34.000
G06  22676095.906 8 119163700.492 8     -2967.828          49.000    22676100.547 8  92854787.303 8     -2312.593          49.000
G07  20805996.375 8 109336251.091 8       352.621          51.000    20805995.031 8  85197071.228 8       274.770          51.000
G09  21377197.070 6 112337922.862 6     -1928.930          39.000    21377197.367 6  87536044.775 6     -1503.059          40.000
G30  21520805.523 8 113092598.953 8      2462.203          50.000    21520807.133 8  88124166.518 8      1918.600          50.000
R01  19536964.578 7 104436267.740 7      -204.730          46.000    19536968.672 6  81228219.649 6      -159.235          41.000
R08  21613523.664 5 115739433.688 5     -2521.848          33.000    21613522.617 4  90019557.005 4     -1961.437          25.000
R11  20049656.625 8 107139329.105 8      2083.434          51.000    20049658.555 7  83330571.522 7      1620.451          46.000
R12  22790964.922 6 121745245.853 6      4498.523          38.000
R24  23243090.445 6 124291238.745 6     -3781.227          39.000    23243095.984 7  96670969.965 7     -2940.951          42.000
C05  39802214.516 6 207260575.163 6       -14.520          36.000    39802211.297 6 160267006.399 6       -11.022          39.000
C21  23104900.750 8 120313250.693 8     -1910.258          51.000
C26  22124944.172 8 115210330.384 8      1681.922          51.000
E19  24171566.414 5 127022437.813 5       582.094          33.000    24171565.258 5  97328875.464 5       445.960          34.000
E21  25823909.492 8 135705585.755 8      2667.332          49.000    25823906.922 7 103982193.879 7      2043.734          43.000
> 2020 05 17 01 02 30.0000000  0 14        .000000000000
G02  22518679.297 6 118336477.796 6      -891.129          37.000
G06  22693067.516 8 119252884.251 8     -2982.559          50.000    22693071.945 8  92924281.163 8     -2324.072          50.000
G07  20804028.203 8 109325909.627 8       331.977          51.000    20804026.953 8  85189012.947 8       258.683          51.000
G09  21388231.359 6 112395907.558 6     -1941.152          41.000    21388232.758 6  87581227.640 6     -1512.586          41.000
G30  21506784.438 8 113018919.576 8      2444.875          51.000    21506785.859 8  88066753.998 8      1905.097          51.000
R01  19538149.453 7 104442602.155 7      -222.359          47.000    19538153.383 6  81233146.415 6      -172.949          41.000
R11  20038026.203 8 107077178.365 8      2055.070          51.000    20038028.250 7  83282232.104 7      1598.391          47.000
R12  22765714.031 6 121610361.546 6      4489.125          38.000
R24  23264322.859 6 124404781.290 6     -3792.816          40.000    23264329.156 6  96759280.888 6     -2949.968          39.000
C05  39802296.594 6 207261002.205 6       -18.668          36.000    39802293.312 6 160267336.650 6       -14.710          39.000
C21  23115928.164 8 120370673.118 8     -1922.680          51.000
C26  22115295.625 8 115160086.483 8      1662.914          51.000
E19  24168256.641 5 127005045.791 5       572.598          31.000    24168255.719 5  97315549.052 5       438.798          35.000
E21  25808701.758 8 135625671.915 8      2655.402          48.000    25808698.078 7 103920961.232 7      2034.635          44.000
> 2020 05 17 01 03  0.0000000  0 15        .000000000000
G02  22523792.195 6 118363344.021 6      -902.488          38.000
G06  22710103.383 8 119342405.040 8     -2987.852          51.000    22710106.992 8  92994037.624 8     -2328.196          51.000
G07  20802157.469 8 109316080.550 8       320.809          51.000    20802156.453 8  85181353.928 8       249.981          51.000
G09  21399313.344 6 112454143.512 6     -1943.531          38.000    21399315.750 6  87626606.292 6     -1514.440          37.000
G30  21492843.203 8 112945656.411 8      2437.051          51.000    21492844.312 8  88009665.818 8      1899.001          51.000
R01  19539413.109 8 104449357.070 8      -230.406          48.000    19539417.172 7  81238400.237 7      -179.205          42.000
R08  21641875.250 5 115891209.333 5     -2539.406          30.000
R11  20026534.992 8 107015775.103 8      2036.086          49.000    20026537.875 8  83234474.047 8      1583.622          49.000
R12  22740498.727 6 121475664.204 6      4488.918          36.000
R24  23285598.836 6 124518550.644 6     -3794.281          40.000    23285603.656 6  96847768.194 6     -2951.111          36.000
C05  39802382.664 6 207261450.408 6       -13.238          36.000    39802379.445 6 160267683.202 6       -10.252          39.000
C21  23127007.250 8 120428364.831 8     -1925.793          50.000
C26  22105736.305 8 115110307.294 8      1653.328          51.000
E19  24164980.648 5 126987830.125 5       572.520          32.000    24164981.258 5  97302362.489 5       438.432          35.000
E21  25793541.617 8 135546006.370 8      2653.242          48.000    25793539.070 7 103859918.831 7      2033.013          46.000
> 2020 05 17 01 03 30.0000000  0 14        .000000000000
G02  22528996.367 5 118390692.670 5      -919.852          35.000    22529005.453 5  92252515.967 5      -716.752          32.000
G06  22727194.984 8 119432219.375 8     -2998.867          50.000    22727197.156 8  93064022.776 8     -2336.783          50.000
G07  20800376.578 8 109306723.118 8       303.859          51.000    20800375.945 8  85174062.422 8       236.774          50.000
G09  21410435.531 6 112512589.500 6     -1951.844          40.000    21410437.867 6  87672148.492 6     -1520.917          39.000
G30  21478973.984 8 112872770.530 8      2423.031          51.000    21478974.969 8  87952871.641 8      1888.076          51.000
R01  19540748.031 8 104456492.317 8      -244.426          49.000    19540752.125 7  81243949.859 7      -190.109          42.000
R11  20015175.773 7 106955080.662 7      2011.102          46.000    20015180.055 8  83187267.206 8      1564.187          50.000
R12  22715311.633 5 121341116.841 5      4482.426          35.000    22715320.711 4  94376448.445 4      3486.331          29.000
R24  23306909.969 7 124632501.081 7     -3801.637          42.000    23306909.742 5  96936396.273 5     -2956.829          31.000
C05  39802465.055 6 207261879.499 6       -14.445          36.000    39802461.852 6 160268014.998 6       -11.140          39.000
C21  23138130.086 8 120486285.465 8     -1934.785          50.000
C26  22096258.500 8 115060953.878 8      1637.750          51.000
E19  24161731.477 5 126970756.556 5       565.746          33.000    24161733.719 6  97289284.713 6       433.889          36.000
E21  25778421.781 8 135466550.534 8      2644.848          48.000    25778421.133 8 103799037.108 8      2026.605          48.000
> 2020 05 17 01 04  0.0000000  0 15        .000000000000
G02  22534293.977 6 118418533.076 6      -936.023          37.000    22534300.078 5  92274209.902 5      -729.366          30.000
G04  24182704.344 5 127080968.398 5     -2965.578          32.000
G06  22744343.703 8 119522334.822 8     -3008.824          49.000    22744343.828 8  93134242.531 8     -2344.541          49.000
G07  20798687.453 8 109297847.417 8       287.898          50.000    20798686.969 8  85167146.280 8       224.336          51.000
G09  21421599.703 7 112571255.126 7     -1958.926          42.000    21421601.195 6  87717861.943 6     -1526.436          37.000
G30  21465178.789 8 112800274.085 8      2410.070          51.000    21465179.758 8  87896380.911 8      1877.977          51.000
R01  19542156.281 8 104464019.466 8      -257.363          49.000    19542160.016 7  81249804.315 7      -200.171          42.000
R11  20003951.211 8 106895108.394 8      1987.133          48.000    20003957.258 8  83140622.067 8      1545.545          51.000
R12  22690155.719 6 121206733.972 6      4476.570          36.000    22690161.414 5  94271928.403 5      3481.777          31.000
R24  23328256.773 7 124746638.667 7     -3807.512          43.000
C05  39802545.859 6 207262300.077 6       -14.070          36.000    39802542.672 6 160268340.221 6       -10.898          39.000
C21  23149299.250 8 120544445.285 8     -1942.609          49.000
C26  22086864.516 8 115012037.956 8      1623.250          51.000
E19  24158513.742 5 126953841.957 5       561.316          35.000    24158515.375 5  97276324.218 5       429.893          35.000
E21  25763344.539 8 135387316.936 8      2637.383          50.000    25763345.234 8 103738325.638 8      2020.831          50.000
> 2020 05 17 01 04 30.0000000  0 15        .000000000000
G02  22539678.578 6 118446829.461 6      -961.254          38.000    22539685.938 5  92296259.113 5      -749.023          34.000
G04  24199652.625 5 127170020.026 5     -2975.801          32.000
G06  22761542.352 7 119612713.773 7     -3027.727          47.000    22761540.922 7  93204667.621 7     -2359.267          47.000
G07  20797083.391 8 109289418.392 8       262.980          51.000    20797083.016 8  85160578.214 8       204.920          51.000
G09  21432798.023 6 112630105.098 6     -1975.496          36.000    21432800.688 6  87763719.072 6     -1539.348          37.000
G30  21451450.945 8 112728134.038 8      2388.117          51.000    21451452.305 8  87840167.899 8      1860.871          51.000
R01  19543631.484 8 104471904.314 8      -279.613          50.000    19543635.023 7  81255936.964 7      -217.477          43.000
R11  19992857.727 8 106835825.774 8      1953.766          51.000    19992863.445 8  83094513.348 8      1519.595          51.000
R12  22665024.883 4 121072493.366 4      4462.285          29.000    22665027.891 5  94167507.085 5      3470.669          31.000
R24  23349631.336 7 124860923.761 7     -3822.758          43.000    23349616.250 4  97114046.662 4     -2973.253          28.000
C05  39802618.367 6 207262677.756 6       -22.297          37.000    39802615.141 6 160268632.283 6       -17.429          39.000
C21  23160507.219 8 120602809.803 8     -1959.441          48.000
C26  22077548.211 8 114963526.359 8      1599.781          51.000
E19  24155319.430 6 126937046.094 6       547.367          36.000    24155319.672 5  97263461.632 5       419.190          34.000
E21  25748303.477 8 135308272.884 8      2621.051          49.000    25748305.523 8 103677759.400 8      2008.365          51.000
> 2020 05 17 01 05  0.0000000  0 15        .000000000000
G02  22545179.258 6 118475730.594 6      -967.238          37.000    22545182.062 5  92318779.486 5      -753.692          34.000
G06  22778818.375 7 119703503.250 7     -3027.078          46.000    22778817.500 7  93275412.655 7     -2358.762          46.000
G07  20795593.070 8 109281586.251 8       257.383          51.000    20795592.617 8  85154475.249 8       200.558          51.000
G09  21444059.078 5 112689291.756 5     -1972.273          34.000    21444063.375 5  87809836.171 5     -1536.839          35.000
G30  21437819.328 8 112656501.982 8      2385.539          50.000    21437821.516 8  87784350.735 8      1858.862          50.000
R01  19545202.336 8 104480300.236 8      -281.984          51.000    19545205.789 7  81262467.124 7      -219.321          43.000
R10  21246567.625 6 113256037.591 6     -2599.840          36.000
R11  19981922.836 8 106777387.623 8      1940.156          51.000    19981927.570 8  83049061.462 8      1509.010          50.000
R12  22639953.273 5 120938557.501 5      4466.867          32.000    22639947.656 5  94063293.075 5      3474.230          33.000
R24  23371061.062 7 124975504.394 7     -3817.930          42.000    23371050.484 5  97203164.376 5     -2969.504          31.000
C05  39802711.234 6 207263161.329 6       -11.344          37.000    39802708.055 6 160269006.204 6        -8.932          39.000
C21  23171783.336 8 120661527.583 8     -1956.914          49.000
C26  22068338.695 8 114915569.008 8      1595.570          51.000
E19  24152175.930 6 126920519.056 6       552.918          37.000    24152174.398 5  97250797.031 5       423.634          34.000
E21  25733326.875 8 135229570.352 8      2623.984          49.000    25733329.930 8 103617454.828 8      2010.636          51.000
> 2020 05 17 01 05 30.0000000  0 14        .000000000000
G02  22550759.703 5 118505049.742 5      -986.633          35.000    22550760.859 5  92341625.502 5      -768.817          33.000
G06  22796136.609 7 119794514.686 7     -3039.453          46.000    22796136.945 7  93346330.641 7     -2368.405          46.000
G07  20794180.906 8 109274164.781 8       238.488          51.000    20794180.344 8  85148692.292 8       185.835          51.000
G09  21455348.969 6 112748622.457 6     -1981.961          36.000    21455351.758 5  87856067.939 5     -1544.385          35.000
G30  21424249.383 8 112585193.758 8      2369.551          51.000    21424252.094 8  87728785.897 8      1846.403          51.000
R01  19546833.570 8 104489019.565 8      -298.051          50.000    19546836.820 7  81269248.824 7      -231.817          43.000
R10  21261264.406 5 113334412.199 5     -2623.668          33.000
R11  19971111.227 8 106719607.771 8      1912.934          51.000    19971114.773 8  83004121.586 8      1487.837          49.000
R24  23392509.633 6 125090187.327 6     -3826.484          40.000    23392502.258 5  97292362.174 5     -2976.155          33.000
C05  39802789.156 6 207263566.845 6       -14.176          36.000    39802785.883 6 160269319.763 6       -11.095          39.000
C21  23183092.250 8 120720414.360 8     -1967.629          49.000
C26  22059200.398 8 114867983.038 8      1577.988          51.000
E19  24149047.438 6 126904075.745 6       544.598          36.000    24149044.414 5  97238197.599 5       417.558          34.000
E21  25718380.086 8 135151025.598 8      2613.551          48.000    25718384.352 8 103557271.157 8      2002.576          51.000
> 2020 05 17 01 06  0.0000000  0 16        .000000000000
G02  22556436.398 5 118534877.473 5     -1001.266          33.000    22556435.094 4  92364831.047 4      -780.201          28.000
G06  22813514.414 7 119885837.305 7     -3048.848          46.000    22813515.633 7  93417491.095 7     -2375.725          45.000
G07  20792864.398 8 109267245.875 8       222.551          51.000    20792863.562 8  85143300.938 8       173.416          51.000
G09  21466684.922 6 112808192.012 6     -1989.262          39.000    21466687.844 6  87902485.754 6     -1550.074          39.000
G30  21410759.219 8 112514303.140 8      2356.441          51.000    21410761.766 8  87673546.452 8      1836.188          51.000
R01  19548542.648 8 104498156.794 8      -311.203          50.000    19548546.055 7  81276355.552 7      -242.047          43.000
R08  21728113.242 4 116353059.410 4     -2591.797          28.000
R10  21276086.094 5 113413439.020 5     -2644.988          32.000
R11  19960440.633 8 106662582.344 8      1888.551          51.000    19960443.133 8  82959768.500 8      1468.873          48.000
R12  22589863.906 4 120671007.196 4      4452.207          29.000    22589868.117 5  93855235.017 5      3462.831          34.000
R24  23413993.422 6 125205061.645 6     -3831.777          38.000    23413987.453 5  97381708.857 5     -2980.271          34.000
C05  39802869.617 6 207263985.651 6       -13.805          36.000    39802866.266 6 160269643.593 6       -10.626          39.000
C21  23194451.000 8 120779561.406 8     -1975.500          49.000
C26  22050150.555 8 114820860.967 8      1563.344          51.000
E19  24145951.250 5 126887808.477 5       539.422          35.000    24145947.898 5  97225733.058 5       413.605          35.000
E21  25703481.133 8 135072732.767 8      2605.867          49.000    25703486.477 8 103497280.543 8      1996.772          51.000
> 2020 05 17 01 06 30.0000000  0 15        .000000000000
G02  22562204.430 5 118565185.448 5     -1018.352          32.000    22562200.398 4  92388438.936 4      -793.521          26.000
G06  22830947.367 7 119977447.423 7     -3058.918          45.000    22830948.844 7  93488875.610 7     -2383.569          45.000
G07  20791639.539 8 109260808.493 8       205.977          51.000    20791638.211 8  85138284.786 8       160.501          51.000
G09  21478062.531 6 112867978.804 6     -1997.082          38.000    21478065.844 6  87949072.838 6     -1556.174          36.000
G30  21397345.094 8 112443810.998 8      2342.582          51.000    21397346.852 8  87618617.503 8      1825.386          51.000
R01  19550326.289 8 104507691.691 8      -325.027          50.000    19550329.852 7  81283771.575 7      -252.799          44.000
R10  21291026.781 5 113493093.361 5     -2665.691          30.000
R11  19949907.383 8 106606292.977 8      1863.426          51.000    19949909.281 8  82915987.924 8      1449.334          48.000
R12  22564874.781 4 120537513.151 4      4444.273          28.000    22564883.516 6  93751432.735 6      3456.657          36.000
R24  23435506.625 5 125320101.867 5     -3837.660          34.000    23435501.797 5  97471184.606 5     -2984.847          33.000
C05  39802948.656 6 207264397.327 6       -14.184          36.000    39802945.344 6 160269961.956 6       -11.055          39.000
C21  23205855.406 8 120838947.974 8     -1984.129          48.000
C26  22041186.266 8 114774183.458 8      1547.922          51.000
E19  24142883.938 5 126871696.759 5       534.051          35.000    24142881.578 6  97213387.772 6       409.097          36.000
E21  25688627.125 8 134994673.128 8      2597.570          50.000    25688632.445 8 103437468.614 8      1990.322          51.000
> 2020 05 17 01 07  0.0000000  0 15        .000000000000
G02  22568058.312 5 118595938.642 5     -1040.535          33.000
G04  24284470.148 5 127615752.635 5     -2980.395          30.000
G06  22848429.445 7 120069315.973 7     -3073.523          42.000    22848431.148 7  93560461.538 7     -2394.950          42.000
G07  20790501.242 8 109254826.364 8       184.551          51.000    20790499.844 8  85133623.395 8       143.806          51.000
G09  21489476.625 6 112927956.074 6     -2009.797          39.000    21489479.414 6  87995808.342 6     -1566.072          40.000
G30  21384002.281 8 112373692.721 8      2323.883          51.000    21384003.039 8  87563979.886 8      1810.818          51.000
R01  19552179.547 8 104517598.776 8      -343.742          50.000    19552183.383 7  81291477.075 7      -267.358          44.000
R11  19939507.023 8 106550715.297 8      1833.383          51.000    19939508.875 8  82872760.872 8      1425.964          49.000
R12  22539922.539 5 120404247.223 5      4433.688          31.000    22539925.266 5  93647743.288 5      3448.430          33.000
R24  23457040.516 4 125435341.791 4     -3848.949          29.000    23457040.383 5  97560765.273 5     -2993.618          32.000
C05  39803021.367 6 207264776.135 6       -19.379          36.000    39803018.133 6 160270254.855 6       -14.888          39.000
C21  23217300.672 7 120898548.087 7     -1997.332          47.000
C26  22032303.336 8 114727925.813 8      1527.711          51.000
E19  24139842.016 6 126855715.046 6       523.195          37.000    24139840.422 6  97201142.003 6       400.902          37.000
E21  25673813.133 8 134916822.595 8      2584.246          51.000    25673818.070 8 103377816.936 8      1980.125          51.000
> 2020 05 17 01 07 30.0000000  0 14        .000000000000
G02  22574030.570 5 118627327.254 5     -1052.141          35.000
G06  22865989.328 6 120161595.995 6     -3078.605          40.000    22865991.773 6  93632368.120 6     -2398.910          41.000
G07  20789479.266 8 109249455.053 8       173.113          51.000    20789477.500 8  85129437.960 8       134.893          51.000
G09  21500956.094 6 112988279.121 6     -2012.188          37.000    21500956.742 6  88042813.298 6     -1567.941          37.000
G30  21370760.609 8 112304105.873 8      2314.949          51.000    21370760.859 8  87509756.382 8      1803.857          51.000
R01  19554132.305 8 104528037.389 8      -352.555          50.000    19554136.406 7  81299595.980 7      -274.209          45.000
R11  19929269.664 8 106496010.451 8      1813.164          51.000    19929271.773 8  82830212.677 8      1410.239          49.000
R12  22515031.375 5 120271269.506 5      4431.969          34.000    22515032.992 5  93544316.116 5      3447.087          31.000
R24  23478627.703 5 125550798.975 5     -3849.738          32.000    23478632.266 5  97650570.831 5     -2994.241          30.000
C05  39803117.523 6 207265276.749 6       -14.391          36.000    39803114.219 6 160270641.958 6       -11.179          39.000
C21  23228816.703 7 120958516.157 7     -2000.973          47.000
C26  22023530.844 8 114682243.738 8      1517.340          51.000
E19  24136855.305 6 126840019.610 6       522.602          38.000    24136854.133 6  97189115.640 6       400.288          38.000
E21  25659069.367 8 134839339.132 8      2580.871          51.000    25659073.070 8 103318446.498 8      1977.595          51.000
> 2020 05 17 01 08  0.0000000  0 15        .000000000000
G02  22580078.188 6 118659106.865 6     -1067.227          36.000
G06  22883584.602 7 120254062.434 7     -3087.141          42.000    22883587.727 7  93704419.933 7     -2405.564          42.000
G07  20788531.211 8 109244472.145 8       157.770          51.000    20788528.625 8  85125555.173 8       122.937          51.000
G09  21512458.617 6 113048725.090 6     -2018.570          37.000    21512459.570 6  88089914.017 6     -1572.915          37.000
G30  21357578.133 8 112234829.841 8      2302.168          51.000    21357578.297 8  87455775.064 8      1793.897          51.000
R01  19556142.383 8 104538782.706 8      -365.191          50.000    19556146.484 7  81307953.439 7      -284.038          44.000
R11  19919153.695 8 106441954.872 8      1789.113          51.000    19919156.109 8  82788169.448 8      1391.533          50.000
R12  22490157.031 6 120138395.657 6      4425.645          38.000    22490157.984 4  93440969.782 4      3442.165          27.000
R24  23500229.625 5 125666321.867 5     -3853.695          32.000    23500234.898 4  97740422.033 4     -2997.319          27.000
C05  39803194.789 6 207265678.980 6       -13.406          36.000    39803191.469 6 160270952.980 6       -10.430          39.000
C21  23240360.922 7 121018631.868 7     -2008.164          47.000
C24  25249659.664 6 131481605.182 6      3391.855          37.000
C26  22014826.508 8 114636918.246 8      1503.082          51.000
E19  24133881.445 6 126824388.702 6       518.008          40.000    24133880.516 6  97177138.701 6       397.023          38.000
E21  25644353.359 8 134762002.496 8      2573.688          51.000    25644355.852 8 103259188.582 8      1971.986          51.000
> 2020 05 17 01 08 30.0000000  0 15        .000000000000
G02  22586220.750 6 118691384.717 6     -1083.844          39.000
G06  22901235.555 6 120346820.997 6     -3096.516          41.000    22901238.492 6  93776699.359 6     -2412.869          41.000
G07  20787677.594 8 109239985.782 8       141.586          51.000    20787674.719 8  85122059.317 8       110.327          51.000
G09  21524004.836 6 113109401.867 6     -2025.781          36.000    21524007.406 6  88137194.648 6     -1578.528          36.000
G30  21344475.773 8 112165974.802 8      2288.340          51.000    21344476.008 8  87402121.783 8      1783.122          51.000
R01  19558230.555 8 104549946.285 8      -378.797          49.000    19558234.648 7  81316636.219 7      -294.620          44.000
R11  19909180.320 8 106388661.176 8      1764.016          51.000    19909182.820 8  82746718.794 8      1372.012          50.000
R12  22465324.938 6 120005740.209 6      4418.457          37.000    22465322.945 4  93337783.855 4      3436.584          24.000
R24  23521863.828 5 125782009.703 5     -3857.918          33.000
C05  39803273.914 6 207266092.151 6       -13.004          37.000    39803270.547 6 160271271.346 6       -10.569          39.000
C21  23251954.523 8 121079002.751 8     -2016.289          49.000
C24  25230130.000 6 131379916.956 6      3387.730          37.000
C26  22006211.586 8 114592058.092 8      1487.789          51.000
E19  24130940.281 6 126808931.141 6       512.719          40.000    24130939.898 6  97165294.613 6       392.880          39.000
E21  25629685.805 8 134684923.353 8      2565.227          51.000    25629687.602 8 103200127.942 8      1965.587          51.000
> 2020 05 17 01 09  0.0000000  0 15        .000000000000
G02  22592452.883 6 118724114.864 6     -1095.293          38.000
G06  22918916.211 6 120439735.169 6     -3101.109          39.000    22918917.391 6  93849100.054 6     -2416.449          38.000
G07  20786892.945 8 109235862.080 8       130.238          51.000    20786889.836 8  85118846.059 8       101.484          51.000
G09  21535569.070 5 113170175.315 5     -2027.809          35.000    21535572.883 5  88184550.590 5     -1580.108          35.000
G30  21331428.359 8 112097408.724 8      2279.641          51.000    21331428.719 8  87348693.672 8      1776.343          51.000
R01  19560371.516 8 104561392.917 8      -387.402          49.000    19560375.977 7  81325539.132 7      -301.313          45.000
R11  19899324.242 8 106335996.122 8      1743.820          51.000    19899326.961 8  82705757.102 8      1356.305          49.000
R12  22440508.281 6 119873171.313 6      4416.516          41.000
R24  23543516.648 5 125897765.880 5     -3857.766          31.000
C05  39803329.438 6 207266380.620 6        -8.715          37.000    39803326.039 6 160271494.780 6        -6.724          39.000
C21  23263572.336 8 121139496.299 8     -2019.641          49.000
C24  25210600.117 6 131278228.114 6      3388.707          37.000
C26  21997660.828 8 114547532.133 8      1477.449          51.000
E19  24128006.312 6 126793513.886 6       511.926          39.000    24128006.734 6  97153481.411 6       392.306          39.000
E21  25615041.414 8 134607970.091 8      2561.816          49.000    25615042.938 8 103141163.748 8      1962.944          51.000
> 2020 05 17 01 09 30.0000000  0 15        .000000000000
G02  22598780.320 6 118757437.801 6     -1122.504          36.000
G06  22936693.352 6 120533155.772 6     -3120.941          37.000    22936689.852 5  93921895.411 5     -2431.896          35.000
G07  20786244.633 8 109232454.910 8       103.090          51.000    20786240.992 8  85116191.136 8        80.330          51.000
G09  21547219.070 6 113231398.803 6     -2046.914          37.000    21547221.227 6  88232257.228 6     -1594.998          37.000
G30  21318503.469 8 112029486.987 8      2254.617          51.000    21318503.938 8  87295767.648 8      1756.848          51.000
R01  19562633.375 8 104573483.614 8      -412.309          49.000    19562638.031 7  81334942.991 7      -320.684          45.000
R08  21830942.570 5 116903710.039 5     -2658.984          31.000    21830945.359 4  90925109.356 4     -2068.099          28.000
R11  19889653.703 8 106284321.637 8      1707.402          51.000    19889656.609 8  82665565.854 8      1327.980          49.000
R12  22415776.500 6 119741052.995 6      4397.680          40.000
C05  39803428.773 6 207266897.634 6       -19.598          37.000    39803425.281 6 160271894.560 6       -15.293          39.000
C21  23275280.461 7 121200463.011 7     -2038.809          46.000
C24  25191137.844 5 131176891.380 5      3373.461          35.000
C26  21989241.906 8 114503692.183 8      1451.301          51.000
E19  24125146.883 6 126778491.258 6       495.691          38.000    24125148.430 6  97141970.608 6       379.678          39.000
E21  25600488.672 8 134531498.592 8      2542.348          49.000    25600490.250 8 103082568.715 8      1947.964          51.000
> 2020 05 17 01 10  0.0000000  0 14        .000000000000
G02  22605201.492 5 118791178.718 5     -1131.141          33.000    22605191.703 5  92564484.034 5      -881.436          32.000
G06  22954504.102 6 120626749.336 6     -3122.480          39.000    22954505.258 6  93994838.947 6     -2433.099          39.000
G07  20785669.641 8 109229432.931 8        94.629          51.000    20785665.781 8  85113836.361 8        73.737          51.000
G09  21558892.180 6 113292740.763 6     -2046.414          37.000    21558893.227 6  88280056.258 6     -1594.605          37.000
G30  21305638.438 8 111961880.476 8      2248.629          51.000    21305639.250 8  87243087.270 8      1752.181          51.000
R01  19564953.180 8 104585882.746 8      -418.137          49.000    19564957.812 7  81344586.755 7      -325.217          45.000
R11  19880106.281 8 106233303.957 8      1689.941          51.000    19880109.375 8  82625885.461 8      1314.399          49.000
R12  22391065.812 6 119609052.969 6      4398.297          40.000
C05  39803508.961 6 207267315.082 6       -12.344          37.000    39803505.508 6 160272217.355 6        -9.388          39.000
C21  23287015.469 7 121261575.089 7     -2039.254          46.000
C24  25171681.539 5 131075581.148 5      3377.098          35.000
C26  21980891.836 8 114460211.641 8      1443.609          51.000
E19  24122299.930 6 126763532.910 6       497.676          39.000    24122302.062 6  97130509.026 6       381.426          40.000
E21  25585965.078 8 134455180.115 8      2541.605          49.000    25585966.695 8 103024090.933 8      1947.527          50.000
> 2020 05 17 01 10 30.0000000  0 15        .000000000000
G02  22611707.930 5 118825375.661 5     -1148.172          30.000
G06  22972361.617 6 120720586.467 6     -3132.781          39.000    22972368.719 6  94067958.876 6     -2441.125          40.000
G07  20785181.828 8 109226869.516 8        76.977          51.000    20785178.281 8  85111838.924 8        59.982          51.000
G09  21570601.742 7 113354274.332 7     -2055.332          42.000    21570603.617 6  88328004.441 6     -1601.557          41.000
G30  21292847.555 8 111894664.254 8      2233.160          51.000    21292848.625 8  87190711.015 8      1740.125          51.000
R01  19567344.680 8 104598666.468 8      -433.398          48.000    19567349.172 7  81354529.651 7      -337.088          45.000
R02  21613706.945 6 115334876.353 6      2950.309          36.000
R11  19870696.125 8 106183019.916 8      1662.973          50.000    19870699.336 8  82586775.651 8      1293.423          49.000
R12  22366391.742 6 119477250.325 6      4389.020          39.000
C05  39803583.984 6 207267705.924 6       -13.312          37.000    39803580.586 6 160272519.585 6       -10.421          39.000
C21  23298793.414 8 121322905.291 8     -2048.895          48.000
C24  25152245.031 5 130974372.455 5      3371.254          35.000
C26  21972624.805 8 114417164.505 8      1426.832          50.000
E19  24119479.367 6 126748712.766 6       490.840          39.000    24119481.695 6  97119153.345 6       375.957          40.000
E21  25571485.414 8 134379090.290 8      2531.668          50.000    25571486.805 8 102965788.340 8      1939.805          51.000
> 2020 05 17 01 11  0.0000000  0 15        .000000000000
G02  22618308.531 5 118860014.728 5     -1163.949          32.000    22618307.406 4  92618182.168 4      -906.964          28.000
G06  22990272.438 6 120814703.852 6     -3140.711          40.000    22990280.820 6  94141297.186 6     -2447.304          40.000
G07  20784788.633 8 109224803.525 8        61.770          51.000    20784785.508 8  85110229.067 8        48.132          51.000
G09  21582355.172 6 113416038.285 6     -2061.582          41.000    21582356.773 6  88376132.171 6     -1606.431          41.000
G30  21280138.664 8 111827879.399 8      2220.090          51.000    21280139.531 8  87138670.886 8      1729.940          51.000
R01  19569815.703 8 104611875.731 8      -446.254          49.000    19569820.062 7  81364803.517 7      -347.086          45.000
R02  21597132.062 4 115246412.359 4      2948.199          29.000
R11  19861430.664 7 106133512.053 7      1638.492          47.000    19861434.703 8  82548269.509 8      1274.383          49.000
R12  22341763.320 6 119345689.155 6      4382.566          36.000
C05  39803661.469 6 207268109.571 6       -12.656          37.000    39803658.133 6 160272831.699 6        -9.844          39.000
C21  23310621.531 8 121384492.687 8     -2056.047          49.000
C24  25132835.211 5 130873306.565 5      3367.547          34.000
C26  21964448.516 8 114374591.049 8      1412.266          51.000
E19  24116692.664 6 126734070.785 6       486.020          40.000    24116695.203 6  97107934.127 6       372.590          41.000
E21  25557057.281 8 134303270.621 8      2523.891          50.000    25557059.125 8 102907692.751 8      1933.845          51.000
> 2020 05 17 01 11 30.0000000  0 14        .000000000000
G02  22625000.844 5 118895160.598 5     -1179.801          34.000    22625001.773 5  92645576.657 5      -919.341          34.000
G06  23008230.898 6 120909073.430 6     -3149.312          41.000    23008238.164 6  94214831.972 6     -2454.010          41.000
G07  20784485.281 8 109223209.910 8        45.602          51.000    20784482.375 8  85108987.295 8        35.534          51.000
G09  21594147.617 7 113478007.013 7     -2068.559          43.000    21594149.328 6  88424419.451 6     -1611.864          40.000
G30  21267507.164 8 111761502.363 8      2206.156          51.000    21267507.922 8  87086948.522 8      1719.083          51.000
R01  19572361.641 8 104625486.022 8      -459.992          48.000    19572366.180 7  81375389.301 7      -357.772          45.000
R11  19852306.281 8 106084756.980 8      1613.043          50.000    19852310.500 8  82510348.872 8      1254.589          49.000
R12  22317175.609 5 119214348.106 5      4374.723          31.000
C05  39803736.641 6 207268501.283 6       -12.117          36.000    39803733.352 6 160273134.599 6        -9.726          39.000
C21  23322493.898 8 121446312.307 8     -2064.148          50.000
C24  25113448.984 5 130772360.701 5      3363.273          35.000
C26  21956358.898 8 114332467.527 8      1396.922          51.000
E19  24113935.336 6 126719582.413 6       480.688          40.000    24113938.078 7  97096832.638 7       368.340          42.000
E21  25542676.766 8 134227698.007 8      2515.301          51.000    25542678.609 8 102849786.451 8      1927.281          51.000
> 2020 05 17 01 12  0.0000000  0 13        .000000000000
G02  22631781.992 6 118930785.304 6     -1195.234          37.000    22631781.031 5  92673336.195 5      -931.351          34.000
G06  23026236.289 6 121003691.560 6     -3158.086          40.000    23026242.242 6  94288560.389 6     -2460.846          40.000
G07  20784271.562 8 109222087.257 8        29.723          51.000    20784268.984 8  85108112.502 8        23.161          51.000
G09  21605978.727 6 113540179.279 6     -2075.844          39.000    21605980.461 6  88472865.251 6     -1617.547          39.000
G30  21254953.172 8 111695533.812 8      2192.258          51.000    21254954.148 8  87035544.456 8      1708.253          51.000
R01  19574982.828 8 104639497.364 8      -473.695          49.000    19574987.555 7  81386287.005 7      -368.430          45.000
R11  19843324.086 8 106036755.971 8      1587.543          51.000    19843327.547 8  82473014.762 8      1234.756          49.000
C05  39803809.500 6 207268880.538 6       -12.133          36.000    39803806.195 6 160273427.856 6        -9.554          39.000
C21  23334410.477 8 121508363.246 8     -2072.184          50.000
C24  25094087.211 6 130671536.262 6      3358.879          37.000
C26  21948355.875 8 114290794.266 8      1381.664          51.000
E19  24111207.570 6 126705247.298 6       475.379          40.000    24111209.906 7  97085848.567 7       364.260          42.000
E21  25528344.141 8 134152373.665 8      2506.711          51.000    25528345.578 8 102792070.389 8      1920.733          51.000
> 2020 05 17 01 12 30.0000000  0 13        .000000000000
G02  22638654.578 6 118966894.464 6     -1211.277          36.000    22638651.562 5  92701473.269 5      -943.846          33.000
G06  23044292.484 6 121098575.426 6     -3166.766          41.000    23044296.906 6  94362495.843 6     -2467.610          41.000
G07  20784151.273 8 109221455.513 8        13.070          51.000    20784149.227 8  85107620.239 8        10.185          51.000
G09  21617852.438 7 113602574.342 7     -2083.426          43.000    21617853.742 7  88521484.761 7     -1623.449          43.000
G30  21242481.078 8 111629995.370 8      2177.770          50.000    21242482.344 8  86984475.535 8      1696.963          50.000
R01  19577683.148 8 104653931.354 8      -487.797          48.000    19577687.898 7  81397513.442 7      -379.398          45.000
R11  19834487.594 8 105989531.617 8      1561.445          51.000    19834489.961 8  82436284.739 8      1214.457          49.000
C05  39803883.852 6 207269267.330 6       -12.828          36.000    39803880.547 6 160273726.942 6        -9.817          39.000
C21  23346374.891 8 121570665.257 8     -2080.613          49.000
C24  25074753.281 5 130570855.234 5      3354.039          35.000
C26  21940443.383 8 114249592.204 8      1365.824          51.000
E19  24108513.031 6 126691086.068 6       469.074          40.000    24108514.852 7  97074997.742 7       359.681          42.000
E21  25514063.016 8 134077319.676 8      2497.449          51.000    25514064.141 8 102734561.506 8      1913.603          51.000
> 2020 05 17 01 13  0.0000000  0 15        .000000000000
G02  22645612.789 6 119003460.228 6     -1227.109          39.000    22645610.828 6  92729965.990 6      -956.192          38.000
G06  23062394.102 6 121193695.466 6     -3175.004          40.000    23062396.844 6  94436615.332 6     -2474.032          41.000
G07  20784119.102 8 109221287.442 8        -2.734          51.000    20784117.398 8  85107489.270 8        -2.131          51.000
G09  21629763.367 7 113665165.188 7     -2090.586          43.000    21629764.008 7  88570256.825 7     -1629.031          43.000
G30  21230086.328 8 111564861.926 8      2163.809          51.000    21230087.633 8  86933722.199 8      1686.085          51.000
R01  19580457.422 8 104668761.798 8      -501.551          48.000    19580462.445 7  81409048.225 7      -390.095          45.000
R10  21495787.383 5 114584602.121 5     -2927.840          34.000
R11  19825791.461 8 105943058.975 8      1535.852          51.000    19825793.227 8  82400139.390 8      1194.554          49.000
R12  22243679.930 4 118821754.818 4      4350.504          28.000    22243674.734 4  92416890.706 4      3383.725          28.000
C05  39803954.469 6 207269635.490 6       -12.555          36.000    39803951.242 6 160274011.636 6        -9.865          39.000
C21  23358382.453 8 121633191.847 8     -2088.516          49.000
C24  25055441.891 5 130470293.401 5      3348.824          33.000
C26  21932616.742 8 114208836.126 8      1350.410          51.000
E19  24105846.523 6 126677072.325 6       464.090          40.000    24105848.250 7  97064259.955 7       355.583          43.000
E21  25499828.352 8 134002511.495 8      2488.820          51.000    25499829.219 8 102677240.948 8      1907.057          51.000
> 2020 05 17 01 13 30.0000000  0 14        .000000000000
G02  22652665.453 6 119040522.122 6     -1242.820          40.000    22652663.664 5  92758845.342 5      -968.434          35.000
G06  23080548.195 6 121289089.948 6     -3183.562          39.000    23080549.078 6  94510948.675 6     -2480.701          40.000
G07  20784182.883 8 109221623.500 8       -18.770          51.000    20784181.312 8  85107751.123 8       -14.626          51.000
G09  21641719.117 7 113727992.232 7     -2097.109          43.000    21641720.094 7  88619212.969 7     -1634.111          42.000
G30  21217777.109 8 111500176.090 8      2149.578          51.000    21217778.242 8  86883317.650 8      1674.996          51.000
R01  19583313.906 7 104684031.783 7      -515.492          47.000    19583318.938 7  81420924.876 7      -400.938          44.000
R10  21512320.320 5 114672733.723 5     -2947.512          33.000
R11  19817243.914 8 105897381.788 8      1510.043          51.000    19817245.570 8  82364612.729 8      1174.478          49.000
C05  39804029.414 6 207270025.907 6       -12.836          36.000    39804026.227 6 160274313.514 6        -9.663          39.000
C21  23370440.773 8 121695983.665 8     -2096.652          48.000
C24  25036160.188 5 130369893.654 5      3344.871          34.000
C26  21924883.766 8 114168567.791 8      1334.961          51.000
E19  24103215.914 6 126663248.064 6       458.344          40.000    24103217.906 7  97053667.312 7       351.378          43.000
E21  25485648.117 8 133927992.213 8      2479.922          51.000    25485649.258 8 102620141.764 8      1900.209          51.000
> 2020 05 17 01 14  0.0000000  0 14        .000000000000
G02  22659806.336 6 119078051.489 6     -1258.438          39.000    22659805.008 5  92788088.952 5      -980.601          34.000
G06  23098748.773 6 121384728.688 6     -3191.668          37.000    23098747.914 6  94585472.337 6     -2487.014          38.000
G07  20784337.328 8 109222436.031 8       -34.953          51.000    20784336.023 8  85108384.267 8       -27.236          51.000
G09  21653714.430 6 113791027.796 6     -2104.465          40.000    21653715.234 6  88668331.550 6     -1639.843          40.000
G30  21205548.414 8 111435912.069 8      2135.109          51.000    21205549.172 8  86833241.794 8      1663.722          51.000
R01  19586247.742 8 104699714.058 8      -529.566          48.000    19586252.281 7  81433122.181 7      -411.885          44.000
R10  21528963.250 5 114761439.703 5     -2967.184          32.000
R11  19808840.383 8 105852474.631 8      1484.129          51.000    19808841.695 8  82329684.940 8      1154.322          49.000
C05  39804103.508 6 207270411.753 6       -12.277          36.000    39804100.375 6 160274611.894 6        -9.844          39.000
C21  23382544.742 7 121759013.493 7     -2104.762          47.000
C24  25016904.930 6 130269631.081 6      3339.527          36.000
C26  21917239.516 8 114128761.278 8      1319.262          51.000
E19  24100616.047 6 126649585.965 6       452.559          40.000    24100618.461 7  97043198.960 7       346.846          43.000
E21  25471517.508 8 133853736.566 8      2470.852          51.000    25471519.328 8 102563244.585 8      1893.193          51.000
> 2020 05 17 01 14 30.0000000  0 16        .000000000000
G02  22667035.945 5 119116053.109 5     -1274.102          35.000    22667035.117 5  92817700.610 5      -992.806          35.000
G06  23116997.320 5 121480615.158 5     -3199.824          35.000    23116994.406 5  94660189.028 5     -2493.370          35.000
G07  20784583.680 8 109223731.816 8       -50.734          51.000    20784582.625 8  85109393.973 8       -39.533          51.000
G09  21665749.906 5 113854277.657 5     -2111.859          35.000    21665750.406 5  88717617.156 5     -1645.605          35.000
G30  21193401.516 8 111372077.662 8      2121.066          51.000    21193401.938 8  86783500.709 8      1652.779          51.000
R01  19589260.422 8 104715816.276 8      -543.215          49.000    19589264.469 7  81445646.134 7      -422.500          44.000
R02  21481640.023 5 114630105.717 5      2921.633          33.000
R10  21545712.727 5 114850722.417 5     -2985.539          34.000
R11  19800582.086 8 105808345.827 8      1458.430          51.000    19800583.633 8  82295362.527 8      1134.331          49.000
R12  22170584.117 5 118431305.544 5      4325.371          30.000    22170590.383 4  92113232.186 4      3364.184          27.000
C05  39804177.984 6 207270799.549 6       -12.570          37.000    39804174.789 6 160274911.743 6        -9.608          39.000
C21  23394695.070 7 121822287.635 7     -2112.680          45.000
C24  24997678.117 6 130169513.988 6      3335.301          37.000
C26  21909685.266 8 114089423.886 8      1303.836          51.000
E19  24098048.344 6 126636093.191 6       447.402          40.000    24098051.133 7  97032860.350 7       342.800          43.000
E21  25457438.203 8 133779752.905 8      2462.051          51.000    25457440.789 8 102506555.826 8      1886.459          51.000
> 2020 05 17 01 15  0.0000000  0 16        .000000000000
G02  22674353.812 6 119154514.603 6     -1289.836          37.000    22674351.945 5  92847670.698 5     -1005.064          30.000
G06  23135290.117 4 121576768.743 4     -3207.656          29.000    23135285.688 4  94735088.183 4     -2499.475          27.000
G07  20784919.836 8 109225499.445 8       -67.074          51.000    20784918.977 8  85110771.332 8       -52.266          51.000
G09  21677824.141 5 113917730.691 5     -2118.754          34.000    21677824.852 5  88767060.983 5     -1650.977          34.000
G30  21181334.258 8 111308663.784 8      2106.617          49.000    21181334.945 8  86734087.320 8      1641.520          49.000
R01  19592349.414 7 104732328.631 7      -557.453          47.000    19592353.422 7  81458489.089 7      -433.575          43.000
R02  21465225.227 5 114542524.135 5      2917.387          34.000
R10  21562567.180 5 114940567.860 5     -3005.203          33.000
R11  19792467.680 8 105764986.458 8      1432.199          51.000    19792469.805 8  82261638.559 8      1113.933          48.000
R12  22146319.359 6 118301688.755 6      4316.246          36.000    22146327.844 4  92012419.203 4      3357.083          29.000
C05  39804250.914 6 207271179.008 6       -12.656          36.000    39804247.688 6 160275205.161 6        -9.832          39.000
C21  23406890.797 7 121885795.387 7     -2121.047          46.000
C24  24978478.453 6 130069534.197 6      3330.129          39.000
C26  21902219.195 8 114050546.131 8      1288.062          51.000
E19  24095511.039 6 126622759.576 6       441.777          41.000    24095513.938 7  97022643.657 7       338.511          44.000
E21  25443409.078 8 133706032.617 8      2452.762          51.000    25443412.227 8 102450068.885 8      1879.431          51.000
> 2020 05 17 01 15 30.0000000  0 14        .000000000000
G02  22681767.086 6 119193471.959 6     -1305.609          39.000    22681765.250 5  92878027.093 5     -1017.355          35.000
G07  20785352.516 8 109227774.619 8       -83.145          50.000    20785352.164 8  85112544.203 8       -64.788          50.000
G09  21689944.039 5 113981422.760 5     -2125.906          35.000    21689944.945 5  88816691.209 5     -1656.550          34.000
G30  21169353.320 7 111245708.470 7      2092.016          45.000    21169355.516 7  86685031.235 7      1630.142          46.000
R01  19595521.898 7 104749288.824 7      -571.613          47.000    19595526.141 7  81471680.345 7      -444.588          43.000
R10  21579532.547 5 115031008.964 5     -3023.035          31.000
R11  19784504.602 8 105722435.508 8      1405.984          51.000    19784506.641 8  82228543.374 8      1093.543          48.000
R12  22122112.281 6 118172364.666 6      4307.570          37.000    22122117.680 5  91911833.816 5      3350.336          33.000
C05  39804329.164 6 207271586.535 6       -12.812          36.000    39804325.984 6 160275520.286 6        -9.992          39.000
C21  23419138.242 7 121949572.872 7     -2129.297          45.000
C24  24959312.328 6 129969730.035 6      3325.047          39.000
C26  21894848.812 8 114012165.284 8      1272.176          51.000
E19  24093011.492 7 126609622.510 7       435.711          42.000    24093013.984 7  97012577.614 7       333.779          44.000
E21  25429437.469 8 133632614.242 8      2443.414          51.000    25429440.898 8 102393813.284 8      1872.259          51.000
> 2020 05 17 01 16  0.0000000  0 15        .000000000000
G02  22689263.930 6 119232866.361 6     -1320.723          41.000    22689261.711 6  92908723.977 6     -1029.138          37.000
G07  20785870.891 8 109230499.755 8       -98.477          51.000    20785870.977 8  85114667.686 8       -76.735          51.000
G09  21702098.609 5 114045296.182 5     -2132.625          35.000    21702100.133 5  88866462.688 5     -1661.789          34.000
G30  21157449.172 7 111183155.799 7      2078.168          47.000    21157452.492 7  86636288.872 7      1619.352          47.000
R01  19598767.867 8 104766640.101 8      -585.121          48.000    19598772.266 7  81485175.767 7      -455.094          43.000
R02  21432471.180 5 114367810.395 5      2909.539          34.000
R11  19776682.430 8 105680636.812 8      1380.590          51.000    19776684.828 8  82196033.313 8      1073.792          49.000
R12  22097949.055 6 118043279.145 6      4298.512          39.000    22097953.031 5  91811434.024 5      3343.287          35.000
C05  39804401.914 6 207271965.391 6       -11.918          36.000    39804398.719 6 160275813.244 6        -9.321          39.000
C21  23431426.203 7 122013563.165 7     -2136.652          46.000
C24  24940168.117 6 129870046.793 6      3320.664          36.000
C26  21887563.266 8 113974225.521 8      1257.137          51.000
E12  24447480.539 6 128472376.611 6     -2168.289          40.000
E19  24090538.398 6 126596624.534 6       430.785          40.000    24090540.266 7  97002618.098 7       330.133          44.000
E21  25415513.156 8 133559442.466 8      2434.816          51.000    25415516.672 8 102337746.646 8      1865.665          51.000
> 2020 05 17 01 16 30.0000000  0 14        .000000000000
G02  22696849.234 7 119272723.832 7     -1336.594          44.000    22696846.914 6  92939781.725 6     -1041.505          36.000
G07  20786480.203 8 109233702.086 8      -115.125          50.000    20786480.359 8  85117162.997 8       -89.708          50.000
G09  21714293.023 6 114109378.258 6     -2139.438          36.000    21714294.375 6  88916396.729 6     -1667.094          36.000
G30  21145628.547 8 111121035.011 8      2063.070          51.000    21145631.289 8  86587883.069 8      1607.590          51.000
R01  19602092.508 8 104784411.440 8      -599.828          48.000    19602097.094 7  81498997.914 7      -466.536          43.000
R11  19769006.648 8 105639620.388 8      1353.711          51.000    19769009.547 8  82164131.677 8      1052.883          49.000
