     3.04           OBSERVATION DATA    M (MIXED)           RINEX VERSION / TYPE
Convert 2.6.2       NovAtel             20200515 161711 UTC PGM / RUN BY / DATE 
Rinex Version 3.04 Observation File                         COMMENT             
                                                            MARKER NAME         
                                                            MARKER NUMBER       
                                                            MARKER TYPE         
                                                            OBSERVER / AGENCY   
                    NovAtel GPSCard                         REC # / TYPE / VERS 
                                                            ANT # / TYPE        
        0.0000        0.0000        0.0000                  APPROX POSITION XYZ 
        0.0000        0.0000        0.0000                  ANTENNA: DELTA H/E/N
G    8 C1C L1C D1C S1C C2W L2W D2W S2W                      SYS / # / OBS TYPES 
R    8 C1C L1C D1C S1C C2P L2P D2P S2P                      SYS / # / OBS TYPES 
E    8 C1C L1C D1C S1C C7Q L7Q D7Q S7Q                      SYS / # / OBS TYPES 
C    8 C2I L2I D2I S2I C7I L7I D7I S7I                      SYS / # / OBS TYPES 
DBHZ                                                        SIGNAL STRENGTH UNIT
    30.000                                                  INTERVAL            
  2020    05    14    20    00    0.0000000     GPS         TIME OF FIRST OBS   
  2020    05    14    20    59   30.0000000     GPS         TIME OF LAST OBS    
G L1C  0.00000  10 G22 G11 G01 G04 G03 G32 G08 G14 G17 G09  SYS / PHASE SHIFT   
G L2W  0.00000  10 G22 G11 G01 G04 G03 G32 G08 G17 G14 G09  SYS / PHASE SHIFT   
R L1C  0.00000  05 R19 R05 R04 R06 R20                      SYS / PHASE SHIFT   
R L2P  0.25000  04 R19 R05 R04 R20                          SYS / PHASE SHIFT   
E L1C  0.50000  04 E05 E09 E36 E03                          SYS / PHASE SHIFT   
E L7Q -0.25000  04 E05 E09 E36 E03                          SYS / PHASE SHIFT   
C L2I  0.00000  04 C14 C11 C05 C21                          SYS / PHASE SHIFT   
C L7I  0.00000  03 C14 C11 C05                              SYS / PHASE SHIFT   
  5 R19  3 R05  1 R04  6 R06 -4 R20  2                      GLONASS SLOT / FRQ #
 C1C  -71.950 C2C  -71.950 C2P  -71.950                     GLONASS COD/PHS/BIS 
     0     0     0     0GPS                                 LEAP SECONDS        
                                                            END OF HEADER       
> 2020 05 14 20 00  0.0000000  0 14      -0.000000000000
G22  20661930.719 8 108579205.647 8      -457.191          51.000    20661927.156 8  84607138.185 8      -356.253          51.000  
G11  21082892.867 8 110791339.880 8     -2661.559          51.000    21082891.125 7  86330904.493 7     -2073.942          46.000  
G01  20310072.617 8 106730152.080 8      -453.121          51.000    20310074.703 8  83166362.106 8      -353.081          51.000  
G04  23571251.914 6 123867756.982 6      3690.441          38.000    23571254.016 4  96520347.655 4      2875.669          25.000  
G03  20640475.125 7 108466440.214 7      1171.895          45.000    20640476.883 7  84519335.606 7       913.162          45.000  
R19  20069920.102 7 107360146.971 7     -2395.289          42.000    20069921.680 7  83502334.463 7     -1863.003          45.000  
R05  19836246.922 8 106035808.998 8      1987.320          51.000    19836247.953 7  82472304.470 7      1545.694          47.000  
R04  19709239.148 7 105541770.972 7     -1980.797          44.000    19709239.312 6  82087983.488 6     -1540.620          37.000  
E05  23896505.773 8 125576993.739 8      1462.012          51.000    23896506.906 8  96221381.026 8      1120.198          51.000  
E09  22431549.523 6 117878584.415 6     -1343.941          39.000    22431549.891 7  90322591.948 7     -1029.918          43.000  
E36  23906782.656 8 125630976.006 8     -1532.145          51.000    23906786.867 8  96262720.314 8     -1174.011          51.000  
C14  21937646.203 8 114235091.613 8      1344.836          48.000    21937646.734 8  88333903.576 8      1039.901          51.000  
C11  22396953.594 8 116626849.223 8     -1896.371          50.000    22396953.078 8  90183242.622 8     -1466.355          51.000  
C05  39694332.883 5 206698806.83525       -32.320          34.000    39694330.148 5 159832617.812 5       -25.288          35.000  
> 2020 05 14 20 00 30.0000000  0 15      -0.000000000000
G22  20664552.664 8 108592984.352 8      -467.074          51.000    20664549.266 8  84617874.839 8      -363.954          51.000  
G11  21098109.508 8 110871303.027 8     -2674.984          51.000    21098107.984 7  86393213.423 7     -2084.404          46.000  
G01  20312680.516 8 106743856.181 8      -466.207          51.000    20312682.703 8  83177040.614 8      -363.278          51.000  
G04  23550180.883 6 123757019.003 6      3686.238          39.000    23550180.266 5  96434058.219 5      2872.385          32.000  
G03  20633801.820 7 108431371.851 7      1160.344          45.000    20633803.617 7  84492009.623 7       904.164          45.000  
R19  20083390.336 7 107432202.845 7     -2414.156          42.000    20083391.383 7  83558377.908 7     -1877.677          45.000  
R05  19825130.359 8 105976385.537 8      1968.598          51.000    19825131.961 7  82426086.227 7      1531.132          47.000  
R04  19720365.109 7 105601352.756 7     -1997.113          43.000    19720365.891 6  82134324.894 6     -1553.311          36.000  
E05  23888173.734 8 125533207.515 8      1451.453          51.000    23888175.023 8  96187830.559 8      1112.174          51.000  
E09  22439233.781 6 117918967.912 6     -1353.680          37.000    22439234.586 7  90353535.162 7     -1037.370          44.000  
E36  23915537.914 8 125676985.591 8     -1540.672          51.000    23915542.203 8  96297974.370 8     -1180.447          51.000  
C14  21929913.180 8 114194824.453 8      1334.094          49.000    21929913.734 8  88302766.481 8      1031.709          51.000  
C11  22407900.297 8 116683850.033 8     -1909.277          51.000    22407899.680 8  90227319.232 8     -1476.354          51.000  
C21  24093607.734 5 125461708.110 5     -2605.539          31.000                                                                  
C05  39694503.367 5 206699695.31125       -31.781          34.000    39694500.750 5 159833303.863 5       -24.847          35.000  
> 2020 05 14 20 01  0.0000000  0 14      -0.000000000000
G22  20667289.469 8 108607366.355 8      -480.082          51.000    20667286.039 8  84629081.603 8      -374.090          51.000  
G11  21113461.656 8 110951979.437 8     -2691.848          51.000    21113460.273 7  86456078.150 7     -2097.544          46.000  
G01  20315421.484 8 106758259.802 8      -482.477          51.000    20315423.867 8  83188264.199 8      -375.959          51.000  
G04  23529191.047 6 123646718.049 6      3678.953          39.000    23529189.445 5  96348109.419 5      2866.715          33.000  
G03  20627252.289 7 108396953.860 7      1145.676          47.000    20627254.094 7  84465190.405 7       892.735          46.000  
R19  20097024.562 6 107505136.596 6     -2436.324          41.000    20097025.711 7  83615104.137 7     -1894.919          45.000  
R05  19814177.789 8 105917837.391 8      1946.496          51.000    19814179.461 7  82380548.790 7      1513.945          47.000  
R04  19731641.875 7 105661737.159 7     -2016.621          44.000    19731642.531 6  82181290.486 6     -1568.486          37.000  
E05  23879961.047 8 125490049.811 8      1437.426          51.000    23879962.703 8  96154761.686 8      1101.390          51.000  
E09  22447032.922 6 117959952.091 6     -1367.023          38.000    22447034.023 7  90384938.662 7     -1047.278          44.000  
E36  23924400.820 8 125723560.560 8     -1552.742          51.000    23924404.930 8  96333661.653 8     -1189.761          51.000  
C14  21922301.266 8 114155186.624 8      1320.027          49.000    21922300.938 8  88272116.023 8      1020.660          51.000  
C11  22418980.344 8 116741544.164 8     -1925.438          51.000    22418979.477 8  90271931.966 8     -1488.961          51.000  
C05  39694728.320 5 206700866.038 5       -34.207          34.000    39694725.695 5 159834209.149 5       -26.762          35.000  
> 2020 05 14 20 01 30.0000000  0 15      -0.000000000000
G22  20670028.109 8 108621758.091 8      -489.777          51.000    20670024.594 8  84640295.944 8      -381.645          51.000  
G32  23709108.008 5 124592216.796 5     -2945.129          32.000    23709110.523 5  97084841.083 5     -2294.903          31.000  
G11  21128836.297 8 111032774.717 8     -2705.031          51.000    21128834.734 7  86519035.515 7     -2107.817          44.000  
G01  20318182.797 8 106772770.726 8      -495.324          51.000    20318185.289 8  83199571.382 8      -385.970          51.000  
G04  23508171.875 6 123536263.959 6      3674.293          38.000    23508175.164 5  96262041.309 5      2863.092          33.000  
G03  20620713.898 7 108362593.498 7      1134.438          47.000    20620715.562 7  84438416.079 7       883.978          47.000  
R19  20110709.984 6 107578344.075 6     -2454.855          41.000    20110711.445 7  83672043.238 7     -1909.335          45.000  
R05  19803276.164 8 105859562.485 8      1927.867          51.000    19803277.641 8  82335223.908 8      1499.456          48.000  
R04  19742954.234 7 105722316.811 7     -2032.547          42.000    19742956.039 6  82228408.050 6     -1580.867          37.000  
E05  23871755.000 8 125446928.375 8      1426.871          51.000    23871756.742 8  96121720.616 8      1093.383          51.000  
E09  22454834.516 6 118000943.015 6     -1376.152          39.000    22454834.445 7  90416347.296 7     -1054.644          44.000  
E36  23933258.672 8 125770108.076 8     -1561.094          51.000    23933262.469 8  96369327.909 8     -1196.136          51.000  
C14  21914697.219 8 114115590.926 8      1309.332          49.000    21914696.352 8  88241498.128 8      1012.516          51.000  
C11  22430080.727 8 116799343.435 8     -1938.312          51.000    22430079.375 8  90316625.987 8     -1498.802          51.000  
C05  39694894.547 5 206701731.837 5       -33.586          35.000    39694891.969 6 159834879.654 6       -26.143          36.000  
> 2020 05 14 20 02  0.0000000  0 16      -0.000000000000
G22  20672866.078 8 108636672.041 8      -501.836          51.000    20672862.680 8  84651917.204 8      -391.041          51.000  
G32  23725964.523 5 124680803.856 5     -2956.891          32.000    23725968.531 5  97153869.904 5     -2304.071          32.000  
G11  21144330.742 8 111114200.414 8     -2720.758          51.000    21144328.906 7  86582484.098 7     -2120.072          44.000  
G01  20321062.422 8 106787902.621 8      -510.754          51.000    20321064.914 8  83211362.455 8      -397.990          51.000  
G04  23487221.672 6 123426172.621 6      3667.332          36.000    23487228.266 5  96176255.839 5      2857.659          34.000  
G03  20614284.086 7 108328804.053 7      1120.699          47.000    20614286.070 7  84412086.669 7       873.275          47.000  
R19  20124543.867 6 107652345.970 6     -2476.062          40.000    20124545.352 7  83729600.241 7     -1925.830          45.000  
R05  19792523.250 8 105802083.565 8      1906.699          51.000    19792525.453 8  82290518.128 8      1482.989          49.000  
R04  19754400.414 7 105783612.265 7     -2050.930          43.000    19754401.648 6  82276082.233 6     -1595.171          36.000  
E05  23863653.414 8 125404357.038 8      1413.754          51.000    23863654.969 8  96089101.067 8      1083.264          50.000  
E09  22462733.156 6 118042452.753 6     -1388.617          39.000    22462733.391 7  90448153.449 7     -1063.749          44.000  
E36  23942208.984 8 125817141.436 8     -1571.965          51.000    23942212.641 8  96405366.443 8     -1204.484          51.000  
C14  21907198.875 8 114076546.099 8      1296.191          48.000    21907198.086 8  88211306.234 8      1002.255          51.000  
C11  22441298.789 8 116857755.479 8     -1953.371          51.000    22441297.055 8  90361793.826 8     -1510.474          51.000  
C21  24138801.414 5 125697045.94425     -2621.969          31.000                                                                  
C05  39695099.805 5 206702801.30125       -35.238          34.000    39695097.297 5 159835707.13925       -27.137          35.000  
> 2020 05 14 20 02 30.0000000  0 16      -0.000000000000
G22  20675758.047 8 108651869.793 8      -511.840          51.000    20675754.820 8  84663759.624 8      -398.836          51.000  
G32  23742870.188 5 124769652.732 5     -2966.477          33.000    23742874.852 5  97223102.714 5     -2311.550          32.000  
G11  21159899.664 8 111196017.157 8     -2734.246          50.000    21159897.547 7  86646237.378 7     -2130.585          44.000  
G01  20324015.070 8 106803418.347 8      -524.094          51.000    20324017.688 8  83223452.619 8      -408.385          51.000  
G04  23466295.836 5 123316209.013 5      3663.363          35.000    23466303.438 5  96090569.968 5      2854.576          33.000  
G03  20607917.773 7 108295347.985 7      1109.066          47.000    20607919.867 7  84386017.038 7       864.208          47.000  
R19  20138480.359 6 107726898.773 6     -2494.504          38.000    20138482.078 7  83787585.734 7     -1940.173          44.000  
R05  19781874.555 8 105745160.092 8      1887.598          51.000    19781877.508 8  82246244.320 8      1468.132          49.000  
R04  19765934.758 7 105845378.092 7     -2067.215          43.000    19765935.680 6  82324122.314 6     -1607.837          37.000  
E05  23855611.523 8 125362098.667 8      1402.859          51.000    23855612.945 8  96056721.322 8      1074.934          50.000  
E09  22470685.102 7 118084242.427 7     -1397.996          43.000    22470685.992 7  90480174.124 7     -1071.360          44.000  
E36  23951206.492 8 125864423.007 8     -1580.660          51.000    23951209.961 8  96441595.169 8     -1211.117          51.000  
C14  21899761.297 8 114037816.793 8      1285.270          49.000    21899760.438 8  88181358.299 8       993.828          51.000  
C11  22452588.547 8 116916543.882 8     -1966.414          50.000    22452587.055 8  90407252.723 8     -1520.514          50.000  
C21  24153918.469 5 125775774.542 5     -2626.195          31.000                                                                  
C05  39695299.141 5 206703839.22425       -34.754          34.000    39695296.805 5 159836509.273 5       -26.931          35.000  
> 2020 05 14 20 03  0.0000000  0 15      -0.000000000000
G22  20678711.195 8 108667388.526 8      -523.203          51.000    20678707.898 8  84675852.153 8      -407.691          51.000  
G32  23759833.680 5 124858770.695 5     -2976.805          34.000    23759838.008 5  97292567.130 5     -2319.589          35.000  
G11  21175550.008 8 111278260.974 8     -2749.207          50.000    21175547.852 7  86710323.423 7     -2142.240          44.000  
G01  20327047.969 8 106819355.964 8      -538.941          51.000    20327050.531 8  83235871.551 8      -419.951          51.000  
G04  23445401.969 5 123206413.540 5      3656.625          35.000    23445410.367 5  96005015.083 5      2849.319          35.000  
G03  20601621.805 7 108262262.965 7      1096.004          47.000    20601623.531 7  84360236.519 7       854.032          47.000  
R19  20152526.531 6 107802039.667 6     -2515.004          36.000    20152528.492 7  83846028.631 7     -1956.118          43.000  
R05  19771336.984 8 105688830.805 8      1867.105          51.000    19771340.445 8  82202432.670 8      1452.193          48.000  
R04  19777564.133 6 105907649.578 6     -2084.719          41.000    19777565.164 6  82372555.702 6     -1621.448          37.000  
E05  23847636.703 8 125320191.499 8      1390.379          51.000    23847637.969 8  96024610.682 8      1065.323          50.000  
E09  22478697.680 7 118126348.522 7     -1409.367          43.000    22478698.914 7  90512437.203 7     -1079.929          44.000  
E36  23960258.297 8 125911990.428 8     -1591.082          51.000    23960261.883 8  96478042.914 8     -1219.079          51.000  
C14  21892391.570 8 113999440.520 8      1272.711          49.000    21892390.492 8  88151683.319 8       984.123          51.000  
C11  22463956.727 8 116975745.094 8     -1980.875          48.000    22463955.859 8  90453030.857 8     -1531.829          49.000  
C05  39695499.609 5 206704882.902 5       -35.250          34.000    39695497.180 5 159837317.301 5       -27.312          35.000  
> 2020 05 14 20 03 30.0000000  0 15      -0.000000000000
G22  20681724.188 8 108683221.650 8      -532.402          51.000    20681720.727 8  84688189.655 8      -414.859          51.000  
G32  23776852.531 6 124948205.736 6     -2985.297          36.000    23776857.297 6  97362256.744 6     -2326.206          36.000  
G11  21191280.422 8 111360924.263 8     -2761.891          51.000    21191278.023 7  86774736.330 7     -2152.126          44.000  
G01  20330160.062 8 106835710.306 8      -551.645          51.000    20330162.406 8  83248615.199 8      -429.853          51.000  
G04  23424539.305 5 123096782.977 5      3652.145          32.000    23424547.711 4  95919588.724 4      2845.831          26.000  
G03  20595395.297 7 108229543.364 7      1084.984          47.000    20595396.703 8  84334740.730 8       845.440          48.000  
R19  20166680.664 6 107877761.490 6     -2533.539          36.000    20166682.625 6  83904923.379 6     -1970.534          41.000  
R05  19760909.867 8 105633091.107 8      1848.781          51.000    19760912.898 7  82159079.597 7      1437.941          47.000  
R04  19789285.055 7 105970417.905 7     -2099.922          43.000    19789287.375 6  82421375.572 6     -1633.273          38.000  
E05  23839727.852 8 125278630.329 8      1380.223          51.000    23839728.602 8  95992765.130 8      1057.565          50.000  
E09  22486768.797 6 118168764.040 6     -1418.473          41.000    22486770.289 7  90544937.407 7     -1086.775          44.000  
E36  23969363.359 8 125959837.988 8     -1598.961          51.000    23969367.172 8  96514705.314 8     -1225.220          51.000  
C14  21885088.570 8 113961411.755 8      1262.344          49.000    21885087.289 8  88122277.069 8       976.170          51.000  
C11  22475402.711 8 117035352.497 8     -1993.141          48.000    22475402.156 8  90499123.073 8     -1541.145          49.000  
C05  39695699.938 5 206705925.86725       -34.305          34.000    39695697.523 5 159838124.577 5       -26.575          35.000  
> 2020 05 14 20 04  0.0000000  0 15      -0.000000000000
G22  20684794.766 8 108699357.832 8      -543.598          51.000    20684791.289 8  84700763.313 8      -423.583          51.000  
G32  23793924.070 5 125037916.894 5     -2995.770          35.000    23793928.406 5  97432161.521 5     -2334.370          35.000  
G11  21207088.523 8 111443995.063 8     -2776.465          51.000    21207085.930 7  86839466.805 7     -2163.480          45.000  
G01  20333349.570 8 106852471.280 8      -566.324          51.000    20333351.789 8  83261675.702 8      -441.292          51.000  
G04  23403706.609 5 122987309.539 5      3646.047          31.000    23403714.852 5  95834284.743 5      2841.076          32.000  
G03  20589236.523 7 108197178.686 7      1072.320          47.000    20589237.914 7  84309521.486 7       835.571          47.000  
R19  20180941.789 6 107954051.988 6     -2553.355          38.000    20180943.922 6  83964260.406 6     -1985.947          41.000  
R05  19750590.977 8 105577931.110 8      1828.270          51.000    19750593.125 7  82116177.415 7      1421.988          46.000  
R04  19801097.180 7 106033669.688 7     -2117.105          44.000    19801098.570 6  82470571.358 6     -1646.641          36.000  
E05  23831883.141 8 125237405.195 8      1367.855          51.000    23831883.031 8  95961177.034 8      1048.128          50.000  
E09  22494896.406 7 118211477.276 7     -1429.500          43.000    22494898.164 7  90577665.735 7     -1095.323          44.000  
E36  23978519.695 8 126007955.156 8     -1609.137          51.000    23978523.641 8  96551574.303 8     -1232.940          51.000  
C14  21877850.383 8 113923720.168 8      1250.039          49.000    21877848.852 8  88093131.546 8       966.643          51.000  
C11  22486925.133 8 117095354.693 8     -2007.273          50.000    22486924.031 8  90545520.577 8     -1552.136          48.000  
C05  39695898.516 5 206706959.737 5       -34.020          34.000    39695896.070 6 159838924.064 6       -27.076          36.000  
> 2020 05 14 20 04 30.0000000  0 14      -0.000000000000
G22  20687921.906 8 108715791.596 8      -552.512          51.000    20687918.383 8  84713568.857 8      -430.529          51.000  
G32  23811047.172 6 125127896.583 6     -3003.887          36.000    23811050.500 6  97502275.548 6     -2340.692          36.000  
G11  21222972.992 8 111527466.434 8     -2788.906          51.000    21222970.414 7  86904509.418 7     -2173.174          46.000  
G01  20336615.555 8 106869634.072 8      -578.598          51.000    20336617.828 8  83275049.314 8      -450.855          51.000  
G03  20583144.062 7 108165163.732 7      1061.516          47.000    20583145.664 7  84284574.789 7       827.158          47.000  
R19  20195308.656 6 108030904.489 6     -2570.648          39.000    20195310.477 6  84024034.543 6     -1999.400          41.000  
R05  19740379.555 8 105523346.051 8      1810.105          51.000    19740381.344 7  82073722.411 7      1407.863          46.000  
R04  19812997.727 6 106097396.199 6     -2131.945          40.000    19812999.008 6  82520136.447 6     -1658.177          38.000  
E05  23824101.508 8 125196511.327 8      1357.859          51.000    23824100.969 8  95929842.783 8      1040.471          51.000  
E09  22503079.984 7 118254481.864 7     -1438.137          44.000    22503082.102 7  90610617.273 7     -1101.893          44.000  
E36  23987726.391 8 126056336.648 8     -1616.914          51.000    23987730.414 8  96588645.832 8     -1238.887          51.000  
C14  21870676.133 8 113886360.720 8      1239.938          50.000    21870674.531 8  88064242.835 8       958.892          51.000  
C11  22498522.930 8 117155745.632 8     -2019.320          51.000    22498520.812 8  90592218.645 8     -1561.304          48.000  
C05                                                                  39696091.664 5 159839710.34925       -25.968          35.000  
> 2020 05 14 20 05  0.0000000  0 16      -0.000000000000
G08  24303620.305 5 127716383.634 5     -3748.273          31.000    24303626.547 5  99519274.672 5     -2920.730          31.000  
G22  20691117.688 8 108732585.888 8      -565.422          51.000    20691113.969 8  84726655.331 8      -440.586          51.000  
G32  23828232.906 6 125218206.243 6     -3015.172          37.000    23828234.797 6  97572646.700 6     -2349.485          38.000  
G11  21238945.336 8 111611400.420 8     -2805.090          51.000    21238943.117 7  86969912.510 7     -2185.788          47.000  
G01  20339970.273 8 106887263.118 8      -595.027          51.000    20339972.477 8  83288786.231 8      -463.658          51.000  
G03  20577130.359 7 108133562.471 7      1047.039          47.000    20577131.898 8  84259950.438 8       815.875          48.000  
R19  20209792.906 6 108108382.362 6     -2592.383          40.000    20209793.969 7  84084295.091 7     -2016.301          42.000  
R05  19730288.391 8 105469401.635 8      1787.945          51.000    19730290.000 7  82031765.666 7      1390.624          46.000  
R04  19824997.609 7 106161659.747 7     -2150.574          43.000    19825001.234 6  82570119.267 6     -1672.669          36.000  
E05  23816394.992 8 125156013.194 8      1343.809          51.000    23816394.914 8  95898811.773 8      1029.651          51.000  
E09  22511330.750 7 118297840.461 7     -1450.891          43.000    22511334.039 7  90643840.053 7     -1111.587          44.000  
E36  23996995.609 8 126105046.375 8     -1628.656          51.000    23996999.289 8  96625968.877 8     -1247.941          51.000  
C14  21863577.797 8 113849396.869 8      1225.961          50.000    21863576.648 8  88035660.040 8       947.958          51.000  
C11  22510207.609 8 117216587.566 8     -2035.168          51.000    22510204.562 7  90639265.468 7     -1573.715          47.000  
C21  24229880.000 5 126171342.360 5     -2647.766          30.000                                                                  
C05                                                                  39696296.500 5 159840535.011 5       -27.931          35.000  
> 2020 05 14 20 05 30.0000000  0 16      -0.000000000000
G22  20694359.320 8 108749621.161 8      -573.383          51.000    20694355.531 8  84739929.567 8      -446.792          51.000  
G32  23845458.422 6 125308724.475 6     -3022.145          37.000    23845459.125 6  97643180.383 6     -2354.918          37.000  
G11  21254982.617 8 111695676.309 8     -2816.309          51.000    21254980.812 8  87035582.016 8     -2194.530          48.000  
G01  20343391.125 8 106905239.678 8      -606.445          51.000    20343393.188 8  83302793.938 8      -472.555          51.000  
G04  23341405.227 5 122659918.754 5      3629.574          35.000    23341403.820 5  95579157.135 5      2828.244          34.000  
G03  20571172.844 7 108102255.818 7      1037.160          47.000    20571174.125 8  84235555.651 8       808.177          48.000  
R19  20224371.156 6 108186362.980 6     -2609.207          41.000    20224371.469 7  84144946.660 7     -2029.384          42.000  
R05  19720294.680 8 105415977.717 8      1770.660          51.000    19720296.164 7  81990213.734 7      1377.180          47.000  
R04  19837075.531 6 106226335.997 6     -2164.195          41.000    19837077.578 5  82620422.968 5     -1683.263          35.000  
E05  23808741.219 8 125115792.145 8      1334.582          51.000    23808741.680 8  95867993.062 8      1022.659          51.000  
E09  22519625.609 6 118341432.648 6     -1458.371          41.000    22519630.164 7  90677241.882 7     -1117.421          43.000  
E36  24006304.352 8 126153965.216 8     -1635.555          51.000    24006307.828 8  96663452.139 8     -1253.245          51.000  
C14  21856532.539 8 113812710.698 8      1216.742          50.000    21856531.961 8  88007291.989 8       940.920          51.000  
C11  22521955.984 8 117277761.567 8     -2046.078          50.000    22521952.336 7  90686569.082 7     -1582.197          47.000  
C21  24245132.609 5 126250765.695 5     -2649.695          32.000                                                                  
C05  39696490.594 5 206710043.19525       -33.496          34.000    39696488.102 5 159841306.401 5       -25.959          35.000  
> 2020 05 14 20 06  0.0000000  0 16      -0.000000000000
G22  20697671.219 8 108767025.787 8      -585.008          51.000    20697667.562 8  84753491.617 8      -455.847          51.000  
G32  23862747.562 6 125399578.229 6     -3032.527          38.000    23862747.656 6  97713975.494 6     -2363.009          37.000  
G11  21271109.234 8 111780421.556 8     -2831.332          51.000    21271107.852 8  87101617.259 8     -2206.233          49.000  
G01  20346902.781 8 106923693.615 8      -621.812          51.000    20346904.664 8  83317173.629 8      -484.529          51.000  
G04  23320708.469 6 122551162.136 6      3622.266          39.000    23320708.562 5  95494411.738 5      2822.545          34.000  
G03  20565295.906 7 108071373.183 7      1023.734          46.000    20565297.031 7  84211491.278 7       797.715          46.000  
R19  20239067.977 6 108264976.344 6     -2629.699          41.000    20239067.992 7  84206090.325 7     -2045.322          42.000  
R05  19710423.133 8 105363206.639 8      1749.484          51.000    19710424.602 8  81949169.581 8      1360.710          48.000  
R04  19849253.391 7 106291553.680 7     -2181.602          43.000    19849257.500 6  82671147.867 6     -1696.802          36.000  
E05  23801165.070 8 125075978.110 8      1321.539          51.000    23801165.312 8  95837486.192 8      1012.596          51.000  
E09  22527989.984 7 118385386.684 7     -1469.809          43.000    22527994.172 7  90710920.966 7     -1126.292          42.000  
E36  24015677.383 8 126203222.552 8     -1646.324          50.000    24015680.672 8  96701194.763 8     -1261.497          51.000  
C14  21849565.180 8 113776430.534 8      1203.945          50.000    21849564.703 8  87979237.910 8       930.801          51.000  
C11  22533791.922 8 117339394.839 8     -2060.727          48.000    22533788.641 8  90734227.834 8     -1593.639          48.000  
C21  24260418.609 5 126330376.106 5     -2655.141          34.000                                                                  
C05  39696693.453 5 206711099.54425       -34.852          34.000    39696690.891 5 159842123.243 5       -27.031          35.000  
> 2020 05 14 20 06 30.0000000  0 16      -0.000000000000
G22  20701039.508 8 108784726.589 8      -594.973          51.000    20701036.016 8  84767284.456 8      -463.612          51.000  
G32  23880086.398 6 125490692.651 6     -3041.297          39.000    23880085.938 6  97784973.731 6     -2369.845          39.000  
G11  21287311.016 8 111865561.857 8     -2844.598          51.000    21287310.055 8  87167960.347 8     -2216.570          49.000  
G01  20350491.477 8 106942552.762 8      -635.465          51.000    20350493.359 8  83331869.060 8      -495.168          51.000  
G04  23300043.891 7 122442572.178 7      3616.918          42.000    23300042.688 5  95409796.256 5      2818.382          31.000  
G03  20559485.828 7 108040842.048 7      1011.934          46.000    20559486.906 7  84187700.801 7       788.523          46.000  
R19  20253869.016 7 108344147.070 7     -2648.254          43.000    20253868.484 7  84267667.517 7     -2059.750          42.000  
R05  19700659.562 8 105311015.181 8      1730.039          50.000    19700661.508 8  81908576.244 8      1345.586          48.000  
R04  19861518.984 6 106357235.929 6     -2197.094          41.000    19861523.172 6  82722234.037 6     -1708.854          36.000  
E05  23793652.609 8 125036498.925 8      1310.348          51.000    23793652.570 8  95807235.909 8      1004.072          51.000  
E09  22536409.047 7 118429628.843 7     -1479.520          43.000    22536412.766 7  90744820.758 7     -1133.679          42.000  
E36  24025100.922 8 126252745.713 8     -1655.277          50.000    24025104.148 8  96739141.078 8     -1268.306          51.000  
C14  21842661.930 8 113740484.578 8      1192.477          49.000    21842661.383 8  87951442.248 8       922.189          51.000  
C11  22545701.391 7 117401414.494 7     -2073.801          47.000    22545699.336 8  90782185.332 8     -1603.571          50.000  
C21  24275724.562 5 126410093.458 5     -2659.141          35.000                                                                  
C05  39696893.844 5 206712142.982 5       -34.984          34.000    39696891.352 5 159842930.090 5       -26.820          35.000  
> 2020 05 14 20 07  0.0000000  0 16      -0.000000000000
G22  20704466.617 8 108802736.024 8      -605.305          51.000    20704463.148 8  84781317.788 8      -471.666          51.000  
G32  23897476.711 6 125582078.288 6     -3050.668          40.000    23897476.117 6  97856183.298 6     -2377.145          40.000  
G11  21303590.008 8 111951108.582 8     -2858.234          51.000    21303589.391 8  87234620.121 8     -2227.196          49.000  
G01  20354159.797 8 106961830.549 8      -649.590          51.000    20354161.758 8  83346890.695 8      -506.174          51.000  
G04  23279413.930 7 122334164.578 7      3610.578          42.000    23279413.648 5  95325322.882 5      2813.441          34.000  
G03  20553745.258 7 108010675.411 7       999.414          46.000    20553746.547 7  84164194.345 7       778.764          46.000  
R19  20268776.211 7 108423886.869 7     -2667.605          42.000    20268775.273 7  84329687.361 7     -2074.805          43.000  
R05  19691006.578 8 105259417.274 8      1710.164          51.000    19691009.289 8  81868444.557 8      1330.128          48.000  
R04  19873873.266 6 106423393.080 6     -2212.914          41.000    19873877.656 6  82773689.562 6     -1721.156          37.000  
E05  23786206.320 8 124997368.120 8      1298.691          51.000    23786206.688 8  95777252.594 8       995.012          51.000  
E09  22544884.703 7 118474170.805 7     -1489.691          43.000    22544888.945 7  90778950.295 7     -1141.506          42.000  
E36  24034577.805 8 126302547.687 8     -1664.590          51.000    24034580.867 8  96777301.033 8     -1275.526          51.000  
C14  21835825.398 8 113704885.815 8      1180.863          50.000    21835824.961 8  87923915.058 8       913.137          51.000  
C11  22557687.523 7 117463832.367 7     -2087.211          47.000    22557686.734 8  90830450.761 8     -1613.955          50.000  
C21  24291055.484 5 126489929.347 5     -2662.477          33.000                                                                  
C05                                                                  39697091.695 5 159843737.37025       -26.714          35.000  
> 2020 05 14 20 07 30.0000000  0 16      -0.000000000000
G22  20707951.430 8 108821048.383 8      -615.309          51.000    20707947.875 8  84795587.155 8      -479.461          51.000  
G32  23914917.109 6 125673727.800 6     -3059.301          40.000    23914916.922 6  97927598.497 6     -2383.872          40.000  
G11  21319945.102 8 112037055.126 8     -2871.359          51.000    21319944.555 8  87301591.450 8     -2237.424          48.000  
G01  20357906.938 8 106981522.335 8      -663.090          51.000    20357909.164 8  83362234.917 8      -516.694          51.000  
G04  23258818.484 7 122225936.951 7      3604.914          43.000    23258819.047 4  95240989.760 4      2809.028          29.000  
G03  20548073.289 7 107980868.227 7       987.715          45.000    20548074.719 7  84140968.004 7       769.651          45.000  
R19  20283787.969 6 108504189.181 6     -2685.918          40.000    20283787.617 7  84392144.700 7     -2089.051          45.000  
R05  19681464.289 8 105208408.335 8      1690.613          51.000    19681466.758 8  81828770.928 8      1314.919          48.000  
R04  19886316.023 6 106490016.918 6     -2228.344          39.000    19886319.398 6  82825508.092 6     -1733.157          37.000  
E05  23778825.422 8 124958581.162 8      1287.328          51.000    23778826.594 8  95747532.739 8       986.341          51.000  
E09  22553416.695 7 118519006.355 7     -1499.168          44.000    22553420.641 6  90813304.785 6     -1148.792          40.000  
E36  24044107.203 8 126352623.444 8     -1673.590          51.000    24044109.914 8  96815670.755 8     -1282.347          51.000  
C14  21829054.477 8 113669629.371 8      1169.684          48.000    21829054.320 8  87896652.570 8       904.441          51.000  
C11  22569749.312 8 117526642.450 8     -2100.102          49.000    22569749.375 8  90879019.462 8     -1623.905          50.000  
C21  24306411.180 5 126569877.632 5     -2666.895          33.000                                                                  
C05                                                                  39697291.086 5 159844540.007 5       -26.735          35.000  
> 2020 05 14 20 08  0.0000000  0 15      -0.000000000000
G22  20711496.727 8 108839679.031 8      -627.668          51.000    20711493.234 8  84810104.537 8      -489.092          51.000  
G32  23932410.141 6 125765654.872 6     -3070.168          41.000    23932410.531 6  97999229.959 6     -2392.339          41.000  
G11  21336378.914 8 112123415.422 8     -2886.906          51.000    21336378.234 7  87368885.183 7     -2249.538          46.000  
G01  20361736.078 8 107001644.622 8      -679.273          51.000    20361738.469 8  83377914.598 8      -529.304          51.000  
G04  23238261.078 7 122117908.089 7      3596.375          43.000    23238261.859 4  95156811.532 4      2802.383          29.000  
G03  20542472.695 7 107951436.692 7       973.355          45.000    20542474.141 7  84118034.340 7       758.459          45.000  
R19  20298906.711 6 108585068.428 6     -2707.016          38.000    20298907.562 7  84455050.759 7     -2105.457          45.000  
R05  19672035.258 8 105158005.446 8      1668.547          51.000    19672037.500 8  81789568.730 8      1297.762          48.000  
R04  19898846.125 6 106557120.636 6     -2246.027          39.000    19898849.805 6  82877699.922 6     -1746.911          38.000  
E05  23771513.039 8 124920154.572 8      1273.488          51.000    23771515.000 8  95718089.003 8       975.793          51.000  
E09  22562007.633 7 118564150.397 7     -1511.195          43.000    22562009.984 6  90847895.599 6     -1157.957          40.000  
E36  24053691.797 8 126402989.010 8     -1685.039          51.000    24053694.258 8  96854262.535 8     -1291.132          51.000  
C14  21822352.414 8 113634731.223 8      1155.812          48.000    21822352.328 8  87869667.144 8       893.872          51.000  
C11  22581889.570 8 117589859.781 8     -2115.336          50.000    22581889.969 8  90927903.108 8     -1635.715          51.000  
C05  39697495.117 5 206715273.82925       -36.602          34.000    39697492.758 5 159845351.849 5       -28.239          35.000  
> 2020 05 14 20 08 30.0000000  0 16      -0.000000000000
G22  20715101.023 8 108858620.075 8      -635.930          51.000    20715097.750 8  84824863.790 8      -495.530          51.000  
G32  23949954.109 6 125857849.684 6     -3076.883          40.000    23949955.125 6  98071070.032 6     -2397.575          40.000  
G11  21352889.680 8 112210180.332 8     -2898.391          51.000    21352888.797 7  87436494.206 7     -2258.487          44.000  
G01  20365645.867 8 107022190.400 8      -691.332          51.000    20365648.062 8  83393924.265 8      -538.700          51.000  
G04  23217740.625 7 122010073.116 7      3591.938          42.000    23217742.500 4  95072772.364 4      2798.928          26.000  
G03  20536942.109 7 107922373.303 7       963.195          45.000    20536943.836 7  84095387.540 7       750.542          46.000  
R19  20314131.656 6 108666515.521 6     -2723.883          39.000    20314133.211 7  84518398.511 7     -2118.576          43.000  
R05  19662718.250 8 105108201.671 8      1650.730          51.000    19662720.156 7  81750832.505 7      1283.905          47.000  
R04  19911465.102 6 106624693.770 6     -2259.469          39.000    19911468.367 6  82930256.765 6     -1757.368          39.000  
E05  23764267.742 8 124882081.332 8      1263.820          51.000    23764270.391 8  95688916.018 8       968.364          51.000  
E09  22570655.188 6 118609594.163 6     -1519.094          41.000    22570656.883 6  90882716.100 6     -1164.062          40.000  
E36  24063330.039 8 126453636.869 8     -1692.359          51.000    24063332.398 8  96893070.608 8     -1296.735          51.000  
C14  21815718.250 8 113600184.126 8      1146.281          49.000    21815717.719 8  87842953.157 8       886.438          51.000  
C11  22594106.695 8 117653475.792 8     -2126.531          51.000    22594107.227 8  90977095.044 8     -1644.430          51.000  
C21  24337200.648 5 126730189.002 5     -2674.176          32.000                                                                  
C05  39697697.391 5 206716326.76125       -34.754          34.000    39697695.250 5 159846166.775 5       -26.336          34.000  
> 2020 05 14 20 09  0.0000000  0 16      -0.000000000000
G22  20718760.727 8 108877852.071 8      -645.738          51.000    20718757.602 8  84839849.758 8      -503.173          51.000  
G32  23967545.195 6 125950291.497 6     -3085.320          40.000    23967546.727 6  98143102.599 6     -2404.149          41.000  
G11  21369473.641 8 112297329.784 8     -2911.352          51.000    21369472.023 7  87504402.854 7     -2268.586          42.000  
G01  20369632.828 8 107043141.636 8      -705.059          51.000    20369634.805 8  83410249.895 8      -549.396          51.000  
G04  23197253.867 6 121902416.355 6      3585.512          40.000                                                                  
G03  20531478.180 7 107893659.676 7       951.410          47.000    20531480.133 7  84073013.299 7       741.362          47.000  
R19  20329459.492 6 108748510.017 6     -2742.090          40.000    20329460.883 7  84582172.010 7     -2132.737          43.000  
R05  19653509.695 8 105058979.015 8      1631.203          51.000    19653511.477 7  81712548.213 7      1268.714          47.000  
R04  19924166.938 6 106692714.544 6     -2274.648          39.000    19924170.125 6  82983161.885 6     -1769.171          39.000  
E05  23757086.180 8 124844343.547 8      1252.414          51.000    23757089.516 8  95660000.061 8       959.654          51.000  
E09  22579355.930 7 118655318.085 7     -1528.609          43.000    22579358.172 6  90917751.300 6     -1171.165          40.000  
E36  24073018.500 8 126504548.574 8     -1701.387          51.000    24073020.852 8  96932080.851 8     -1303.721          51.000  
C14  21809147.781 8 113565969.938 8      1134.980          48.000    21809147.062 8  87816496.579 8       877.627          51.000  
C11  22606396.859 8 117717471.227 8     -2139.426          51.000    22606397.398 8  91026580.351 8     -1654.361          51.000  
C21  24352619.500 4 126810481.327 4     -2677.820          29.000                                                                  
C05  39697897.148 5 206717367.60625       -34.301          35.000    39697894.828 5 159846970.903 5       -26.587          35.000  
> 2020 05 14 20 09 30.0000000  0 16      -0.000000000000
G22  20722480.062 8 108897396.982 8      -656.191          51.000    20722476.773 8  84855079.551 8      -511.318          51.000  
G32  23985187.078 6 126043000.459 6     -3094.324          40.000    23985189.273 6  98215343.337 6     -2411.162          40.000  
G11  21386134.531 8 112384884.353 8     -2924.633          51.000    21386132.125 6  87572627.135 6     -2278.935          41.000  
G01  20373701.289 8 107064521.230 8      -719.441          51.000    20373703.156 8  83426909.315 8      -560.604          51.000  
G14  22605658.992 5 118793539.07125     -1997.543          33.000                                                                  
G04  23176805.281 6 121794962.981 6      3578.953          37.000                                                                  
G03  20526085.297 7 107865318.354 7       939.020          47.000    20526087.133 7  84050929.148 7       731.704          47.000  
R19  20344893.797 6 108831073.153 6     -2761.098          41.000    20344895.492 7  84646387.733 7     -2147.521          44.000  
R05  19644414.180 8 105010360.918 8      1611.078          51.000    19644416.000 7  81674734.137 7      1253.061          47.000  
R04  19936957.375 6 106761203.106 6     -2290.051          40.000    19936959.836 6  83036430.698 6     -1781.154          39.000  
E05  23749972.883 8 124806964.146 8      1240.539          51.000    23749976.773 8  95631358.708 8       950.570          51.000  
E09  22588114.641 7 118701343.479 7     -1538.559          45.000    22588116.859 6  90953017.470 6     -1178.908          41.000  
E36  24082761.469 8 126555746.555 8     -1710.836          51.000    24082763.758 8  96971310.458 8     -1310.889          51.000  
C14  21802645.211 8 113532110.999 8      1123.230          48.000    21802644.594 8  87790314.711 8       868.523          51.000  
C11  22618763.930 8 117781867.384 8     -2152.703          51.000    22618764.641 8  91076375.518 8     -1664.628          51.000  
C05  39698098.445 5 206718415.885 5       -34.578          34.000    39698095.977 5 159847780.98625       -26.647          35.000  
> 2020 05 14 20 10  0.0000000  0 15      -0.000000000000
G22  20726256.398 8 108917241.068 8      -666.879          51.000    20726252.773 8  84870542.480 8      -519.646          51.000  
G32  24002876.938 6 126135961.097 6     -3103.633          38.000    24002879.328 6  98287780.162 6     -2418.419          38.000  
G11  21402869.461 8 112472829.130 8     -2938.414          49.000    21402866.578 7  87641155.454 7     -2289.677          43.000  
G01  20377848.883 8 107086316.443 8      -733.809          51.000    20377850.680 8  83443892.596 8      -571.796          51.000  
G04  23156393.453 6 121687702.498 6      3571.113          36.000                                                                  
G03  20520760.500 7 107837336.170 7       926.383          46.000    20520762.586 7  84029124.855 7       721.857          46.000  
R19  20360431.961 6 108914190.101 6     -2780.273          41.000    20360433.781 7  84711034.207 7     -2162.438          44.000  
R05  19635429.586 8 104962334.339 8      1590.602          50.000    19635430.961 7  81637380.156 7      1237.135          46.000  
R04  19949832.391 6 106830142.692 6     -2305.859          39.000    19949833.883 6  83090050.369 6     -1793.447          40.000  
E05  23742925.211 8 124769930.444 8      1228.211          51.000    23742929.609 8  95602982.252 8       941.067          51.000  
E09  22596927.758 7 118747655.994 7     -1548.961          43.000    22596929.875 7  90988503.649 7     -1186.936          42.000  
E36  24092556.500 8 126607217.601 8     -1720.656          51.000    24092558.664 8  97010749.303 8     -1318.432          51.000  
C14  21796208.891 8 113498594.378 8      1111.242          49.000    21796207.828 8  87764397.541 8       859.162          51.000  
C11  22631205.008 8 117846650.140 8     -2166.246          51.000    22631205.969 8  91126469.621 8     -1675.100          51.000  
C05  39698298.883 5 206719459.74525       -35.234          34.000    39698296.391 5 159848587.667 5       -27.360          35.000  
> 2020 05 14 20 10 30.0000000  0 16      -0.000000000000
G22  20730089.617 8 108937385.026 8      -676.523          51.000    20730085.992 8  84886239.070 8      -527.161          51.000  
G32  24020614.500 5 126229172.558 5     -3111.246          35.000    24020617.289 6  98360412.440 6     -2424.348          36.000  
G11  21419678.883 8 112561164.110 8     -2951.008          50.000    21419676.367 7  87709987.857 7     -2299.487          45.000  
G01  20382075.906 8 107108529.150 8      -747.422          51.000    20382077.734 8  83461201.202 8      -582.407          51.000  
G04  23136020.148 6 121580638.982 6      3565.543          39.000    23136020.453 5  94738141.713 5      2778.349          35.000  
G03  20515504.266 7 107809714.701 7       914.598          46.000    20515506.164 7  84007601.654 7       712.677          46.000  
R19  20376073.234 6 108997860.346 6     -2798.395          40.000    20376075.180 7  84776111.048 7     -2176.530          44.000  
R05  19626556.391 8 104914901.404 8      1571.223          51.000    19626558.016 7  81600487.891 7      1222.062          47.000  
R04  19962790.781 6 106899531.969 6     -2320.500          40.000    19962792.055 6  83144019.821 6     -1804.834          39.000  
E05  23735943.805 8 124733244.358 8      1217.020          51.000    23735948.266 8  95574872.158 8       932.489          51.000  
E09  22605795.242 7 118794255.832 7     -1558.062          43.000    22605797.422 7  91024210.028 7     -1194.068          43.000  
E36  24102403.641 8 126658963.204 8     -1729.488          51.000    24102405.711 8  97050398.511 8     -1325.148          51.000  
C14  21789838.898 8 113465421.640 8      1099.949          49.000    21789837.352 8  87738746.276 8       850.557          51.000  
C11  22643719.578 8 117911819.947 8     -2178.688          48.000    22643721.133 8  91176863.038 8     -1684.866          51.000  
C21  24399002.641 4 127052029.752 4     -2688.941          29.000                                                                  
C05                                                                  39698496.406 5 159849393.649 5       -26.853          35.000  
> 2020 05 14 20 11  0.0000000  0 17      -0.000000000000
G22  20733977.219 8 108957814.871 8      -686.875          51.000    20733973.836 8  84902158.430 8      -535.227          51.000  
G32  24038396.883 5 126322618.843 5     -3119.441          33.000    24038399.375 5  98433227.731 5     -2430.731          32.000  
G11  21436559.875 8 112649873.448 8     -2964.266          51.000    21436557.922 7  87779111.992 7     -2309.818          45.000  
G01  20386379.672 8 107131146.111 8      -761.859          51.000    20386381.516 8  83478824.809 8      -593.657          51.000  
G14  22640244.875 5 118975283.161 5     -2040.359          35.000                                                                  
G04  23115682.578 6 121473761.447 6      3558.602          41.000    23115683.023 5  94654860.501 5      2772.937          34.000  
G03  20510314.180 7 107782440.251 7       902.195          47.000    20510314.945 7  83986348.857 7       703.013          46.000  
R19  20391814.398 6 109082068.673 6     -2817.164          39.000    20391817.133 7  84841606.372 7     -2191.128          45.000  
R05  19617792.359 8 104868048.983 8      1550.840          51.000    19617794.227 8  81564047.125 8      1206.209          48.000  
R04  19975829.852 6 106969354.158 6     -2335.992          36.000    19975830.445 6  83198325.964 6     -1816.883          38.000  
E05  23729026.312 8 124696892.761 8      1205.027          51.000    23729030.391 8  95547018.323 8       923.369          51.000  
E09  22614714.859 7 118841128.272 7     -1568.004          46.000    22614716.828 7  91060125.241 7     -1201.557          44.000  
E36  24112300.234 8 126710969.642 8     -1739.023          51.000    24112302.250 8  97090247.580 8     -1332.550          51.000  
C14  21783532.195 8 113432579.313 8      1088.176          48.000    21783530.312 8  87713350.510 8       841.389          51.000  
C11  22656305.227 8 117977362.269 8     -2191.922          48.000    22656307.633 8  91227544.495 8     -1695.057          51.000  
C21  24414497.805 5 127132705.444 5     -2692.664          30.000                                                                  
C05  39698695.508 5 206721524.60325       -35.008          34.000                                                                  
> 2020 05 14 20 11 30.0000000  0 16      -0.000000000000
G22  20737963.695 8 108978764.147 8      -698.668          51.000    20737960.641 8  84918482.535 8      -544.417          51.000  
G11  21453556.312 8 112739189.404 8     -2979.066          51.000    21453554.773 7  87848708.833 7     -2321.351          47.000  
G01  20390805.016 8 107154401.855 8      -777.535          51.000    20390806.812 8  83496946.170 8      -605.872          51.000  
G14  22651971.484 5 119036890.767 5     -2055.867          35.000                                                                  
G04  23095425.281 7 121367306.778 7      3549.750          42.000    23095426.812 5  94571908.867 5      2766.046          35.000  
G03  20505234.617 7 107755747.028 7       888.402          46.000    20505235.117 7  83965548.950 7       692.262          45.000  
R19  20407700.641 6 109167051.232 6     -2837.305          39.000    20407703.844 7  84907703.910 7     -2206.793          45.000  
R05  19609181.141 8 104822015.609 8      1529.266          51.000    19609183.516 8  81528243.404 8      1189.429          48.000  
R04  19988992.055 6 107039844.775 6     -2352.203          41.000    19988994.109 6  83253152.058 6     -1829.492          38.000  
E05  23722217.078 8 124661110.167 8      1191.504          51.000    23722220.734 8  95519600.480 8       913.019          51.000  
E09  22623730.742 7 118888506.189 7     -1579.379          46.000    22623732.656 7  91096427.763 7     -1210.237          45.000  
E36  24122290.758 8 126763470.995 8     -1750.039          51.000    24122293.109 8  97130475.862 8     -1340.904          51.000  
C14  21777333.367 8 113400299.509 8      1074.781          48.000    21777331.211 8  87688389.723 8       831.138          51.000  
C11  22669007.188 7 118043508.011 7     -2206.754          47.000    22669010.023 8  91278692.568 8     -1706.411          51.000  
C21  24430057.602 5 127213731.236 5     -2698.168          31.000                                                                  
C05  39698933.781 5 206722765.59225       -36.473          33.000    39698931.695 5 159851145.752 5       -28.659          34.000  
> 2020 05 14 20 12  0.0000000  0 15      -0.000000000000
G22  20741957.469 8 108999751.789 8      -707.777          51.000    20741954.672 8  84934836.530 8      -551.515          51.000  
G11  21470576.414 8 112828630.087 8     -2990.867          51.000    21470575.398 7  87918402.854 7     -2330.547          46.000  
G01  20395260.695 8 107177816.546 8      -790.746          51.000    20395262.297 8  83515191.377 8      -616.166          51.000  
G04  23075157.023 7 121260797.452 7      3543.355          42.000    23075159.219 6  94488914.599 6      2761.057          36.000  
G03  20500174.039 7 107729154.840 7       877.102          44.000    20500175.422 7  83944827.794 7       683.456          44.000  
R19  20423640.125 6 109252317.596 6     -2854.656          40.000    20423643.531 7  84974022.178 7     -2220.289          46.000  
R05  19600631.359 8 104776313.141 8      1510.191          51.000    19600634.312 7  81492697.050 7      1174.594          47.000  
R04  20002189.422 6 107110511.467 6     -2366.031          40.000    20002191.320 6  83308115.004 6     -1840.247          36.000  
E05  23715424.578 8 124625416.783 8      1180.711          51.000    23715428.008 8  95492251.020 8       904.773          51.000  
E09  22632751.016 7 118935908.128 7     -1588.059          45.000    22632753.188 7  91132748.721 7     -1216.711          46.000  
E36  24132284.094 8 126815986.966 8     -1758.195          51.000    24132286.453 8  97170715.359 8     -1347.189          50.000  
C14  21771151.188 8 113368106.405 8      1064.133          49.000    21771148.898 8  87663495.999 8       822.979          51.000  
C11  22681733.992 8 118109780.219 8     -2218.770          49.000    22681736.711 8  91329938.438 8     -1715.494          51.000  
C21  24445590.320 4 127294612.846 4     -2700.914          29.000                                                                  
C05                                                                  39699120.086 5 159851904.589 5       -27.693          35.000  
> 2020 05 14 20 12 30.0000000  0 14      -0.000000000000
G22  20746023.008 8 109021116.441 8      -717.582          51.000    20746020.117 8  84951484.313 8      -559.155          51.000  
G11  21487684.055 8 112918532.941 8     -3003.586          49.000    21487683.633 7  87988457.018 7     -2340.457          46.000  
G01  20399811.328 8 107201729.818 8      -804.605          51.000    20399812.680 8  83533825.098 8      -626.966          51.000  
G04  23054943.023 7 121154575.388 7      3536.840          42.000    23054945.875 5  94406144.157 5      2755.977          31.000  
G03  20495197.305 7 107703002.902 7       865.293          45.000    20495199.312 7  83924449.697 7       674.254          45.000  
R19  20439697.438 6 109338211.635 6     -2872.793          39.000    20439701.031 7  85040828.638 7     -2234.395          46.000  
R05  19592207.742 8 104731287.488 8      1490.547          50.000    19592211.320 7  81457677.137 7      1159.318          47.000  
R04  20015483.125 6 107181696.947 6     -2380.422          39.000    20015483.352 5  83363481.487 5     -1851.440          32.000  
E05  23708713.977 8 124590152.306 8      1169.184          51.000    23708716.977 8  95465230.214 8       895.830          51.000  
E09  22641840.062 7 118983672.189 7     -1597.145          45.000    22641842.430 7  91169347.178 7     -1223.829          46.000  
E36  24142344.781 8 126868856.790 8     -1767.328          51.000    24142346.820 8  97211225.991 8     -1354.166          49.000  
C14  21765049.789 7 113336336.241 7      1052.922          47.000    21765047.867 8  87638929.316 8       814.153          51.000  
C11  22694550.250 8 118176513.974 8     -2231.168          50.000    22694552.203 8  91381541.248 8     -1725.363          51.000  
C05                                                                  39699323.148 5 159852722.30225       -27.783          34.000  
> 2020 05 14 20 13  0.0000000  0 14      -0.000000000000
G22  20750144.305 8 109042773.882 8      -726.953          51.000    20750141.188 8  84968360.245 8      -566.457          51.000  
G11  21504863.016 7 113008813.090 7     -3015.879          46.000    21504864.086 7  88058805.150 7     -2350.036          47.000  
G01  20404441.023 8 107226058.467 8      -818.172          51.000    20404442.461 8  83552782.481 8      -637.537          51.000  
G04  23034768.016 6 121048559.659 6      3530.250          41.000    23034771.633 5  94323534.522 5      2750.845          30.000  
G03  20490288.703 7 107677207.675 7       853.844          45.000    20490290.336 7  83904349.514 7       665.333          45.000  
R19  20455855.930 6 109424646.220 6     -2890.305          41.000    20455859.445 7  85108055.515 7     -2248.015          46.000  
R05  19583895.273 8 104686853.863 8      1471.000          51.000    19583899.180 7  81423117.685 7      1144.111          47.000  
R04  20028856.758 6 107253313.105 6     -2394.586          38.000    20028856.016 5  83419182.890 5     -1862.453          32.000  
E05  23702069.562 8 124555233.599 8      1158.031          51.000    23702071.812 8  95438474.333 8       887.257          51.000  
E09  22650982.055 7 119031713.598 7     -1606.133          46.000    22650984.297 7  91206158.121 7     -1230.677          46.000  
E36  24152456.789 8 126921996.796 8     -1775.988          51.000    24152458.555 8  97251943.637 8     -1360.874          49.000  
C14  21759013.289 7 113304906.301 7      1041.844          47.000    21759012.242 8  87614625.706 8       805.559          51.000  
C11  22707439.195 8 118243625.358 8     -2243.582          50.000    22707440.305 8  91433436.023 8     -1734.859          51.000  
C05                                                                  39699525.281 5 159853536.447 5       -26.880          35.000  
> 2020 05 14 20 13 30.0000000  0 14      -0.000000000000
G22  20754322.039 8 109064727.880 8      -737.207          51.000    20754319.008 8  84985467.260 8      -574.447          51.000  
G11  21522114.227 7 113099472.747 7     -3028.719          45.000    21522116.578 7  88129449.038 7     -2360.038          45.000  
G01  20409150.641 8 107250807.264 8      -832.293          51.000    20409152.141 8  83572067.246 8      -648.540          51.000  
G04  23014633.562 6 120942757.428 6      3522.668          41.000    23014636.586 5  94241091.249 5      2744.937          33.000  
