     3.02           OBSERVATION DATA    M (MIXED)           RINEX VERSION / TYPE
SAVERINEX           SC600               20200501 105931 LCL PGM / RUN BY / DATE
       G = GPS       R = GLONASS       C = COMPASS          COMMENT
       S = SBAS      J = QZSS          E = GALILEO          COMMENT
BEAN                                                        MARKER NAME
1                                                           MARKER NUMBER
GEODETIC                                                    MARKER TYPE
Unige DICCA         GTER                                    OBSERVER / AGENCY
SC60291900056       SC600               2.12(191226)        REC # / TYPE / VERS
                    HEMA45          NONE                    ANT # / TYPE
  4509407.8091   693652.4678  4442337.6214                  APPROX POSITION XYZ
        0.0000        0.0000        0.0000                  ANTENNA: DELTA H/E/N
G    8 C1C L1C D1C S1C C2Y L2Y D2Y S2Y                      SYS / # / OBS TYPES
R    8 C1C L1C D1C S1C C2P L2P D2P S2P                      SYS / # / OBS TYPES
C    8 C1I L1I D1I S1I C7I L7I D7I S7I                      SYS / # / OBS TYPES
E    8 C1C L1C D1C S1C C7Q L7Q D7Q S7Q                      SYS / # / OBS TYPES
DBHZ                                                        COMMENT
     30.000                                                 INTERVAL
  2020    05    01    08    00    0.0000000     GPS         TIME OF FIRST OBS
  2020    05    01    08    59   30.0000000     GPS         TIME OF LAST OBS
     0                                                      RCV CLOCK OFFS APPL
G L1C  0.00000                                              SYS / PHASE SHIFT
G L2Y  0.00000                                              SYS / PHASE SHIFT
R L1C  0.00000                                              SYS / PHASE SHIFT
R L2P  0.25000                                              SYS / PHASE SHIFT
C L1I  0.00000                                              SYS / PHASE SHIFT
C L7I  0.00000                                              SYS / PHASE SHIFT
E L1C  0.50000                                              SYS / PHASE SHIFT
E L7Q -0.25000                                              SYS / PHASE SHIFT
 14 R01  1 R02 -4 R03  5 R04  6 R05  1 R10 -5 R12 -1 R13 -2 GLONASS SLOT / FRQ #
    R14 -7 R15  0 R17  4 R21  4 R22 -3 R23  3               GLONASS SLOT / FRQ #
 C1C   71.950 C2C   71.950 C2P   71.950                     GLONASS COD/PHS/BIS
    18                                                      LEAP SECONDS
*** Above antenna height is from mark to ANTENNA BOTTOM.    COMMENT
    17     4        0.0000        ANT MEASURE TYPE/HEIGT    COMMENT
    0.0000    0.0000    0.0458    0.0405    0.0000          COMMENT
                    BASE STATION                            COMMENT
                                                            END OF HEADER
> 2020 05 01 08 00  0.0000000  0 17        .000000000000
G12  21280604.359 8 111830323.144 8      2415.879          51.000    21280604.250 8  87140506.179 8      1882.503          51.000
G13  23454230.078 7 123252784.037 7     -3637.773          42.000    23454229.930 5  96041105.596 5     -2834.629          33.000
G15  22004485.508 8 115634329.167 8     -2984.320          50.000    22004484.914 8  90104682.217 8     -2325.444          50.000
G19  21571171.461 6 113357275.552 6       280.930          37.000    21571174.344 5  88330352.544 5       218.906          33.000
G24  20253465.406 6 106432679.856 6       689.012          41.000    20253466.648 6  82934564.910 6       536.892          41.000
G25  23860231.164 7 125386466.482 7      3421.910          44.000    23860235.133 7  97703715.851 7      2666.427          44.000
R04  20561385.383 8 110105320.893 8     -2491.438          48.000    20561387.453 7  85637448.331 7     -1937.785          47.000
R14  19611205.203 5 104538771.451 5       -60.598          34.000    19611209.227 5  81307929.715 5       -47.138          32.000
R15  21775757.148 6 116363080.695 6      2568.465          37.000
R24  22375754.430 5 119653227.211 5      3536.645          35.000    22375751.359 5  93063641.565 5      2750.727          32.000
C05                                                                  39733341.242 6 159989699.185 6        21.872          37.000
C20  25200131.430 5 131223606.548 5     -3079.602          34.000
C27  24704700.984 7 128643903.746 7      3070.477          46.000
C28  23725787.062 5 123546465.179 5       882.543          34.000
E01  24909708.562 6 130901398.726 6      1563.574          36.000
E19  24941362.789 8 131067743.209 8     -2044.922          51.000    24941365.094 8 100428526.463 8     -1566.819          48.000
E21  23631162.461 8 124182671.136 8      -675.043          51.000    23631164.961 8  95152904.048 8      -517.250          51.000
> 2020 05 01 08 00 30.0000000  0 19        .000000000000
G12  21266838.891 8 111757984.364 8      2405.625          51.000    21266838.273 8  87084138.319 8      1874.513          51.000
G13  23475006.273 7 123361961.735 7     -3641.715          44.000    23475004.266 4  96126179.005 4     -2837.709          27.000
G15  22021544.180 8 115723973.909 8     -2993.008          50.000    22021544.055 8  90174535.227 8     -2332.214          50.000
G19  21569622.211 6 113349134.956 6       260.680          36.000
G24  20249554.969 7 106412131.726 7       679.410          42.000    20249556.430 7  82918553.360 7       529.411          42.000
G25  23840701.805 6 125283840.012 6      3418.586          41.000    23840706.188 6  97623747.201 6      2663.833          41.000
R03  23422119.555 4 125380413.250 4     -4540.215          29.000
R04  20575396.219 8 110180347.954 8     -2511.441          48.000    20575398.812 7  85695802.710 7     -1953.343          46.000
R14  19611568.102 5 104540701.450 5       -69.316          35.000    19611571.938 5  81309430.886 5       -53.916          32.000
R15  21761342.078 5 116286064.412 5      2564.047          33.000
R24  22355935.805 6 119547253.941 6      3527.324          38.000    22355934.594 5  92981218.017 5      2743.477          34.000
C05                                                                  39733168.969 6 159989005.213 6        23.657          37.000
C19  23707775.039 5 123452597.455 5     -1083.938          31.000
C20  25217874.273 5 131316000.970 5     -3080.949          34.000
C27  24687015.328 7 128551807.513 7      3067.961          47.000
C28  23720737.109 6 123520172.432 6       868.652          39.000
E01  24900792.477 5 130854535.990 5      1560.094          35.000    24900800.156 5 100265199.037 5      1195.229          33.000
E19  24953056.844 8 131129191.163 8     -2052.984          51.000    24953057.930 7 100475609.946 7     -1573.033          47.000
E21  23635023.539 8 124202960.248 8      -678.738          51.000    23635025.781 8  95168450.239 8      -520.078          51.000
> 2020 05 01 08 01  0.0000000  0 18        .000000000000
G12  21253144.289 8 111686020.461 8      2393.578          51.000    21253143.172 8  87028062.575 8      1865.126          51.000
G13  23495816.258 7 123471314.692 7     -3646.957          45.000    23495809.586 4  96211388.937 4     -2841.794          25.000
G15  22038664.914 8 115813944.865 8     -3003.449          50.000    22038665.086 8  90244642.464 8     -2340.350          50.000
G17  22785083.641 5 119736417.510 5     -1557.156          35.000
G19  21568197.578 6 113341650.238 6       239.582          39.000    21568196.906 5  88318144.915 5       186.684          32.000
G24  20245713.094 6 106391943.899 6       667.859          41.000    20245715.188 7  82902822.551 7       520.407          42.000
G25  23821203.977 7 125181380.630 7      3413.766          42.000    23821208.445 7  97543908.721 7      2660.077          42.000
R04  20589531.953 7 110256039.677 7     -2533.059          47.000    20589534.148 7  85754674.026 7     -1970.157          46.000
R14  19611993.609 5 104542958.868 5       -80.590          30.000    19611997.578 5  81311186.648 5       -62.681          33.000
R23  21421050.609 5 114588130.787 5      1193.062          31.000
R24  22336186.391 6 119441644.153 6      3515.352          40.000    22336186.000 6  92899077.123 6      2734.162          36.000
C05                                                                  39732995.516 6 159988306.657 6        24.331          37.000
C19  23714066.031 5 123485363.416 5     -1098.957          34.000
C27  24669356.883 7 128459854.233 7      3063.664          46.000
C28  23715780.016 5 123494360.851 5       853.672          33.000
E01  24891908.023 5 130807858.912 5      1554.918          32.000    24891910.797 6 100229423.597 6      1191.098          37.000
E19  24964811.055 8 131190957.156 8     -2063.023          49.000    24964811.086 7 100522937.122 7     -1580.752          46.000
E21  23638919.078 8 124223430.918 8      -684.371          51.000    23638921.211 8  95184135.551 8      -524.400          51.000
> 2020 05 01 08 01 30.0000000  0 16        .000000000000
G12  21239528.398 8 111614469.873 8      2378.043          51.000    21239527.375 8  86972308.871 8      1853.020          51.000
G13  23516666.133 7 123580877.935 7     -3655.730          44.000    23516658.047 4  96296762.785 4     -2848.624          26.000
G15  22055854.484 8 115904277.103 8     -3017.129          49.000    22055854.977 8  90315031.203 8     -2351.013          49.000
G24  20241946.922 7 106372154.829 7       652.965          42.000    20241949.680 7  82887402.463 7       508.804          42.000
G25  23801745.492 7 125079126.908 7      3405.121          43.000    23801749.484 7  97464230.534 7      2653.344          43.000
R04  20603797.164 7 110332430.555 7     -2558.062          47.000    20603799.258 7  85814089.157 7     -1989.604          44.000
R14  19612485.773 5 104545580.964 5       -93.383          34.000    19612489.602 5  81313225.992 5       -72.631          32.000
R23  21414424.805 4 114552731.797 4      1163.809          28.000
R24  22316513.328 6 119336440.538 6      3500.109          41.000    22316513.867 6  92817252.191 6      2722.310          36.000
C05                                                                  39732828.047 6 159987632.239 6        21.981          37.000
C19  23720455.477 6 123518625.349 6     -1116.770          36.000
C27  24651733.508 7 128368083.525 7      3055.891          47.000
C28  23710923.273 5 123469068.288 5       834.152          35.000
E01                                                                  24883064.617 6 100193808.946 6      1184.496          39.000
E19  24976631.953 7 131253077.102 7     -2076.453          47.000    24976631.672 7 100570535.518 7     -1591.198          45.000
E21  23642856.078 8 124244119.836 8      -693.348          51.000    23642858.234 8  95199988.093 8      -531.278          51.000
> 2020 05 01 08 02  0.0000000  0 18        .000000000000
G12  21225981.727 8 111543281.299 8      2371.152          51.000    21225980.844 8  86916837.254 8      1847.654          51.000
G13  23537545.477 7 123690597.169 7     -3655.566          45.000    23537540.633 5  96382258.247 5     -2848.493          33.000
G15  22073102.609 8 115994916.091 8     -3022.027          51.000    22073103.164 8  90385658.963 8     -2354.827          51.000
G17  22803051.094 5 119830827.656 5     -1587.316          31.000
G24  20238247.023 7 106352711.998 7       646.441          43.000    20238249.539 7  82872252.207 7       503.721          43.000
G25  23782316.727 7 124977027.904 7      3404.742          43.000    23782320.211 7  97384672.905 7      2653.046          43.000
R04  20618182.180 8 110409464.003 8     -2574.215          49.000    20618183.641 7  85874004.026 7     -2002.167          43.000
R14  19613035.984 5 104548514.369 5       -98.547          35.000    19613038.102 5  81315507.505 5       -76.651          30.000
R15  21718327.609 5 116056148.493 5      2548.762          35.000    21718347.352 4  90265935.190 4      1982.385          29.000
R23  21407991.781 5 114518275.583 5      1143.582          32.000
R24  22296906.953 6 119231594.559 6      3493.055          39.000    22296908.141 6  92735705.329 6      2716.823          37.000
C05                                                                  39732656.570 6 159986942.846 6        26.666          37.000
C19  23726931.062 5 123552330.220 5     -1127.059          35.000
C20  25271261.594 5 131594079.589 5     -3090.328          31.000
C27  24634136.078 7 128276446.162 7      3056.531          47.000
E01                                                                  24874249.898 6 100158315.015 6      1184.388          40.000
E19  24988509.062 7 131315497.748 7     -2081.438          45.000    24988509.281 7 100618364.333 7     -1594.907          45.000
E21  23646824.586 8 124264974.070 8      -693.641          51.000    23646826.656 8  95215967.299 8      -531.455          51.000
> 2020 05 01 08 02 30.0000000  0 19        .000000000000
G12  21212456.086 8 111472202.661 8      2351.801          51.000    21212454.844 8  86861451.313 8      1832.572          51.000
G13  23558406.086 7 123800217.229 7     -3668.203          45.000    23558403.570 6  96467676.472 6     -2858.340          37.000
G15  22090360.633 8 116085606.426 8     -3039.523          51.000    22090360.859 8  90456326.730 8     -2368.460          51.000
G17  22812154.102 6 119878686.626 6     -1611.320          37.000
G19  21564651.797 5 113323033.400 5       169.910          35.000
G24  20234565.391 7 106333364.248 7       627.750          44.000    20234567.648 7  82857176.048 7       489.159          44.000
G25  23762869.547 7 124874831.708 7      3392.684          42.000    23762873.414 6  97305039.559 6      2643.656          41.000
R04  20632638.281 8 110486878.409 8     -2602.730          48.000    20632638.875 7  85934215.192 7     -2024.346          42.000
R14  19613596.945 5 104551502.079 5      -116.551          34.000    19613597.664 5  81317831.229 5       -90.645          32.000
R15  21704011.133 6 115979643.360 6      2535.750          37.000
R24  22277319.227 6 119126853.313 6      3473.707          38.000    22277321.672 6  92654239.926 6      2701.769          36.000
C05                                                                  39732433.008 6 159986042.684 6        21.706          37.000
C20  25289040.438 5 131686685.511 5     -3099.660          32.000
C27  24616516.203 7 128184693.964 7      3044.750          47.000
C28  23701439.133 6 123419594.248 6       801.188          36.000
E01                                                                  24865417.547 6 100122747.868 6      1174.756          41.000
E19  25000394.656 7 131377964.634 7     -2098.684          44.000    25000395.914 7 100666228.570 7     -1608.070          45.000
E21  23650776.258 8 124285739.963 8      -706.332          51.000    23650778.125 8  95231878.818 8      -541.197          51.000
E27  26572591.648 6 139639911.427 6     -2330.168          36.000
> 2020 05 01 08 03  0.0000000  0 18        .000000000000
G12  21199045.539 8 111401728.856 8      2350.992          51.000    21199043.766 8  86806536.693 8      1831.942          51.000
G13  23579341.531 7 123910230.542 7     -3661.660          45.000    23579339.984 6  96553401.136 6     -2853.242          36.000
G15  22107722.141 8 116176840.051 8     -3038.266          51.000    22107721.602 8  90527417.841 8     -2367.480          51.000
G17  22821374.477 5 119927127.128 5     -1615.531          34.000    22821363.305 5  93449666.608 5     -1258.856          31.000
G19  21563716.492 6 113318154.854 6       159.680          36.000    21563712.977 5  88299783.267 5       124.429          35.000
G24  20230996.320 7 106314606.910 7       627.430          46.000    20230998.422 7  82842559.930 7       488.906          45.000
G25  23743498.023 6 124773034.152 6      3398.223          40.000    23743502.766 6  97225716.833 6      2647.966          40.000
R04  20647259.211 8 110565174.382 8     -2612.320          49.000    20647259.367 6  85995112.031 6     -2031.808          41.000
R14  19614261.586 6 104555044.888 6      -115.324          36.000    19614263.312 5  81320586.756 5       -89.697          34.000
R24  22257845.594 6 119022724.507 6      3472.695          38.000    22257849.273 5  92573250.854 5      2700.988          35.000
C05                                                                  39732251.445 6 159985311.650 6        30.734          37.000
C19  23740088.695 5 123620880.471 5     -1152.391          32.000
C20  25306890.680 5 131779623.302 5     -3091.059          31.000
C27  24598968.555 7 128093319.512 7      3051.199          47.000
E01  24856656.305 6 130622608.112 6      1539.270          37.000    24856660.945 6 100087486.336 6      1179.431          38.000
E19  25012383.914 7 131440970.875 7     -2097.195          46.000    25012385.867 7 100714506.073 7     -1606.933          46.000
E21  23654804.992 8 124306911.334 8      -700.512          51.000    23654806.727 8  95248101.029 8      -536.750          51.000
E27  26585875.055 5 139709718.243 5     -2318.551          35.000    26585868.711 5 107050274.044 5     -1777.034          33.000
> 2020 05 01 08 03 30.0000000  0 18        .000000000000
G12  21185769.305 8 111331961.130 8      2320.680          51.000    21185767.383 8  86752172.257 8      1808.325          51.000
G13  23600370.398 7 124020734.424 7     -3684.633          45.000    23600369.320 6  96639508.018 6     -2871.145          37.000
G15  22125205.359 8 116268714.129 8     -3066.207          51.000    22125204.117 8  90599008.021 8     -2389.252          51.000
G17  22830749.086 6 119976374.582 6     -1648.086          36.000    22830734.234 5  93488043.042 5     -1284.226          35.000
G19  21562973.414 6 113314260.031 6       120.352          37.000    21562969.344 5  88296748.380 5        93.783          34.000
G24  20227558.469 7 106296539.585 7       597.605          46.000    20227560.555 7  82828481.497 7       465.667          46.000
G25  23724221.055 6 124671735.887 6      3375.379          38.000    23724226.398 6  97146783.108 6      2630.162          38.000
R04  20662063.539 8 110644449.454 8     -2651.855          49.000    20662063.445 6  86056770.423 6     -2062.557          40.000
R14  19615050.234 6 104559243.264 6      -143.652          39.000    19615051.125 5  81323852.189 5      -111.730          34.000
R24  22238507.031 7 118919313.938 7      3441.934          42.000    22238510.797 4  92492820.511 4      2677.062          29.000
C05                                                                  39732130.867 6 159984825.912 6        17.420          37.000
C19  23746867.570 5 123656232.166 5     -1184.566          31.000
C20  25324822.844 5 131872989.291 5     -3111.973          30.000
C27  24581512.828 8 128002423.766 8      3028.664          49.000
E01  24847993.711 6 130577087.016 6      1515.836          37.000
E19  25024495.508 8 131504614.633 8     -2124.988          49.000    25024497.430 7 100763272.024 7     -1628.217          47.000
E21  23658929.648 8 124328586.908 8      -724.031          51.000    23658931.391 8  95264709.574 8      -554.768          51.000
E27  26599222.531 5 139779857.294 5     -2336.641          33.000    26599218.812 5 107104023.151 5     -1790.572          33.000
> 2020 05 01 08 04  0.0000000  0 19        .000000000000
G12  21172505.680 8 111262260.992 8      2318.496          51.000    21172504.203 8  86697860.474 8      1806.620          51.000
G13  23621370.398 7 124131087.708 7     -3679.406          43.000    23621369.359 6  96725497.594 6     -2867.070          36.000
G15  22142688.250 8 116360587.090 8     -3066.156          51.000    22142686.414 8  90670597.312 8     -2389.216          51.000
G19  21562297.047 6 113310710.026 6       108.836          39.000    21562294.281 5  88293982.151 5        84.819          35.000
G24  20224130.336 7 106278524.448 7       595.773          46.000    20224132.594 7  82814443.710 7       464.239          46.000
G25  23704918.344 7 124570299.233 7      3380.008          42.000    23704922.578 6  97067741.523 6      2633.772          41.000
R04  20676928.758 8 110724048.982 8     -2662.488          48.000    20676928.516 6  86118681.163 6     -2070.824          41.000
R14  19615838.523 5 104563448.695 5      -144.195          35.000    19615840.250 5  81327122.955 5      -112.155          35.000
R15  21661466.781 5 115752309.327 5      2521.719          31.000
R23  21383573.977 4 114387729.639 4      1037.355          28.000
R24  22219182.758 6 118815976.092 6      3439.629          41.000    22219182.969 4  92412411.686 4      2675.270          27.000
C05                                                                  39731949.633 6 159984095.946 6        25.551          37.000
C20  25342715.430 5 131966147.739 5     -3105.465          31.000
C27  24564028.391 8 127911376.225 8      3033.684          50.000
C28  23688038.547 5 123349867.679 5       756.566          32.000
E01  24839302.523 5 130531425.102 5      1520.328          34.000
E19  25036606.852 8 131568255.499 8     -2124.930          50.000    25036608.438 8 100812035.777 8     -1628.220          48.000
E21  23663028.586 8 124350127.124 8      -719.453          51.000    23663030.398 8  95281214.405 8      -551.359          51.000
E27  26612514.344 5 139849705.258 5     -2326.785          34.000
> 2020 05 01 08 04 30.0000000  0 18        .000000000000
G12  21159332.594 8 111193037.193 8      2307.594          51.000    21159331.281 8  86643919.865 8      1798.125          51.000
G13  23642418.562 6 124241696.125 6     -3683.219          41.000    23642417.500 5  96811685.934 5     -2870.038          30.000
G15  22160248.078 8 116452864.494 8     -3074.531          51.000    22160245.953 8  90742501.745 8     -2395.739          51.000
G19  21561764.047 6 113307912.974 6        89.141          36.000    21561761.766 5  88291802.590 5        69.463          31.000
G24  20220789.867 7 106260970.182 7       585.578          47.000    20220792.141 7  82800765.065 7       456.295          47.000
G25  23685667.367 7 124469133.162 7      3375.406          45.000    23685669.828 6  96988910.849 6      2630.190          39.000
R04  20691930.180 8 110804385.082 8     -2681.789          48.000    20691930.219 6  86181164.778 6     -2085.833          41.000
R14  19616704.711 5 104568074.140 5      -152.863          33.000    19616709.867 5  81330720.576 5      -118.891          35.000
R15  21647361.180 5 115676909.436 5      2516.539          33.000
R24  22199950.008 6 118713130.605 6      3428.082          41.000    22199950.297 5  92332420.835 5      2666.292          31.000
C05                                                                  39731785.258 6 159983434.245 6        27.140          36.000
C20  25360644.742 5 132059500.346 5     -3106.391          32.000
C27  24546593.383 8 127820583.577 8      3030.062          51.000
C28  23683733.188 6 123327542.228 6       742.301          36.000
E01  24830663.562 5 130486017.018 5      1516.121          35.000
E19  25048794.906 8 131632300.043 8     -2133.516          51.000    25048796.320 8 100861108.824 8     -1634.739          49.000
E21  23667179.273 8 124371939.200 8      -723.504          51.000    23667181.164 8  95297927.541 8      -554.364          51.000
E27  26625826.414 5 139919661.606 5     -2325.188          35.000
> 2020 05 01 08 05  0.0000000  0 17        .000000000000
G12  21146211.320 8 111124084.151 8      2290.109          51.000    21146208.961 8  86590190.268 8      1784.504          51.000
G13  23663474.602 6 124352351.058 6     -3692.707          38.000
G15  22177845.180 8 116545337.492 8     -3089.523          51.000    22177842.820 8  90814558.582 8     -2407.421          51.000
G19  21561335.148 5 113305662.351 5        62.418          35.000    21561333.086 5  88290053.828 5        48.643          30.000
G24  20217498.078 7 106243671.046 7       568.461          47.000    20217499.992 7  82787285.243 7       442.957          47.000
G25  23666428.930 7 124368032.384 7      3365.172          46.000    23666430.227 6  96910131.086 6      2622.215          40.000
R04  20707028.859 8 110885243.383 8     -2707.797          49.000    20707029.789 7  86244054.531 7     -2106.067          43.000
R14  19617612.273 6 104572909.970 6      -168.535          37.000    19617617.789 5  81334481.791 5      -131.086          33.000
R24  22180770.977 5 118610571.871 5      3409.949          35.000    22180772.586 5  92252652.919 5      2652.183          32.000
C05                                                                  39731598.570 6 159982682.610 6        23.714          37.000
C19  23767589.055 6 123764064.904 6     -1221.715          36.000
C20  25378568.039 5 132152840.017 5     -3115.082          35.000
C27  24529168.625 8 127729843.724 8      3019.930          51.000
E01                                                                  24822048.867 6  99948093.761 6      1154.179          37.000
E19  25061019.945 8 131696540.524 8     -2148.613          50.000    25061021.422 8 100910332.020 8     -1646.319          49.000
E21  23671342.297 8 124393815.918 8      -734.137          51.000    23671344.211 8  95314690.211 8      -562.547          51.000
E27  26639119.547 5 139989517.283 5     -2330.715          32.000
> 2020 05 01 08 05 30.0000000  0 17        .000000000000
G12  21133189.398 8 111055652.796 8      2267.965          51.000    21133186.328 8  86536867.174 8      1767.245          51.000
G13  23684585.945 6 124463300.635 6     -3707.746          37.000
G15  22195526.430 8 116638253.845 8     -3109.066          50.000    22195524.094 8  90886960.907 8     -2422.649          50.000
G19  21561057.961 6 113304209.093 6        30.277          38.000    21561056.258 5  88288921.347 5        23.599          33.000
G24  20214302.453 7 106226877.739 7       546.875          47.000    20214304.234 8  82774199.561 8       426.136          48.000
G25  23647250.617 7 124267248.317 7      3349.918          45.000    23647251.508 6  96831598.082 6      2610.326          41.000
R04  20722273.586 8 110966875.427 8     -2738.438          51.000    20722274.562 7  86307546.068 7     -2129.896          44.000
R14  19618606.836 6 104578209.195 6      -188.984          36.000    19618610.742 5  81338603.467 5      -146.985          32.000
R24  22161693.438 5 118508559.004 5      3387.328          32.000    22161695.719 5  92173309.519 5      2634.582          30.000
C05                                                                  39731437.164 6 159982032.739 6        16.305          37.000
C19  23774686.703 6 123801027.629 6     -1246.102          38.000
C20  25396535.266 5 132246412.153 5     -3127.699          35.000
C27  24511802.094 8 127639407.117 8      3005.039          51.000
C28  23675415.578 4 123284107.095 4       696.957          28.000
E01                                                                  24813479.398 6  99913594.343 6      1142.670          37.000
E19  25073329.172 8 131761225.646 8     -2168.012          49.000    25073330.953 8 100959895.917 8     -1661.195          49.000
E21  23675565.047 8 124416006.807 8      -749.359          51.000    23675567.055 8  95331693.607 8      -574.158          51.000
> 2020 05 01 08 06  0.0000000  0 20        .000000000000
G10  24094580.664 5 126617886.246 5      -748.926          32.000
G12  21120244.016 8 110987625.416 8      2264.605          51.000    21120241.883 8  86483858.836 8      1764.625          51.000
G13  23705730.547 6 124574423.874 6     -3703.281          37.000
G15  22213268.711 8 116731492.215 8     -3109.488          49.000    22213266.719 8  90959614.164 8     -2422.978          49.000
G17  22878745.969 5 120228613.229 5     -1720.281          35.000    22878750.812 5  93684657.038 5     -1340.479          34.000
G19  21560910.625 5 113303434.263 5        18.531          30.000
G24  20211180.539 8 106210472.442 8       544.098          48.000    20211182.633 7  82761416.209 7       423.972          47.000
G25  23628109.922 7 124166663.503 7      3353.426          43.000    23628110.797 6  96753220.315 6      2613.059          41.000
R04  20737639.664 8 111049156.239 8     -2749.641          51.000    20737640.969 7  86371542.221 7     -2138.609          45.000
R14  19619665.609 6 104583851.174 6      -189.938          37.000    19619667.633 5  81342991.661 5      -147.723          33.000
R15  21605238.984 6 115451849.926 6      2492.914          38.000    21605243.148 4  89795887.901 4      1938.939          27.000
R23  21361593.039 5 114270131.525 5       928.492          32.000
C05                                                                  39731278.516 6 159981393.670 6        24.035          37.000
C19  23781874.195 6 123838456.498 6     -1251.477          36.000
C20  25414523.211 6 132340096.601 6     -3120.719          38.000
C27  24494471.133 8 127549158.634 8      3008.949          51.000
C28  23671416.531 5 123263271.966 5       689.508          32.000
E01                                                                  24804946.648 5  99879241.628 5      1145.463          35.000
E19  25085699.812 8 131826235.189 8     -2168.379          48.000    25085701.875 8 101009708.413 8     -1661.467          48.000
E21  23679824.766 8 124438392.462 8      -745.562          51.000    23679826.898 8  95348846.243 8      -571.296          51.000
> 2020 05 01 08 06 30.0000000  0 18        .000000000000
G12  21107355.227 8 110919895.483 8      2253.914          51.000    21107354.086 8  86431082.249 8      1756.297          51.000
G13  23726888.406 5 124685611.236 5     -3705.375          35.000    23726895.352 5  97157657.476 5     -2887.311          32.000
G15  22231051.438 8 116824943.321 8     -3117.324          49.000    22231049.852 8  91032433.188 8     -2429.084          49.000
G24  20208112.141 8 106194348.987 8       534.098          48.000    20208114.562 8  82748852.448 8       416.180          48.000
G25  23608986.945 7 124066171.942 7      3349.316          44.000    23608987.609 7  96674915.206 7      2609.857          42.000
R04  20753105.695 8 111131973.073 8     -2768.254          50.000    20753107.156 7  86435955.277 7     -2153.086          45.000
R14  19620768.484 6 104589726.508 6      -198.465          40.000    19620769.484 5  81347561.345 5      -154.362          32.000
R15  21591273.883 6 115377179.363 6      2488.242          36.000
R23  21356464.164 5 114242695.790 5       904.270          32.000
R24  22123761.070 5 118305698.610 5      3370.531          31.000    22123766.492 5  92015543.091 5      2621.530          31.000
C05                                                                  39731101.969 6 159980683.292 6        25.608          37.000
C19  23789133.898 5 123876244.020 5     -1264.656          32.000
C20  25432511.695 6 132433784.819 6     -3121.258          37.000
C27  24477155.664 8 127458994.659 8      3005.227          50.000
C28  23667504.000 6 123242869.756 6       674.348          37.000
E01                                                                  24796429.789 5  99844947.446 5      1142.718          31.000
E19  25098111.492 8 131891460.664 8     -2176.512          48.000    25098113.484 7 101059686.366 7     -1667.756          47.000
E21  23684101.039 8 124460865.116 8      -749.328          51.000    23684103.109 8  95366065.549 8      -574.178          51.000
> 2020 05 01 08 07  0.0000000  0 13        .000000000000
G12  21094542.312 8 110852562.867 8      2235.082          51.000    21094541.102 8  86378615.266 8      1741.622          51.000
G13  23748077.602 5 124796960.018 5     -3716.828          34.000    23748083.922 5  97244422.721 5     -2896.236          32.000
G15  22248893.250 8 116918703.256 8     -3133.109          49.000    22248891.883 8  91105492.832 8     -2441.384          49.000
G24  20205116.398 8 106178606.605 8       515.711          49.000    20205118.852 8  82736585.635 8       401.853          49.000
G25  23589900.883 7 123965873.698 7      3337.270          45.000    23589901.242 6  96596760.793 6      2600.470          41.000
R04  20768690.141 8 111215423.006 8     -2794.906          50.000    20768691.156 7  86500860.748 7     -2173.816          44.000
R14  19621932.641 6 104595935.013 6      -214.969          36.000    19621934.070 5  81352390.085 5      -167.198          32.000
R23  21351490.500 5 114216071.707 5       871.660          30.000
C05                                                                  39730926.688 6 159979977.437 6        21.286          36.000
C20  25450518.719 6 132527572.357 6     -3130.406          37.000
C27  24459875.445 8 127369015.745 8      2993.512          49.000
E19  25110582.984 8 131956999.465 8     -2192.652          49.000    25110584.570 7 101109904.395 7     -1680.105          47.000
E21  23688412.680 8 124483523.046 8      -761.043          51.000    23688414.555 8  95383426.794 8      -583.152          51.000
> 2020 05 01 08 07 30.0000000  0 15        .000000000000
G12  21081802.438 8 110785612.787 8      2226.262          51.000    21081800.266 8  86326446.396 8      1734.752          51.000
G13  23769294.555 5 124908452.485 5     -3717.734          32.000    23769300.336 5  97331299.886 5     -2896.948          33.000
G15  22266790.633 8 117012754.461 8     -3138.945          48.000    22266789.406 8  91178779.449 8     -2445.934          48.000
G19  21561177.008 5 113304736.449 5       -47.336          34.000
G24  20202190.523 8 106163230.807 8       507.363          49.000    20202192.789 8  82724604.486 8       395.348          50.000
G25  23570848.875 7 123865754.560 7      3335.184          43.000    23570849.578 7  96518745.920 7      2598.844          43.000
R04  20784388.719 8 111299486.514 8     -2811.340          49.000    20784388.859 7  86566243.482 7     -2186.598          43.000
R14  19623155.320 6 104602460.681 6      -221.695          36.000    19623157.922 5  81357465.562 5      -172.430          31.000
R23  21346662.492 6 114190235.235 6       848.559          36.000
C05                                                                  39730749.531 6 159979264.255 6        24.557          37.000
C20  25468540.406 5 132621441.419 5     -3129.777          33.000
C27  24442628.016 8 127279209.075 8      2991.613          48.000
C28  23659962.070 5 123203613.652 5       640.027          32.000
E19  25123111.102 8 132022835.085 8     -2198.578          49.000    25123111.930 7 101160349.835 7     -1684.649          47.000
E21  23692756.523 8 124506350.119 8      -762.797          51.000    23692758.344 8  95400917.657 8      -584.472          51.000
> 2020 05 01 08 08  0.0000000  0 17        .000000000000
G12  21069140.930 8 110719074.446 8      2211.625          51.000    21069138.484 8  86274598.362 8      1723.344          51.000
G13  23790544.250 6 125020149.252 6     -3724.363          36.000    23790548.180 5  97418309.003 5     -2902.107          34.000
G15  22284747.969 7 117107122.502 7     -3150.305          46.000    22284747.289 7  91252312.975 7     -2454.783          46.000
G19  21561519.383 4 113306556.724 4       -71.598          29.000
G24  20199340.023 8 106148250.708 8       493.164          49.000    20199341.914 8  82712931.685 8       384.284          50.000
G25  23551836.484 7 123765843.883 7      3327.285          42.000    23551838.180 7  96440893.480 7      2592.690          42.000
R04  20800205.766 8 111384188.388 8     -2833.523          48.000    20800205.742 7  86632122.714 7     -2203.852          42.000
R14  19624444.656 6 104609331.443 6      -234.043          36.000    19624448.055 5  81362809.537 5      -182.033          31.000
R15  21549574.734 4 115154391.686 4      2465.559          28.000
R23  21341997.656 5 114165235.600 5       820.074          35.000
R24  22067446.250 5 118004520.802 5      3324.465          33.000
C05                                                                  39730576.039 6 159978565.357 6        23.512          36.000
C19  23811436.039 5 123992411.960 5     -1311.477          32.000
C27  24425419.797 7 127189605.170 7      2983.859          47.000
C28  23656329.266 5 123184725.492 5       621.066          32.000
E19  25135700.766 8 132088993.957 8     -2210.078          49.000    25135700.727 7 101211042.945 7     -1693.326          46.000
E21  23697137.719 8 124529373.828 8      -770.145          51.000    23697139.750 8  95418559.192 8      -590.135          51.000
> 2020 05 01 08 08 30.0000000  0 14        .000000000000
G12  21056551.312 8 110652915.487 8      2200.258          51.000    21056549.570 8  86223045.930 8      1714.487          51.000
G13  23811820.281 6 125131945.126 6     -3727.133          36.000    23811821.523 4  97505422.593 4     -2904.250          28.000
G15  22302758.633 7 117201771.815 7     -3158.340          47.000    22302758.812 8  91326065.699 8     -2461.044          48.000
G24  20196558.602 8 106133633.785 8       482.410          50.000    20196559.953 8  82701541.871 8       375.907          50.000
G25  23532857.648 7 123666109.717 7      3322.773          43.000    23532860.484 7  96363178.546 7      2589.174          42.000
R04  20816135.055 8 111469490.995 8     -2852.098          49.000    20816135.234 7  86698469.186 7     -2218.298          44.000
R14  19625791.516 5 104616513.229 5      -243.098          35.000    19625797.297 5  81368395.483 5      -189.067          30.000
R23  21337484.133 6 114141063.047 6       794.996          39.000
R24  22048833.859 5 117904987.580 5      3312.043          30.000
C05                                                                  39730399.812 6 159977855.326 6        25.031          37.000
C19  23819032.812 5 124031987.335 5     -1324.895          33.000
C27  24408244.906 7 127100173.670 7      2979.430          45.000
E19  25148345.469 8 132155441.613 8     -2218.309          50.000    25148344.953 7 101261957.339 7     -1699.698          46.000
E21  23701549.906 8 124552560.392 8      -774.258          51.000    23701552.164 8  95436325.504 8      -593.254          51.000
> 2020 05 01 08 09  0.0000000  0 16        .000000000000
G12  21044015.836 8 110587042.624 8      2197.770          51.000    21044014.594 8  86171716.413 8      1712.548          51.000
G13  23833103.492 6 125243779.072 6     -3721.500          39.000    23833102.031 5  97592565.888 5     -2899.858          34.000
G15  22320805.031 8 117296605.722 8     -3157.379          49.000    22320805.367 8  91399962.226 8     -2460.298          49.000
G24  20193828.570 8 106119286.848 8       480.652          50.000    20193829.539 8  82690362.442 8       374.534          50.000
G25  23513894.500 7 123566459.111 7      3327.465          42.000    23513898.320 7  96285528.763 7      2592.833          42.000
R04  20832158.016 8 111555294.865 8     -2861.578          48.000    20832159.844 7  86765205.505 7     -2225.672          45.000
R14  19627179.211 6 104623910.316 6      -243.133          37.000    19627184.922 5  81374148.764 5      -189.103          31.000
R15  21521955.039 5 115006792.581 5      2464.301          35.000
R23  21333066.406 5 114117560.037 5       778.645          34.000
C05                                                                  39730202.875 6 159977063.158 6        33.009          36.000
C19  23826688.836 5 124071820.322 5     -1329.141          30.000
C27  24391085.133 7 127010823.965 7      2983.668          42.000
C28  23649337.820 5 123148304.752 5       600.871          32.000
E19  25161026.984 8 132222082.519 8     -2217.656          50.000    25161026.539 7 101313019.836 7     -1699.336          47.000
E21  23705975.109 8 124575815.124 8      -769.590          51.000    23705977.320 8  95454144.068 8      -589.650          51.000
E27  26745684.820 5 140549511.947 5     -2323.195          35.000    26745686.203 5 107693785.902 5     -1780.153          34.000
> 2020 05 01 08 09 30.0000000  0 16        .000000000000
G12  21031563.344 8 110521605.132 8      2171.105          51.000    21031561.891 8  86120726.173 8      1691.774          51.000
G13  23854421.500 6 125355797.402 6     -3739.906          38.000    23854418.977 5  97679852.817 5     -2914.207          34.000
G15  22338914.828 8 117391770.899 8     -3180.410          49.000    22338914.820 8  91474116.869 8     -2478.245          49.000
G24  20191178.156 8 106105358.703 8       454.445          50.000    20191179.211 8  82679509.333 8       354.113          50.000
G25  23494975.594 7 123467041.951 7      3307.145          42.000    23494979.555 6  96208060.844 6      2576.996          41.000
R04  20848302.633 8 111641747.367 8     -2895.410          50.000    20848305.359 7  86832446.342 7     -2251.986          46.000
R14  19628635.742 5 104631673.006 5      -267.559          35.000    19628640.383 4  81380186.326 4      -208.095          29.000
R15  21508187.953 4 114933223.634 4      2444.637          29.000
R23  21328836.523 5 114094937.266 5       738.293          32.000
C05                                                                  39730013.578 6 159976300.694 6        22.790          36.000
C19  23834447.875 5 124112212.377 5     -1357.449          32.000
C27  24373968.562 7 126921705.902 7      2963.895          43.000
C28  23645982.477 5 123130841.137 5       569.965          31.000
E19  25173773.172 8 132289063.883 8     -2241.320          49.000    25173773.398 8 101364343.200 8     -1717.384          48.000
E21  23710441.602 8 124599286.014 8      -788.797          51.000    23710443.508 8  95472128.254 8      -604.418          51.000
E27  26759003.422 5 140619503.231 5     -2336.781          34.000    26759004.125 5 107747415.455 5     -1790.554          35.000
> 2020 05 01 08 10  0.0000000  0 15        .000000000000
G12  21019213.789 8 110456706.855 8      2143.527          51.000    21019212.469 8  86070156.113 8      1670.284          51.000
G13  23875793.141 5 125468101.041 5     -3759.039          34.000    23875789.492 4  97767366.038 4     -2929.121          29.000
G15  22357106.672 8 117487367.361 8     -3204.504          50.000    22357106.430 8  91548607.567 8     -2497.019          50.000
G24  20188627.258 8 106091953.728 8       427.219          50.000    20188628.508 8  82669063.897 8       332.895          50.000
G25  23476121.289 7 123367962.255 7      3286.383          44.000    23476124.273 7  96130855.890 7      2560.818          43.000
R04  20864588.023 8 111728949.547 8     -2930.227          50.000    20864590.641 7  86900270.231 7     -2279.068          47.000
R14  19630179.961 5 104639904.972 5      -293.047          35.000    19630185.250 5  81386588.934 5      -227.928          30.000
R15  21494493.039 5 114860029.115 5      2423.207          32.000    21494497.523 4  89335615.358 4      1884.717          26.000
R24  21993472.633 6 117609008.609 6      3249.668          36.000    21993470.219 4  91473634.232 4      2527.520          27.000
C05                                                                  39729851.609 6 159975647.874 6        11.681          37.000
C27  24356918.273 7 126832923.871 7      2943.086          45.000
C28  23642750.711 5 123114002.824 5       539.867          31.000
E19  25186603.336 8 132356487.264 8     -2265.703          49.000    25186604.492 8 101416005.258 8     -1736.061          49.000
E21  23714968.703 8 124623075.331 8      -809.133          51.000    23714970.508 8  95490356.418 8      -619.919          51.000
E27  26772350.219 5 140689651.829 5     -2351.930          32.000    26772348.586 5 107801165.615 5     -1801.927          33.000
> 2020 05 01 08 10 30.0000000  0 17        .000000000000
G12  21006950.719 8 110392263.600 8      2146.516          51.000    21006950.039 8  86019940.608 8      1672.610          51.000
G13  23897202.219 5 125580602.729 5     -3747.234          31.000
G15  22375363.812 8 117583307.789 8     -3197.590          51.000    22375363.477 8  91623366.314 8     -2491.631          51.000
G24  20186159.828 8 106078987.747 8       430.918          51.000    20186161.328 8  82658960.528 8       335.780          51.000
G25  23457315.398 7 123269136.237 7      3295.953          45.000    23457317.250 7  96053848.655 7      2568.278          42.000
R04  20880996.281 8 111816810.970 8     -2933.418          48.000    20880998.203 7  86968606.861 7     -2281.547          45.000
R14  19631796.562 6 104648519.731 6      -287.629          36.000    19631800.977 4  81393289.322 4      -223.711          28.000
R23  21320896.922 5 114052470.346 5       685.262          32.000
R24  21975215.641 6 117511406.793 6      3250.895          37.000    21975221.320 4  91397721.973 4      2528.480          29.000
C05                                                                  39729700.461 6 159975039.533 6        24.146          36.000
C19  23850267.047 4 124194610.191 4     -1384.039          26.000
C27  24339918.227 7 126744396.217 7      2952.656          46.000
C28  23639629.000 5 123097746.879 5       538.516          34.000
E01  24729525.219 5 129954531.288 5      1441.941          32.000    24729529.805 6  99575561.330 6      1105.211          37.000
E19  25199501.031 8 132424266.139 8     -2259.250          48.000    25199502.969 8 101467939.723 8     -1731.105          49.000
E21  23719540.023 8 124647097.484 8      -798.613          51.000    23719542.031 8  95508763.005 8      -611.918          51.000
E27  26785710.258 5 140759857.343 5     -2335.820          31.000    26785704.812 5 107854936.006 5     -1789.883          31.000
> 2020 05 01 08 11  0.0000000  0 16        .000000000000
G12  20994738.000 8 110328085.636 8      2133.262          51.000    20994737.414 8  85969931.800 8      1662.282          51.000
G13  23918612.320 5 125693146.821 5     -3751.758          34.000
G15  22393649.445 8 117679398.987 8     -3207.137          51.000    22393649.000 8  91698242.540 8     -2499.071          51.000
G24  20183739.664 8 106066270.309 8       418.238          51.000    20183741.305 8  82649050.831 8       325.897          51.000
G25  23438521.836 7 123170374.484 7      3289.523          45.000    23438522.867 7  95976891.491 7      2563.265          43.000
R04  20897488.414 7 111905133.437 7     -2953.371          46.000    20897491.188 7  87037302.121 7     -2297.066          44.000
R15  21467198.156 5 114714174.241 5      2426.414          34.000
R24  21957023.258 6 117414130.518 6      3235.629          37.000    21957034.805 4  91322062.646 4      2516.597          25.000
C05                                                                  39729524.094 5 159974329.669 5        24.255          35.000
C19  23858301.594 5 124236385.390 5     -1398.871          32.000
C27  24322931.602 7 126655936.613 7      2946.062          47.000
C28  23636578.414 5 123081864.937 5       521.531          33.000
E01  24721310.781 5 129911364.544 5      1436.770          31.000    24721317.578 5  99542490.921 5      1100.782          34.000
E19  25212429.734 8 132492208.423 8     -2268.922          48.000    25212432.211 8 101519999.384 8     -1738.453          50.000
E21  23724119.164 8 124671161.231 8      -804.285          51.000    23724121.367 8  95527201.456 8      -616.312          51.000
E27                                                                  26799040.578 5 107908634.181 5     -1790.314          30.000
> 2020 05 01 08 11 30.0000000  0 17        .000000000000
G12  20982561.352 8 110264097.748 8      2121.371          50.000    20982559.523 8  85920071.092 8      1653.016          50.000
G13  23940007.188 6 125805581.289 6     -3755.016          38.000
G15  22411948.781 8 117775562.777 8     -3214.938          50.000    22411948.328 8  91773175.322 8     -2505.146          50.000
G24  20181352.438 8 106053726.447 8       406.902          50.000    20181354.391 8  82639276.379 8       317.064          50.000
G25  23419726.266 7 123071602.482 7      3284.316          44.000    23419726.750 7  95899926.306 7      2559.211          42.000
R04  20914052.266 7 111993835.922 7     -2971.668          47.000    20914055.055 7  87106292.918 7     -2311.300          43.000
R14  19635125.742 5 104666313.967 5      -307.496          31.000    19635130.094 4  81407115.461 4      -239.164          29.000
R15  21453575.008 5 114641296.544 5      2420.617          31.000
R23  21313496.586 5 114012830.871 5       632.047          33.000
R24  21938878.359 6 117317107.289 6      3221.438          37.000
C05                                                                  39729308.227 6 159973460.311 6        25.225          37.000
C19  23866381.812 4 124278388.857 4     -1412.145          29.000
C27  24305944.195 7 126567472.596 7      2940.602          47.000
C28  23633587.867 5 123066282.774 5       505.668          32.000
E01  24713093.742 5 129868179.519 5      1431.934          33.000    24713098.969 5  99509395.671 5      1096.795          35.000
E19  25225375.062 8 132560237.144 8     -2277.336          48.000    25225377.805 8 101572125.275 8     -1744.969          50.000
E21  23728691.711 8 124695190.268 8      -808.738          51.000    23728693.992 8  95545613.294 8      -619.686          51.000
> 2020 05 01 08 12  0.0000000  0 16        .000000000000
G12  20970543.984 8 110200946.316 8      2105.152          50.000    20970541.383 8  85870862.201 8      1640.378          50.000
G13  23961511.688 6 125918586.734 6     -3762.090          36.000
G15  22430384.375 8 117872442.322 8     -3227.172          51.000    22430383.891 8  91848665.852 8     -2514.679          51.000
G17  23003101.664 5 120882114.383 5     -1908.434          35.000
G24  20179121.344 8 106042002.840 8       391.203          50.000    20179123.547 8  82630141.087 8       304.834          50.000
G25  23401051.633 7 122973467.004 7      3274.730          45.000    23401052.469 7  95823457.123 7      2551.741          43.000
R04  20930809.914 7 112083572.306 7     -2994.156          47.000    20930812.383 7  87176087.869 7     -2328.788          43.000
R05  20971116.086 5 112102628.284 5       927.281          34.000
R23  21310074.070 4 113994525.774 4       601.484          28.000
R24  21920905.094 6 117220998.354 6      3202.195          36.000
C05                                                                  39729175.531 6 159972926.112 6        23.032          36.000
C27  24289079.266 8 126479646.468 8      2930.777          48.000
C28  23630778.344 5 123051640.977 5       486.770          31.000
E01                                                                  24704998.094 6  99476770.291 6      1090.536          37.000
E19  25238459.617 8 132628996.245 8     -2290.152          49.000    25238462.289 8 101624810.806 8     -1754.831          50.000
E21  23733380.445 8 124719829.569 8      -817.441          51.000    23733382.750 8  95564492.743 8      -626.360          51.000
> 2020 05 01 08 12 30.0000000  0 15        .000000000000
G12  20958510.367 8 110137709.634 8      2090.523          51.000    20958509.109 8  85821586.890 8      1628.979          51.000
G13  23982949.320 6 126031238.542 6     -3767.441          36.000
G15  22448780.289 8 117969112.795 8     -3237.715          51.000    22448780.070 8  91923993.455 8     -2522.895          51.000
G17  23014010.617 5 120939431.858 5     -1926.094          32.000    23014019.688 4  94238525.025 4     -1500.849          27.000
G24  20176870.938 8 106030177.253 8       377.078          50.000    20176873.273 8  82620926.333 8       293.827          50.000
G25  23382322.953 7 122875046.679 7      3266.586          46.000    23382324.250 7  95746766.012 7      2545.395          46.000
R04  20947583.008 7 112173398.623 7     -3014.836          47.000    20947586.102 6  87245952.760 6     -2344.869          41.000
R14  19638754.836 5 104685598.272 5      -333.219          31.000    19638743.891 5  81422099.036 5      -259.170          31.000
R24  21902928.188 6 117124869.507 6      3185.488          38.000
C05                                                                  39728950.711 6 159972020.319 6        22.044          36.000
C27  24272161.844 8 126391546.669 8      2922.570          49.000
C28  23627998.945 4 123037193.316 4       467.145          27.000
E01  24696872.219 5 129782922.796 5      1415.855          31.000    24696836.766 5  99443907.819 5      1084.852          34.000
E19  25251507.516 8 132697561.764 8     -2301.117          49.000    25251509.812 8 101677347.994 8     -1763.254          50.000
E21  23738009.688 8 124744156.036 8      -824.453          51.000    23738012.023 8  95583132.486 8      -631.709          51.000
> 2020 05 01 08 13  0.0000000  0 13        .000000000000
G12  20946660.344 8 110075436.724 8      2081.152          51.000    20946660.680 8  85773062.539 8      1621.677          51.000
G15  22467335.352 8 118066619.760 8     -3242.652          51.000    22467335.469 8  91999972.889 8     -2526.742          51.000
G24  20174801.000 8 106019299.509 8       368.223          51.000    20174803.406 8  82612450.163 8       286.927          51.000
G25  23363739.805 7 122777390.887 7      3263.828          46.000    23363741.492 7  95670670.640 7      2543.243          46.000
R04  20964572.359 8 112264379.063 8     -3029.918          50.000    20964576.367 7  87316715.268 7     -2356.606          44.000
R23  21303639.383 5 113960055.983 5       550.113          33.000
R24  21885148.227 5 117029791.864 5      3173.551          30.000    21885153.133 4  91023124.576 4      2468.323          27.000
C05                                                                  39728832.859 6 159971546.146 6        25.025          36.000
C19  23891224.734 5 124407878.398 5     -1455.629          34.000
C27  24255391.664 8 126304214.451 8      2919.582          51.000
C28  23625377.383 5 123023536.314 5       454.719          33.000
E19  25264717.906 8 132766980.567 8     -2306.676          49.000    25264719.961 8 101730538.990 8     -1767.525          50.000
E21  23742778.711 8 124769217.290 8      -826.180          51.000    23742781.180 8  95602335.249 8      -633.065          51.000
> 2020 05 01 08 13 30.0000000  0 13        .000000000000
G12  20934807.117 8 110013147.414 8      2059.484          51.000    20934807.664 8  85724525.432 8      1604.793          51.000
G13  24026037.125 5 126257678.195 5     -3780.066          34.000
G15  22485862.367 8 118163979.789 8     -3260.062          50.000    22485862.828 8  92075837.836 8     -2540.308          50.000
G24  20172724.898 8 106008389.083 8       347.152          51.000    20172727.234 8  82603948.533 8       270.508          51.000
G25  23345115.695 7 122679519.895 7      3248.855          47.000    23345117.820 7  95594407.568 7      2531.576          47.000
R04  20981591.492 8 112355509.979 8     -3057.527          50.000    20981595.562 7  87387594.828 7     -2378.080          45.000
R05  20956161.164 4 112022697.837 4       839.684          29.000    20956152.727 4  87128717.394 4       653.090          27.000
C05                                                                  39728635.461 6 159970751.939 6        18.827          36.000
C19  23899641.047 6 124451702.195 6     -1478.086          37.000
C27  24238582.055 8 126216680.275 8      2904.172          51.000
C28  23622801.367 5 123010082.535 5       430.113          34.000
E19  25277903.805 8 132836270.219 8     -2324.340          50.000    25277905.625 8 101783631.013 8     -1780.934          49.000
E21  23747500.602 8 124794031.776 8      -840.047          51.000    23747503.469 8  95621348.936 8      -643.675          51.000
> 2020 05 01 08 14  0.0000000  0 14        .000000000000
G12  20923048.523 8 109951357.123 8      2049.164          50.000    20923047.555 8  85676377.205 8      1596.754          50.000
G13  24047593.773 5 126370953.325 5     -3782.410          35.000
G15  22504458.828 8 118261705.333 8     -3265.766          50.000    22504459.594 8  92151987.585 8     -2544.755          50.000
G24  20170740.711 8 105997961.412 8       337.340          51.000    20170742.719 8  82595823.075 8       262.862          51.000
G25  23326548.797 7 122581949.605 7      3245.215          46.000    23326551.461 7  95518378.799 7      2528.742          46.000
R04  20998736.125 8 112447311.861 8     -3073.445          50.000    20998739.742 7  87458996.274 7     -2390.457          45.000
R05  20951480.250 5 111997674.886 5       815.887          30.000    20951480.852 4  87109293.923 4       634.591          27.000
R14  19644623.461 5 104716896.650 5      -366.871          33.000
C05                                                                  39728456.750 5 159970032.205 5        21.090          35.000
C19  23908158.352 5 124496048.755 5     -1488.938          33.000
C27  24221831.914 8 126129456.781 8      2900.039          51.000
C28  23620315.898 5 122997197.673 5       415.961          30.000
E19  25291162.758 8 132905943.945 8     -2330.840          50.000    25291164.172 8 101837017.340 8     -1785.977          49.000
E21  23752273.359 8 124819113.690 8      -842.703          51.000    23752276.656 8  95640567.524 8      -645.717          51.000
> 2020 05 01 08 14 30.0000000  0 15        .000000000000
G12  20911392.273 8 109890104.882 8      2036.332          50.000    20911391.156 8  85628648.200 8      1586.752          50.000
G15  22523131.727 8 118359832.085 8     -3274.012          50.000    22523132.508 8  92228449.975 8     -2551.178          50.000
G24  20168855.727 8 105988054.872 8       325.027          51.000    20168857.438 8  82588103.701 8       253.268          51.000
G25  23308046.273 7 122484719.228 7      3238.969          45.000    23308049.430 7  95442614.930 7      2523.875          45.000
R04  21016011.891 8 112539819.599 8     -3091.688          50.000    21016015.047 7  87530946.696 7     -2404.649          44.000
R14  19646715.469 5 104728057.760 5      -377.207          30.000
R24  21832182.352 5 116746511.583 5      3119.797          33.000    21832186.656 4  90802842.867 4      2426.506          28.000
C05                                                                  39728303.805 6 159969416.172 6        21.573          36.000
C19  23916775.719 4 124540931.533 4     -1501.805          28.000
C20  25722521.977 5 133943911.018 5     -3166.848          33.000
C27  24205148.570 8 126042584.287 8      2893.328          51.000
C28  23617974.695 5 122984993.032 5       399.094          33.000
E01  24664769.688 5 129614239.316 5      1392.023          33.000    24664770.875 5  99314811.523 5      1066.591          35.000
E19  25304501.570 8 132976038.466 8     -2339.984          49.000    25304502.320 8 101890726.093 8     -1793.002          48.000
E21  23757104.211 8 124844500.490 8      -847.742          51.000    23757107.695 8  95660019.733 8      -649.593          51.000
> 2020 05 01 08 15  0.0000000  0 16        .000000000000
G12  20899775.422 8 109829057.822 8      2032.211          51.000    20899775.555 8  85581079.047 8      1583.541          51.000
G15  22541817.102 8 118458024.329 8     -3273.438          50.000    22541817.984 8  92304963.392 8     -2550.731          50.000
G24  20167006.633 8 105978337.177 8       321.312          51.000    20167008.242 8  82580531.481 8       250.373          51.000
G25  23289545.203 7 122387497.071 7      3241.109          44.000    23289548.391 7  95366857.437 7      2525.540          44.000
R04  21033355.156 8 112632689.697 8     -3100.996          49.000    21033357.688 7  87603178.918 7     -2411.889          44.000
R14  19648834.875 5 104739355.219 5      -377.977          32.000    19648837.672 4  81463949.894 4      -293.976          24.000
R24  21814699.148 5 116653000.558 5      3112.785          34.000    21814701.312 4  90730112.022 4      2421.055          28.000
