     3.02           OBSERVATION DATA    M (MIXED)           RINEX VERSION / TYPE
SAVERINEX           SC600               20200511 115931 LCL PGM / RUN BY / DATE
       G = GPS       R = GLONASS       C = COMPASS          COMMENT
       S = SBAS      J = QZSS          E = GALILEO          COMMENT
BEAN                                                        MARKER NAME
1                                                           MARKER NUMBER
GEODETIC                                                    MARKER TYPE
Unige DICCA         GTER                                    OBSERVER / AGENCY
SC60291900056       SC600               2.12(191226)        REC # / TYPE / VERS
                    HEMA45          NONE                    ANT # / TYPE
  4509407.8091   693652.4678  4442337.6214                  APPROX POSITION XYZ
        0.0000        0.0000        0.0000                  ANTENNA: DELTA H/E/N
G    8 C1C L1C D1C S1C C2Y L2Y D2Y S2Y                      SYS / # / OBS TYPES
R    8 C1C L1C D1C S1C C2P L2P D2P S2P                      SYS / # / OBS TYPES
C    8 C1I L1I D1I S1I C7I L7I D7I S7I                      SYS / # / OBS TYPES
E    8 C1C L1C D1C S1C C7Q L7Q D7Q S7Q                      SYS / # / OBS TYPES
DBHZ                                                        COMMENT
     30.000                                                 INTERVAL
  2020    05    11    09    00    0.0000000     GPS         TIME OF FIRST OBS
  2020    05    11    09    59   30.0000000     GPS         TIME OF LAST OBS
     0                                                      RCV CLOCK OFFS APPL
G L1C  0.00000                                              SYS / PHASE SHIFT
G L2Y  0.00000                                              SYS / PHASE SHIFT
R L1C  0.00000                                              SYS / PHASE SHIFT
R L2P  0.25000                                              SYS / PHASE SHIFT
C L1I  0.00000                                              SYS / PHASE SHIFT
C L7I  0.00000                                              SYS / PHASE SHIFT
E L1C  0.50000                                              SYS / PHASE SHIFT
E L7Q -0.25000                                              SYS / PHASE SHIFT
 13 R04  6 R05  1 R06 -4 R07  5 R09 -2 R10 -5 R14 -7 R15  0 GLONASS SLOT / FRQ #
    R16 -1 R17  4 R18 -3 R19  3 R20  2                      GLONASS SLOT / FRQ #
 C1C   71.950 C2C   71.950 C2P   71.950                     GLONASS COD/PHS/BIS
    18                                                      LEAP SECONDS
*** Above antenna height is from mark to ANTENNA BOTTOM.    COMMENT
    17     4        0.0000        ANT MEASURE TYPE/HEIGT    COMMENT
    0.0000    0.0000    0.0458    0.0405    0.0000          COMMENT
                    BASE STATION                            COMMENT
                                                            END OF HEADER
> 2020 05 11 09 00  0.0000000  0 16        .000000000000
G02  23562018.109 5 123819212.679 5      1795.715          31.000
G12  20076957.188 8 105505120.985 8      -306.492          51.000    20076956.047 8  82211786.656 8      -238.828          51.000
G24  21011043.711 8 110413795.995 8     -2034.730          51.000    21011046.883 8  86036713.511 8     -1585.504          51.000
G25  20810193.672 5 109358317.744 5      1612.105          34.000    20810191.430 5  85214276.910 5      1256.192          32.000
G29  23641557.469 6 124237257.640 6      3739.277          38.000    23641549.789 6  96808220.891 6      2913.720          36.000
R07  22255546.883 5 119135687.992 5     -3046.281          35.000    22255561.359 6  92661125.037 6     -2369.327          39.000
R18  20761153.922 6 110824477.880 6     -1504.102          37.000    20761157.547 6  86196769.026 6     -1169.860          36.000
R19  20425143.641 6 109260749.670 6      2538.680          41.000    20425145.180 7  84980596.022 7      1974.532          42.000
C11  24061888.664 8 125296609.447 8      3101.312          48.000    24061886.617 8  96887230.763 8      2398.011          51.000
C12  22297429.359 8 116108607.466 8       405.121          49.000    22297429.414 8  89782529.144 8       313.202          51.000
C24  23274797.727 6 121197953.848 6     -1899.488          40.000
C25  21972790.883 6 114418065.384 6       879.910          38.000
E01  23763227.484 6 124876591.113 6       465.625          39.000    23763231.000 6  95684661.395 6       356.562          38.000
E04  25650005.141 7 134791713.104 7     -1740.777          43.000    25650011.406 8 103281928.976 8     -1333.789          48.000
E21                                                                  24979669.383 7 100582752.922 7     -1218.129          44.000
E26  24850086.938 7 130588114.467 7      2587.621          45.000    24850098.672 8 100061063.325 8      1982.711          51.000
> 2020 05 11 09 00 30.0000000  0 15        .000000000000
G12  20078731.023 8 105514443.074 8      -316.938          51.000    20078730.000 8  82219050.604 8      -246.964          51.000
G24  21022685.625 8 110474973.648 8     -2045.598          51.000    21022688.523 8  86084384.425 8     -1593.972          51.000
G25  20801012.062 5 109310068.769 5      1603.078          35.000    20801010.625 5  85176680.286 5      1249.152          33.000
G29  23620216.141 6 124125113.392 6      3735.367          37.000    23620208.914 6  96720835.843 6      2910.673          37.000
R07  22272652.508 6 119227243.127 6     -3059.668          36.000    22272662.492 6  92732334.516 6     -2379.742          41.000
R18  20769669.992 5 110869936.303 5     -1528.152          35.000    20769674.758 6  86232125.670 6     -1188.560          36.000
R19  20410960.461 7 109184879.669 7      2517.398          42.000    20410962.102 7  84921586.031 7      1957.977          43.000
C11  24044033.453 8 125203632.411 8      3095.445          49.000    24044033.586 8  96815335.040 8      2393.580          51.000
C12  22295135.422 8 116096662.543 8       389.465          49.000    22295135.531 8  89773292.570 8       301.231          51.000
C24  23285750.977 6 121254986.102 6     -1904.727          40.000
C25  21967735.406 6 114391747.529 6       872.773          36.000
E01  23760576.789 6 124862651.623 6       462.215          40.000    23760578.172 6  95673980.507 6       354.081          39.000
E04  25659963.734 7 134844045.247 7     -1749.781          43.000    25659969.281 8 103322027.621 8     -1340.816          48.000
E21                                                                  24988743.023 7 100619291.831 7     -1219.204          44.000
E26  24835324.898 7 130510543.039 7      2582.012          46.000    24835335.789 8 100001625.441 8      1978.472          51.000
> 2020 05 11 09 01  0.0000000  0 15        .000000000000
G12  20080576.281 8 105524139.979 8      -329.410          51.000    20080575.148 8  82226606.634 8      -256.683          51.000
G24  21034401.305 8 110536538.662 8     -2058.531          51.000    21034403.711 8  86132357.158 8     -1604.050          51.000
G25  20791893.414 6 109262150.315 6      1591.773          37.000    20791892.828 6  85139341.127 6      1240.340          37.000
G29  23598906.906 6 124013139.509 6      3729.480          36.000    23598900.867 6  96633583.495 6      2906.092          36.000
R07  22289845.242 6 119319264.736 6     -3075.066          37.000    22289851.992 6  92803906.899 6     -2391.718          41.000
R18  20778334.609 6 110916186.705 6     -1554.875          37.000    20778339.297 5  86268098.223 5     -1209.347          34.000
R19  20396908.492 7 109109711.015 7      2493.984          43.000    20396910.273 7  84863121.547 7      1939.769          43.000
C11  24026224.289 8 125110891.937 8      3087.398          51.000    24026225.406 8  96743622.252 8      2387.342          51.000
C12  22292942.852 8 116085245.945 8       371.742          48.000    22292942.891 8  89764464.542 8       287.437          51.000
C24  23296746.773 6 121312242.277 6     -1911.965          40.000
C25  21962730.969 6 114365692.620 6       863.996          37.000
E01  23757954.875 6 124848870.354 6       456.781          38.000    23757954.492 6  95663420.871 6       349.861          39.000
E04  25669986.672 7 134896712.854 7     -1760.930          43.000    25669991.055 8 103362383.318 8     -1349.392          48.000
E21                                                                  24997837.672 7 100655915.012 7     -1222.173          43.000
E26  24820607.727 8 130433203.329 8      2574.137          48.000    24820615.500 8  99942365.123 8      1972.384          48.000
> 2020 05 11 09 01 30.0000000  0 16        .000000000000
G12  20082495.578 8 105534225.747 8      -342.770          51.000    20082494.438 8  82234465.684 8      -267.093          51.000
G24  21046193.422 8 110598504.898 8     -2072.211          51.000    21046195.266 8  86180642.515 8     -1614.710          51.000
G25  20782839.727 4 109214577.080 4      1580.758          29.000    20782838.578 4  85102271.147 4      1231.772          28.000
G29  23577632.961 5 123901353.276 5      3722.934          34.000    23577629.711 5  96546477.409 5      2900.993          34.000
R07  22307126.672 6 119411763.645 6     -3091.262          40.000    22307130.898 6  92875850.482 6     -2404.315          41.000
R09  20025405.727 5 106934515.212 5      1655.766          34.000
R18  20787149.820 6 110963241.292 6     -1582.145          36.000    20787153.047 5  86304696.168 5     -1230.557          34.000
R19  20382991.133 7 109035262.378 7      2469.445          43.000    20382993.203 7  84805217.112 7      1920.683          43.000
C11  24008463.789 8 125018404.854 8      3078.574          51.000    24008465.266 8  96672105.401 8      2380.573          51.000
C12  22290854.391 7 116074372.360 7       353.379          47.000    22290854.539 8  89756056.412 8       273.258          51.000
C24  23307788.477 6 121369736.742 6     -1920.598          39.000
C25  21957781.547 6 114339916.229 6       854.703          40.000
E01  23755364.555 6 124835262.189 6       450.473          39.000    23755364.164 6  95652993.772 6       345.443          40.000
E04  25680075.828 7 134949729.078 7     -1773.012          45.000    25680079.398 8 103403006.109 8     -1358.601          48.000
E21                                                                  25006955.562 7 100692633.641 7     -1225.588          42.000
E26  24805938.695 8 130356112.113 8      2565.445          50.000    24805943.398 7  99883295.196 7      1965.755          45.000
> 2020 05 11 09 02  0.0000000  0 14        .000000000000
G12  20084485.016 8 105544679.691 8      -353.121          51.000    20084483.750 8  82242611.606 8      -275.159          51.000
G24  21058058.047 8 110660852.158 8     -2083.184          51.000    21058059.039 8  86229224.753 8     -1623.263          51.000
G29  23556391.695 5 123789737.128 5      3718.938          32.000    23556391.305 5  96459503.856 5      2897.873          31.000
R07  22324492.070 6 119504715.280 6     -3104.496          41.000    22324494.609 6  92948146.166 6     -2414.611          41.000
R18  20796111.914 6 111011026.451 6     -1605.988          36.000    20796114.797 5  86341924.263 5     -1249.102          33.000
R19  20369204.969 7 108961516.571 7      2447.895          42.000    20369207.383 7  84747859.315 7      1903.921          42.000
C11  23990748.344 8 124926153.680 8      3072.512          50.000    23990749.844 8  96600770.958 8      2375.885          51.000
C12  22288866.891 8 116064022.412 8       337.656          48.000    22288866.977 8  89748053.188 8       261.149          51.000
C24  23318872.031 6 121427449.723 6     -1925.992          39.000
C25  21952882.125 6 114314399.621 6       847.590          40.000
E01  23752803.102 6 124821807.178 6       447.512          40.000    23752804.367 7  95642684.138 7       342.842          42.000
E04  25690226.961 7 135003072.558 7     -1782.230          45.000    25690230.375 7 103443879.652 7     -1365.545          47.000
E21                                                                  25016094.258 7 100729432.471 7     -1226.914          42.000
E26  24791313.867 8 130279251.502 8      2559.555          51.000    24791316.242 6  99824402.011 6      1961.292          40.000
> 2020 05 11 09 02 30.0000000  0 14        .000000000000
G12  20086549.812 8 105555529.491 8      -367.473          51.000    20086548.227 8  82251065.994 8      -286.342          51.000
G24  21070000.125 8 110723607.407 8     -2097.867          51.000    21070000.711 8  86278124.889 8     -1634.705          51.000
R07  22341945.328 6 119598143.737 6     -3121.418          39.000    22341947.039 6  93020812.728 6     -2427.770          40.000
R09  20006892.383 4 106835700.647 4      1637.613          27.000    20006899.250 4  83094456.158 4      1273.690          26.000
R18  20805226.281 6 111059670.921 6     -1634.047          39.000    20805225.742 5  86379758.656 5     -1270.928          33.000
R19  20355555.875 6 108888505.863 6      2422.227          39.000    20355558.852 7  84691073.223 7      1883.954          43.000
C11  23973083.703 8 124834168.612 8      3062.406          50.000    23973085.148 8  96529642.302 8      2368.077          51.000
C12  22286985.211 8 116054224.101 8       318.250          48.000    22286985.242 8  89740476.571 8       246.025          51.000
C24  23330002.617 7 121485409.033 7     -1935.438          42.000
C25  21948038.086 6 114289171.711 6       836.961          40.000
E01  23750276.930 7 124808533.875 7       440.266          42.000    23750279.484 7  95632513.663 7       337.269          42.000
E04  25700445.000 7 135056769.996 7     -1795.168          43.000    25700448.719 7 103485024.434 7     -1375.381          47.000
E21                                                                  25025258.992 7 100766333.098 7     -1231.083          42.000
E26  24776738.570 8 130202651.760 8      2549.707          51.000    24776733.141 6  99765708.944 6      1953.274          36.000
> 2020 05 11 09 03  0.0000000  0 14        .000000000000
G12  20088671.234 8 105566676.895 8      -376.387          51.000    20088669.430 8  82259752.278 8      -293.288          51.000
G24  21082001.055 8 110786672.957 8     -2107.223          51.000    21082001.695 8  86327266.836 8     -1641.995          51.000
G25  20756054.227 6 109073782.142 6      1550.816          36.000    20756073.109 5  84992667.680 5      1208.425          34.000
R07  22359468.641 7 119691945.744 7     -3132.582          42.000    22359469.289 6  93093769.803 6     -2436.453          40.000
R18  20814469.750 5 111109056.830 5     -1656.230          33.000    20814473.156 5  86418142.890 5     -1288.170          33.000
R19  20342026.008 6 108816134.805 6      2401.801          38.000    20342030.000 7  84634784.640 7      1868.067          43.000
C11  23955452.016 8 124742355.483 8      3057.770          49.000    23955453.188 8  96458646.607 8      2364.422          51.000
C12  22285191.219 8 116044881.291 8       304.070          49.000    22285190.609 8  89733252.130 8       235.120          51.000
C24  23341162.844 7 121543518.070 7     -1939.160          43.000
C25  21943230.227 6 114264137.047 6       831.539          39.000
E01  23747767.352 7 124795345.014 7       438.383          44.000    23747769.984 7  95622407.902 7       336.014          42.000
E04  25710711.375 7 135110722.588 7     -1802.422          42.000    25710715.414 7 103526364.744 7     -1381.166          46.000
E21                                                                  25034430.406 6 100803260.962 6     -1231.224          41.000
E26  24762194.508 8 130126217.541 8      2545.219          51.000    24762184.180 6  99707142.565 6      1950.071          41.000
> 2020 05 11 09 03 30.0000000  0 15        .000000000000
G12  20090868.547 8 105578223.283 8      -392.543          51.000    20090866.719 8  82268749.446 8      -305.878          51.000
G24  21094080.062 8 110850149.495 8     -2123.746          51.000    21094081.180 8  86376729.057 8     -1654.867          51.000
G25  20747246.664 5 109027506.713 5      1535.352          31.000    20747286.516 5  84956609.106 5      1196.381          31.000
R07  22377080.156 7 119786220.484 7     -3151.398          44.000    22377079.570 6  93167094.504 6     -2451.091          39.000
R16  20872946.688 5 111499538.372 5     -2128.770          31.000    20872962.031 4  86721896.540 4     -1655.713          26.000
R18  20823865.531 6 111159215.853 6     -1686.621          37.000    20823871.250 5  86457155.331 5     -1311.819          34.000
R19  20328636.008 6 108744510.423 6      2374.031          38.000    20328640.586 7  84579076.823 7      1846.472          44.000
C11  23937872.922 8 124650817.355 8      3045.609          48.000    23937874.000 8  96387863.545 8      2354.980          51.000
C12  22283503.938 8 116036094.895 8       282.551          49.000    22283503.273 8  89726457.976 8       218.459          51.000
C24  23352370.102 6 121601877.710 6     -1950.422          41.000
C25  21938478.820 6 114239397.450 6       818.516          39.000
E01  23745293.062 7 124782342.509 7       429.297          44.000    23745294.727 6  95612444.970 6       328.867          40.000
E04  25721046.031 7 135165030.724 7     -1817.191          43.000    25721049.141 7 103567977.459 7     -1392.280          45.000
E21                                                                  25043627.641 6 100840294.029 6     -1236.866          39.000
E26  24747701.102 8 130050052.663 8      2533.242          51.000    24747694.500 7  99648782.540 7      1940.975          46.000
> 2020 05 11 09 04  0.0000000  0 16        .000000000000
G12  20093136.938 8 105590143.569 8      -402.207          51.000    20093135.203 8  82278037.982 8      -313.405          51.000
G24  21106232.578 8 110914012.178 8     -2133.832          51.000    21106234.219 8  86426492.189 8     -1662.726          51.000
G25  20738502.852 5 108981567.303 5      1527.480          33.000    20738506.453 5  84920711.736 5      1190.241          33.000
G29  23471757.797 5 123344901.352 5      3696.082          31.000
R07  22394774.094 7 119880939.192 7     -3163.203          44.000    22394772.883 6  93240764.575 6     -2460.269          38.000
R16  20884914.867 5 111563490.099 5     -2135.570          33.000
R18  20833407.984 5 111210155.531 5     -1709.754          35.000    20833411.031 4  86496775.115 4     -1329.815          29.000
R19  20315381.969 6 108673611.121 6      2352.598          39.000    20315386.688 7  84523932.956 7      1829.801          44.000
C11  23920341.992 7 124559532.583 7      3039.895          46.000    23920343.562 8  96317276.378 8      2350.603          51.000
C12  22281919.023 8 116027841.194 8       267.652          50.000    22281918.344 8  89720075.740 8       206.839          51.000
C24  23363620.062 6 121660463.916 6     -1955.398          41.000
C25  21933779.867 6 114214929.968 6       812.621          40.000
E01  23742848.953 7 124769502.425 7       426.410          42.000    23742849.938 6  95602606.495 6       326.850          40.000
E04  25731443.953 7 135219668.767 7     -1825.473          44.000    25731445.445 7 103609842.906 7     -1398.715          45.000
E21                                                                  25052845.320 6 100877413.910 6     -1237.746          38.000
E26  24733254.359 8 129974135.108 8      2527.750          51.000    24733252.328 8  99590611.970 8      1936.817          50.000
> 2020 05 11 09 04 30.0000000  0 16        .000000000000
G12  20095467.492 8 105602391.155 8      -414.672          51.000    20095465.828 8  82287581.570 8      -323.121          51.000
G24  21118449.508 8 110978214.355 8     -2146.719          50.000    21118451.875 8  86476519.847 8     -1672.768          50.000
G25  20729816.188 5 108935918.283 5      1515.344          31.000    20729818.633 5  84885141.179 5      1180.796          32.000
G29  23450681.828 5 123234135.392 5      3688.527          33.000    23450687.203 5  96026621.710 5      2874.177          32.000
R07  22412540.180 7 119976050.881 7     -3177.781          42.000    22412540.117 6  93314740.285 6     -2471.608          39.000
R16  20896933.266 5 111627685.795 5     -2144.887          35.000
R18  20843087.711 5 111261827.191 5     -1735.715          35.000    20843090.016 5  86536964.056 5     -1350.003          32.000
R19  20302254.984 6 108603393.524 6      2328.289          38.000    20302260.109 7  84469319.304 7      1810.891          45.000
C11  23902851.062 7 124468457.912 7      3031.340          46.000    23902853.297 8  96246851.712 8      2344.024          51.000
C12  22280427.773 8 116020074.925 8       249.895          49.000    22280426.734 8  89714070.363 8       193.083          51.000
C24  23374905.438 6 121719230.992 6     -1962.793          41.000
C25  21929125.094 6 114190690.248 6       803.262          41.000
E01  23740426.992 7 124756778.996 7       421.184          42.000    23740428.117 6  95592857.422 6       322.722          41.000
E04  25741895.578 7 135274589.294 7     -1836.398          45.000    25741895.828 7 103651924.821 7     -1407.215          47.000
E21                                                                  25062077.945 6 100914585.381 6     -1240.535          38.000
E26  24718845.938 8 129898420.963 8      2519.441          51.000    24718847.961 8  99532597.253 8      1930.403          51.000
> 2020 05 11 09 05  0.0000000  0 15        .000000000000
G02  23462849.211 5 123298083.307 5      1677.828          33.000
G12  20097865.586 8 105614993.705 8      -424.891          51.000    20097863.812 8  82297401.745 8      -331.084          51.000
G24  21130736.305 8 111042783.697 8     -2157.148          49.000    21130739.383 8  86526833.606 8     -1680.895          49.000
G29  23429638.273 5 123123545.043 5      3684.656          32.000    23429642.984 5  95940447.487 5      2871.164          30.000
R07  22430383.891 6 120071579.765 6     -3190.230          41.000    22430384.953 6  93389040.467 6     -2481.290          38.000
R16  20909001.062 5 111692154.096 5     -2152.359          34.000    20909001.758 4  86871658.537 4     -1674.054          26.000
R19  20289262.109 6 108533889.968 6      2306.070          40.000    20289267.180 7  84415260.974 7      1793.610          45.000
C11  23885406.641 7 124377623.665 7      3024.941          46.000    23885408.750 8  96176612.942 8      2339.052          49.000
C12  22279035.094 7 116012824.100 7       234.086          47.000    22279034.586 8  89708463.611 8       181.146          51.000
C24  23386229.977 6 121778206.992 6     -1968.359          39.000
C25  21924520.242 7 114166707.140 7       796.508          43.000
E01  23738033.352 7 124744200.750 7       417.914          43.000    23738034.703 7  95583219.567 7       320.340          42.000
E04  25752405.859 7 135329819.158 7     -1845.055          46.000    25752406.234 8 103694243.766 8     -1413.758          48.000
E21  25071327.508 5 131750720.440 5     -1620.852          34.000    25071329.391 6 100951830.130 6     -1241.933          38.000
E26  24704481.883 8 129822940.566 8      2513.227          49.000    24704487.070 8  99474761.653 8      1925.725          51.000
> 2020 05 11 09 05 30.0000000  0 16        .000000000000
G02  23453319.430 5 123247992.486 5      1662.512          31.000
G12  20100337.930 8 105627986.308 8      -440.000          51.000    20100336.195 8  82307525.845 8      -342.857          51.000
G24  21143099.633 8 111107754.790 8     -2172.832          48.000    21143103.180 7  86577460.420 7     -1693.119          47.000
G25  20712630.906 5 108845638.655 5      1492.188          31.000    20712639.953 5  84814799.982 5      1162.740          30.000
G29  23408635.914 5 123013168.507 5      3674.355          34.000    23408641.258 5  95854439.824 5      2863.134          34.000
R07  22448311.984 7 120167557.991 7     -3207.117          43.000    22448313.891 6  93463690.125 6     -2494.428          39.000
R18  20862878.016 5 111367460.521 5     -1786.730          30.000    20862885.383 4  86619138.671 4     -1389.679          28.000
R19  20276411.008 6 108465140.157 6      2278.555          41.000    20276414.672 7  84361788.887 7      1772.209          44.000
C11  23868015.844 7 124287067.492 7      3013.387          46.000    23868017.273 8  96106589.214 8      2330.142          48.000
C12  22277748.648 7 116006124.303 7       213.719          47.000    22277748.188 8  89703282.925 8       165.270          51.000
C24  23397602.297 7 121837427.201 7     -1978.605          43.000
C25  21919971.867 7 114143017.125 7       784.273          44.000
E01  23735674.164 7 124731803.609 7       409.777          44.000    23735675.844 7  95573720.415 7       314.081          42.000
E04  25762981.328 7 135385392.446 7     -1858.543          45.000    25762982.609 8 103736825.898 8     -1424.075          49.000
E21  25080600.398 4 131799444.431 4     -1627.383          29.000    25080605.594 5 100989175.561 5     -1246.938          34.000
E26  24690169.523 8 129747731.648 8      2501.934          49.000    24690176.469 8  99417134.053 8      1917.081          51.000
> 2020 05 11 09 06  0.0000000  0 14        .000000000000
G12  20102883.141 8 105641361.856 8      -448.023          51.000    20102881.727 8  82317948.361 8      -349.109          51.000
G24  21155537.531 7 111173119.849 7     -2181.066          44.000    21155541.852 7  86628394.248 7     -1699.532          44.000
G29  23387673.875 5 122903001.594 5      3672.766          34.000    23387679.125 5  95768595.528 5      2861.898          35.000
G32  22257156.352 6 116962141.348 6       915.320          36.000    22257156.609 6  91139334.028 6       713.237          36.000
R07  22466322.742 7 120263974.522 7     -3216.879          42.000    22466325.797 6  93538680.699 6     -2502.017          40.000
R19  20263700.500 7 108397140.725 7      2258.539          42.000    20263702.492 7  84308900.470 7      1756.645          44.000
C11  23850677.961 7 124196785.197 7      3008.945          47.000    23850678.258 8  96036777.287 8      2326.677          48.000
C12  22276566.719 7 115999969.253 7       200.324          46.000    22276565.891 8  89698523.442 8       154.780          51.000
C24  23409021.539 7 121896885.031 7     -1981.438          45.000
C25  21915478.273 7 114119614.851 7       779.539          44.000
E01  23733348.305 7 124719581.266 7       408.746          44.000    23733350.148 7  95564355.253 7       313.042          43.000
E04  25773620.867 7 135441301.356 7     -1864.941          46.000    25773622.836 8 103779665.201 8     -1429.053          50.000
E21  25089898.398 6 131848311.493 6     -1626.660          36.000    25089902.812 4 101026640.844 4     -1246.222          28.000
E26  24675908.469 8 129672789.857 8      2497.812          50.000    24675915.656 8  99359711.128 8      1913.878          51.000
> 2020 05 11 09 06 30.0000000  0 13        .000000000000
G12  20105508.078 8 105655156.217 8      -473.395          51.000    20105506.820 8  82328697.211 8      -368.879          51.000
G24  21168056.914 7 111238914.692 7     -2206.902          44.000    21168062.414 7  86679662.943 7     -1719.664          44.000
G25  20695725.688 6 108756767.155 6      1462.246          36.000    20695724.992 5  84745528.103 5      1139.422          33.000
R07  22484421.148 7 120360861.951 7     -3244.094          44.000    22484425.953 6  93614037.580 6     -2523.184          41.000
R19  20251137.328 7 108329931.807 7      2220.266          42.000    20251138.117 7  84256626.928 7      1726.876          43.000
C11  23833400.469 7 124106815.090 7      2987.359          47.000    23833399.750 8  95967206.733 8      2309.907          48.000
C12  22275496.344 7 115994395.011 7       169.520          46.000    22275495.289 8  89694213.063 8       131.159          51.000
C24  23420493.398 7 121956616.516 7     -2002.117          44.000
C25  21911046.641 7 114096537.212 7       757.223          45.000
E01  23731062.758 7 124707570.182 7       390.215          44.000    23731064.609 7  95555151.955 7       299.089          44.000
E04  25784330.938 7 135497580.633 7     -1888.766          46.000    25784332.922 8 103822788.263 8     -1447.239          50.000
E21  25099226.570 6 131897336.869 6     -1643.711          36.000
E26  24661705.734 8 129598153.499 8      2476.156          51.000    24661712.453 8  99302522.244 8      1897.365          51.000
> 2020 05 11 09 07  0.0000000  0 15        .000000000000
G12  20108196.852 8 105669285.965 8      -476.551          51.000    20108195.375 8  82339707.404 8      -371.335          51.000
G24  21180642.953 8 111305056.066 8     -2210.324          48.000    21180648.680 8  86731201.676 8     -1722.331          48.000
G25  20687367.031 5 108712846.559 5      1459.148          31.000    20687363.219 5  84711292.032 5      1137.008          30.000
R07  22502591.758 7 120458131.751 7     -3248.523          46.000    22502596.547 6  93689691.825 6     -2526.632          40.000
R09  19926147.055 4 106404449.644 4      1553.836          28.000
R16  20957852.617 5 111953054.295 5     -2193.191          32.000    20957851.812 4  87074621.716 4     -1705.812          25.000
R19  20238706.320 6 108263432.295 6      2204.711          41.000    20238706.227 7  84204905.120 7      1714.778          42.000
C11  23816167.734 8 124017077.330 8      2987.324          48.000    23816166.492 8  95897815.830 8      2310.025          49.000
C12  22274521.586 7 115989319.626 7       160.875          45.000    22274520.742 8  89690288.447 8       124.438          51.000
C24  23432001.180 7 122016539.495 7     -2000.512          44.000
C25  21906661.586 7 114073703.280 7       757.180          44.000
E01  23728802.062 7 124695687.869 7       393.977          45.000    23728803.812 7  95546047.324 7       301.929          44.000
E04  25795095.477 7 135554146.007 7     -1890.203          47.000    25795097.062 8 103866130.557 8     -1448.370          50.000
E21  25108570.719 6 131946440.872 6     -1637.680          36.000
E26  24647545.859 8 129523741.817 8      2476.668          51.000    24647551.297 8  99245505.514 8      1897.710          50.000
> 2020 05 11 09 07 30.0000000  0 14        .000000000000
G12  20110959.734 8 105683804.979 8      -483.844          51.000    20110958.133 8  82351020.930 8      -377.021          51.000
G24  21193306.031 8 111371598.405 8     -2218.211          50.000    21193311.180 8  86783052.837 8     -1728.476          50.000
G29  23325041.812 5 122573921.548 5      3654.047          35.000
R07  22520844.383 7 120555836.126 7     -3257.336          47.000    22520848.266 6  93765684.053 6     -2533.487          40.000
R16  20970206.359 5 112019038.228 5     -2198.184          31.000
R19  20226418.469 6 108197701.927 6      2184.926          40.000    20226418.664 7  84153781.560 7      1699.387          42.000
C11  23798990.602 8 123927629.044 8      2983.328          48.000    23798989.047 8  95828648.780 8      2306.850          49.000
C12  22273652.594 7 115984797.853 7       148.043          46.000    22273652.422 8  89686791.965 8       114.398          51.000
C24  23443556.523 7 122076708.692 7     -2003.227          43.000
C25  21902333.953 7 114051168.992 7       752.695          46.000
E01  23726576.484 7 124683989.934 7       393.375          45.000    23726578.242 7  95537083.985 7       301.429          44.000
E04  25805924.406 7 135611051.405 7     -1896.016          46.000    25805925.898 8 103909733.375 8     -1452.776          50.000
E21  25117940.906 5 131995679.115 5     -1637.062          35.000
E26  24633439.727 8 129449612.257 8      2472.809          51.000    24633443.680 8  99188704.997 8      1894.666          49.000
> 2020 05 11 09 08  0.0000000  0 17        .000000000000
G02  23406759.758 5 123003356.942 5      1595.457          33.000
G12  20113750.281 8 105698469.215 8      -503.504          51.000    20113748.797 8  82362447.605 8      -392.341          51.000
G24  21205998.992 8 111438296.529 8     -2238.156          50.000    21206003.312 8  86835025.409 8     -1744.018          50.000
G25  20670798.375 5 108625773.482 5      1434.363          32.000
G29  23304191.938 6 122464381.540 6      3639.168          38.000
R07  22539131.188 7 120653721.721 7     -3278.395          46.000    22539134.492 6  93841817.227 6     -2549.862          41.000
R09  19908741.617 5 106311568.342 5      1531.363          31.000
R16  20982569.367 5 112085102.236 5     -2215.160          33.000    20982577.148 4  87177330.830 4     -1722.902          27.000
R19  20214228.312 6 108132494.966 6      2152.398          39.000    20214228.852 7  84103065.077 7      1674.091          42.000
C11  23781822.906 8 123838230.529 8      2966.922          49.000    23781821.039 8  95759520.195 8      2294.122          48.000
C12  22272844.320 8 115980587.919 8       122.938          48.000    22272843.680 8  89683536.555 8        95.048          51.000
C24  23455112.000 6 122136882.047 6     -2018.211          39.000
C25  21898017.508 7 114028693.336 7       736.012          45.000
E01  23724339.266 7 124672232.383 7       380.586          43.000    23724341.312 7  95528074.946 7       291.507          45.000
E04  25816770.984 7 135668051.069 7     -1913.816          46.000    25816772.930 8 103953408.424 8     -1466.428          50.000
E21  25127289.961 5 132044799.391 5     -1648.160          35.000
E26  24619340.992 8 129375522.625 8      2456.637          51.000    24619343.828 8  99131935.075 8      1882.373          48.000
> 2020 05 11 09 08 30.0000000  0 16        .000000000000
G02  23397684.430 5 122955669.030 5      1585.125          32.000    23397679.734 5  95809581.792 5      1235.162          30.000
G12  20116653.969 8 105713728.059 8      -511.973          51.000    20116652.484 8  82374337.614 8      -398.940          51.000
G24  21218807.016 8 111505599.954 8     -2246.906          50.000    21218810.641 8  86887469.617 8     -1750.836          50.000
G25  20662636.891 6 108582877.400 6      1427.113          36.000    20662653.492 6  84610065.261 6      1112.039          36.000
G29  23283428.398 6 122355278.287 6      3635.957          37.000    23283411.297 5  95341666.877 5      2833.213          32.000
R07  22557536.031 7 120752242.681 7     -3287.848          45.000    22557540.180 7  93918444.629 7     -2557.218          43.000
R16  20995030.211 5 112151668.920 5     -2220.184          31.000
R19  20202222.000 6 108068272.874 6      2131.203          40.000    20202223.078 7  84053114.591 7      1657.599          42.000
C11  23764750.773 8 123749330.039 8      2961.648          49.000    23764748.422 8  95690776.741 8      2290.092          48.000
C12  22272181.281 8 115977135.961 8       109.070          48.000    22272180.602 8  89680867.295 8        84.325          51.000
C24  23466751.922 6 122197505.673 6     -2021.426          38.000
C25  21893797.984 7 114006723.469 7       730.508          46.000
E01  23722176.000 7 124660865.644 7       378.957          43.000    23722178.555 7  95519365.355 7       290.453          45.000
E04  25827720.383 7 135725593.671 7     -1920.406          45.000    25827723.273 8 103997499.509 8     -1471.510          49.000
E21  25136703.664 5 132094267.788 5     -1648.094          34.000
E26  24605335.680 8 129301925.156 8      2451.613          51.000    24605338.000 8  99075542.254 8      1878.575          48.000
> 2020 05 11 09 09  0.0000000  0 16        .000000000000
G12  20119615.719 8 105729292.617 8      -524.871          51.000    20119614.156 8  82386465.839 8      -408.990          51.000
G24  21231675.242 8 111573219.795 8     -2260.098          51.000    21231677.773 8  86940160.396 8     -1761.115          51.000
G25  20654526.930 5 108540259.375 5      1415.082          34.000    20654552.273 5  84576856.520 5      1102.670          31.000
G29  23262693.547 6 122246326.070 6      3628.133          37.000    23262677.688 6  95256769.170 6      2827.123          37.000
R07  22576003.352 7 120851101.038 7     -3301.766          46.000    22576009.250 7  93995334.431 7     -2568.040          43.000
R16  21007532.445 5 112218462.892 5     -2230.680          32.000
R18  20936688.336 5 111761463.227 5     -1964.848          34.000
R19  20190345.719 6 108004745.460 6      2104.699          39.000    20190347.039 7  84003704.407 7      1636.988          42.000
C11  23747719.836 8 123660644.428 8      2951.500          49.000    23747717.102 8  95622199.428 8      2282.580          48.000
C12  22271609.047 8 115974156.375 8        90.547          49.000    22271608.516 8  89678563.309 8        70.092          51.000
C24  23478425.117 6 122258293.833 6     -2029.797          40.000
C25  21889621.344 7 113984974.920 7       720.402          47.000
E01  23720032.391 7 124649601.839 7       372.891          43.000    23720034.922 7  95510734.634 7       285.784          45.000
E04  25838717.836 7 135783389.601 7     -1931.617          44.000    25838721.680 8 104041784.682 8     -1480.025          48.000
E21  25146127.328 6 132143789.541 6     -1652.566          36.000
E26  24591369.445 8 129228533.769 8      2442.125          51.000    24591372.484 8  99019307.354 8      1871.215          49.000
> 2020 05 11 09 09 30.0000000  0 15        .000000000000
G12  20122643.508 8 105745204.418 8      -536.602          51.000    20122642.070 8  82398864.629 8      -418.131          51.000
G24  21244611.469 8 111641197.466 8     -2272.328          51.000    21244612.438 8  86993129.996 8     -1770.648          51.000
G25  20646477.016 5 108497962.362 5      1404.742          33.000    20646478.180 5  84543869.063 5      1094.604          30.000
G29  23241997.039 6 122137570.081 6      3621.832          38.000    23241985.805 6  95172024.333 6      2822.207          37.000
R07  22594541.281 7 120950336.100 7     -3314.430          46.000    22594547.758 7  94072517.230 7     -2577.890          43.000
R16  21020087.055 4 112285527.081 4     -2239.777          26.000
R19  20178608.109 6 107941959.045 6      2080.094          39.000    20178609.430 7  83954870.563 7      1617.854          42.000
C11  23730738.414 8 123572217.851 8      2942.754          49.000    23730735.750 8  95553822.440 8      2275.624          49.000
C12  22271135.781 8 115971691.143 8        73.242          49.000    22271134.883 8  89676657.047 8        56.569          51.000
C24  23490139.133 6 122319288.514 6     -2037.062          41.000
C25  21885495.594 7 113963490.605 7       711.434          47.000
E01  23717916.391 7 124638483.537 7       367.707          43.000    23717918.922 7  95502215.395 7       281.747          45.000
E04  25849771.430 7 135841479.663 7     -1941.613          44.000    25849775.469 8 104086295.214 8     -1487.801          48.000
E21  25155569.055 6 132193404.741 6     -1655.879          38.000    25155591.578 5 101291105.610 5     -1268.856          35.000
E26  24577451.234 8 129155392.851 8      2433.430          51.000    24577455.062 8  98963264.323 8      1864.552          50.000
> 2020 05 11 09 10  0.0000000  0 15        .000000000000
G12  20125711.438 8 105761326.849 8      -539.914          51.000    20125710.328 8  82411427.566 8      -420.712          51.000
G24  21257589.586 8 111709395.875 8     -2275.805          51.000    21257589.133 8  87046271.595 8     -1773.354          51.000
G25  20638463.305 5 108455850.491 5      1401.609          35.000    20638467.117 5  84511054.624 5      1092.163          35.000
G29  23221312.977 6 122028876.277 6      3623.090          36.000    23221301.695 5  95087327.975 5      2823.193          35.000
G32  22219070.039 5 116762006.184 5       764.133          34.000    22219071.570 5  90983379.278 5       595.422          35.000
R07  22613123.102 7 121049804.393 7     -3318.445          47.000    22613128.984 7  94149881.376 7     -2581.013          42.000
R19  20166984.008 6 107879777.820 6      2063.777          38.000    20166985.516 6  83906507.442 6      1605.163          41.000
C11  23713781.016 8 123483917.684 8      2942.133          48.000    23713778.859 8  95485543.152 8      2275.183          51.000
C12  22270735.219 8 115969605.373 8        64.184          49.000    22270734.227 8  89675044.197 8        49.721          51.000
C24  23501867.109 7 122380354.604 7     -2035.715          42.000
C25  21881394.578 7 113942136.789 7       710.719          46.000
E01  23715802.273 7 124627374.856 7       371.219          43.000    23715804.766 7  95493703.533 7       284.521          46.000
E04  25860855.359 7 135899726.204 7     -1942.902          46.000    25860858.422 7 104130925.647 7     -1488.816          47.000
E21  25165003.125 5 132242983.750 5     -1650.910          33.000    25165021.734 5 101329090.665 5     -1264.678          35.000
E26  24563554.969 8 129082368.314 8      2433.164          50.000    24563559.977 8  98907310.471 8      1864.435          51.000
> 2020 05 11 09 10 30.0000000  0 17        .000000000000
G12  20128887.664 8 105778017.973 8      -562.281          51.000    20128886.562 8  82424433.637 8      -438.141          51.000
G24  21270677.539 8 111778172.573 8     -2298.559          51.000    21270676.484 8  87099863.779 8     -1791.088          51.000
G25  20630553.281 5 108414282.825 5      1380.070          35.000    20630556.469 5  84478664.265 5      1075.383          35.000
G29  23200710.062 5 121920605.680 5      3605.715          35.000    23200698.188 5  95002961.348 5      2809.651          35.000
G32  22214822.430 5 116739695.792 5       733.828          34.000    22214837.078 4  90965994.530 4       571.799          29.000
R07  22631815.805 7 121149866.861 7     -3341.609          47.000    22631820.953 7  94227707.696 7     -2599.033          42.000
R09  19866331.047 5 106085067.406 5      1483.262          33.000
R18  20970423.141 5 111941541.267 5     -2039.320          35.000    20970413.906 4  87065604.398 4     -1586.138          26.000
R19  20155542.016 6 107818570.224 6      2027.750          37.000    20155542.820 6  83858901.557 6      1577.142          41.000
C11  23696916.562 8 123396101.455 8      2922.660          49.000    23696915.102 8  95417638.071 8      2259.983          51.000
C12  22270475.969 8 115968254.352 8        36.262          50.000    22270475.375 8  89673999.546 8        28.064          51.000
C24  23513676.203 6 122441847.547 6     -2053.336          40.000
C25  21877387.164 7 113921269.841 7       690.934          47.000
E01  23713757.961 7 124616634.685 7       355.504          42.000    23713760.539 7  95485474.036 7       272.363          46.000
E04  25872037.148 7 135958486.336 7     -1963.719          47.000    25872039.055 8 104175949.603 8     -1504.536          48.000
E21  25174497.547 6 132292875.005 6     -1664.703          38.000    25174503.117 5 101367319.110 5     -1275.860          31.000
E26  24549749.367 8 129009820.797 8      2413.852          49.000    24549755.375 8  98851722.135 8      1849.640          51.000
> 2020 05 11 09 11  0.0000000  0 17        .000000000000
G02  23353376.508 5 122722839.228 5      1518.832          34.000    23353367.742 5  95628137.893 5      1183.490          34.000
G12  20132124.922 8 105795029.439 8      -572.223          51.000    20132123.477 8  82437689.320 8      -445.891          51.000
G24  21283828.078 8 111847278.937 8     -2308.875          51.000    21283827.016 8  87153712.850 8     -1799.123          51.000
G25  20622698.766 5 108373012.139 5      1370.035          33.000    20622699.312 5  84446505.277 5      1067.560          32.000
G29  23180139.508 5 121812513.188 5      3600.242          35.000    23180127.078 5  94918733.572 5      2805.390          34.000
R07  22650571.391 7 121250266.811 7     -3352.062          47.000    22650575.914 7  94305796.509 7     -2607.160          42.000
R16  21058065.508 5 112488378.880 5     -2268.203          31.000    21058058.906 4  87490937.626 4     -1764.155          26.000
R18  20981962.945 4 112003142.730 4     -2062.543          28.000    20981932.953 4  87113436.355 4     -1604.215          26.000
R19  20144234.797 6 107758086.581 6      2004.148          37.000    20144235.875 7  83811858.773 7      1558.782          42.000
C11  23680098.672 8 123308526.066 8      2915.332          50.000    23680097.938 8  95349919.226 8      2254.320          51.000
C12  22270310.555 8 115967392.706 8        20.734          48.000    22270310.031 8  89673333.272 8        16.039          51.000
C24  23525520.312 6 122503521.850 6     -2058.898          40.000
C25  21873426.828 8 113900645.464 8       683.512          48.000
E01  23711736.461 6 124606015.711 6       352.051          41.000    23711739.414 7  95477337.429 7       269.717          46.000
E04  25883269.047 7 136017510.896 7     -1971.723          46.000    25883270.773 8 104221176.218 8     -1510.827          48.000
E21  25184005.023 5 132342836.129 5     -1666.219          34.000
E26  24535987.898 8 128937504.701 8      2406.777          50.000    24535994.492 8  98796311.128 8      1844.169          51.000
> 2020 05 11 09 11 30.0000000  0 17        .000000000000
G02  23344750.062 5 122677545.916 5      1503.082          33.000    23344745.547 5  95592844.513 5      1171.242          34.000
G12  20135438.562 8 105812442.318 8      -586.051          51.000    20135437.055 8  82451257.791 8      -456.663          51.000
G24  21297056.523 8 111916796.272 8     -2323.086          50.000    21297056.016 8  87207882.158 8     -1810.200          50.000
G25  20614917.164 5 108332120.419 5      1358.027          32.000    20614914.648 5  84414641.521 5      1058.203          33.000
G29  23159609.797 5 121704575.049 5      3591.160          35.000    23159604.305 5  94834719.163 5      2798.310          31.000
R07  22669404.750 8 121351083.172 8     -3366.414          48.000    22669408.781 7  94384209.204 7     -2618.322          42.000
R09  19849753.336 5 105996573.695 5      1463.977          32.000
R16  21070838.297 5 112556613.649 5     -2279.633          33.000    21070839.383 4  87544065.484 4     -1773.045          25.000
R19  20133079.555 6 107698413.294 6      1976.914          38.000    20133080.961 7  83765446.240 7      1537.600          43.000
C11  23663343.062 8 123221274.746 8      2903.992          50.000    23663342.930 8  95282450.994 8      2245.639          51.000
C12  22270254.562 8 115967101.254 8         1.227          49.000    22270254.031 8  89673107.915 8         1.015          51.000
C24  23537415.172 6 122565458.298 6     -2068.219          38.000
C25  21869528.773 8 113880345.605 8       672.371          48.000
E01  23709754.062 7 124595599.868 7       344.945          43.000    23709757.016 7  95469356.443 7       264.300          46.000
E04  25894566.188 7 136076880.042 7     -1983.676          46.000    25894568.719 8 104266666.850 8     -1519.900          49.000
E21  25193540.484 5 132392950.007 5     -1672.078          33.000
E26  24522286.805 8 128865503.795 8      2395.781          51.000    24522293.203 8  98741141.618 8      1835.779          51.000
> 2020 05 11 09 12  0.0000000  0 16        .000000000000
G02  23336197.383 5 122632628.918 5      1489.816          35.000
G12  20138814.250 8 105830181.380 8      -597.406          51.000    20138812.961 8  82465080.435 8      -465.511          51.000
G24  21310348.695 8 111986648.911 8     -2334.555          49.000    21310349.094 8  87262312.776 8     -1819.134          49.000
G25  20607193.531 5 108291532.309 5      1347.152          35.000    20607192.531 5  84383015.266 5      1049.729          34.000
G29  23139122.453 5 121596934.919 5      3584.203          34.000    23139122.344 5  94750843.832 5      2792.886          33.000
R07  22688300.656 7 121452235.729 7     -3377.953          47.000    22688304.391 7  94462883.352 7     -2627.300          42.000
R16  21083664.836 5 112625128.984 5     -2288.500          34.000    21083663.812 4  87597335.730 4     -1779.947          25.000
R19  20122062.328 6 107639477.019 6      1951.496          40.000    20122063.375 7  83719606.912 7      1517.830          45.000
C11  23646635.883 8 123134275.622 8      2895.082          50.000    23646636.062 8  95215177.780 8      2238.721          51.000
C12  22270294.289 8 115967306.000 8       -15.742          48.000    22270293.805 8  89673266.261 8       -12.158          51.000
C24  23549345.422 6 122627582.937 6     -2074.812          38.000
C25  21865678.953 8 113860297.365 8       663.336          49.000
E01  23707796.844 7 124585312.788 7       340.223          44.000    23707799.070 7  95461474.142 7       260.648          46.000
E04  25905914.812 7 136136517.595 7     -1992.949          47.000    25905917.961 8 104312363.149 8     -1527.092          49.000
E21  25203091.078 5 132443139.871 5     -1674.992          34.000
E26  24508632.102 8 128793745.364 8      2387.262          51.000    24508637.641 8  98686157.900 8      1829.210          51.000
> 2020 05 11 09 12 30.0000000  0 15        .000000000000
G12  20142232.750 8 105848145.657 8      -611.305          51.000    20142231.461 8  82479078.555 8      -476.341          51.000
G24  21323685.625 8 112056735.580 8     -2348.836          51.000    21323687.062 8  87316925.751 8     -1830.262          51.000
G25  20599509.570 5 108251150.351 5      1334.031          35.000    20599508.938 5  84351548.767 5      1039.502          34.000
R07  22707239.359 7 121553617.655 7     -3392.137          47.000    22707242.734 7  94541735.921 7     -2638.329          42.000
R09  19833396.180 4 105909227.541 4      1441.387          27.000    19833411.391 4  82373870.934 4      1121.082          25.000
R16  21096518.227 5 112693793.718 5     -2300.715          31.000
R19  20111164.375 6 107581178.893 6      1923.703          40.000    20111165.742 7  83674263.953 7      1496.214          46.000
C11  23629958.391 8 123047431.749 8      2883.461          49.000    23629958.797 8  95148024.667 8      2229.563          51.000
C12  22270409.789 7 115967907.591 7       -35.324          47.000    22270409.109 8  89673731.479 8       -27.448          48.000
C24  23561291.875 6 122689796.366 6     -2083.859          36.000
C25  21861858.445 8 113840402.561 8       651.895          49.000
E01  23705845.414 7 124575054.596 7       332.738          45.000    23705846.719 7  95453613.988 7       254.776          46.000
E04  25917295.367 8 136196321.861 8     -2004.980          48.000    25917299.195 8 104358187.164 8     -1536.371          50.000
E21                                                                  25212644.141 5 101520859.895 5     -1287.383          32.000
E26  24495004.867 8 128722131.332 8      2375.844          51.000    24495009.484 8  98631284.839 8      1820.452          51.000
> 2020 05 11 09 13  0.0000000  0 16        .000000000000
G02  23319314.227 5 122543834.238 5      1467.379          31.000
G12  20145746.430 8 105866610.335 8      -616.785          51.000    20145744.891 8  82493466.604 8      -480.612          51.000
G24  21337119.531 8 112127330.939 8     -2354.578          51.000    21337121.555 8  87371935.135 8     -1834.736          51.000
G25  20591916.562 6 108211249.282 6      1329.027          36.000    20591916.188 5  84320457.081 5      1035.606          35.000
R07  22726272.633 7 121655505.568 7     -3397.559          46.000    22726276.008 7  94620982.016 7     -2642.549          43.000
R16  21109454.047 5 112762888.040 5     -2302.199          33.000
R18  21029424.047 5 112256466.500 5     -2156.680          34.000    21029416.125 4  87310575.673 4     -1677.418          26.000
R19  20100438.734 6 107523802.508 6      1904.445          41.000    20100440.211 7  83629637.898 7      1481.235          46.000
C11  23613363.672 8 122961018.659 8      2880.238          49.000    23613363.852 8  95081204.639 8      2227.174          50.000
C12  22270653.656 7 115969179.051 7       -46.613          45.000    22270652.602 8  89674714.650 8       -35.987          48.000
C24  23573308.680 5 122752371.683 5     -2085.332          35.000
C25  21858119.781 8 113820935.427 8       648.656          48.000
E01  23703951.758 7 124565101.254 7       333.715          45.000    23703952.648 7  95445987.403 7       255.647          46.000
E04  25928759.867 8 136256566.999 8     -2008.508          48.000    25928763.586 8 104404348.972 8     -1539.001          49.000
E21                                                                  25222237.719 5 101559504.325 5     -1285.327          31.000
E26  24481457.617 8 128650939.350 8      2373.059          51.000    24481461.320 8  98576735.182 8      1818.336          51.000
> 2020 05 11 09 13 30.0000000  0 13        .000000000000
G12  20149312.133 8 105885348.709 8      -631.578          51.000    20149310.492 8  82508067.934 8      -492.139          51.000
G24  21350607.148 8 112198208.269 8     -2369.773          51.000    21350609.711 8  87427164.231 8     -1846.577          51.000
G25  20584372.508 6 108171604.142 6      1314.828          36.000    20584372.789 6  84289564.708 6      1024.541          36.000
R07  22745357.234 7 121757665.384 7     -3412.297          47.000    22745360.672 7  94700439.604 7     -2654.009          43.000
R19  20089843.102 6 107467120.753 6      1875.434          40.000    20089844.500 7  83585552.111 7      1458.674          47.000
C11  23596808.914 8 122874814.817 8      2867.418          48.000    23596808.805 8  95014546.447 8      2217.303          49.000
C12  22270983.336 7 115970896.657 7       -67.027          44.000    22270982.078 8  89676042.838 8       -51.984          48.000
C24  23585351.648 5 122815085.208 5     -2095.035          35.000
C25  21854420.211 8 113801673.432 8       636.133          48.000
E01  23702073.000 7 124555227.422 7       325.203          46.000    23702073.828 7  95438421.737 7       249.182          46.000
E04  25940264.820 8 136317025.766 8     -2021.383          49.000    25940267.672 8 104450674.489 8     -1548.900          49.000
E21                                                                  25231836.547 5 101598150.698 5     -1290.981          33.000
E26  24467947.945 8 128579945.819 8      2360.660          51.000    24467950.828 8  98522337.605 8      1808.683          51.000
> 2020 05 11 09 14  0.0000000  0 14        .000000000000
G12  20152930.008 8 105904360.804 8      -641.340          51.000    20152928.477 8  82522882.549 8      -499.745          51.000
G24  21364148.281 8 112269367.730 8     -2379.602          49.000    21364151.398 8  87482613.142 8     -1854.238          49.000
G25  20576877.312 5 108132215.373 5      1305.824          35.000    20576878.602 5  84258872.171 5      1017.528          35.000
G32  22188155.078 5 116599539.608 5       599.250          34.000
R07  22764492.000 7 121860092.883 7     -3421.754          47.000    22764494.891 7  94780105.398 7     -2661.367          43.000
R19  20079377.594 6 107411136.586 6      1851.348          39.000    20079379.234 7  83542008.898 7      1439.940          45.000
C11  23580294.695 8 122788822.639 8      2859.875          48.000    23580294.438 8  94948051.886 8      2211.443          50.000
C12  22271398.688 7 115973060.480 7       -82.355          44.000    22271397.227 8  89677716.037 8       -63.812          49.000
C24  23597421.469 6 122877936.937 6     -2100.336          37.000
C25  21850760.469 8 113782617.819 8       628.781          49.000
E01  23700209.477 7 124545433.614 7       322.105          46.000    23700210.125 7  95430917.389 7       246.763          47.000
E04  25951809.578 7 136377696.819 7     -2028.891          46.000    25951812.070 8 104497162.663 8     -1554.610          49.000
E21                                                                  25241441.492 5 101636826.261 5     -1292.110          32.000
E26  24454476.234 8 128509152.976 8      2353.367          51.000    24454478.773 8  98468093.793 8      1803.241          51.000
> 2020 05 11 09 14 30.0000000  0 17        .000000000000
G02  23294574.773 5 122413835.861 5      1422.281          33.000    23294571.727 5  95387376.127 5      1108.271          33.000
G12  20156641.102 8 105923862.317 8      -656.082          51.000    20156639.672 8  82538078.530 8      -511.233          51.000
G24  21377783.953 8 112341024.752 8     -2394.711          49.000    21377787.555 8  87538449.781 8     -1866.009          49.000
G25  20569472.156 5 108093299.993 5      1290.602          34.000    20569474.211 5  84228548.514 5      1005.664          35.000
G29  23037293.508 6 121061817.574 6      3546.566          36.000    23037302.234 6  94333887.901 6      2763.561          37.000
G32  22184801.086 6 116581926.900 6       577.250          38.000    22184794.383 5  90843023.497 5       449.805          32.000
R07  22783717.781 7 121963004.151 7     -3436.242          47.000    22783719.516 7  94860147.434 7     -2672.636          43.000
R09  19801373.047 5 105738225.079 5      1403.184          32.000    19801372.469 4  82240840.155 4      1091.365          27.000
R19  20069084.062 6 107356073.338 6      1821.926          38.000    20069085.461 7  83499181.901 7      1417.053          44.000
C11  23563862.844 8 122703259.115 8      2847.039          49.000    23563862.609 8  94881888.743 8      2201.478          50.000
C12  22271941.102 7 115975884.978 7      -103.023          45.000    22271939.500 8  89679900.128 8       -79.725          50.000
C24  23609559.836 6 122941141.503 6     -2110.410          36.000
C25  21847182.109 8 113763984.340 8       616.215          50.000
E01  23698402.617 7 124535936.782 7       313.727          46.000    23698402.930 7  95423640.568 7       240.442          46.000
E04  25963435.492 7 136438795.217 7     -2041.516          46.000    25963438.016 8 104543978.309 8     -1564.392          48.000
E21                                                                  25251090.984 5 101675689.228 5     -1297.111          34.000
E26  24441084.477 8 128438779.450 8      2340.883          51.000    24441087.227 8  98414171.256 8      1793.690          51.000
> 2020 05 11 09 15  0.0000000  0 16        .000000000000
G02  23286490.211 5 122371338.935 5      1410.207          31.000    23286490.414 5  95354268.682 5      1098.857          31.000
G12  20160408.891 8 105943661.918 8      -664.617          51.000    20160407.375 8  82553506.790 8      -517.880          51.000
G24  21391477.609 8 112412986.895 8     -2403.551          49.000    21391481.734 8  87594524.186 8     -1872.897          48.000
G25  20562120.969 6 108054667.299 6      1283.191          37.000    20562123.039 6  84198445.139 6       999.889          38.000
G29  23017060.297 6 120955486.789 6      3541.859          40.000    23017067.180 6  94251032.771 6      2759.890          41.000
G32  22181551.914 6 116564854.298 6       560.051          37.000    22181539.758 5  90829696.271 5       436.409          32.000
R07  22802996.586 7 122066200.455 7     -3444.316          46.000    22802997.453 7  94940411.161 7     -2678.913          42.000
R19  20058926.430 6 107301739.378 6      1799.246          38.000    20058928.133 7  83456922.181 7      1399.414          44.000
C11  23547477.383 8 122617937.165 8      2840.273          49.000    23547477.453 8  94815912.391 8      2196.243          51.000
C12  22272574.078 7 115979180.715 7      -117.391          46.000    22272572.602 8  89682448.620 8       -90.819          51.000
C24  23621730.445 6 123004509.821 6     -2114.816          36.000
C25  21843648.742 8 113745584.822 8       609.652          49.000
E01  23696616.078 7 124526546.244 7       311.496          46.000    23696615.734 7  95416445.227 7       238.640          46.000
E04  25975106.719 7 136500128.445 7     -2048.113          47.000    25975108.961 8 104590973.860 8     -1569.357          49.000
