     3.04           OBSERVATION DATA    M (MIXED)           RINEX VERSION / TYPE
Convert 2.6.2       NovAtel             20200515 153032 UTC PGM / RUN BY / DATE 
Rinex Version 3.04 Observation File                         COMMENT             
                                                            MARKER NAME         
                                                            MARKER NUMBER       
                                                            MARKER TYPE         
                                                            OBSERVER / AGENCY   
                    NovAtel GPSCard                         REC # / TYPE / VERS 
                                                            ANT # / TYPE        
        0.0000        0.0000        0.0000                  APPROX POSITION XYZ 
        0.0000        0.0000        0.0000                  ANTENNA: DELTA H/E/N
G    8 C1C L1C D1C S1C C2W L2W D2W S2W                      SYS / # / OBS TYPES 
R    8 C1C L1C D1C S1C C2P L2P D2P S2P                      SYS / # / OBS TYPES 
E    8 C1C L1C D1C S1C C7Q L7Q D7Q S7Q                      SYS / # / OBS TYPES 
C    8 C2I L2I D2I S2I C7I L7I D7I S7I                      SYS / # / OBS TYPES 
DBHZ                                                        SIGNAL STRENGTH UNIT
    30.000                                                  INTERVAL            
  2020    05    08    14    00    0.0000000     GPS         TIME OF FIRST OBS   
  2020    05    08    14    59   30.0000000     GPS         TIME OF LAST OBS    
G L1C  0.00000  09 G26 G31 G18 G20 G21 G29 G10 G27 G16      SYS / PHASE SHIFT   
G L2W  0.00000  08 G26 G31 G18 G20 G21 G29 G10 G16          SYS / PHASE SHIFT   
R L1C  0.00000  05 R18 R16 R15 R02 R09                      SYS / PHASE SHIFT   
R L2P  0.25000  05 R18 R16 R15 R02 R09                      SYS / PHASE SHIFT   
E L1C  0.50000  05 E33 E31 E12 E01 E26                      SYS / PHASE SHIFT   
E L7Q -0.25000  05 E33 E31 E12 E01 E26                      SYS / PHASE SHIFT   
C L2I  0.00000  05 C05 C29 C30 C26 C19                      SYS / PHASE SHIFT   
C L7I  0.00000  01 C05                                      SYS / PHASE SHIFT   
  5 R18 -3 R16 -1 R15  0 R02 -4 R09 -2                      GLONASS SLOT / FRQ #
 C1C  -71.950 C2C  -71.950 C2P  -71.950                     GLONASS COD/PHS/BIS 
     0     0     0     0GPS                                 LEAP SECONDS        
                                                            END OF HEADER       
> 2020 05 08 14 00  0.0000000  0 14      -0.000000000000
G26  20295868.602 8 106655501.335 8       369.125          51.000    20295871.258 8  83108198.086 8       287.630          51.000  
G31  23367706.102 6 122798041.516 6     -3155.395          36.000    23367694.852 6  95686806.533 6     -2458.753          37.000  
G18  20421329.242 8 107314844.662 8      -764.281          51.000    20421329.406 8  83621936.695 8      -595.544          51.000  
G20  22905942.797 7 120371565.897 7      3029.750          44.000    22905946.359 6  93796010.350 6      2360.845          40.000  
G21  20831548.234 8 109470526.656 8      -903.641          49.000    20831547.555 8  85301702.333 8      -704.136          49.000  
R18  19778944.805 5 105580951.050 5     -1676.930          35.000    19778945.234 5  82118500.926 5     -1304.279          31.000  
R16  19800357.188 7 105769570.045 7     -2083.273          47.000    19800359.844 7  82265221.965 7     -1620.324          44.000  
E33  23489530.984 8 123438335.352 8       542.109          51.000    23489531.312 8  94582651.352 8       415.395          51.000  
E31  23725200.086 7 124676771.846 7       413.250          47.000    23725202.852 7  95531552.666 7       316.781          45.000  
E12  24627797.094 7 129419953.512 7      2495.828          44.000    24627798.047 7  99165942.473 7      1912.545          46.000  
E01  24947408.758 8 131099497.208 8     -2314.289          51.000    24947408.875 8 100452858.554 8     -1773.243          51.000  
E26  23655079.734 8 124308259.127 8     -1901.117          48.000    23655083.648 7  95249225.524 7     -1456.641          47.000  
C05  39616501.836 5 206293520.39625         9.410          34.000    39616504.336 5 159519246.309 5         7.113          34.000  
C29  21677978.242 8 112883014.235 8      -714.656          51.000                                                                  
> 2020 05 08 14 00 30.0000000  0 15      -0.000000000000
G26  20293800.578 8 106644633.655 8       353.383          51.000    20293803.070 8  83099729.760 8       275.363          51.000  
G31  23385732.016 5 122892754.249 5     -3160.711          32.000    23385718.961 5  95760608.517 5     -2462.898          32.000  
G18  20425734.055 8 107337992.264 8      -780.758          51.000    20425733.938 8  83639973.790 8      -608.383          50.000  
G20  22888660.594 7 120280747.060 7      3023.102          43.000    22888662.516 6  93725242.518 6      2355.667          40.000  
G21  20836738.062 8 109497798.848 8      -916.340          50.000    20836737.312 8  85322953.409 8      -714.031          50.000  
R18  19788396.547 6 105631401.364 6     -1688.168          39.000    19788398.797 6  82157740.075 6     -1313.020          36.000  
R15  23226872.656 5 124116978.863 5     -4512.434          32.000    23226870.336 5  96535422.805 5     -3509.677          33.000  
R16  19812115.328 7 105832380.423 7     -2105.816          46.000    19812118.375 7  82314074.451 7     -1637.858          45.000  
E33  23486456.445 8 123422178.753 8       533.117          51.000    23486456.609 8  94570271.639 8       408.469          51.000  
E31  23722869.094 8 124664521.378 8       401.461          48.000    23722871.758 7  95522165.938 7       307.661          46.000  
E12  24613555.172 7 129345112.762 7      2491.539          44.000    24613556.516 7  99108597.013 7      1909.090          46.000  
E01  24960638.906 8 131169021.137 8     -2322.500          51.000    24960639.141 8 100506130.095 8     -1779.621          51.000  
E26  23665940.852 8 124365334.489 8     -1905.766          48.000    23665944.688 7  95292958.597 7     -1460.248          47.000  
C05  39616441.695 5 206293207.04525         9.910          34.000    39616444.312 5 159519003.998 5         7.415          35.000  
C29  21682111.578 8 112904537.478 8      -722.102          51.000                                                                  
> 2020 05 08 14 01  0.0000000  0 14      -0.000000000000
G26  20291843.766 8 106634350.687 8       328.453          51.000    20291846.258 8  83091717.048 8       255.938          51.000  
G18  20430253.062 8 107361739.706 8      -806.164          51.000    20430253.055 8  83658478.294 8      -628.180          51.000  
G20  22871438.195 7 120190241.250 7      3007.203          44.000    22871438.820 6  93654718.601 6      2343.279          39.000  
G21  20842020.930 8 109525559.666 8      -938.102          51.000    20842019.992 8  85344585.220 8      -730.988          50.000  
R18  19797931.469 6 105682294.019 6     -1708.488          39.000    19797935.547 5  82197323.304 5     -1328.821          35.000  
R16  19824021.008 7 105895980.547 7     -2137.914          44.000    19824024.398 7  82363541.194 7     -1662.822          45.000  
E33  23483454.422 8 123406402.970 8       514.824          51.000    23483454.344 8  94558183.709 8       394.521          51.000  
E31  23720627.148 8 124652738.714 8       380.281          48.000    23720629.617 7  95513137.668 7       291.393          46.000  
E12  24599359.383 7 129270516.725 7      2477.926          43.000    24599362.203 7  99051439.075 7      1898.489          47.000  
E01  24973935.875 8 131238900.980 8     -2339.938          51.000    24973937.531 8 100559674.337 8     -1792.940          51.000  
E26  23676849.188 8 124422658.704 8     -1919.711          48.000    23676852.703 7  95336882.331 7     -1470.831          46.000  
C30  24875764.148 5 129534640.598 5     -2646.781          32.000                                                                  
C05  39616397.320 5 206292976.09525         1.145          34.000    39616399.922 5 159518825.584 5         1.776          34.000  
C29  21686308.312 8 112926389.274 8      -738.438          51.000                                                                  
> 2020 05 08 14 01 30.0000000  0 15      -0.000000000000
G26  20289957.781 8 106624439.796 8       323.242          51.000    20289960.312 8  83083994.273 8       251.877          51.000  
G18  20434845.297 8 107385872.058 8      -811.734          51.000    20434845.133 8  83677282.734 8      -632.521          50.000  
G20  22854235.508 7 120099838.092 7      3010.777          44.000    22854235.227 6  93584274.608 6      2346.064          39.000  
G21  20847355.648 8 109553593.736 8      -939.969          51.000    20847354.641 8  85366429.945 8      -732.443          50.000  
G29  22947273.898 5 120588738.02025     -2678.422          35.000    22947266.430 5  93965219.78825     -2087.083          34.000  
R18  19807506.508 5 105733409.913 5     -1708.805          33.000    19807509.828 5  82237080.102 5     -1329.071          31.000  
R16  19836033.047 7 105960151.482 7     -2149.508          43.000    19836037.055 7  82413451.899 7     -1671.840          44.000  
E33  23480483.812 8 123390793.993 8       516.727          51.000    23480484.156 8  94546223.589 8       395.922          51.000  
E31  23718433.594 8 124641211.165 8       379.246          49.000    23718435.727 7  95504304.865 7       290.561          47.000  
E12  24585169.242 7 129195952.401 7      2484.094          42.000    24585174.164 7  98994305.413 7      1903.452          47.000  
E01  24987259.070 8 131308922.149 8     -2337.230          49.000    24987262.969 8 100613326.915 8     -1790.842          51.000  
E26  23687764.094 8 124480016.965 8     -1913.320          48.000    23687766.992 7  95380832.167 7     -1466.001          46.000  
C30  24890950.805 5 129613747.913 5     -2635.961          35.000                                                                  
C05  39616327.711 5 206292613.94625        13.621          33.000    39616330.562 5 159518546.568 5        10.524          34.000  
C29  21690527.344 8 112948357.285 8      -735.047          51.000                                                                  
> 2020 05 08 14 02  0.0000000  0 14      -0.000000000000
G26  20288197.836 8 106615191.144 8       298.918          51.000    20288200.328 8  83076787.535 8       232.923          51.000  
G18  20439565.523 8 107410677.131 8      -836.293          51.000    20439565.148 8  83696611.354 8      -651.657          50.000  
G20  22837107.922 7 120009829.523 7      2995.191          45.000    22837107.859 6  93514138.120 6      2333.919          41.000  
G21  20852797.133 8 109582188.839 8      -960.754          51.000    20852796.148 8  85388711.856 8      -748.640          51.000  
R18  19817178.688 6 105785040.511 6     -1727.539          38.000    19817179.328 5  82277237.178 5     -1343.645          34.000  
R16  19848206.859 7 106025184.686 7     -2180.410          44.000    19848211.203 7  82464033.275 7     -1695.875          44.000  
E33  23477599.750 8 123375640.544 8       499.219          51.000    23477600.805 8  94534612.493 8       382.542          51.000  
E31  23716343.797 8 124630228.731 8       358.641          49.000    23716345.648 7  95495889.738 7       274.845          47.000  
E12  24571040.633 7 129121709.527 7      2471.219          44.000    24571046.977 7  98937418.040 7      1893.479          47.000  
E01  25000664.211 8 131379372.912 8     -2353.727          49.000    25000670.125 8 100667308.674 8     -1803.548          51.000  
E26  23698740.273 7 124537697.214 7     -1926.301          47.000    23698742.609 7  95425028.722 7     -1476.084          45.000  
C30  24906174.234 5 129693049.518 5     -2644.926          33.000                                                                  
C05  39616288.094 5 206292407.26525         5.824          33.000    39616291.086 5 159518387.535 5         4.597          35.000  
C29  21694823.203 8 112970727.293 8      -750.645          51.000                                                                  
> 2020 05 08 14 02 30.0000000  0 14      -0.000000000000
G26  20286542.992 8 106606495.363 8       283.059          51.000    20286545.398 8  83070011.603 8       220.565          51.000  
G31  23458215.734 4 123273755.33924     -3186.316          29.000                                                                  
G18  20444392.500 8 107436043.223 8      -852.527          51.000    20444392.281 8  83716377.140 8      -664.307          50.000  
G20  22820034.758 7 119920108.209 7      2988.207          46.000    22820035.633 7  93444225.451 7      2328.477          42.000  
G21  20858324.062 8 109611233.089 8      -973.289          50.000    20858323.070 8  85411343.757 8      -758.407          50.000  
R18  19826926.031 5 105837071.657 5     -1738.500          32.000    19826928.766 6  82317705.810 6     -1352.167          36.000  
R16  19860521.164 7 106090965.663 7     -2202.680          45.000    19860525.438 7  82515196.254 7     -1713.196          43.000  
E33  23474781.422 8 123360831.806 8       490.184          51.000    23474783.047 8  94523265.541 8       375.601          51.000  
E31  23714336.852 8 124619681.900 8       346.598          49.000    23714338.500 7  95487808.390 7       265.602          47.000  
E12  24556952.938 7 129047678.262 7      2466.539          46.000    24556959.352 7  98880692.801 7      1889.929          45.000  
E01  25014130.805 8 131450141.990 8     -2361.910          50.000    25014137.656 8 100721534.318 8     -1809.800          51.000  
E26  23709756.484 7 124595587.922 7     -1930.852          47.000    23709758.672 7  95469386.511 7     -1479.422          45.000  
C05  39616257.648 5 206292248.156 5         6.344          33.000                                                                  
C29  21699174.844 8 112993389.297 8      -757.902          51.000                                                                  
> 2020 05 08 14 03  0.0000000  0 15      -0.000000000000
G26  20284958.852 8 106598171.305 8       269.484          51.000    20284961.430 8  83063525.310 8       209.988          51.000  
G18  20449291.359 8 107461786.841 8      -866.164          50.000    20449291.062 8  83736437.113 8      -674.933          50.000  
G20  22802982.180 8 119830495.134 8      2983.391          48.000    22802984.031 7  93374397.139 7      2324.724          43.000  
G21  20863901.367 8 109640542.742 8      -983.242          49.000    20863900.375 8  85434182.451 8      -766.163          49.000  
R18  19836712.117 4 105889315.990 4     -1746.621          27.000    19836718.125 5  82358340.362 5     -1358.480          35.000  
R15  23353893.672 5 124795727.297 5     -4533.945          32.000    23353895.883 5  97063339.560 5     -3526.409          32.000  
R16  19872940.883 7 106157307.018 7     -2222.527          47.000    19872944.820 7  82566795.063 7     -1728.633          43.000  
E33  23471994.211 8 123346185.260 8       483.668          51.000    23471995.914 8  94512042.875 8       370.540          51.000  
E31  23712378.133 8 124609389.382 8       336.969          49.000    23712379.453 7  95479921.917 7       258.203          47.000  
E12  24542871.352 7 128973677.074 7      2464.258          47.000    24542876.562 7  98823990.604 7      1888.220          44.000  
E01  25027623.844 8 131521046.308 8     -2367.609          51.000    25027630.445 8 100775863.575 8     -1814.125          51.000  
E26  23720777.883 7 124653505.738 7     -1932.934          47.000    23720780.477 7  95513765.080 7     -1481.110          45.000  
C30  24936656.242 6 129851709.332 6     -2643.293          36.000                                                                  
C05                                                                  39616204.195 5 159518037.112 5         7.920          34.000  
C29  21703547.992 8 113016162.155 8      -762.715          51.000                                                                  
> 2020 05 08 14 03 30.0000000  0 16      -0.000000000000
G26  20283463.695 8 106590314.601 8       248.809          51.000    20283466.430 8  83057403.207 8       193.877          51.000  
G31  23494644.227 5 123465182.125 5     -3199.344          35.000    23494640.422 6  96206626.386 6     -2492.999          36.000  
G18  20454279.750 8 107488001.319 8      -887.004          51.000    20454279.422 8  83756863.988 8      -691.172          49.000  
G20  22785968.766 8 119741087.987 8      2971.473          49.000    22785970.812 7  93304729.284 7      2315.434          42.000  
G21  20869546.961 8 109670211.030 8     -1000.102          50.000    20869546.070 8  85457300.592 8      -779.300          50.000  
R18  19846555.133 5 105941878.610 5     -1761.742          32.000    19846568.570 5  82399272.806 5     -1370.247          34.000  
R15  23379350.875 5 124931759.584 5     -4541.113          34.000    23379354.859 5  97169160.965 5     -3531.984          31.000  
R16  19885483.320 8 106224302.506 8     -2249.461          48.000    19885486.953 7  82618902.628 7     -1749.581          43.000  
E33  23469255.961 8 123331795.166 8       470.109          51.000    23469257.336 8  94501016.700 8       360.229          51.000  
E31  23710486.125 8 124599446.727 8       320.289          50.000    23710487.367 8  95472303.527 8       245.422          48.000  
E12  24528813.742 7 128899801.197 7      2455.176          47.000    24528817.305 7  98767384.438 7      1881.297          44.000  
E01  25041160.875 8 131592179.589 8     -2380.113          51.000    25041166.250 8 100830368.269 8     -1823.781          51.000  
E26  23731822.141 7 124711544.218 7     -1941.910          46.000    23731825.477 7  95558236.113 7     -1487.949          45.000  
C30  24951881.711 6 129930995.087 6     -2647.859          37.000                                                                  
C05                                                                  39616140.586 5 159517780.995 5         4.827          35.000  
C29  21707960.570 8 113039139.079 8      -774.512          51.000                                                                  
> 2020 05 08 14 04  0.0000000  0 16      -0.000000000000
G26  20282086.430 8 106583076.773 8       233.367          51.000    20282089.031 8  83051763.324 8       181.842          51.000  
G31  23512920.250 6 123561216.677 6     -3202.945          38.000    23512916.688 6  96281458.453 6     -2495.802          38.000  
G18  20459386.211 8 107514835.785 8      -902.297          51.000    20459385.867 8  83777773.944 8      -703.089          49.000  
G20  22769023.805 8 119652040.203 8      2964.934          50.000    22769025.531 7  93235341.458 7      2310.342          42.000  
G21  20875289.117 8 109700386.870 8     -1011.859          50.000    20875288.500 8  85480814.236 8      -788.462          50.000  
R18  19856486.227 5 105994888.296 5     -1772.340          34.000    19856493.602 5  82440502.657 5     -1378.487          30.000  
R15  23404850.320 5 125068016.609 5     -4543.609          31.000    23404855.109 5  97275138.369 5     -3533.931          30.000  
R16  19898176.391 8 106292103.064 8     -2270.832          48.000    19898179.664 7  82671636.377 7     -1766.203          42.000  
E33  23466594.852 8 123317811.635 8       461.852          51.000    23466596.289 8  94490302.063 8       353.874          51.000  
E31  23708689.531 8 124590005.314 8       308.871          50.000    23708691.055 8  95465069.194 8       236.656          49.000  
E12  24514808.773 8 128826201.773 8      2451.234          48.000    24514810.938 7  98710990.142 7      1878.250          45.000  
E01  25054769.977 8 131663691.449 8     -2387.508          51.000    25054774.148 8 100885163.035 8     -1829.369          51.000  
E26  23742917.797 7 124769852.727 7     -1945.484          46.000    23742921.750 7  95602914.063 7     -1490.763          44.000  
C30  24967135.984 6 130010426.068 6     -2647.609          37.000                                                                  
C05                                                                  39616098.219 5 159517610.797 5         6.162          34.000  
C29  21712440.719 8 113062468.499 8      -781.008          51.000                                                                  
> 2020 05 08 14 04 30.0000000  0 15      -0.000000000000
G26  20280799.398 8 106576312.785 8       217.000          51.000    20280801.742 8  83046492.690 8       169.091          51.000  
G31  23531220.664 6 123657380.025 6     -3208.117          37.000    23531218.391 6  96356390.844 6     -2499.835          36.000  
G18  20464582.492 8 107542142.887 8      -918.672          50.000    20464582.234 8  83799052.227 8      -715.848          49.000  
G20  22752119.773 8 119563208.714 8      2956.770          48.000    22752121.406 7  93166122.168 7      2303.977          43.000  
G21  20881099.898 8 109730923.034 8     -1024.500          48.000    20881099.227 8  85504608.641 8      -798.312          48.000  
R18  19866475.758 5 106048205.607 5     -1783.301          34.000    19866478.555 4  82481971.628 4     -1387.015          29.000  
R16  19910991.422 8 106360557.709 8     -2293.289          48.000    19910994.258 6  82724878.834 6     -1783.670          41.000  
E33  23463983.367 8 123304088.287 8       452.492          51.000    23463985.047 8  94479786.787 8       346.727          51.000  
E31  23706960.641 8 124580920.063 8       296.242          50.000    23706962.492 8  95458107.758 8       227.051          49.000  
E12  24500828.547 7 128752733.416 7      2446.129          47.000    24500829.492 7  98654696.279 7      1874.314          45.000  
E01  25068422.859 8 131735434.989 8     -2395.922          51.000    25068426.234 8 100940135.307 8     -1835.828          51.000  
E26  23754036.914 7 124828284.143 7     -1950.410          46.000    23754041.156 7  95647686.182 7     -1494.414          44.000  
C30  24982389.164 5 130089857.071 5     -2648.383          33.000                                                                  
C05                                                                  39616048.820 5 159517411.774 5         6.685          35.000  
C29  21716960.430 8 113086005.163 8      -788.648          51.000                                                                  
> 2020 05 08 14 05  0.0000000  0 14      -0.000000000000
G26  20279609.102 8 106570057.458 8       198.848          51.000    20279611.648 8  83041618.414 8       154.946          51.000  
G31  23549550.672 6 123753703.779 6     -3214.266          37.000    23549550.180 6  96431448.231 6     -2504.629          37.000  
G18  20469874.891 8 107569955.180 8      -936.527          50.000    20469874.633 8  83820724.140 8      -729.762          49.000  
G20  22735263.375 7 119474630.287 7      2947.184          46.000    22735265.250 7  93097100.068 7      2296.507          45.000  
G21  20886985.422 8 109761851.664 8     -1038.480          49.000    20886984.609 8  85528708.884 8      -809.206          48.000  
R18  19876529.258 5 106101863.083 5     -1795.227          34.000    19876530.047 4  82523685.116 4     -1396.291          27.000  
R16  19923934.758 7 106429698.459 7     -2317.188          47.000    19923936.984 6  82778654.911 6     -1802.260          41.000  
E33  23461427.984 8 123290658.605 8       441.645          51.000    23461429.469 8  94469496.509 8       338.439          51.000  
E31  23705306.312 8 124572225.651 8       282.199          51.000    23705308.375 8  95451445.799 8       216.312          50.000  
E12  24486879.562 7 128679430.585 7      2439.531          46.000    24486879.453 7  98598529.250 7      1869.315          44.000  
E01  25082125.414 8 131807443.119 8     -2405.812          50.000    25082128.852 8 100995310.316 8     -1843.401          51.000  
E26  23765185.641 7 124886871.205 7     -1956.484          46.000    23765189.945 7  95692577.555 7     -1499.110          44.000  
C05                                                                  39615999.633 5 159517214.002 5         5.963          35.000  
C29  21721526.289 8 113109781.998 8      -797.676          51.000                                                                  
> 2020 05 08 14 05 30.0000000  0 14      -0.000000000000
G26  20278519.273 8 106564330.103 8       183.156          51.000    20278522.016 8  83037155.524 8       142.719          51.000  
G31  23567914.352 5 123850203.540 5     -3218.848          35.000    23567915.703 6  96506642.762 6     -2508.197          36.000  
G18  20475266.547 8 107598289.590 8      -952.188          49.000    20475266.414 8  83842802.887 8      -741.965          49.000  
G20  22718459.273 7 119386326.401 7      2939.688          45.000    22718461.656 7  93028291.880 7      2290.669          45.000  
G21  20892948.844 8 109793189.593 8     -1050.301          49.000    20892948.156 8  85553128.052 8      -818.419          49.000  
R18  19886647.688 5 106155889.822 5     -1805.707          33.000    19886650.102 4  82565702.946 4     -1404.433          28.000  
R16  19937009.281 7 106499541.453 7     -2338.773          46.000    19937010.852 6  82832977.164 6     -1819.049          41.000  
E33  23458931.734 8 123277540.504 8       432.996          51.000    23458933.172 8  94459444.989 8       331.767          51.000  
E31  23703730.133 8 124563941.323 8       270.195          51.000    23703732.273 8  95445098.064 8       207.081          51.000  
E12  24472965.594 7 128606312.239 7      2435.105          47.000    24472964.680 7  98542503.585 7      1865.783          44.000  
E01  25095881.008 8 131879733.280 8     -2413.457          48.000    25095885.023 8 101050701.436 8     -1849.264          51.000  
E26  23776367.391 7 124945631.154 7     -1960.672          46.000    23776371.359 7  95737601.404 7     -1502.271          44.000  
C05                                                                  39615953.734 5 159517029.62625         6.808          35.000  
C29  21726141.891 8 113133816.619 8      -804.488          51.000                                                                  
> 2020 05 08 14 06  0.0000000  0 16      -0.000000000000
G26  20277525.172 8 106559105.554 8       165.199          51.000    20277527.906 8  83033084.446 8       128.727          51.000  
G31  23586305.609 5 123946850.031 5     -3223.816          33.000    23586308.742 5  96581951.630 5     -2512.069          33.000  
G18  20480752.281 8 107627118.607 8      -969.668          49.000    20480752.625 8  83865267.062 8      -755.586          49.000  
G20  22701703.195 7 119298274.120 7      2930.438          45.000    22701705.867 7  92959679.759 7      2283.461          45.000  
G21  20898984.805 8 109824909.167 8     -1064.324          48.000    20898984.312 8  85577844.595 8      -829.344          48.000  
R18  19896829.078 5 106210231.565 5     -1817.168          34.000    19896830.414 4  82607968.770 4     -1413.353          27.000  
R15  23507018.375 5 125614018.357 5     -4557.180          30.000    23507019.766 4  97699781.293 4     -3544.483          27.000  
R16  19950209.719 7 106570057.803 7     -2362.156          45.000    19950211.695 7  82887823.184 7     -1837.233          42.000  
E33  23456489.750 8 123264707.495 8       422.520          51.000    23456491.500 8  94449611.914 8       323.755          51.000  
E31  23702226.898 8 124556041.750 8       256.414          51.000    23702229.344 8  95439045.145 8       196.464          51.000  
E12  24459082.016 7 128533352.810 7      2428.863          47.000    24459080.328 7  98486599.660 7      1860.955          44.000  
E01  25109684.430 7 131952278.365 7     -2423.020          46.000    25109689.672 8 101106287.929 8     -1856.499          51.000  
E26  23787576.891 7 125004536.727 7     -1966.508          46.000    23787580.266 7  95782736.851 7     -1506.809          44.000  
C30  25028198.711 5 130328395.81125     -2651.520          31.000                                                                  
C05                                                                  39615906.070 5 159516837.716 5         6.231          34.000  
C29  21730802.070 8 113158082.464 8      -813.238          51.000                                                                  
> 2020 05 08 14 06 30.0000000  0 15      -0.000000000000
G26  20276650.633 8 106554509.363 8       146.160          51.000    20276653.430 8  83029502.989 8       113.891          51.000  
G18  20486355.711 8 107656565.539 8      -988.512          50.000    20486356.102 8  83888212.717 8      -770.269          49.000  
G20  22685019.055 7 119210600.801 7      2919.527          43.000    22685022.023 7  92891362.934 7      2274.957          43.000  
G21  20905116.844 8 109857133.537 8     -1079.301          48.000    20905116.422 8  85602954.485 8      -841.014          48.000  
R18  19907094.594 4 106265037.81824     -1831.602          28.000                                                                  
R15  23532624.977 5 125750869.613 5     -4561.363          30.000    23532630.125 3  97806219.90423     -3547.737          23.000  
R16  19963559.531 7 106641371.775 7     -2387.008          46.000    19963562.297 7  82943289.616 7     -1856.562          44.000  
E33  23454125.719 8 123252283.834 8       410.742          51.000    23454127.734 8  94440092.489 8       314.734          51.000  
E31  23700820.594 8 124548652.506 8       241.230          51.000    23700823.445 8  95433383.250 8       184.815          51.000  
E12  24445252.523 7 128460677.553 7      2421.195          46.000    24445250.422 7  98430913.495 7      1855.170          45.000  
E01  25123560.398 7 132025202.158 7     -2433.598          47.000    25123566.648 8 101162164.610 8     -1864.793          51.000  
E26  23798837.578 7 125063711.531 7     -1973.629          45.000    23798840.547 7  95828078.572 7     -1512.202          44.000  
C30  25043501.383 5 130408082.481 5     -2655.297          31.000                                                                  
C05                                                                  39615880.414 5 159516733.926 5         4.063          34.000  
C29  21735530.281 8 113182702.508 8      -823.199          51.000                                                                  
> 2020 05 08 14 07  0.0000000  0 15      -0.000000000000
G26  20275849.148 8 106550296.993 8       129.871          51.000    20275851.836 8  83026220.617 8       101.198          51.000  
G18  20492029.922 8 107686383.375 8     -1004.273          50.000    20492030.133 8  83911447.399 8      -782.551          50.000  
G20  22668360.758 7 119123064.281 7      2911.160          43.000    22668364.039 7  92823152.708 7      2268.437          43.000  
G21  20911297.938 8 109889615.768 8     -1091.094          48.000    20911297.625 8  85628265.309 8      -850.203          48.000  
R18  19917393.797 5 106320007.117 5     -1840.789          34.000                                                                  
R15  23558233.305 4 125887634.90524     -4563.773          28.000                                                                  
R16  19977011.961 7 106713230.935 7     -2408.586          46.000    19977014.805 7  82999180.076 7     -1873.345          44.000  
E33  23451792.883 8 123240023.587 8       401.906          51.000    23451794.734 8  94430698.286 8       307.921          51.000  
E31  23699464.797 8 124541528.879 8       228.980          50.000    23699467.922 8  95427924.887 8       175.420          51.000  
E12  24431430.281 7 128388041.585 7      2416.480          45.000    24431428.406 7  98375257.439 7      1851.524          44.000  
E01  25137462.758 8 132098258.300 8     -2441.480          49.000    25137468.891 8 101218142.667 8     -1870.758          51.000  
E26  23810102.609 7 125122908.939 7     -1977.703          45.000    23810105.633 7  95873437.611 7     -1515.336          43.000  
C30  25058787.008 5 130487672.838 5     -2656.469          30.000                                                                  
C05                                                                  39615830.188 5 159516531.15325         5.223          34.000  
C29  21740279.523 8 113207432.868 8      -830.340          51.000                                                                  
> 2020 05 08 14 07 30.0000000  0 15      -0.000000000000
G26  20275144.859 8 106546595.801 8       114.785          51.000    20275147.453 8  83023336.575 8        89.443          51.000  
G31  23641655.789 5 124237733.890 5     -3238.707          33.000    23641673.422 5  96808690.548 5     -2523.675          32.000  
G18  20497798.594 8 107716697.309 8     -1018.730          51.000    20497799.062 8  83935068.652 8      -793.816          50.000  
G20  22651753.531 7 119035793.868 7      2904.355          45.000    22651755.984 7  92755149.799 7      2263.135          42.000  
G21  20917551.984 8 109922480.937 8     -1101.887          49.000    20917551.711 8  85653874.537 8      -858.610          49.000  
R18  19927759.180 5 106375329.070 5     -1849.414          34.000    19927758.812 4  82736385.89324     -1438.440          25.000  
R16  19990590.320 7 106785761.903 7     -2428.965          46.000    19990593.031 7  83055593.035 7     -1889.195          45.000  
E33  23449515.359 8 123228052.899 8       394.137          51.000    23449516.680 8  94421525.946 8       301.956          51.000  
E31  23698183.609 8 124534798.256 8       217.672          51.000    23698186.984 8  95422767.653 8       166.821          51.000  
E12  24417639.586 7 128315571.967 7      2412.797          44.000    24417638.375 7  98319728.827 7      1848.702          44.000  
E01  25151414.562 8 132171572.332 8     -2448.160          50.000    25151420.008 8 101274318.330 8     -1875.870          51.000  
E26  23821395.914 7 125182254.398 7     -1980.727          46.000    23821399.359 7  95918910.100 7     -1517.692          44.000  
C30  25074074.461 5 130567291.784 5     -2654.309          33.000                                                                  
C05  39615777.352 5 206289747.445 5         8.836          34.000    39615779.367 5 159516327.622 5         6.567          34.000  
C29  21745073.812 8 113232398.309 8      -836.078          51.000                                                                  
> 2020 05 08 14 08  0.0000000  0 14      -0.000000000000
G26  20274543.438 8 106543435.569 8        91.648          51.000    20274546.203 8  83020874.053 8        71.411          51.000  
G18  20503666.781 8 107747534.714 8     -1041.324          51.000    20503667.109 8  83959097.819 8      -811.422          50.000  
G20  22635203.742 7 118948821.281 7      2889.352          47.000    22635204.078 6  92687378.998 6      2251.443          38.000  
G21  20923884.203 8 109955756.401 8     -1120.617          50.000    20923883.766 8  85679803.475 8      -873.211          50.000  
R18  19938186.711 6 106431005.637 6     -1866.605          36.000    19938189.586 4  82779681.805 4     -1451.808          26.000  
R16  20004298.969 7 106858991.272 7     -2457.230          46.000    20004301.914 7  83112549.192 7     -1911.180          45.000  
E33  23447298.258 8 123216400.207 8       378.504          51.000    23447299.016 8  94412597.278 8       289.996          51.000  
E31  23696982.984 8 124528490.300 8       198.594          51.000    23696986.336 8  95417934.285 8       152.166          51.000  
E12  24403886.109 7 128243298.215 7      2401.289          44.000    24403885.867 7  98264350.253 7      1839.968          44.000  
E01  25165420.578 8 132245172.157 8     -2462.695          50.000    25165425.688 8 101330712.950 8     -1887.046          51.000  
E26  23832722.758 7 125241775.655 7     -1991.543          46.000    23832726.688 7  95964517.297 7     -1526.042          43.000  
C30  25089373.219 6 130646967.478 6     -2661.297          36.000                                                                  
C05  39615731.891 5 206289511.481 5         2.898          34.000    39615733.797 5 159516143.358 5         2.489          34.000  
C29  21749918.727 8 113257626.857 8      -849.883          51.000                                                                  
> 2020 05 08 14 08 30.0000000  0 14      -0.000000000000
G26  20274036.969 8 106540774.266 8        85.109          51.000    20274039.953 8  83018800.304 8        66.319          51.000  
G18  20509626.164 8 107778851.254 8     -1047.195          51.000    20509626.328 8  83983500.333 8      -815.997          50.000  
G20  22618703.211 8 118862106.804 8      2890.801          48.000    22618699.602 5  92619809.342 5      2252.576          34.000  
G21  20930286.086 8 109989397.530 8     -1122.684          51.000    20930285.344 8  85706017.341 8      -874.819          50.000  
R18  19948674.375 6 106486991.315 6     -1866.945          39.000    19948682.031 4  82823243.254 4     -1452.066          27.000  
R16  20018128.953 7 106932872.695 7     -2468.730          44.000    20018132.688 7  83170012.493 7     -1920.127          45.000  
E33  23445133.273 8 123205022.200 8       379.527          51.000    23445133.594 8  94403879.089 8       290.834          51.000  
E31  23695855.000 8 124522562.907 8       196.113          51.000    23695858.328 8  95413392.527 8       150.239          51.000  
E12  24390161.602 7 128171178.005 7      2406.219          42.000    24390162.508 7  98209089.339 7      1843.814          45.000  
E01  25179472.531 8 132319013.904 8     -2460.562          51.000    25179477.195 8 101387292.925 8     -1885.322          51.000  
E26  23844074.578 7 125301428.762 7     -1985.672          45.000    23844078.758 7  96010225.516 7     -1521.589          43.000  
C30  25104675.273 5 130726656.923 5     -2651.145          31.000                                                                  
C05  39615683.023 5 206289256.520 5        13.551          34.000                                                                  
C29  21754805.891 8 113283075.412 8      -847.332          51.000                                                                  
> 2020 05 08 14 09  0.0000000  0 13      -0.000000000000
G26  20273640.750 8 106538691.978 8        59.188          51.000    20273643.758 8  83017177.728 8        46.120          51.000  
G18  20515691.508 8 107810724.761 8     -1072.281          51.000    20515691.898 8  84008336.836 8      -835.541          50.000  
G20  22602267.320 8 118775732.547 8      2872.879          48.000    22602260.742 6  92552504.788 6      2238.611          36.000  
G21  20936772.430 8 110023482.418 8     -1144.023          51.000    20936771.609 8  85732576.995 8      -891.447          51.000  
R18  19959234.664 6 106543364.301 6     -1886.164          36.000    19959240.234 4  82867083.95024     -1467.014          26.000  
R16  20032095.883 7 107007484.197 7     -2499.633          45.000    20032100.102 7  83228043.607 7     -1944.159          44.000  
E33  23443035.391 8 123193997.724 8       361.039          51.000    23443035.586 8  94395431.772 8       276.664          51.000  
E31  23694814.523 8 124517096.164 8       174.043          51.000    23694818.234 8  95409203.710 8       133.376          51.000  
E12  24376481.633 7 128099291.129 7      2391.855          42.000    24376482.898 7  98154007.229 7      1832.763          45.000  
E01  25193585.695 8 132393175.869 8     -2477.922          51.000    25193589.211 8 101444118.250 8     -1898.677          51.000  
E26  23855466.117 7 125361291.886 7     -1999.430          44.000    23855469.953 7  96056094.639 7     -1532.076          42.000  
C05  39615646.336 5 206289066.158 5         5.664          34.000                                                                  
C29  21759750.164 8 113308821.872 8      -863.699          51.000                                                                  
> 2020 05 08 14 09 30.0000000  0 14      -0.000000000000
G26  20273325.969 8 106537037.702 8        40.832          51.000    20273328.898 8  83015888.682 8        31.817          51.000  
G18  20521833.586 8 107843001.873 8     -1089.738          50.000    20521834.055 8  84033487.845 8      -849.147          50.000  
G20  22585867.680 7 118689549.968 7      2862.371          47.000    22585862.453 6  92485349.640 6      2230.426          39.000  
G21  20943313.875 8 110057857.168 8     -1157.883          51.000    20943312.906 8  85759362.518 8      -902.244          51.000  
G29  23195091.055 6 121890994.456 6     -2745.758          36.000    23195090.750 5  94980026.563 5     -2139.561          33.000  
R18  19969837.438 5 106599968.126 5     -1897.699          35.000                                                                  
R16  20046170.812 7 107082668.798 7     -2523.012          45.000    20046174.406 7  83286520.492 7     -1962.346          43.000  
E33  23440975.398 8 123183174.488 8       350.121          51.000    23440975.883 8  94387138.661 8       268.281          51.000  
E31  23693832.812 8 124511938.991 8       159.520          51.000    23693836.656 8  95405252.111 8       122.152          51.000  
E12  24362817.773 7 128027486.296 7      2384.867          44.000    24362818.266 7  98098987.996 7      1827.319          45.000  
E01  25207730.734 8 132467505.266 8     -2487.664          51.000    25207733.336 8 101501071.874 8     -1906.172          51.000  
E26  23866868.445 7 125421212.094 7     -2005.602          42.000    23866871.141 6  96102007.511 6     -1536.859          41.000  
C05  39615592.938 5 206288788.208 5         3.164          34.000                                                                  
C29  21764722.633 8 113334715.219 8      -872.691          51.000                                                                  
> 2020 05 08 14 10  0.0000000  0 13      -0.000000000000
G26  20273119.758 8 106535954.628 8        23.984          51.000    20273122.602 8  83015044.712 8        18.686          50.000  
G18  20528079.297 8 107875823.511 8     -1105.594          51.000    20528079.500 8  84059063.141 8      -861.505          50.000  
G20  22569531.773 7 118603704.237 7      2853.250          47.000    22569528.914 6  92418456.922 6      2223.312          41.000  
G21  20949937.328 8 110092663.285 8     -1169.883          51.000    20949936.125 8  85786484.161 8      -911.597          51.000  
R18  19980511.531 6 106656945.693 6     -1908.156          37.000    19980518.938 4  82955417.961 4     -1484.122          27.000  
R16  20060379.859 7 107158568.508 7     -2544.543          47.000    20060383.055 7  83345553.584 7     -1979.092          43.000  
E33  23438981.000 8 123172694.418 8       341.133          51.000    23438981.375 8  94379108.486 8       261.388          51.000  
E31  23692937.445 8 124507234.518 8       146.711          51.000    23692941.055 8  95401647.381 8       112.466          51.000  
E12  24349196.867 7 127955906.435 7      2379.758          44.000    24349196.469 7  98044141.140 7      1823.401          45.000  
E01  25221934.211 8 132542143.431 8     -2495.629          51.000    25221936.898 8 101558262.100 8     -1912.194          51.000  
E26  23878308.203 6 125481330.606 6     -2009.941          41.000    23878310.000 6  96148072.350 6     -1539.942          40.000  
C30  25150633.469 4 130965949.283 4     -2664.355          29.000                                                                  
C29  21769750.383 8 113360895.953 8      -880.004          51.000                                                                  
> 2020 05 08 14 10 30.0000000  0 14      -0.000000000000
G26  20273024.258 8 106535453.314 8        11.141          51.000    20273026.977 8  83014654.068 8         8.681          51.000  
G18  20534430.188 8 107909197.931 8     -1117.680          51.000    20534430.477 8  84085069.191 8      -870.919          50.000  
G20  22553262.180 7 118518208.107 7      2848.031          47.000    22553261.250 7  92351836.629 7      2219.246          44.000  
G21  20956644.219 8 110127908.266 8     -1178.055          51.000    20956642.969 8  85813947.787 8      -917.965          51.000  
R18  19991257.891 5 106714305.002 5     -1913.816          34.000    19991269.859 4  83000030.721 4     -1488.521          29.000  
R16  20074724.398 8 107235190.483 8     -2561.941          48.000    20074727.438 7  83405148.439 7     -1992.625          44.000  
E33  23437054.039 8 123162566.871 8       335.832          51.000    23437054.023 8  94371348.435 8       257.269          51.000  
E31  23692130.562 8 124502993.286 8       137.703          51.000    23692133.969 8  95398397.612 8       105.528          51.000  
E12  24335620.625 7 127884561.918 7      2378.367          43.000    24335620.242 7  97989474.623 7      1822.270          46.000  
E01  25236197.586 8 132617099.199 8     -2499.707          50.000    25236201.023 8 101615695.706 8     -1915.367          51.000  
E26  23889787.078 6 125541656.194 6     -2010.273          41.000    23889788.938 6  96194295.852 6     -1540.364          40.000  
C30  25165976.414 4 131045842.927 4     -2660.520          28.000                                                                  
C05  39615518.664 5 206288401.543 5         8.484          34.000                                                                  
C29  21774835.023 8 113387373.128 8      -883.449          51.000                                                                  
> 2020 05 08 14 11  0.0000000  0 13      -0.000000000000
G26  20273009.750 8 106535376.751 8         3.312          51.000    20273012.445 8  83014594.415 8         2.581          51.000  
G18  20540855.930 8 107942965.806 8     -1124.309          51.000    20540856.555 8  84111381.831 8      -876.085          51.000  
G20  22537029.648 7 118432906.953 7      2847.855          47.000    22537029.586 7  92285368.249 7      2219.112          45.000  
G21  20963404.344 8 110163432.953 8     -1181.027          51.000    20963403.281 8  85841629.363 8      -920.281          50.000  
R18  20002043.250 5 106771883.204 5     -1915.000          34.000    20002053.703 4  83044813.843 4     -1489.448          26.000  
R16  20089173.469 8 107312371.542 8     -2574.145          48.000    20089176.523 7  83465178.119 7     -2002.113          45.000  
E33  23435163.797 8 123152633.574 8       335.629          51.000    23435163.766 8  94363737.243 8       257.179          51.000  
E31  23691382.070 8 124499058.270 8       133.867          51.000    23691385.359 8  95395382.470 8       102.556          51.000  
E12  24322058.836 7 127813295.539 7      2382.059          43.000    24322059.758 8  97934867.963 8      1825.155          48.000  
E01  25250491.367 8 132692213.808 8     -2498.602          51.000    25250495.234 8 101673251.026 8     -1914.538          51.000  
E26  23901275.141 7 125602030.095 7     -2005.586          42.000    23901278.055 6  96240556.357 6     -1536.623          41.000  
C05  39615470.008 5 206288147.50825        17.965          34.000                                                                  
C29  21779946.375 8 113413989.857 8      -881.848          51.000                                                                  
> 2020 05 08 14 11 30.0000000  0 16      -0.000000000000
G26  20273074.383 8 106535716.250 8       -25.945          51.000    20273077.047 8  83014858.937 8       -20.217          51.000  
G31  23790422.648 5 125019535.429 5     -3276.715          33.000    23790423.000 5  97417798.065 5     -2553.288          34.000  
G18  20547354.531 8 107977116.142 8     -1152.383          51.000    20547355.070 8  84137992.480 8      -897.961          51.000  
G20  22520833.078 8 118347793.894 8      2826.438          48.000    22520833.445 7  92219046.425 7      2202.419          44.000  
G21  20970215.609 8 110199226.439 8     -1205.223          51.000    20970214.492 8  85869520.391 8      -939.135          50.000  
G29  23257848.812 5 122220817.751 5     -2757.238          32.000                                                                  
R18  20012869.641 6 106829668.855 6     -1937.172          36.000    20012876.734 5  83089758.046 5     -1506.696          30.000  
R16  20103724.281 7 107390099.642 7     -2607.910          46.000    20103727.492 7  83525633.261 7     -2028.375          45.000  
E33  23433308.523 8 123142884.636 8       314.332          51.000    23433308.609 8  94356267.293 8       240.888          51.000  
E31  23690690.062 8 124495420.705 8       108.684          51.000    23690693.484 8  95392595.230 8        83.322          51.000  
E12  24308510.344 7 127742098.255 7      2364.586          44.000    24308512.695 8  97880314.241 8      1811.809          48.000  
E01  25264813.602 8 132767476.742 8     -2518.809          49.000    25264817.328 8 101730920.014 8     -1929.940          51.000  
E26  23912770.734 7 125662441.601 7     -2021.848          42.000    23912774.641 6  96286845.680 6     -1549.257          40.000  
C30  25196613.805 5 131205412.838 5     -2664.992          30.000                                                                  
C05  39615401.656 5 206287791.360 5         5.938          35.000                                                                  
C29  21785082.594 8 113440736.096 8      -901.230          51.000                                                                  
> 2020 05 08 14 12  0.0000000  0 13      -0.000000000000
G26  20273271.375 8 106536751.795 8       -48.117          51.000    20273273.781 8  83015665.849 8       -37.497          51.000  
G18  20553978.859 8 108011926.672 8     -1173.344          51.000    20553979.172 8  84165117.564 8      -914.294          51.000  
G20  22504726.172 8 118263151.340 8      2811.441          48.000    22504726.391 7  92153091.207 7      2190.731          45.000  
G21  20977130.844 8 110235566.171 8     -1222.562          51.000    20977129.422 8  85897837.070 8      -952.646          50.000  
G29  23273597.680 5 122303586.356 5     -2764.566          30.000                                                                  
R18  20023786.984 5 106887943.794 5     -1952.898          35.000    20023796.070 5  83135083.033 5     -1518.921          33.000  
R16  20118429.672 7 107468655.750 7     -2634.293          46.000    20118433.773 7  83586732.408 7     -2048.898          44.000  
E33  23431541.070 8 123133598.876 8       299.785          50.000    23431541.359 8  94349152.236 8       229.703          51.000  
E31  23690107.734 8 124492360.612 8        90.246          51.000    23690111.438 8  95390250.471 8        69.245          51.000  
E12  24295028.523 7 127671249.934 7      2353.816          44.000    24295031.633 8  97826027.910 8      1803.473          48.000  
E01  25279216.719 7 132843166.239 7     -2532.156          47.000    25279220.680 8 101788915.866 8     -1940.207          51.000  
E26  23924327.008 6 125723169.027 6     -2031.555          41.000    23924330.984 6  96333377.065 6     -1556.835          39.000  
C29  21790296.883 8 113467888.013 8      -913.797          51.000                                                                  
> 2020 05 08 14 12 30.0000000  0 14      -0.000000000000
G26  20273553.117 8 106538232.791 8       -57.965          51.000    20273555.297 8  83016819.866 8       -45.167          51.000  
G18  20560680.719 8 108047144.493 8     -1181.891          51.000    20560680.969 8  84192560.040 8      -920.951          51.000  
G20  22488660.977 7 118178731.025 7      2809.309          46.000    22488661.773 7  92087309.173 7      2189.075          44.000  
G21  20984102.039 8 110272199.645 8     -1227.082          51.000    20984100.641 8  85926382.645 8      -956.165          50.000  
G29  23289349.867 5 122386381.769 5     -2761.746          33.000                                                                  
R18  20034746.914 5 106946450.413 5     -1955.059          35.000    20034757.508 5  83180588.236 5     -1520.598          34.000  
R16  20133242.242 7 107547781.641 7     -2648.105          46.000    20133246.266 7  83648274.755 7     -2059.638          44.000  
E33  23429813.484 8 123124524.476 8       297.766          50.000    23429814.195 8  94342199.123 8       228.218          51.000  
E31  23689587.648 8 124489627.367 8        84.539          51.000    23689591.219 8  95388156.163 8        64.777          51.000  
E12  24281565.148 7 127600499.757 7      2355.457          44.000    24281568.516 7  97771816.777 7      1804.916          47.000  
E01  25293652.062 7 132919029.904 7     -2532.816          46.000    25293657.219 8 101847045.245 8     -1940.770          51.000  
E26  23935895.812 6 125783959.918 6     -2028.641          41.000    23935899.273 6  96379957.089 6     -1554.291          39.000  
C05  39615317.844 5 206287355.084 5         9.469          34.000                                                                  
C29  21795541.164 8 113495195.963 8      -913.996          51.000                                                                  
> 2020 05 08 14 13  0.0000000  0 14      -0.000000000000
G26  20273943.016 8 106540282.273 8       -81.043          51.000    20273945.109 8  83018416.847 8       -63.150          51.000  
G31  23846623.461 6 125314871.286 6     -3290.898          37.000    23846613.180 6  97647912.329 6     -2564.340          37.000  
G18  20567483.117 8 108082890.365 8     -1203.512          51.000    20567483.039 8  84220413.961 8      -937.802          51.000  
G20  22472661.422 7 118094658.268 7      2793.195          43.000    22472663.219 7  92021797.924 7      2176.517          43.000  
G21  20991152.023 8 110309247.439 8     -1245.023          51.000    20991150.805 8  85955251.067 8      -970.148          50.000  
R18  20045774.297 6 107005310.997 6     -1971.074          39.000    20045782.078 5  83226368.688 5     -1533.061          31.000  
R16  20148184.070 7 107627598.278 7     -2675.199          45.000    20148187.891 7  83710354.380 7     -2080.711          43.000  
E33  23428149.578 8 123115783.254 8       282.547          49.000    23428150.617 8  94335501.318 8       216.518          51.000  
E31  23689153.086 8 124487343.990 8        65.348          51.000    23689156.484 8  95386406.564 8        50.069          51.000  
E12  24268143.281 7 127529970.614 7      2344.180          42.000    24268146.977 8  97717774.986 8      1796.119          48.000  
E01  25308144.664 8 132995189.199 8     -2546.820          48.000    25308150.055 8 101905401.079 8     -1951.452          51.000  
E26  23947499.875 6 125844935.516 6     -2038.816          40.000    23947502.969 6  96426678.629 6     -1562.142          40.000  
C05  39615277.836 5 206287146.554 5         3.285          34.000                                                                  
C29  21800838.477 8 113522780.576 8      -927.312          51.000                                                                  
> 2020 05 08 14 13 30.0000000  0 16      -0.000000000000
G26  20274440.852 8 106542898.003 8       -92.836          51.000    20274442.734 8  83020455.090 8       -72.340          51.000  
G31  23865404.055 6 125413587.338 6     -3289.207          39.000    23865397.641 4  97724833.825 4     -2563.025          29.000  
G18  20574385.086 8 108119159.822 8     -1213.859          51.000    20574384.789 8  84248675.887 8      -945.865          51.000  
G20  22456728.219 6 118010932.957 6      2788.859          41.000    22456731.133 6  91956557.441 6      2173.141          41.000  
G21  20998279.977 8 110346704.901 8     -1251.703          51.000    20998278.703 8  85984438.713 8      -975.350          50.000  
R18  20056866.203 6 107064520.672 6     -1975.266          36.000    20056871.859 5  83272420.653 5     -1536.315          33.000  
R16  20163254.031 7 107708100.043 7     -2690.977          45.000    20163257.133 6  83772966.896 6     -2092.982          40.000  
R02  22863359.664 6 122002880.139 6       822.473          37.000    22863363.391 5  94891139.820 5       639.704          32.000  
E33  23426548.938 8 123107371.853 8       278.582          50.000    23426549.891 8  94329056.251 8       213.498          51.000  
E31  23688803.438 8 124485508.266 8        57.430          51.000    23688806.992 8  95384999.970 8        44.017          51.000  
E12  24254762.773 6 127459660.187 6      2343.570          41.000    24254766.672 8  97663900.745 8      1795.844          48.000  
E01  25322693.336 8 133071640.189 8     -2549.492          50.000    25322698.312 8 101963980.370 8     -1953.520          51.000  
E26  23959137.891 6 125906091.915 6     -2037.797          41.000    23959141.180 6  96473538.723 6     -1561.304          40.000  
C30  25258054.727 5 131525314.567 5     -2665.609          30.000                                                                  
C05  39615246.242 5 206286982.414 5         8.766          34.000    39615248.602 5 159514190.315 5         6.959          34.000  
C29  21806188.289 8 113550638.398 8      -929.410          51.000                                                                  
> 2020 05 08 14 14  0.0000000  0 16      -0.000000000000
G26  20275023.688 8 106545960.247 8      -114.000          51.000    20275025.469 8  83022841.238 8       -88.831          51.000  
G31  23884191.938 6 125512337.026 6     -3296.793          38.000    23884188.602 4  97801756.758 4     -2568.912          26.000  
G18  20581363.391 8 108155830.804 8     -1233.547          51.000    20581363.211 8  84277250.690 8      -961.203          50.000  
G20  22440839.359 7 117927437.559 7      2775.109          43.000    22440842.633 7  91891496.144 7      2162.420          43.000  
G21  21005462.648 8 110384450.050 8     -1267.438          51.000    21005461.359 8  86013850.528 8      -987.611          50.000  
R18  20068000.305 6 107123955.033 6     -1989.262          38.000    20068006.812 5  83318647.415 5     -1547.201          34.000  
R16  20178429.461 7 107789161.908 7     -2715.703          46.000    20178430.438 6  83836014.941 6     -2112.220          38.000  
R02  22858805.594 5 121978596.108 5       794.055          32.000    22858813.703 5  94872252.226 5       617.598          32.000  
E33  23424988.070 8 123099169.408 8       265.402          49.000    23424988.789 8  94322771.254 8       203.351          51.000  
E31  23688516.117 8 124484000.448 8        40.227          51.000    23688519.875 8  95383844.602 8        30.853          51.000  
E12  24241401.891 7 127389448.372 7      2334.266          43.000    24241404.781 7  97610102.113 7      1788.591          47.000  
E01  25337274.242 8 133148261.315 8     -2561.402          51.000    25337278.570 8 102022689.998 8     -1962.625          51.000  
E26  23970787.031 6 125967307.616 6     -2046.195          41.000    23970790.844 6  96520444.230 6     -1567.721          40.000  
C30  25273417.023 5 131605308.710 5     -2670.230          33.000                                                                  
