     3.02           OBSERVATION DATA    M (MIXED)           RINEX VERSION / TYPE
SAVERINEX           SC600               20200505 005931 LCL PGM / RUN BY / DATE
       G = GPS       R = GLONASS       C = COMPASS          COMMENT
       S = SBAS      J = QZSS          E = GALILEO          COMMENT
BEAN                                                        MARKER NAME
1                                                           MARKER NUMBER
GEODETIC                                                    MARKER TYPE
Unige DICCA         GTER                                    OBSERVER / AGENCY
SC60291900056       SC600               2.12(191226)        REC # / TYPE / VERS
                    HEMA45          NONE                    ANT # / TYPE
  4509407.8091   693652.4678  4442337.6214                  APPROX POSITION XYZ
        0.0000        0.0000        0.0000                  ANTENNA: DELTA H/E/N
G    8 C1C L1C D1C S1C C2Y L2Y D2Y S2Y                      SYS / # / OBS TYPES
R    8 C1C L1C D1C S1C C2P L2P D2P S2P                      SYS / # / OBS TYPES
C    4 C1I L1I D1I S1I                                      SYS / # / OBS TYPES
E    8 C1C L1C D1C S1C C7Q L7Q D7Q S7Q                      SYS / # / OBS TYPES
DBHZ                                                        COMMENT
     30.000                                                 INTERVAL
  2020    05    04    22    00    0.0000000     GPS         TIME OF FIRST OBS
  2020    05    04    22    59   30.0000000     GPS         TIME OF LAST OBS
     0                                                      RCV CLOCK OFFS APPL
G L1C  0.00000                                              SYS / PHASE SHIFT
G L2Y  0.00000                                              SYS / PHASE SHIFT
R L1C  0.00000                                              SYS / PHASE SHIFT
R L2P  0.25000                                              SYS / PHASE SHIFT
C L1I  0.00000                                              SYS / PHASE SHIFT
E L1C  0.50000                                              SYS / PHASE SHIFT
E L7Q -0.25000                                              SYS / PHASE SHIFT
 14 R01  1 R02 -4 R03  5 R04  6 R05  1 R10 -5 R11  0 R12 -1 GLONASS SLOT / FRQ #
    R13 -2 R14 -7 R17  4 R18 -3 R19  3 R23  3               GLONASS SLOT / FRQ #
 C1C   71.950 C2C   71.950 C2P   71.950                     GLONASS COD/PHS/BIS
    18                                                      LEAP SECONDS
*** Above antenna height is from mark to ANTENNA BOTTOM.    COMMENT
    17     4        0.0000        ANT MEASURE TYPE/HEIGT    COMMENT
    0.0000    0.0000    0.0458    0.0405    0.0000          COMMENT
                    BASE STATION                            COMMENT
                                                            END OF HEADER
> 2020 05 04 22 00  0.0000000  0 18        .000000000000
G01  21695406.141 8 114010121.086 8     -2578.379          51.000    21695409.430 8  88839069.726 8     -2009.123          51.000
G03  20411975.516 8 107265684.149 8      -604.559          51.000    20411976.953 8  83583675.907 8      -471.085          51.000
G04  20891797.852 7 109787137.293 7      1943.621          46.000    20891798.086 7  85548469.028 7      1514.513          45.000
G09  23185424.703 6 121840240.654 6      3438.766          40.000    23185409.875 6  94940380.430 6      2679.561          38.000
G11  24269788.180 5 127538629.917 5     -4030.059          35.000
G19  22323781.289 6 117312256.385 6      1130.914          37.000
G22  21689328.117 7 113978289.030 7     -1782.395          46.000    21689322.828 5  88814221.988 5     -1388.879          35.000
R03  19435235.453 7 104038375.697 7      -792.480          43.000    19435236.180 6  80918763.868 6      -616.371          37.000
R04  20991583.117 6 112408979.336 6      2493.242          40.000    20991585.008 5  87429221.680 5      1939.188          35.000
R17  22596372.789 5 120917753.218 5     -4416.117          32.000    22596377.172 6  94047160.271 6     -3434.761          40.000
R18  19575415.422 8 104494895.680 8     -1802.660          51.000    19575419.938 8  81273809.545 8     -1402.069          51.000
C19  23770281.547 4 123778078.572 4      2262.609          28.000
C20  21888541.945 8 113979496.148 8       -45.996          51.000
C29  22350909.078 8 116387026.942 8     -1144.086          51.000
C30  24667200.617 6 128448600.180 6     -3358.977          41.000
E03  25049839.555 8 131637771.558 8      2116.219          51.000    25049840.953 8 100865352.470 8      1621.551          51.000
E05  23407675.906 8 123008241.231 8      -343.277          51.000    23407677.859 8  94253084.192 8      -263.001          51.000
E36  25930130.031 7 136263758.133 7     -2825.723          45.000    25930135.273 7 104409907.579 7     -2165.146          44.000
> 2020 05 04 22 00 30.0000000  0 19        .000000000000
G01  21710171.703 8 114087715.003 8     -2591.520          50.000    21710174.859 8  88899532.528 8     -2019.366          50.000
G03  20415469.516 8 107284044.301 8      -616.488          51.000    20415470.781 8  83597982.515 8      -480.380          51.000
G04  20880760.078 7 109729135.206 7      1926.113          46.000    20880759.898 7  85503272.632 7      1500.867          44.000
G09  23165825.492 6 121737256.744 6      3429.781          41.000    23165812.820 7  94860133.319 7      2672.563          42.000
G11  24292815.562 6 127659635.899 6     -4033.922          37.000
G17  22039880.922 6 115820345.599 6      -157.906          36.000
G19  22317395.320 6 117278705.855 6      1108.629          36.000
G22  21699536.180 7 114031932.083 7     -1790.863          45.000    21699530.758 5  88856021.762 5     -1395.481          35.000
R03  19439732.203 7 104062448.174 7      -809.391          44.000    19439733.398 6  80937486.912 6      -629.526          39.000
R04  20977665.609 6 112334441.598 6      2478.832          41.000    20977662.883 5  87371247.968 5      1927.984          33.000
R17  22621166.930 6 121050429.462 6     -4425.574          37.000    22621170.609 6  94150352.914 6     -3442.113          38.000
R18  19585629.156 8 104549415.856 8     -1828.996          51.000    19585633.266 8  81316214.143 8     -1422.553          49.000
C19  23757285.375 5 123710351.720 5      2254.945          35.000
C20  21888847.156 8 113981083.798 8       -56.945          51.000
C29  22357560.117 8 116421659.466 8     -1161.852          51.000
C30  24686578.695 6 128549504.993 6     -3365.098          40.000
E03  25037793.664 8 131574467.230 8      2107.023          51.000    25037793.742 8 100816846.599 8      1614.458          51.000
E05  23409677.523 8 123018760.213 8      -355.035          51.000    23409679.516 8  94261144.211 8      -272.076          51.000
E36  25946291.367 7 136348685.041 7     -2833.199          47.000    25946294.312 7 104474981.443 7     -2171.001          44.000
> 2020 05 04 22 01  0.0000000  0 18        .000000000000
G01  21725005.445 8 114165666.334 8     -2606.023          50.000    21725008.672 8  88960273.801 8     -2030.668          50.000
G03  20419023.445 8 107302719.532 8      -629.441          51.000    20419024.516 8  83612534.635 8      -490.474          51.000
G04  20869814.469 7 109671616.174 7      1907.414          46.000    20869813.594 7  85458452.617 7      1486.294          43.000
G09  23146269.117 6 121634499.775 6      3419.961          41.000    23146259.703 6  94780063.050 6      2664.908          41.000
G11  24315857.359 6 127780715.640 6     -4038.926          37.000
G17  22040833.070 6 115825367.888 6      -179.242          36.000
G22  21709784.492 7 114085787.832 7     -1800.461          44.000    21709779.297 5  88897987.274 5     -1402.957          35.000
R03  19444314.758 6 104086978.775 6      -826.992          41.000    19444316.133 6  80956566.299 6      -643.216          38.000
R04  20963821.469 6 112260293.251 6      2463.480          41.000    20963816.203 5  87313577.032 5      1916.040          35.000
R17  22646002.516 6 121183329.119 6     -4435.469          37.000    22646006.031 6  94253719.310 6     -3449.809          37.000
R18  19595982.516 8 104604681.760 8     -1856.375          51.000    19595985.711 8  81359198.724 8     -1443.847          48.000
C19  23744316.375 5 123642814.088 5      2246.422          35.000
C20  21889207.195 8 113982958.949 8       -69.043          51.000
C29  22364305.516 8 116456784.620 8     -1180.777          51.000
C30  24705983.094 6 128650544.969 6     -3371.938          39.000
E03  25025791.656 8 131511396.074 8      2096.660          51.000    25025791.812 8 100768519.369 8      1606.541          51.000
E05  23411737.742 8 123029586.195 8      -367.742          51.000    23411739.766 8  94269439.442 8      -281.762          51.000
E36  25962488.055 8 136433794.358 8     -2841.770          49.000    25962489.039 7 104540195.049 7     -2177.385          46.000
> 2020 05 04 22 01 30.0000000  0 20        .000000000000
G01  21739889.453 8 114243881.122 8     -2614.715          50.000    21739892.500 8  89021220.355 8     -2037.440          51.000
G03  20422619.539 8 107321616.735 8      -636.980          51.000    20422620.562 8  83627259.730 8      -496.345          51.000
G04  20858943.453 7 109614488.709 7      1894.270          47.000    20858942.336 7  85413937.678 7      1476.054          44.000
G09  23126738.781 6 121531878.968 6      3414.848          41.000    23126732.914 6  94700098.896 6      2660.923          40.000
G11  24338894.898 6 127901774.483 6     -4038.543          37.000
G17  22041883.305 5 115830891.911 5      -196.117          35.000
G22  21720055.594 7 114139762.958 7     -1804.516          43.000    21720050.109 6  88940045.756 6     -1406.116          36.000
R02  22114554.516 5 118007459.574 5     -3390.965          31.000
R03  19448964.516 7 104111871.402 7      -839.117          43.000    19448965.375 6  80975927.195 6      -652.650          39.000
R04  20950029.797 5 112186440.508 5      2453.316          35.000    20950026.148 6  87256135.928 6      1908.126          36.000
R17  22670862.484 6 121316354.391 6     -4439.879          36.000    22670865.516 6  94357183.394 6     -3453.242          36.000
R18  19606457.766 8 104660597.383 8     -1878.000          51.000    19606459.898 7  81402688.651 7     -1460.667          46.000
C19  23731333.578 6 123575270.003 6      2242.898          36.000
C20  21889604.844 8 113985029.146 8       -75.520          51.000
C29  22371127.734 8 116492309.619 8     -1194.070          51.000
C30  24725394.945 6 128751626.112 6     -3373.012          36.000
E03  25013815.602 8 131448465.831 8      2091.930          50.000    25013817.109 8 100720300.080 8      1602.904          51.000
E05  23413838.297 8 123040625.597 8      -374.855          51.000    23413840.516 8  94277898.209 8      -287.260          51.000
E09  24276366.656 6 127573157.704 6     -2447.664          37.000
E36  25978701.820 8 136518992.244 8     -2844.680          51.000    25978702.250 8 104605476.524 8     -2179.696          49.000
> 2020 05 04 22 02  0.0000000  0 18        .000000000000
G01  21754855.734 8 114322529.076 8     -2627.676          50.000    21754858.289 8  89082504.475 8     -2047.540          49.000
G03  20426290.195 8 107340906.377 8      -648.488          51.000    20426291.352 8  83642290.620 8      -505.316          51.000
G04  20848179.602 7 109557924.827 7      1877.164          47.000    20848179.289 7  85369861.913 7      1462.725          47.000
G09  23107267.383 5 121429567.091 5      3406.750          35.000    23107265.195 5  94620375.470 5      2654.613          35.000
G11  24361959.164 5 128022980.426 5     -4041.391          34.000    24361954.266 4  99758134.393 4     -3149.139          29.000
G22  21730381.836 7 114194027.488 7     -1812.484          45.000    21730376.305 6  88982329.788 6     -1412.325          36.000
R03  19453714.578 7 104137298.195 7      -855.426          42.000    19453716.289 6  80995703.605 6      -665.328          39.000
R04  20936324.984 6 112113058.053 6      2439.500          36.000    20936323.688 6  87199060.700 6      1897.395          36.000
R17  22695777.719 5 121449676.064 5     -4448.070          34.000    22695779.836 5  94460878.063 5     -3459.610          33.000
R18  19617086.898 8 104717335.039 8     -1903.809          51.000    19617088.273 7  81446817.926 7     -1480.743          45.000
C19  23718435.164 5 123508097.266 5      2235.398          32.000
C20  21890072.500 8 113987463.155 8       -86.137          51.000
C29  22378059.211 8 116528402.904 8     -1211.516          51.000
C30  24744845.672 5 128852915.767 5     -3378.777          31.000
E03  25001898.797 8 131385847.919 8      2083.234          50.000    25001902.211 8 100672320.090 8      1596.248          51.000
E05  23416011.703 8 123052048.554 8      -385.988          51.000    23416014.023 8  94286650.874 8      -295.772          51.000
E09  24290354.180 6 127646655.787 6     -2451.707          36.000
E36  25994964.484 8 136604448.543 8     -2851.742          51.000    25994965.422 8 104670955.999 8     -2185.020          51.000
> 2020 05 04 22 02 30.0000000  0 18        .000000000000
G01  21769883.836 8 114401504.433 8     -2636.863          49.000    21769886.141 8  89144043.748 8     -2054.696          49.000
G03  20430015.531 8 107360483.447 8      -656.312          51.000    20430016.758 8  83657545.474 8      -511.412          51.000
G04  20837503.500 8 109501821.106 8      1863.508          48.000    20837504.102 8  85326144.756 8      1452.084          48.000
G11  24385030.961 5 128144227.104 5     -4041.316          33.000
G17  22044337.586 5 115843785.751 5      -232.039          33.000
G22  21740743.008 7 114248476.622 7     -1816.836          44.000    21740737.820 6  89024757.701 6     -1415.716          37.000
R02  22152705.000 4 118211077.236 4     -3395.156          29.000
R03  19458543.945 7 104163150.792 7      -867.777          42.000    19458545.680 6  81015811.187 6      -674.938          38.000
R04  20922687.852 6 112040039.804 6      2429.055          39.000    20922688.602 6  87142268.809 6      1889.268          36.000
R17  22720726.289 5 121583184.238 5     -4452.340          30.000    22720728.680 5  94564717.627 5     -3462.934          31.000
R18  19627849.602 8 104774786.456 8     -1925.906          51.000    19627850.961 7  81491502.313 7     -1497.930          46.000
C19  23705567.625 5 123441088.510 5      2231.465          31.000
C20  21890589.500 8 113990156.713 8       -93.055          51.000
C29  22385079.477 8 116564959.877 8     -1225.285          51.000
E03  24990022.156 8 131323438.155 8      2077.730          51.000    24990026.422 8 100624499.599 8      1592.111          51.000
E05  23418238.453 8 123063749.696 8      -393.664          51.000    23418240.508 8  94295616.676 8      -301.651          51.000
E09  24304354.266 5 127720225.360 5     -2452.348          35.000
E36  26011255.797 8 136690057.502 8     -2855.164          51.000    26011257.211 8 104736552.464 8     -2187.723          51.000
> 2020 05 04 22 03  0.0000000  0 19        .000000000000
G01  21784988.023 8 114480879.301 8     -2649.871          49.000    21784990.992 8  89205894.290 8     -2064.835          50.000
G03  20433809.422 8 107380420.725 8      -667.875          51.000    20433810.586 8  83673081.017 8      -520.422          51.000
G04  20826929.258 8 109446251.938 8      1846.012          49.000    20826930.281 8  85282844.140 8      1438.454          48.000
G09  23068473.867 5 121225646.010 5      3391.965          33.000    23068465.992 5  94461516.384 5      2643.099          33.000
G11  24408125.508 5 128265561.932 5     -4043.770          32.000
G17  22045736.727 5 115851138.415 5      -253.109          31.000
G22  21751153.109 7 114303183.217 7     -1825.203          43.000    21751148.117 6  89067386.196 6     -1422.236          39.000
R02  22171818.336 5 118313043.866 5     -3399.383          33.000
R03  19463466.273 7 104189501.681 7      -883.949          43.000    19463468.219 6  81036306.310 6      -687.516          39.000
R04  20909132.211 5 111967461.257 5      2414.570          35.000    20909135.383 6  87085818.784 6      1877.996          37.000
R17  22745723.172 5 121716949.613 5     -4460.441          34.000    22745726.141 5  94668757.413 5     -3469.229          32.000
R18  19638759.414 8 104833024.332 8     -1951.613          51.000    19638761.125 7  81536798.399 7     -1517.924          47.000
C19  23692744.156 5 123374316.336 5      2224.715          33.000
C20  21891170.406 8 113993181.830 8      -103.676          51.000
C29  22392202.680 8 116602052.148 8     -1242.648          51.000
E03  24978199.836 8 131261310.219 8      2068.953          50.000    24978203.828 8 100576895.097 8      1585.281          51.000
E05  23420531.695 8 123075801.406 8      -404.758          51.000    23420534.016 8  94304851.119 8      -310.172          51.000
E09  24318381.977 6 127793938.551 6     -2456.852          36.000
E36  26027589.281 8 136775891.214 8     -2862.168          49.000    26027591.391 8 104802321.172 8     -2193.075          51.000
> 2020 05 04 22 03 30.0000000  0 19        .000000000000
G01  21800143.562 8 114560521.655 8     -2660.941          50.000    21800146.727 8  89267953.264 8     -2073.461          51.000
G03  20437646.969 8 107400587.011 8      -677.805          51.000    20437647.984 8  83688795.008 8      -528.159          51.000
G04  20816432.086 8 109391087.696 8      1830.121          50.000    20816433.266 8  85239859.030 8      1426.068          48.000
G09  23049123.578 6 121123974.419 6      3384.332          39.000    23049117.469 6  94382291.870 6      2637.148          38.000
G11  24431215.586 5 128386902.848 5     -4046.254          31.000
G17  22047230.766 5 115858983.501 5      -271.988          33.000
G22  21761587.406 7 114358015.879 7     -1831.793          43.000    21761583.062 6  89110112.953 6     -1427.368          40.000
R02  22190932.969 5 118415020.810 5     -3400.652          33.000
R03  19468457.211 7 104216216.121 7      -898.547          44.000    19468459.156 6  81057084.237 6      -698.870          39.000
R04  20895634.922 6 111895189.540 6      2402.121          38.000    20895639.500 6  87029607.367 6      1868.316          36.000
R17  22770741.055 4 121850835.715 4     -4466.789          27.000    22770746.344 5  94772891.068 5     -3474.169          32.000
R18  19649791.250 8 104891913.798 8     -1975.648          51.000    19649793.633 8  81582601.281 8     -1536.618          49.000
C19  23679943.242 6 123307651.599 6      2218.438          37.000
C20  21891790.062 8 113996408.324 8      -112.695          51.000
C29  22399403.469 8 116639549.152 8     -1258.406          51.000
E03  24966406.398 8 131199333.819 8      2061.641          49.000    24966409.547 8 100529406.730 8      1579.699          51.000
E05  23422866.586 8 123088072.109 8      -414.465          51.000    23422869.258 8  94314253.368 8      -317.508          51.000
E09  24332412.242 6 127867663.335 6     -2459.469          38.000
E36  26043939.289 7 136861817.785 7     -2867.469          45.000    26043943.031 8 104868161.045 8     -2197.172          51.000
> 2020 05 04 22 04  0.0000000  0 17        .000000000000
G01  21815363.898 8 114640503.741 8     -2673.570          50.000    21815366.945 8  89330276.947 8     -2083.302          50.000
G03  20441542.008 8 107421055.280 8      -689.230          51.000    20441542.922 8  83704744.316 8      -537.063          51.000
G04  20806026.203 8 109336402.935 8      1812.832          50.000    20806027.422 8  85197247.532 8      1412.596          48.000
G09  23029816.648 6 121022530.631 6      3375.770          40.000    23029810.875 6  94303244.853 6      2630.476          40.000
G19  22276059.969 5 117061484.836 5       959.742          34.000
G22  21772059.594 7 114413047.588 7     -1839.566          43.000    21772055.852 6  89152994.785 6     -1433.428          39.000
R02  22210055.273 5 118517064.346 5     -3404.426          33.000
R03  19473529.273 7 104243366.979 7      -914.203          43.000    19473529.867 6  81078201.552 6      -711.047          38.000
R04  20882212.805 5 111823299.881 5      2388.020          33.000    20882214.508 5  86973693.251 5      1857.352          34.000
R18  19660958.773 8 104951527.805 8     -2001.090          51.000    19660961.500 8  81628967.715 8     -1556.403          50.000
C19  23667176.859 6 123241167.307 6      2211.184          36.000
C20  21892461.844 8 113999908.329 8      -123.137          51.000
C29  22406695.562 8 116677522.648 8     -1275.594          51.000
E03  24954655.492 8 131137582.831 8      2052.797          48.000    24954658.125 8 100482091.072 8      1572.812          51.000
E05  23425257.234 8 123100634.441 8      -425.594          51.000    23425259.727 8  94323879.043 8      -326.018          51.000
E09  24346457.688 6 127941472.040 6     -2463.605          36.000
E36  26060320.086 7 136947909.515 7     -2874.203          45.000    26060325.680 8 104934127.493 8     -2202.380          51.000
> 2020 05 04 22 04 30.0000000  0 16        .000000000000
G01  21830650.586 8 114720835.718 8     -2685.824          49.000    21830654.055 8  89392873.261 8     -2092.850          49.000
G03  20445496.562 8 107441836.515 8      -700.094          51.000    20445497.375 8  83720937.491 8      -545.528          51.000
G04  20795713.789 8 109282210.105 8      1796.074          49.000    20795714.945 8  85155019.382 8      1399.541          49.000
G09  23010555.812 7 120921328.119 7      3367.090          42.000    23010550.438 7  94224385.835 7      2623.709          42.000
G22  21782571.523 7 114468289.021 7     -1846.938          43.000    21782568.750 6  89196040.067 6     -1439.172          39.000
R02  22229191.617 5 118619184.186 5     -3407.430          35.000    22229193.930 4  92259404.471 4     -2650.229          27.000
R03  19478684.844 7 104270963.953 7      -929.684          43.000    19478685.516 6  81099665.872 6      -723.084          40.000
R04  20868861.383 5 111751804.549 5      2374.141          31.000    20868863.703 5  86918085.772 5      1846.548          35.000
R18  19672263.938 8 105011875.856 8     -2026.082          51.000    19672266.969 8  81675905.100 8     -1575.842          51.000
C19  23654445.852 5 123174875.068 5      2204.410          35.000
C20  21893188.586 8 114003692.550 8      -133.117          51.000
C29  22414081.148 8 116715982.913 8     -1292.328          51.000
E03  24942949.289 8 131076069.115 8      2044.242          48.000    24942952.133 8 100434957.184 8      1566.355          51.000
E05  23427705.203 8 123113498.932 8      -436.066          51.000    23427707.688 8  94333736.250 8      -334.153          51.000
E09  24360519.805 5 128015374.925 5     -2466.863          34.000
E36  26076735.617 7 137034176.747 7     -2880.836          47.000    26076741.297 8 105000228.386 8     -2207.307          51.000
> 2020 05 04 22 05  0.0000000  0 18        .000000000000
G01  21846016.117 7 114801584.437 7     -2698.148          47.000    21846020.250 7  89455794.348 7     -2102.456          47.000
G03  20449523.500 8 107462998.432 8      -711.129          51.000    20449524.281 8  83737427.292 8      -554.126          51.000
G04  20785508.320 8 109228578.455 8      1778.969          51.000    20785508.891 8  85113228.524 8      1386.209          49.000
G09  22991354.086 7 120820436.783 7      3358.430          42.000    22991350.156 7  94145769.281 7      2616.961          42.000
G11  24500556.328 5 128751302.929 5     -4053.824          31.000
G17  22052372.320 6 115886039.687 6      -331.324          38.000
G22  21793136.398 6 114523808.522 6     -1854.828          40.000    21793134.320 6  89239302.020 6     -1445.324          39.000
R02  22248354.195 5 118721447.358 5     -3410.574          31.000    22248355.859 4  92338939.081 4     -2652.657          29.000
R03  19483936.570 7 104299074.604 7      -944.969          42.000    19483936.891 6  81121529.717 6      -734.976          39.000
R04  20855598.445 5 111680773.285 5      2360.605          35.000    20855599.766 5  86862839.328 5      1836.033          35.000
R18  19683719.367 8 105073025.275 8     -2051.051          51.000    19683722.258 8  81723465.779 8     -1595.262          51.000
C19  23641764.266 6 123108842.747 6      2197.098          36.000
C20  21893982.812 8 114007827.922 8      -143.121          51.000
C29  22421573.148 8 116754996.443 8     -1309.059          51.000
E03  24931301.336 8 131014861.205 8      2035.902          48.000    24931304.562 8 100388057.612 8      1559.899          51.000
E05  23430223.422 8 123126732.923 8      -446.730          51.000    23430226.125 8  94343876.581 8      -342.303          51.000
E09  24374612.844 5 128089454.975 5     -2470.418          35.000
E36  26093198.531 8 137120686.418 8     -2887.117          50.000    26093202.734 8 105066515.025 8     -2212.186          50.000
> 2020 05 04 22 05 30.0000000  0 17        .000000000000
G01  21861439.617 7 114882637.888 7     -2707.051          47.000    21861444.078 7  89518952.910 7     -2109.390          47.000
G03  20453601.695 8 107484429.773 8      -719.086          51.000    20453602.531 8  83754127.034 8      -560.327          51.000
G04  20775388.727 8 109175398.265 8      1764.773          50.000    20775388.977 8  85071789.420 8      1375.148          50.000
G09  22972190.914 7 120719747.691 7      3352.879          42.000    22972189.250 7  94067310.307 7      2612.633          42.000
G17  22054309.555 6 115896202.708 6      -348.191          36.000
G22  21803733.188 6 114579494.442 6     -1859.164          41.000    21803731.125 6  89282693.654 6     -1448.696          39.000
R02  22267521.227 5 118823740.150 5     -3410.367          31.000    22267523.086 4  92418500.265 4     -2652.499          29.000
R03  19489262.438 7 104327584.241 7      -957.195          42.000    19489262.109 6  81143703.870 6      -744.485          39.000
R04  20842399.906 6 111610093.789 6      2349.879          39.000    20842399.883 5  86807866.410 5      1827.684          30.000
R18  19695303.531 8 105134861.461 8     -2072.852          51.000    19695306.055 8  81771560.640 8     -1612.215          50.000
C19  23629111.109 5 123042960.575 5      2193.621          34.000
C20  21894822.992 8 114012204.021 8      -150.062          51.000
C29  22429150.227 8 116794452.407 8     -1322.789          51.000
E03  24919690.945 8 130953848.763 8      2030.273          49.000    24919694.625 8 100341307.809 8      1555.628          51.000
E05  23432790.836 8 123140224.764 8      -454.328          51.000    23432793.555 8  94354214.491 8      -348.089          51.000
E09  24388716.234 5 128163568.295 5     -2470.852          33.000
E36  26109686.688 8 137207326.622 8     -2890.316          51.000    26109688.828 8 105132901.667 8     -2214.712          49.000
> 2020 05 04 22 06  0.0000000  0 17        .000000000000
G01  21876933.125 8 114964057.229 8     -2718.281          48.000    21876937.836 7  89582396.594 7     -2118.141          47.000
G03  20457742.953 8 107506192.509 8      -729.113          51.000    20457743.828 8  83771085.003 8      -568.140          51.000
G04  20765366.781 8 109122732.921 8      1748.613          49.000    20765367.195 8  85030751.491 8      1362.556          49.000
G09  22953078.820 7 120619325.172 7      3344.738          42.000    22953079.609 7  93989059.049 7      2606.293          42.000
G17  22056357.891 5 115906960.027 5      -366.738          35.000
G22  21814373.359 6 114635408.330 6     -1865.824          38.000    21814370.875 6  89326262.893 6     -1453.892          38.000
R02  22286707.719 5 118926123.577 5     -3412.582          35.000    22286709.602 4  92498131.888 4     -2654.224          29.000
R03  19494674.773 7 104356554.688 7      -971.539          43.000    19494674.500 6  81166236.458 6      -755.638          39.000
R04  20829276.922 5 111539830.386 5      2336.836          34.000
R18  19707027.547 8 105197445.788 8     -2096.887          51.000    19707030.266 8  81820237.348 8     -1630.912          50.000
C19  23616503.102 6 122977312.778 6      2187.301          36.000
C20  21895721.367 8 114016882.088 8      -159.270          51.000
C29  22436823.859 8 116834411.555 8     -1338.559          51.000
C30  24901269.625 5 129667446.848 5     -3409.266          32.000
E03  24908130.039 8 130893094.551 8      2022.582          51.000    24908133.555 8 100294755.902 8      1549.756          51.000
E05  23435419.156 8 123154036.016 8      -463.914          51.000    23435421.523 8  94364797.135 8      -355.461          51.000
E36  26126211.195 8 137294158.613 8     -2895.781          51.000    26126211.820 8 105199435.257 8     -2218.926          49.000
> 2020 05 04 22 06 30.0000000  0 17        .000000000000
G01  21892485.031 8 115045781.991 8     -2731.980          49.000    21892489.297 8  89646078.235 8     -2128.816          49.000
G03  20461935.844 8 107528226.986 8      -741.730          51.000    20461936.750 8  83788254.729 8      -577.972          51.000
G04  20755431.531 8 109070524.200 8      1730.000          48.000    20755432.047 8  84990069.365 8      1348.052          49.000
G09  22934007.180 7 120519111.861 7      3334.188          42.000    22934010.156 7  93910970.789 7      2598.068          42.000
G17  22058501.539 5 115918215.872 5      -387.441          33.000
G22  21825046.102 6 114691491.092 6     -1875.102          40.000    21825043.242 6  89369963.765 6     -1461.118          39.000
R02  22305898.734 5 119028552.739 5     -3417.414          34.000
R03  19500160.758 6 104385923.309 6      -988.363          41.000    19500161.055 6  81189078.757 6      -768.727          39.000
R04  20816219.703 6 111469922.997 6      2321.637          37.000    20816225.992 4  86698832.811 4      1805.717          28.000
R17  22921660.508 4 122658434.000 4     -4507.348          27.000    22921656.922 5  95400990.016 5     -3505.715          35.000
R18  19718879.938 8 105260716.228 8     -2123.180          51.000    19718882.977 8  81869447.662 8     -1651.362          49.000
C19  23603925.430 5 122911797.087 5      2178.562          33.000
C20  21896666.625 8 114021802.775 8      -170.762          51.000
C29  22444582.477 8 116874814.084 8     -1356.766          51.000
E03  24896607.242 8 130832539.789 8      2012.520          51.000    24896610.102 8 100248356.825 8      1542.033          51.000
E05  23438096.852 8 123168106.597 8      -476.051          51.000    23438098.695 8  94375578.477 8      -364.709          51.000
E36  26142760.445 8 137381121.983 8     -2903.641          51.000    26142760.422 8 105266069.512 8     -2224.859          49.000
> 2020 05 04 22 07  0.0000000  0 16        .000000000000
G01  21908098.750 8 115127831.290 8     -2741.246          50.000    21908102.086 8  89710012.743 8     -2136.036          49.000
G03  20466184.258 8 107550553.145 8      -749.527          51.000    20466185.242 8  83805651.738 8      -584.044          51.000
G04  20745587.258 7 109018793.620 7      1715.801          47.000    20745587.883 8  84949759.808 8      1336.988          48.000
G09  22914980.227 6 120419129.998 6      3328.406          40.000    22914984.695 6  93833062.847 6      2593.563          40.000
G17  22060761.078 6 115930062.615 6      -404.676          37.000    22060760.391 4  90335130.044 4      -315.332          29.000
G22  21835754.109 6 114747762.402 6     -1879.465          38.000    21835751.414 6  89413811.597 6     -1464.512          37.000
R02  22325102.797 5 119131012.272 5     -3417.230          34.000    22325107.422 4  92657485.382 4     -2657.846          28.000
R03  19505724.727 6 104415709.379 6     -1000.273          40.000    19505725.000 6  81212245.662 6      -777.993          38.000
R04  20803235.625 6 111400392.697 6      2310.758          38.000    20803247.031 5  86644753.683 5      1797.253          32.000
R18  19730864.797 8 105324691.226 8     -2144.875          51.000    19730867.742 8  81919205.998 8     -1668.236          50.000
C20  21897662.258 8 114026985.735 8      -177.707          51.000
C29  22452429.844 8 116915679.133 8     -1370.535          51.000
C30  24940577.906 5 129872141.331 5     -3415.051          33.000
E03  24885126.547 8 130772205.303 8      2006.824          51.000    24885128.609 8 100202126.539 8      1537.670          51.000
E05  23440827.484 8 123182456.054 8      -483.574          51.000    23440829.227 8  94386573.529 8      -370.537          51.000
E36  26159338.023 8 137468235.989 8     -2906.930          51.000    26159338.141 8 105332819.175 8     -2227.388          48.000
> 2020 05 04 22 07 30.0000000  0 18        .000000000000
G01  21923780.156 8 115210235.462 8     -2749.445          49.000    21923781.812 8  89774223.785 8     -2142.428          49.000
G03  20470494.234 8 107573202.258 8      -757.262          51.000    20470495.211 8  83823300.404 8      -590.074          51.000
G04  20735840.109 7 108967573.790 7      1701.934          47.000    20735841.117 7  84909848.236 7      1326.182          47.000
G09  22896004.234 6 120319413.193 6      3322.930          36.000    22896009.492 6  93755361.419 6      2589.296          36.000
G17  22063128.633 5 115942495.632 5      -421.438          34.000    22063125.453 5  90344818.210 5      -328.393          34.000
G22  21846503.047 5 114804147.726 5     -1882.555          30.000    21846501.297 5  89457830.966 5     -1466.923          31.000
R02  22344317.383 5 119233550.174 5     -3416.152          35.000    22344320.992 4  92737227.924 4     -2657.013          28.000
R03  19511371.234 5 104445942.977 5     -1012.348          35.000    19511373.500 6  81235760.727 6      -787.375          39.000
R04  20790327.156 4 111331272.342 4      2300.445          29.000    20790340.195 5  86590993.323 5      1789.235          33.000
R18  19742987.328 8 105389400.906 8     -2165.957          51.000    19742990.312 8  81969535.745 8     -1684.633          50.000
C19  23578860.922 5 122781281.056 5      2170.617          35.000
C20  21898713.992 8 114032461.741 8      -184.184          51.000
C29  22460372.180 8 116957036.961 8     -1383.668          51.000
C30  24960266.406 6 129974663.983 6     -3416.020          37.000
E03  24873693.914 8 130712123.143 8      2001.773          51.000    24873695.477 8 100156089.593 8      1533.895          51.000
E05  23443617.102 8 123197115.217 8      -490.465          51.000    23443619.094 8  94397805.886 8      -375.790          51.000
E09  24445290.023 6 128460863.339 6     -2479.953          38.000
E36  26175949.789 8 137555531.114 8     -2909.512          51.000    26175949.945 7 105399707.630 7     -2229.336          47.000
> 2020 05 04 22 08  0.0000000  0 19        .000000000000
G01  21939511.148 7 115292902.225 7     -2768.609          47.000    21939510.312 7  89838639.448 7     -2157.361          47.000
G03  20474848.352 8 107596082.816 8      -775.562          51.000    20474849.227 8  83841129.426 8      -604.334          51.000
G04  20726172.969 7 108916774.594 7      1677.203          46.000    20726174.391 7  84870264.455 7      1306.912          46.000
G09  22877062.320 6 120219872.293 6      3305.820          37.000    22877067.109 6  93677797.011 6      2575.964          37.000
G17  22065589.523 5 115955422.757 5      -448.004          35.000
G22  21857276.047 4 114860763.559 4     -1898.211          28.000    21857272.969 4  89501881.358 4     -1479.128          27.000
R02  22363528.039 6 119336072.352 6     -3425.914          39.000    22363535.398 4  92816967.285 4     -2664.603          28.000
R03  19517083.039 6 104476529.578 6     -1034.500          41.000    19517087.602 6  81259550.308 6      -804.614          36.000
R04  20777476.125 5 111262438.770 5      2278.348          31.000    20777489.648 4  86537504.016 4      1772.048          29.000
R17  22997558.438 5 123064587.477 5     -4527.773          32.000    22997550.727 5  95716871.700 5     -3521.602          35.000
R18  19755229.773 8 105454750.668 8     -2198.070          51.000    19755232.906 8  82020363.331 8     -1709.613          51.000
C19  23566376.961 6 122716261.937 6      2156.559          38.000
C20  21899804.414 8 114038139.953 8      -201.547          51.000
C29  22468391.922 8 116998796.226 8     -1407.523          51.000
C30  24979960.391 6 130077215.316 6     -3427.484          36.000
E03  24862291.797 8 130652202.678 8      1985.660          51.000    24862293.516 8 100110176.551 8      1521.444          51.000
E05  23446448.234 8 123211992.204 8      -508.559          51.000    23446450.320 8  94409205.148 8      -389.732          51.000
E09  24459455.469 6 128535314.549 6     -2490.770          39.000
E36  26192578.172 8 137642915.190 8     -2923.320          51.000    26192578.023 7 105466664.238 7     -2239.911          46.000
> 2020 05 04 22 08 30.0000000  0 17        .000000000000
G01  21955322.344 7 115375992.668 7     -2772.055          44.000    21955320.383 7  89903385.216 7     -2160.046          44.000
G03  20479277.336 8 107619356.788 8      -777.965          51.000    20479278.352 8  83859264.991 8      -606.206          51.000
G04  20716617.125 7 108866559.395 7      1668.578          47.000    20716618.516 7  84831135.728 7      1300.191          47.000
G09  22858185.320 6 120120671.287 6      3305.660          40.000    22858188.289 6  93600497.524 6      2575.839          40.000
R02  22382766.172 6 119438741.820 6     -3420.312          38.000    22382775.766 4  92896821.220 4     -2660.246          28.000
R03  19522893.430 7 104507632.842 7     -1040.785          42.000    19522897.367 6  81283741.650 6      -809.503          36.000
R04  20764721.703 6 111194119.373 6      2273.691          36.000
R17  23022923.352 5 123200348.005 5     -4524.703          33.000    23022921.461 5  95822463.206 5     -3519.214          35.000
R18  19767622.867 8 105520903.271 8     -2213.977          51.000    19767625.672 8  82071815.356 8     -1721.982          50.000
C19  23553945.711 5 122651520.130 5      2157.805          35.000
C20  21900964.508 8 114044180.680 8      -202.984          51.000
C29  22476519.523 8 117041116.687 8     -1415.609          51.000
C30  24999690.422 6 130179954.100 6     -3423.551          37.000
E03  24850951.133 8 130592606.681 8      1985.531          51.000    24850953.281 8 100064512.091 8      1521.375          51.000
E05  23449351.398 8 123227248.503 8      -510.426          51.000    23449353.305 8  94420895.026 8      -391.102          51.000
E09  24473653.945 6 128609934.816 6     -2485.320          37.000
E36  26209253.906 8 137730549.368 8     -2920.918          49.000    26209253.211 7 105533812.486 7     -2238.127          45.000
> 2020 05 04 22 09  0.0000000  0 19        .000000000000
G01  21971191.078 7 115459384.140 7     -2789.008          47.000    21971189.125 7  89968365.558 7     -2173.250          47.000
G03  20483757.930 8 107642902.385 8      -793.969          51.000    20483759.125 8  83877612.211 8      -618.677          51.000
G04  20707149.875 8 108816807.834 8      1645.992          49.000    20707150.852 8  84792368.254 8      1282.591          49.000
G09  22839350.523 6 120021690.816 6      3290.984          41.000    22839350.523 6  93523369.936 6      2564.403          41.000
G22  21878966.461 5 114974768.603 5     -1909.680          30.000
G31  23338087.328 6 122642481.933 6      -673.402          38.000    23338083.570 5  95565561.670 5      -524.729          34.000
R02  22402008.305 6 119541432.346 6     -3428.309          37.000    22402018.273 4  92976691.532 4     -2666.465          29.000
R03  19528778.289 6 104539127.001 6     -1060.914          39.000    19528781.141 5  81308237.119 5      -825.155          35.000
R04  20752029.219 5 111126160.332 5      2254.672          33.000
R17  23048314.625 5 123336239.710 5     -4536.684          32.000    23048315.195 5  95928156.752 5     -3528.529          33.000
R18  19780142.461 8 105587733.205 8     -2243.586          51.000    19780144.680 7  82123794.212 7     -1745.011          47.000
C19  23541541.398 5 122586935.687 5      2144.926          31.000
C20  21902170.859 8 114050463.075 8      -218.094          51.000
C29  22484731.469 8 117083876.939 8     -1437.266          51.000
C30  25019433.023 6 130282757.959 6     -3432.391          37.000
E03  24839648.977 8 130533214.178 8      1971.719          51.000    24839651.578 8 100019003.563 8      1510.753          51.000
E05  23452303.406 8 123242761.925 8      -525.988          51.000    23452305.320 8  94432781.932 8      -403.054          51.000
E09  24487861.977 5 128684582.785 5     -2494.273          34.000
E36  26225953.859 7 137818311.154 7     -2932.305          47.000    26225953.164 7 105601058.495 7     -2246.732          45.000
> 2020 05 04 22 09 30.0000000  0 17        .000000000000
G01  21987129.078 8 115543137.618 8     -2789.996          50.000    21987127.867 8  90033627.992 8     -2174.023          49.000
G03  20488301.969 8 107666781.474 8      -793.852          51.000    20488303.242 8  83896219.311 8      -618.586          51.000
G04  20697783.117 8 108767583.067 8      1639.723          51.000    20697783.695 8  84754011.289 8      1277.706          50.000
G09  22820570.109 7 119922995.010 7      3292.676          42.000    22820568.320 7  93446464.175 7      2565.724          42.000
G22  21889873.219 5 115032056.536 5     -1906.102          34.000    21889871.438 5  89635368.318 5     -1485.268          35.000
G31  23341968.609 5 122662888.742 5      -683.156          34.000    23341969.891 5  95581463.103 5      -532.336          33.000
R02  22421266.961 6 119644206.628 6     -3419.332          39.000    22421278.422 5  93056627.099 5     -2659.484          31.000
R03  19534746.906 6 104571073.861 6     -1064.406          39.000    19534748.797 5  81333084.671 5      -827.872          34.000
R04  20739416.594 4 111058625.697 4      2251.559          29.000    20739425.867 5  86378953.255 5      1751.209          31.000
R17  23073744.344 5 123472322.144 5     -4530.977          31.000    23073745.133 5  96033998.693 5     -3524.093          34.000
R18  19792799.844 8 105655301.397 8     -2256.789          50.000    19792802.133 7  82176347.248 7     -1755.280          46.000
C20  21903434.984 8 114057048.210 8      -216.992          51.000
C29  22493039.305 8 117127137.512 8     -1442.770          51.000
C30  25039199.375 6 130385686.539 6     -3425.387          36.000
E03  24828397.664 8 130474087.854 8      1974.082          51.000    24828400.133 8  99973698.980 8      1512.614          50.000
E05  23455316.102 8 123258593.897 8      -525.441          51.000    23455318.320 8  94444912.921 8      -402.596          51.000
E36  26242690.016 7 137906261.652 7     -2927.102          46.000    26242690.258 7 105668449.123 7     -2242.871          46.000
> 2020 05 04 22 10  0.0000000  0 17        .000000000000
G01  22003118.500 8 115627160.275 8     -2806.859          50.000    22003118.633 8  90099100.158 8     -2187.166          50.000
G03  20492891.977 8 107690902.139 8      -809.672          51.000    20492893.320 8  83915014.638 8      -630.910          51.000
G04  20688499.359 8 108718794.502 8      1617.359          51.000    20688499.633 8  84715994.239 8      1260.280          49.000
G09  22801826.438 7 119824494.178 7      3278.070          42.000    22801825.969 6  93369710.337 6      2554.344          41.000
G22  21900806.680 6 115089502.285 6     -1918.957          39.000    21900803.273 6  89680131.287 6     -1495.288          37.000
G31  23345953.266 5 122683831.103 5      -708.359          33.000    23345959.859 5  95597781.764 5      -551.971          35.000
R02  22440524.109 6 119746969.995 6     -3427.117          36.000    22440536.070 5  93136554.219 5     -2665.536          30.000
R03  19540781.805 6 104603378.322 6     -1084.500          38.000    19540783.828 5  81358210.407 5      -843.497          34.000
R04  20726870.133 5 110991422.121 5      2232.867          33.000    20726877.648 5  86326683.867 5      1736.678          32.000
R18  19805577.242 8 105723512.826 8     -2286.109          48.000    19805579.781 7  82229400.531 7     -1778.088          44.000
C20  21904740.055 8 114063844.841 8      -231.719          51.000
C29  22501425.500 8 117170806.522 8     -1464.102          51.000
C30  25058972.383 5 130488647.008 5     -3433.824          35.000
E03  24817179.703 8 130415136.579 8      1960.395          51.000    24817181.609 8  99928528.542 8      1502.031          50.000
E05  23458371.875 8 123274652.036 8      -540.746          51.000    23458374.242 8  94457217.206 8      -414.329          51.000
E09  24516318.242 5 128834121.757 5     -2495.148          32.000
E36  26259444.391 7 137994308.212 7     -2938.090          43.000    26259446.383 7 105735913.383 7     -2251.318          47.000
> 2020 05 04 22 10 30.0000000  0 18        .000000000000
G01  22019175.766 8 115711539.743 8     -2816.949          50.000    22019176.805 8  90164850.395 8     -2195.025          50.000
G03  20497544.789 8 107715352.890 8      -818.738          51.000    20497546.039 8  83934067.159 8      -637.978          51.000
G04  20679315.875 8 108670532.028 8      1601.727          51.000    20679315.461 8  84678387.109 8      1248.096          48.000
G09  22783136.781 7 119726279.120 7      3270.836          43.000    22783138.484 7  93293179.139 7      2548.703          42.000
G17  22079563.453 5 116028879.878 5      -535.020          31.000
G22  21911782.484 6 115147174.724 6     -1924.340          37.000    21911777.625 5  89725070.903 5     -1499.483          35.000
G31  23350057.258 5 122705397.037 5      -727.809          35.000    23350062.711 5  95614586.428 5      -567.121          34.000
R02  22459796.172 6 119849810.526 6     -3427.625          37.000    22459805.711 4  93216541.393 4     -2665.931          29.000
R03  19546899.805 6 104636128.763 6     -1097.641          39.000    19546901.008 5  81383682.940 5      -853.724          34.000
R04  20714401.594 5 110924640.754 5      2220.672          34.000    20714406.039 5  86274742.912 5      1727.189          32.000
R18  19818491.125 7 105792455.425 7     -2308.445          47.000    19818494.297 7  82283022.502 7     -1795.457          43.000
C20  21906102.727 8 114070940.522 8      -239.820          51.000
C29  22509906.719 8 117214970.945 8     -1478.668          51.000
C30  25078767.680 5 130591725.439 5     -3435.965          32.000
E03  24806011.812 8 130356449.690 8      1953.449          51.000    24806013.016 8  99883560.666 8      1496.790          50.000
E05  23461487.422 8 123291024.450 8      -549.312          51.000    23461489.625 8  94469762.312 8      -420.914          51.000
E09  24530571.555 5 128909021.847 5     -2496.398          32.000
E36  26276233.359 6 138082538.564 6     -2942.457          41.000    26276237.992 8 105803518.492 8     -2254.568          49.000
> 2020 05 04 22 11  0.0000000  0 18        .000000000000
G01  22035292.016 8 115796230.169 8     -2828.051          49.000    22035293.898 8  90230842.927 8     -2203.673          49.000
G03  20502251.875 8 107740088.791 8      -829.109          51.000    20502252.867 8  83953341.877 8      -646.062          51.000
G04  20670223.930 8 108622751.973 8      1584.664          51.000    20670223.266 8  84641155.907 8      1234.806          48.000
G09  22764493.328 7 119628307.121 7      3261.887          45.000    22764496.188 7  93216837.335 7      2541.730          45.000
G17  22082680.148 5 116045233.920 5      -554.086          34.000
G22  21922791.188 4 115205028.692 4     -1930.969          29.000    21922786.492 4  89770151.742 4     -1504.663          29.000
G31  23354272.133 6 122727542.303 6      -748.113          36.000    23354273.766 5  95631842.426 5      -582.948          35.000
R02  22479074.852 6 119952681.599 6     -3429.512          40.000    22479081.086 4  93296532.299 4     -2667.395          26.000
R03  19553092.938 6 104669278.236 6     -1111.426          39.000    19553094.469 5  81409465.886 5      -864.439          34.000
R04  20702030.594 5 110858364.892 5      2207.469          33.000    20702002.227 5  86223128.481 5      1716.926          32.000
R18  19831533.961 8 105862081.594 8     -2332.184          50.000    19831537.852 7  82337176.169 7     -1813.921          45.000
C19  23492285.070 5 122330487.159 5      2125.379          30.000
C20  21907513.789 8 114078290.441 8      -249.223          51.000
C29  22518474.547 8 117259585.414 8     -1494.594          51.000
C30  25098575.484 4 130694868.660 4     -3440.074          28.000
E03  24794885.578 8 130297983.022 8      1945.266          51.000    24794886.758 8  99838761.533 8      1490.600          50.000
E05  23464654.281 8 123307665.731 8      -559.215          51.000    23464656.148 8  94482513.422 8      -428.423          51.000
E36  26293048.797 7 138170906.996 7     -2947.867          42.000    26293055.828 8 105871229.430 8     -2258.770          49.000
> 2020 05 04 22 11 30.0000000  0 16        .000000000000
G01  22051477.844 8 115881289.530 8     -2838.121          48.000    22051480.539 7  90297122.985 7     -2211.520          47.000
G03  20507024.406 8 107765168.817 8      -838.410          51.000    20507025.414 8  83972884.737 8      -653.307          51.000
G04  20661234.688 8 108575514.572 8      1568.867          50.000    20661234.375 8  84604347.579 8      1222.497          48.000
G09  22745907.812 7 119530639.395 7      3253.812          45.000    22745911.016 7  93140732.637 7      2535.438          45.000
G22  21933847.297 6 115263123.453 6     -1937.438          39.000    21933841.125 6  89815420.423 6     -1509.689          38.000
G31  23358608.141 6 122750325.401 6      -766.922          36.000    23358606.969 5  95649595.469 5      -597.601          32.000
R02  22498370.656 7 120055641.882 7     -3429.941          42.000    22498375.094 4  93376612.592 4     -2667.732          28.000
R03  19559371.406 6 104702885.027 6     -1124.414          39.000    19559372.164 5  81435604.513 5      -874.547          30.000
R04  20689670.961 5 110792284.370 5      2194.992          34.000    20689682.883 5  86171802.871 5      1707.216          31.000
R18  19844716.883 8 105932449.663 8     -2354.570          51.000    19844720.539 7  82391906.871 7     -1831.332          47.000
C19  23480073.297 6 122266873.479 6      2119.684          36.000
C20  21908985.039 8 114085952.930 8      -257.293          51.000
C29  22527139.711 8 117304707.589 8     -1509.324          51.000
E03  24783812.578 8 130239796.373 8      1938.043          51.000    24783814.383 8  99794176.951 8      1484.991          50.000
E05  23467883.625 8 123324634.410 8      -567.836          51.000    23467885.125 8  94495515.400 8      -435.107          51.000
E36  26309902.883 7 138259471.805 7     -2952.117          45.000    26309910.445 8 105939090.806 8     -2262.069          49.000
> 2020 05 04 22 12  0.0000000  0 16        .000000000000
G01  22067717.062 8 115966630.603 8     -2850.250          49.000    22067719.883 8  90363622.570 8     -2220.974          49.000
G03  20511845.953 8 107790506.640 8      -849.875          51.000    20511847.156 8  83992628.473 8      -662.240          51.000
G04  20652332.617 8 108528734.834 8      1550.750          51.000    20652332.445 8  84567895.851 8      1208.377          48.000
G09  22727364.297 7 119433191.818 7      3243.688          45.000    22727367.484 7  93064799.483 7      2527.552          45.000
G22  21944932.172 5 115321372.509 5     -1944.676          33.000    21944925.766 5  89860809.333 5     -1515.332          34.000
R02  22517666.383 7 120158602.719 7     -3432.957          42.000    22517670.445 4  93456693.211 4     -2670.078          28.000
R03  19565719.164 6 104736860.034 6     -1139.406          38.000    19565717.367 5  81462029.430 5      -886.205          32.000
R04  20677420.898 5 110726669.915 5      2179.984          30.000    20677430.023 5  86120769.358 5      1695.537          30.000
R18  19858022.422 8 106003469.570 8     -2379.109          51.000    19858025.078 8  82447144.587 8     -1850.418          48.000
C19  23467885.227 6 122203407.380 6      2112.082          36.000
C20  21910500.086 8 114093842.258 8      -267.734          51.000
C29  22535885.617 8 117350251.018 8     -1526.117          51.000
E03  24772776.820 8 130181804.113 8      1928.875          51.000    24772779.273 8  99749741.330 8      1477.957          51.000
E05  23471158.461 8 123341843.663 8      -578.617          51.000    23471160.008 8  94508701.727 8      -443.377          51.000
E09  24573414.945 6 129134172.164 6     -2504.773          36.000
E36  26326778.281 7 138348145.884 7     -2958.578          47.000    26326784.938 8 106007035.880 8     -2266.945          50.000
> 2020 05 04 22 12 30.0000000  0 18        .000000000000
G01  22084021.539 8 116052309.148 8     -2861.648          49.000    22084023.211 8  90430385.077 8     -2229.859          49.000
G03  20516727.328 8 107816158.806 8      -860.422          51.000    20516728.508 8  84012617.170 8      -670.462          51.000
G04  20643528.477 8 108482470.494 8      1533.531          49.000    20643528.672 8  84531845.746 8      1194.959          49.000
G09  22708873.750 7 119336023.251 7      3234.324          44.000    22708876.953 7  92989083.714 7      2520.250          44.000
G22  21956056.320 5 115379832.518 5     -1951.984          32.000    21956050.289 5  89906362.651 5     -1521.021          31.000
G31  23367604.633 5 122797589.339 5      -807.980          33.000    23367604.531 5  95686430.534 5      -629.601          32.000
R02  22536972.172 6 120261620.071 6     -3434.715          39.000    22536977.359 4  93536817.792 4     -2671.448          29.000
R03  19572145.445 6 104771259.274 6     -1153.762          38.000    19572144.500 5  81488784.516 5      -897.367          31.000
R04  20665253.008 5 110661464.840 5      2166.652          32.000    20665254.352 5  86070054.212 5      1685.174          30.000
R18  19871460.352 8 106075196.819 8     -2402.691          51.000    19871462.391 8  82502932.475 8     -1868.760          49.000
C19  23455730.430 5 122140145.539 5      2105.598          31.000
C20  21912069.266 8 114102014.240 8      -277.145          51.000
C29  22544723.391 8 117396270.921 8     -1541.867          51.000
C30  25158112.930 5 131004879.588 5     -3448.652          32.000
E03  24761789.047 8 130124063.631 8      1920.488          51.000    24761791.789 8  99705498.648 8      1471.537          51.000
E05  23474489.727 8 123359349.652 8      -588.492          51.000    23474491.328 8  94522115.412 8      -450.854          51.000
E09  24587722.664 6 129209352.300 6     -2507.512          36.000
E36  26343685.039 8 138436984.956 8     -2963.926          48.000    26343690.523 8 106075107.390 8     -2271.120          51.000
> 2020 05 04 22 13  0.0000000  0 18        .000000000000
G01  22100387.820 8 116138311.203 8     -2871.949          51.000    22100388.664 8  90497399.605 8     -2237.886          51.000
G03  20521666.094 8 107842112.315 8      -869.953          51.000    20521667.312 8  84032840.670 8      -677.886          51.000
G04  20634820.141 8 108436709.776 8      1517.102          50.000    20634820.805 8  84496188.096 8      1182.157          48.000
G09  22690433.781 7 119239122.922 7      3225.484          44.000    22690437.047 7  92913576.946 7      2513.361          45.000
G17  22096203.695 6 116116332.880 6      -629.887          37.000
G31  23372274.320 5 122822126.367 5      -827.441          34.000    23372272.281 5  95705550.286 5      -644.756          34.000
R02  22556285.656 6 120364679.355 6     -3435.957          37.000    22556291.953 5  93616975.018 5     -2672.411          31.000
R03  19578648.047 6 104806068.031 6     -1167.000          41.000    19578647.375 5  81515857.987 5      -907.667          31.000
R04  20653158.547 5 110596656.458 5      2153.414          30.000    20653151.484 5  86019647.777 5      1674.884          31.000
R18  19885027.047 8 106147616.374 8     -2425.258          51.000    19885029.398 8  82559258.804 8     -1886.312          50.000
C19  23443614.719 5 122077075.715 5      2099.316          32.000
C20  21913690.383 8 114110455.815 8      -285.730          51.000
C29  22553650.242 8 117442753.567 8     -1557.000          51.000
C30  25177989.555 5 131108375.902 5     -3451.398          34.000
E03  24750846.906 8 130066562.707 8      1912.805          51.000    24750849.555 8  99661439.534 8      1465.632          50.000
E05  23477875.117 8 123377138.947 8      -597.535          51.000    23477876.375 8  94535746.169 8      -457.867          51.000
E09  24602041.609 5 129284603.584 5     -2509.324          34.000    24602049.633 5  99062258.282 5     -1922.771          34.000
E36  26360620.234 8 138525975.307 8     -2968.715          48.000    26360624.914 8 106143294.784 8     -2274.652          51.000
> 2020 05 04 22 13 30.0000000  0 16        .000000000000
G01  22116823.336 8 116224677.552 8     -2884.219          51.000    22116823.852 8  90564698.015 8     -2247.443          51.000
G03  20526670.219 8 107868408.992 8      -881.562          51.000    20526671.523 8  84053331.589 8      -686.932          51.000
G04  20626216.320 8 108391495.808 8      1498.609          50.000    20626217.055 8  84460956.426 8      1167.748          49.000
G09  22672053.125 7 119142534.842 7      3215.141          45.000    22672055.930 7  92838313.477 7      2505.304          45.000
G17  22099860.539 6 116135548.892 6      -649.684          36.000
R02  22575615.234 6 120467822.100 6     -3438.910          38.000    22575621.617 5  93697197.210 5     -2674.705          32.000
R03  19585235.602 6 104841327.422 6     -1182.398          36.000    19585236.250 5  81543282.005 5      -919.640          32.000
R18  19898730.062 8 106220768.313 8     -2449.930          51.000    19898733.766 8  82616154.740 8     -1905.501          51.000
C19  23431548.500 5 122014239.738 5      2091.289          35.000
C20  21915371.648 8 114119208.262 8      -296.316          51.000
C29  22562673.680 8 117489739.510 8     -1573.949          51.000
C30  25197886.562 5 131211992.880 5     -3454.898          32.000
E03  24739958.625 8 130009343.895 8      1903.230          51.000    24739960.711 8  99617596.574 8      1458.298          50.000
E05  23481321.836 8 123395252.811 8      -608.531          51.000    23481323.188 8  94549625.619 8      -466.286          51.000
E09  24616380.336 5 129359951.188 5     -2513.664          32.000    24616389.398 5  99119999.373 5     -1925.468          32.000
E36  26377591.641 7 138615157.913 7     -2975.383          47.000    26377595.758 8 106211629.512 8     -2279.863          51.000
> 2020 05 04 22 14  0.0000000  0 18        .000000000000
G01  22133309.672 8 116311311.972 8     -2895.301          51.000    22133310.227 8  90632205.331 8     -2256.079          51.000
G03  20531721.516 8 107894953.567 8      -892.164          51.000    20531722.672 8  84074015.677 8      -695.193          51.000
G04  20617698.383 8 108346734.419 8      1481.363          49.000    20617699.508 8  84426077.424 8      1154.309          49.000
G09  22653714.641 7 119046165.902 7      3205.516          46.000    22653715.883 7  92763220.805 7      2497.804          46.000
G17  22103614.367 6 116155271.748 6      -669.168          37.000
G22  21989657.789 5 115556430.687 5     -1973.684          30.000
R02  22594942.031 5 120570950.451 5     -3441.004          34.000    22594947.703 5  93777408.178 5     -2676.330          32.000
R03  19591886.844 6 104876938.783 6     -1196.090          37.000    19591889.922 4  81570979.873 4      -930.292          26.000
