     3.02           OBSERVATION DATA    M (MIXED)           RINEX VERSION / TYPE
SAVERINEX           SC600               20200508 005930 LCL PGM / RUN BY / DATE
       G = GPS       R = GLONASS       C = COMPASS          COMMENT
       S = SBAS      J = QZSS          E = GALILEO          COMMENT
BEAN                                                        MARKER NAME
1                                                           MARKER NUMBER
GEODETIC                                                    MARKER TYPE
Unige DICCA         GTER                                    OBSERVER / AGENCY
SC60291900056       SC600               2.12(191226)        REC # / TYPE / VERS
                    HEMA45          NONE                    ANT # / TYPE
  4509407.8091   693652.4678  4442337.6214                  APPROX POSITION XYZ
        0.0000        0.0000        0.0000                  ANTENNA: DELTA H/E/N
G    8 C1C L1C D1C S1C C2Y L2Y D2Y S2Y                      SYS / # / OBS TYPES
R    8 C1C L1C D1C S1C C2P L2P D2P S2P                      SYS / # / OBS TYPES
C    8 C1I L1I D1I S1I C7I L7I D7I S7I                      SYS / # / OBS TYPES
E    8 C1C L1C D1C S1C C7Q L7Q D7Q S7Q                      SYS / # / OBS TYPES
DBHZ                                                        COMMENT
     30.000                                                 INTERVAL
  2020    05    07    22    00    0.0000000     GPS         TIME OF FIRST OBS
  2020    05    07    22    59   30.0000000     GPS         TIME OF LAST OBS
     0                                                      RCV CLOCK OFFS APPL
G L1C  0.00000                                              SYS / PHASE SHIFT
G L2Y  0.00000                                              SYS / PHASE SHIFT
R L1C  0.00000                                              SYS / PHASE SHIFT
R L2P  0.25000                                              SYS / PHASE SHIFT
C L1I  0.00000                                              SYS / PHASE SHIFT
C L7I  0.00000                                              SYS / PHASE SHIFT
E L1C  0.50000                                              SYS / PHASE SHIFT
E L7Q -0.25000                                              SYS / PHASE SHIFT
 14 R04  6 R05  1 R06 -4 R07  5 R08  6 R09 -2 R10 -5 R14 -7 GLONASS SLOT / FRQ #
    R15  0 R16 -1 R19  3 R20  2 R21  4 R22 -3               GLONASS SLOT / FRQ #
 C1C   71.950 C2C   71.950 C2P   71.950                     GLONASS COD/PHS/BIS
    18                                                      LEAP SECONDS
*** Above antenna height is from mark to ANTENNA BOTTOM.    COMMENT
    17     4        0.0000        ANT MEASURE TYPE/HEIGT    COMMENT
    0.0000    0.0000    0.0458    0.0405    0.0000          COMMENT
                    BASE STATION                            COMMENT
                                                            END OF HEADER
> 2020 05 07 22 00  0.0000000  0 16        .000000000000
G01  22081502.922 8 116039083.273 8     -2858.980          49.000    22081505.000 8  90420076.933 8     -2227.777          49.000
G03  20519855.648 8 107832613.887 8      -865.691          51.000    20519856.883 8  84025446.837 8      -674.565          51.000
G04  20648932.688 8 108510936.034 8      1543.258          51.000    20648932.828 8  84553951.421 8      1202.539          48.000
G09  22725452.898 7 119423148.676 7      3241.422          47.000    22725455.891 7  93056977.104 7      2525.783          47.000
G22  21966985.812 5 115437326.324 5     -1958.828          31.000    21966984.133 5  89951140.164 5     -1526.369          33.000
G31  23371441.742 5 122817740.889 5      -806.789          34.000
R05  22851491.805 5 122154324.901 5     -3508.227          33.000    22851497.719 5  95008928.028 5     -2728.618          33.000
R06  19400036.250 6 103522379.111 6      -864.082          37.000
R07  20883183.703 6 111789376.711 6      2315.445          40.000    20883197.352 5  86947271.162 5      1800.899          32.000
R21  19688988.766 8 105359767.591 8     -2002.090          51.000    19688990.914 7  81946479.436 7     -1557.181          47.000
C11  25435657.227 6 132450155.685 6     -3520.234          39.000    25435654.234 5 102418824.283 5     -2721.948          34.000
C14  21594205.508 8 112446708.551 8      -581.480          51.000    21594203.867 8  86950956.549 8      -449.622          51.000
C28  22457019.594 4 116939543.918 4      -156.312          29.000
E03  23321989.875 8 122557901.208 8       -25.023          51.000    23321992.359 8  93908052.287 8       -19.147          51.000
E08  23607225.086 8 124056799.804 8      2254.047          48.000    23607227.289 8  95056595.695 8      1727.124          51.000
E15  23154054.508 8 121675390.681 8      -405.125          51.000    23154057.047 8  93231785.520 8      -310.432          51.000
> 2020 05 07 22 00 30.0000000  0 18        .000000000000
G01  22097840.156 8 116124933.279 8     -2869.754          50.000    22097841.562 8  90486972.963 8     -2236.175          50.000
G03  20524811.242 8 107858655.428 8      -875.477          51.000    20524812.492 8  84045738.951 8      -682.186          51.000
G04  20640155.297 8 108464812.490 8      1526.543          50.000    20640155.898 8  84518011.047 8      1189.517          49.000
G09  22706959.531 7 119325964.472 7      3232.629          46.000    22706962.562 7  92981249.151 7      2518.932          46.000
G17  22094842.227 5 116109171.642 5      -618.691          35.000
G31  23376090.594 5 122842170.525 5      -827.195          34.000    23376087.883 5  95721190.514 5      -644.559          34.000
R05  22871166.992 6 122259512.687 6     -3509.434          36.000    22871176.281 5  95090740.712 5     -2729.559          33.000
R06  19404920.875 6 103548444.203 6      -878.617          40.000
R07  20870226.555 5 111720019.432 5      2303.090          33.000    20870241.102 5  86893326.585 5      1791.289          33.000
R21  19700268.422 8 105420124.750 8     -2026.934          51.000    19700270.297 7  81993423.866 7     -1576.504          47.000
C05                                                                  39719432.961 5 159933697.043 5       -25.720          33.000
C11  25455930.141 6 132555727.527 6     -3523.000          38.000    25455929.727 5 102500459.125 5     -2724.153          34.000
C14  21597565.891 8 112464205.632 8      -590.090          51.000    21597563.883 8  86964486.403 8      -456.352          51.000
C28  22457948.578 5 116944453.484 5      -173.234          34.000
E03  23322146.945 8 122558726.285 8       -35.117          51.000    23322149.531 8  93908684.487 8       -26.944          51.000
E05  25707516.641 5 135093911.170 5     -2280.430          34.000
E08  23594360.977 8 123989201.686 8      2247.305          48.000    23594363.688 8  95004799.729 8      1721.946          51.000
E15  23156390.414 8 121687666.408 8      -418.492          51.000    23156392.555 8  93241191.601 8      -320.699          51.000
> 2020 05 07 22 01  0.0000000  0 16        .000000000000
G01  22114253.570 8 116211183.830 8     -2880.391          51.000    22114254.898 8  90554181.125 8     -2244.460          51.000
G03  20529838.914 8 107885075.879 8      -885.703          51.000    20529840.172 8  84066326.325 8      -690.158          51.000
G04  20631488.953 8 108419271.064 8      1509.566          51.000    20631489.773 8  84482524.252 8      1176.286          48.000
G09  22688531.547 7 119229126.913 7      3223.219          45.000    22688534.734 7  92905791.275 7      2511.596          45.000
G17  22098428.211 6 116128006.926 6      -637.418          36.000
R05  22890865.242 6 122364802.778 6     -3509.828          37.000    22890872.273 5  95172633.035 5     -2729.866          31.000
R06  19409900.836 6 103575018.398 6      -893.152          37.000
R21  19711702.211 8 105481307.924 8     -2051.926          51.000    19711703.836 7  82041010.739 7     -1595.942          46.000
C05                                                                  39719627.461 5 159934480.468 5       -26.167          33.000
C11  25476235.023 6 132661459.366 6     -3525.738          38.000    25476234.500 5 102582217.701 5     -2726.472          35.000
C14  21600990.758 8 112482039.283 8      -598.793          51.000    21600988.523 8  86978276.515 8      -463.082          51.000
C28  22458994.406 5 116949917.298 5      -190.227          33.000
E03  23322376.250 8 122559931.112 8       -45.297          51.000    23322378.766 8  93909607.652 8       -34.681          51.000
E05  25720546.414 5 135162384.690 5     -2285.156          35.000
E08  23581551.000 8 123921883.922 8      2240.477          49.000    23581553.945 8  94953218.571 8      1716.732          51.000
E15  23158817.875 8 121700423.184 8      -431.988          51.000    23158819.695 8  93250966.289 8      -331.037          51.000
> 2020 05 07 22 01 30.0000000  0 16        .000000000000
G01  22130726.805 8 116297748.743 8     -2890.090          51.000    22130728.250 8  90621634.276 8     -2252.018          51.000
G03  20534922.484 8 107911790.083 8      -894.984          51.000    20534923.656 8  84087142.584 8      -697.390          51.000
G04  20622917.539 8 108374227.784 8      1493.609          49.000    20622918.461 8  84447425.581 8      1163.851          49.000
G09  22670153.500 7 119132552.958 7      3215.070          45.000    22670156.391 7  92830538.809 7      2505.250          45.000
G17  22102118.266 5 116147395.656 5      -655.008          34.000
R05  22910566.016 6 122470107.360 6     -3509.715          36.000    22910571.656 5  95254536.631 5     -2729.778          32.000
R06  19414959.453 6 103602013.970 6      -906.465          37.000
R21  19723274.125 8 105543228.561 8     -2075.793          51.000    19723275.125 7  82089171.214 7     -1614.506          45.000
R22  20553917.617 6 109718205.963 6      2412.945          36.000
C05                                                                  39719821.031 5 159935259.559 5       -25.110          34.000
C11  25496554.391 5 132767265.169 5     -3527.391          33.000    25496553.625 6 102664033.476 6     -2727.647          37.000
C14  21604463.930 8 112500124.842 8      -606.520          51.000    21604461.641 8  86992261.421 8      -469.057          51.000
E03  23322661.461 8 122561430.265 8       -54.418          51.000    23322663.938 8  93910756.366 8       -41.670          51.000
E05  25733596.938 5 135230968.076 5     -2288.254          34.000
E08  23568778.531 8 123854762.211 8      2234.535          49.000    23568781.523 8  94901787.628 8      1712.194          51.000
E15  23161320.633 8 121713576.607 8      -444.648          51.000    23161322.547 8  93261044.868 8      -340.723          51.000
> 2020 05 07 22 02  0.0000000  0 16        .000000000000
G01  22147262.680 8 116384644.614 8     -2904.055          51.000    22147264.688 8  90689345.332 8     -2262.900          51.000
G03  20540065.258 8 107938815.542 8      -908.199          51.000    20540066.461 8  84108201.383 8      -707.685          51.000
G04  20614444.070 8 108329701.302 8      1473.551          48.000    20614445.578 8  84412729.640 8      1148.221          48.000
G09  22651829.898 7 119036262.354 7      3202.871          47.000    22651831.406 7  92755507.177 7      2495.747          47.000
G17  22105917.414 5 116167354.820 5      -676.566          34.000
R05  22930272.109 5 122575443.183 5     -3514.176          34.000    22930277.406 5  95336464.549 5     -2733.248          32.000
R06  19420100.852 6 103629447.497 6      -923.621          37.000
R07  20831826.922 6 111514368.438 6      2262.547          37.000    20831836.266 5  86733444.042 5      1759.759          31.000
R21  19734986.602 8 105605902.801 8     -2103.812          51.000    19734987.078 7  82137917.861 7     -1636.299          45.000
R22  20540441.758 5 109646218.257 5      2388.344          31.000
C05                                                                  39720017.305 5 159936050.301 5       -28.402          34.000
C11  25516890.281 5 132873160.701 5     -3533.375          30.000    25516890.484 6 102745918.561 6     -2732.396          38.000
C14  21607988.789 8 112518479.397 8      -618.348          51.000    21607986.578 8  87006454.332 8      -478.185          51.000
E03  23323006.367 8 122563241.094 8       -67.703          51.000    23323008.609 8  93912143.886 8       -51.873          51.000
E08  23556046.969 8 123787854.989 8      2224.477          48.000    23556049.703 8  94850521.036 8      1704.553          51.000
E15  23163902.516 8 121727144.880 8      -461.312          51.000    23163904.555 8  93271441.313 8      -353.503          51.000
> 2020 05 07 22 02 30.0000000  0 14        .000000000000
G01  22163862.289 7 116471879.468 7     -2911.754          47.000    22163865.273 8  90757320.553 8     -2268.899          48.000
G03  20545268.961 8 107966161.251 8      -915.270          51.000    20545270.203 8  84129509.732 8      -713.197          51.000
G04  20606071.172 8 108285701.860 8      1459.523          49.000    20606072.797 8  84378444.351 8      1137.288          49.000
G09  22633563.125 8 118940266.302 8      3196.527          49.000    22633562.633 8  92680705.075 8      2490.801          49.000
G22  22023374.461 5 115733614.569 5     -1990.879          34.000    22023361.906 5  90181996.102 5     -1551.331          31.000
R05  22949985.516 6 122680818.067 6     -3511.664          36.000    22949990.922 5  95418422.798 5     -2731.291          31.000
R06  19425324.906 5 103657327.121 5      -935.277          34.000
R07  20819180.227 5 111446683.483 5      2252.027          31.000    20819182.102 5  86680775.772 5      1751.577          31.000
R21  19746840.898 8 105669338.282 8     -2125.488          51.000    19746841.430 7  82187256.561 7     -1653.161          45.000
C11  25537247.000 4 132979153.119 4     -3533.480          29.000    25537245.859 6 102827878.485 6     -2731.952          37.000
C14  21611566.859 8 112537111.575 8      -624.062          50.000    21611564.828 8  87020861.905 8      -482.489          51.000
E03  23323412.203 8 122565372.327 8       -74.773          51.000    23323414.336 8  93913776.909 8       -57.207          51.000
E08  23543357.578 8 123721172.133 8      2220.660          48.000    23543360.367 8  94799426.374 8      1701.644          50.000
E15  23166565.430 8 121741137.690 8      -471.781          51.000    23166567.086 8  93282163.061 8      -361.420          51.000
> 2020 05 07 22 03  0.0000000  0 16        .000000000000
G01  22180504.477 7 116559341.551 7     -2924.934          46.000    22180508.969 7  90825472.853 7     -2279.169          46.000
G03  20550512.438 8 107993716.445 8      -927.734          51.000    20550513.805 8  84150981.315 8      -722.910          51.000
G04  20597777.875 8 108242119.798 8      1440.062          50.000    20597779.227 8  84344484.290 8      1122.127          49.000
G09  22615331.922 8 118844456.172 8      3184.770          51.000    22615330.195 8  92606047.862 8      2481.642          51.000
G17  22113826.547 5 116208944.792 5      -713.156          32.000
G19  22183940.008 5 116577382.146 5       472.328          32.000
R05  22969685.070 6 122786118.502 6     -3514.590          36.000    22969689.422 5  95500323.118 5     -2733.570          31.000
R06  19430611.570 5 103685538.331 5      -952.160          35.000
R21  19758816.000 8 105733420.207 8     -2152.621          51.000    19758816.133 7  82237098.029 7     -1674.261          46.000
C05                                                                  39720402.008 5 159937599.373 5       -28.155          33.000
C11                                                                  25557597.367 5 102909827.064 5     -2735.655          35.000
C14  21615176.930 8 112555911.254 8      -635.137          50.000    21615175.164 8  87035399.016 8      -491.188          51.000
C28  22464209.164 6 116977069.846 6      -262.445          36.000
E03  23323857.484 8 122567712.942 8       -87.273          51.000    23323859.617 8  93915570.379 8       -66.869          51.000
E08  23530690.211 8 123654603.778 8      2211.273          49.000    23530691.898 8  94748419.457 8      1694.290          50.000
E15  23169288.242 8 121755445.001 8      -487.957          51.000    23169289.383 8  93293125.806 8      -373.892          51.000
> 2020 05 07 22 03 30.0000000  0 15        .000000000000
G01  22197222.969 7 116647201.548 7     -2932.156          47.000    22197228.000 7  90893935.215 7     -2284.797          47.000
G03  20555828.367 8 108021652.824 8      -934.590          51.000    20555830.023 8  84172749.911 8      -728.255          51.000
G04  20589596.836 8 108199127.901 8      1426.105          51.000    20589598.195 8  84310984.131 8      1111.254          49.000
G09  22597169.000 8 118749005.894 8      3178.539          51.000    22597167.516 8  92531671.050 8      2476.784          51.000
G17  22117947.008 6 116230589.539 6      -729.484          36.000
R05  22989402.898 5 122891517.722 5     -3511.801          35.000    22989405.812 4  95582300.291 4     -2731.401          29.000
R06  19435992.648 5 103714254.577 5      -962.559          34.000
R07  20794060.750 4 111312240.687 4      2228.250          29.000
R21  19770944.039 8 105798321.680 8     -2173.996          51.000    19770944.305 7  82287576.922 7     -1690.886          46.000
C11                                                                  25577977.422 5 102991894.451 5     -2735.190          34.000
C14  21618851.883 8 112575048.360 8      -640.629          50.000    21618850.234 8  87050197.030 8      -495.417          51.000
C28  22465746.281 5 116985166.094 5      -276.891          35.000
E03  23324375.273 8 122570434.437 8       -94.125          51.000    23324377.289 8  93917655.673 8       -72.152          51.000
E08  23518077.422 8 123588322.432 8      2207.480          49.000    23518077.398 8  94697632.480 8      1691.440          50.000
E15  23172103.641 8 121770239.132 8      -498.379          51.000    23172105.031 8  93304461.561 8      -381.881          51.000
> 2020 05 07 22 04  0.0000000  0 15        .000000000000
G01  22213992.578 8 116735327.046 8     -2944.039          48.000    22213997.461 8  90962604.450 8     -2294.056          48.000
G03  20561191.766 8 108049838.912 8      -945.789          51.000    20561193.742 8  84194713.090 8      -736.978          51.000
G04  20581503.516 8 108156595.856 8      1407.930          51.000    20581504.664 8  84277842.294 8      1097.088          50.000
G09  22579049.539 8 118653786.155 8      3168.027          51.000    22579049.281 8  92457473.879 8      2468.593          51.000
G17  22122161.453 6 116252741.387 6      -748.812          36.000
R05  23009113.094 5 122996881.469 5     -3514.762          30.000    23009115.805 4  95664249.860 4     -2733.707          28.000
R06  19441443.359 5 103743340.748 5      -978.090          34.000
R07  20781615.680 5 111245595.314 5      2213.438          32.000
R21  19783199.672 8 105863907.002 8     -2199.707          51.000    19783200.594 7  82338587.720 7     -1710.883          47.000
C11                                                                  25598361.219 5 103073978.512 5     -2738.304          33.000
C14  21622566.703 8 112594392.272 8      -650.410          50.000    21622565.164 8  87065154.972 8      -502.932          51.000
C28  22467377.500 5 116993736.841 5      -296.465          32.000
E03  23324940.680 8 122573405.046 8      -105.367          51.000    23324942.664 8  93919931.842 8       -80.736          51.000
E08  23505494.539 8 123522197.525 8      2199.324          50.000    23505493.266 8  94646965.381 8      1685.188          51.000
E15  23174986.547 8 121785389.281 8      -513.164          51.000    23174988.695 8  93316070.091 8      -393.150          51.000
> 2020 05 07 22 04 30.0000000  0 14        .000000000000
G01  22230842.086 8 116823870.830 8     -2950.613          49.000    22230846.453 8  91031599.644 8     -2299.179          49.000
G03  20566632.008 8 108078428.512 8      -951.816          51.000    20566634.188 8  84216990.693 8      -741.675          51.000
G04  20573526.773 8 108114678.527 8      1394.859          50.000    20573527.648 8  84245179.462 8      1086.903          49.000
G09  22561003.047 8 118558952.930 8      3162.637          51.000    22561004.414 8  92383577.886 8      2464.392          50.000
G17  22126502.453 6 116275553.203 6      -763.586          37.000
R06  19446993.031 5 103772951.908 5      -987.746          34.000
R07  20769256.547 5 111179439.155 5      2204.957          33.000    20769268.219 4  86472943.444 4      1714.967          26.000
R21  19795612.781 8 105930330.866 8     -2220.082          51.000    19795613.758 8  82390250.735 8     -1726.730          48.000
C11  25618786.953 5 133403746.261 5     -3539.371          30.000    25618777.680 5 103156195.930 5     -2736.954          31.000
C14  21626350.414 8 112614095.112 8      -654.941          51.000    21626349.070 8  87080390.477 8      -506.488          51.000
C28  22469136.312 5 117002934.865 5      -309.207          34.000
E03  23325582.633 8 122576778.335 8      -111.305          51.000    23325584.672 8  93922516.569 8       -85.267          51.000
E08  23492970.680 8 123456383.782 8      2196.367          50.000    23492969.359 8  94596536.673 8      1682.979          51.000
E15  23177966.578 8 121801049.926 8      -522.699          51.000    23177969.102 8  93328069.792 8      -400.483          51.000
> 2020 05 07 22 05  0.0000000  0 16        .000000000000
G01  22247719.930 8 116912562.845 8     -2960.688          49.000    22247724.188 8  91100710.331 8     -2307.026          49.000
G03  20572098.047 8 108107152.587 8      -961.484          51.000    20572100.258 8  84239373.093 8      -749.209          51.000
G04  20565615.953 8 108073108.004 8      1378.008          50.000    20565617.008 8  84212786.869 8      1073.772          50.000
G09  22542979.055 8 118464239.368 8      3153.383          50.000    22542981.766 8  92309775.120 8      2457.184          51.000
G17  22130922.539 4 116298762.573 4      -781.809          28.000
G31  23423121.922 5 123089330.665 5     -1000.656          32.000    23423132.695 4  95913812.013 4      -779.732          29.000
R06  19452588.953 5 103802813.982 5     -1001.547          35.000
R07  20756938.812 6 111113499.372 6      2192.500          37.000    20756946.602 4  86421656.994 4      1705.272          27.000
R21  19808131.062 8 105997317.461 8     -2243.992          51.000    19808132.219 8  82442351.404 8     -1745.330          49.000
R22  20461996.180 4 109227524.477 4      2262.398          28.000    20462011.266 4  84954803.452 4      1759.643          28.000
C11                                                                  25639176.633 5 103238339.028 5     -2738.292          32.000
C14  21630151.750 8 112633890.022 8      -663.125          50.000    21630150.508 8  87095697.157 8      -512.695          51.000
C28  22470965.805 5 117012493.873 5      -326.707          32.000
E03  23326249.961 8 122580284.998 8      -120.840          51.000    23326251.758 8  93925203.497 8       -92.547          51.000
E08  23480454.477 8 123390612.969 8      2189.910          50.000    23480454.430 8  94546140.840 8      1678.019          51.000
E15  23180992.922 8 121816952.631 8      -535.809          51.000    23180995.539 8  93340254.983 8      -410.564          51.000
> 2020 05 07 22 05 30.0000000  0 12        .000000000000
G01  22264689.609 8 117001737.148 8     -2975.891          50.000    22264694.180 8  91170196.801 8     -2318.879          50.000
G03  20577653.539 8 108136346.226 8      -976.363          51.000    20577655.594 8  84262121.387 8      -760.803          51.000
G04  20557835.289 8 108032220.449 8      1356.055          49.000    20557836.547 8  84180926.442 8      1056.666          49.000
G09  22525041.930 8 118369982.717 8      3138.910          49.000    22525045.492 8  92236328.393 8      2445.904          49.000
R06  19458295.922 6 103833264.707 6     -1020.219          36.000
R07  20744727.789 6 111048117.825 6      2174.824          36.000    20744728.133 5  86370804.587 5      1691.527          32.000
R21  19820817.500 8 106065206.177 8     -2273.238          50.000    19820819.117 8  82495153.749 8     -1768.074          49.000
C11                                                                  25659621.523 5 103320663.527 5     -2743.847          33.000
C14  21634034.617 8 112654108.736 8      -676.457          50.000    21634033.219 8  87111331.549 8      -523.086          51.000
E03  23327006.750 8 122584259.904 8      -135.766          51.000    23327007.922 8  93928249.189 8      -104.010          51.000
E08  23468010.430 8 123325221.062 8      2178.023          50.000    23468011.797 8  94496035.347 8      1668.863          51.000
E15  23184129.062 8 121833433.163 8      -554.348          51.000    23184131.938 8  93352882.922 8      -424.763          51.000
> 2020 05 07 22 06  0.0000000  0 14        .000000000000
G01  22281677.969 8 117091009.031 8     -2975.945          51.000    22281682.242 8  91239759.303 8     -2318.918          51.000
G03  20583225.445 8 108165625.734 8      -976.125          51.000    20583227.188 8  84284936.590 8      -760.617          51.000
G04  20550111.430 7 107991633.116 7      1349.305          47.000    20550112.773 7  84149299.967 7      1051.409          47.000
G09  22507119.266 8 118275801.396 8      3139.547          49.000    22507122.836 8  92162940.371 8      2446.400          48.000
G17  22140088.992 5 116346943.199 5      -813.547          34.000
R05  23087988.148 5 123418497.858 5     -3504.883          30.000    23087991.125 4  95992200.921 4     -2726.020          25.000
R06  19464039.531 5 103863913.748 5     -1024.090          35.000
R21  19833598.359 8 106133604.188 8     -2286.906          48.000    19833600.828 8  82548352.231 8     -1778.705          48.000
C11                                                                  25680039.703 5 103402874.001 5     -2737.398          34.000
C14  21637925.836 8 112674370.730 8      -674.738          50.000    21637924.375 8  87126999.411 8      -521.729          51.000
C28  22474989.812 5 117033143.748 5      -356.059          31.000
E03  23327779.289 8 122588319.042 8      -135.270          51.000    23327780.477 8  93931359.439 8      -103.648          51.000
E08  23455566.055 8 123259825.153 8      2181.379          51.000    23455568.016 8  94445926.809 8      1671.452          51.000
E15  23187302.141 8 121850108.433 8      -557.672          51.000    23187305.148 8  93365660.069 8      -427.262          51.000
> 2020 05 07 22 06 30.0000000  0 14        .000000000000
G01  22298727.711 8 117180603.811 8     -2993.395          51.000    22298731.219 8  91309573.360 8     -2332.515          51.000
G03  20588856.711 8 108195217.490 8      -993.164          51.000    20588858.320 8  84307995.107 8      -773.894          51.000
G04  20542488.367 8 107951573.500 8      1324.953          48.000    20542489.617 8  84118084.684 8      1032.431          48.000
G09  22489254.945 8 118181923.990 8      3122.504          49.000    22489257.359 8  92089789.160 8      2433.120          49.000
G31  23440798.648 5 123182225.451 5     -1061.000          33.000
R06  19469863.531 6 103894989.696 6     -1044.426          38.000
R07  20720457.039 4 110918228.044 4      2151.375          29.000
R21  19846517.125 8 106202740.028 8     -2318.461          49.000    19846520.523 8  82602124.554 8     -1803.247          48.000
R22  20424446.289 5 109027089.438 5      2193.336          33.000    20424451.641 4  84798862.819 4      1705.928          27.000
C11                                                                  25700473.008 5 103485142.469 5     -2744.520          35.000
C14  21641868.430 8 112694900.088 8      -690.285          50.000    21641867.000 8  87142874.022 8      -533.842          51.000
E03  23328610.547 8 122592688.535 8      -152.387          51.000    23328612.242 8  93934707.512 8      -116.797          51.000
E08  23443164.398 8 123194652.470 8      2167.055          51.000    23443166.016 8  94395989.338 8      1660.500          51.000
E15  23190555.641 8 121867205.419 8      -578.621          51.000    23190558.672 8  93378760.358 8      -443.332          51.000
> 2020 05 07 22 07  0.0000000  0 14        .000000000000
G01  22315862.461 8 117270646.527 8     -3004.789          50.000    22315864.492 8  91379736.469 8     -2341.394          50.000
G03  20594571.312 8 108225247.511 8     -1004.238          51.000    20594572.906 8  84331395.127 8      -782.523          51.000
G04  20534989.883 7 107912168.635 7      1306.562          47.000    20534991.195 7  84087379.570 7      1018.101          47.000
G09  22471473.148 8 118088478.583 8      3111.613          49.000    22471474.359 8  92016974.586 8      2424.637          49.000
G22  22127159.984 5 116279010.124 5     -2049.703          31.000
G31  23446930.883 5 123214452.754 5     -1082.695          31.000
R06  19475791.469 5 103926619.602 5     -1059.914          34.000
R21  19859598.430 8 106272740.167 8     -2343.629          51.000    19859601.617 8  82656569.113 8     -1822.822          48.000
R22  20412196.867 5 108961705.590 5      2170.145          33.000    20412213.984 4  84748008.974 4      1687.881          25.000
C11                                                                  25720944.219 5 103567564.288 5     -2746.719          35.000
C14  21645886.195 8 112715821.394 8      -699.949          50.000    21645884.844 8  87159051.701 8      -541.278          51.000
E03  23329525.203 8 122597494.170 8      -163.598          51.000    23329526.773 8  93938389.738 8      -125.324          51.000
E08  23430829.344 8 123129829.940 8      2158.852          51.000    23430830.141 8  94346320.152 8      1654.182          51.000
E15  23193913.555 8 121884850.719 8      -593.328          51.000    23193916.734 8  93392280.786 8      -454.673          51.000
> 2020 05 07 22 07 30.0000000  0 12        .000000000000
G01  22333025.492 8 117360839.160 8     -3014.074          49.000    22333026.680 8  91450016.427 8     -2348.629          49.000
G03  20600312.812 8 108255418.938 8     -1013.199          51.000    20600314.492 8  84354905.330 8      -789.506          51.000
G04  20527559.477 8 107873122.536 8      1290.379          48.000    20527560.969 8  84056954.052 8      1005.490          48.000
G09  22453717.562 8 117995170.445 8      3102.926          50.000    22453718.367 8  91944266.963 8      2417.864          50.000
G31  23453142.664 5 123247096.375 5     -1100.137          34.000
R06  19481765.492 5 103958499.772 5     -1072.551          33.000
R21  19872784.945 8 106343299.983 8     -2366.508          51.000    19872787.469 7  82711448.941 7     -1840.620          47.000
C11                                                                  25741396.055 6 103649910.543 6     -2747.221          36.000
C14  21649922.461 8 112736840.127 8      -707.258          50.000    21649921.289 8  87175304.719 8      -546.936          51.000
E03  23330466.242 8 122602438.722 8      -172.262          51.000    23330467.594 8  93942178.413 8      -131.957          51.000
E08  23418504.133 8 123065061.510 8      2152.953          50.000    23418504.828 8  94296692.415 8      1649.662          51.000
E15  23197319.234 8 121902748.067 8      -605.926          51.000    23197322.383 8  93405994.335 8      -464.260          51.000
> 2020 05 07 22 08  0.0000000  0 13        .000000000000
G01  22350291.430 8 117451572.461 8     -3029.148          49.000    22350292.633 8  91520717.701 8     -2360.375          49.000
G03  20606155.797 8 108286123.553 8     -1028.094          51.000    20606157.516 8  84378830.999 8      -801.112          51.000
G04  20520272.617 8 107834828.046 8      1268.266          49.000    20520273.898 8  84027114.188 8       988.259          49.000
G09  22436062.570 7 117902393.469 7      3087.965          47.000    22436063.891 7  91871973.239 7      2406.206          47.000
R06  19487861.805 5 103991027.416 5     -1090.914          34.000
R07  20684609.219 5 110726353.377 5      2108.457          32.000    20684610.273 5  86120476.168 5      1639.914          33.000
R21  19886150.328 8 106414816.357 8     -2395.363          51.000    19886151.703 7  82767072.778 7     -1863.060          46.000
C11                                                                  25761903.016 6 103732480.174 6     -2752.739          37.000
C14  21654052.078 8 112758344.226 8      -720.676          51.000    21654050.898 8  87191933.039 8      -557.242          51.000
C28  22484184.219 5 117081050.074 5      -437.676          34.000
E03  23331507.914 8 122607913.701 8      -187.000          51.000    23331509.508 8  93946373.535 8      -143.325          51.000
E08  23406263.734 8 123000739.768 8      2140.953          50.000    23406264.758 8  94247406.927 8      1640.420          50.000
E15  23200847.445 8 121921289.759 8      -624.449          51.000    23200850.500 8  93420201.626 8      -478.537          51.000
> 2020 05 07 22 08 30.0000000  0 13        .000000000000
G01  22367579.312 8 117542420.211 8     -3032.711          50.000    22367580.438 8  91591508.149 8     -2363.151          50.000
G03  20612019.312 8 108316936.146 8     -1031.359          51.000    20612020.930 8  84402840.801 8      -803.657          51.000
G04  20513047.859 8 107796860.876 8      1257.559          49.000    20513048.828 8  83997529.384 8       979.916          48.000
G09  22418427.734 7 117809724.623 7      3084.488          47.000    22418429.766 7  91799763.721 7      2403.497          47.000
R06  19493997.922 5 104023768.959 5     -1097.270          33.000
R07  20672796.984 5 110663116.687 5      2102.348          31.000    20672798.461 5  86071292.092 5      1635.159          33.000
R21  19899612.594 8 106486854.217 8     -2412.484          51.000    19899613.234 7  82823102.188 7     -1876.380          46.000
C11                                                                  25782384.094 6 103814946.043 6     -2748.758          37.000
C14  21658194.234 8 112779912.102 8      -722.461          51.000    21658192.797 8  87208610.689 8      -558.592          51.000
C28  22486723.734 6 117094279.412 6      -449.402          37.000
E03  23332569.727 8 122613493.643 8      -190.289          51.000    23332571.438 8  93950649.073 8      -145.776          51.000
E08  23394027.898 8 122936440.352 8      2140.438          51.000    23394028.945 8  94198138.535 8      1640.084          50.000
E15  23204417.352 8 121940051.221 8      -631.480          51.000    23204420.719 8  93434577.285 8      -483.859          51.000
> 2020 05 07 22 09  0.0000000  0 13        .000000000000
G01  22384927.531 8 117633584.017 8     -3043.836          51.000    22384928.094 8  91662544.895 8     -2371.820          51.000
G03  20617941.906 8 108348059.445 8     -1042.395          51.000    20617943.344 8  84427092.716 8      -812.255          51.000
G04  20505923.820 8 107759424.694 8      1239.156          49.000    20505924.727 8  83968358.309 8       965.576          49.000
G09  22400852.727 8 117717368.678 8      3073.379          49.000    22400855.078 8  91727798.040 8      2394.844          49.000
R06  19500211.742 4 104056929.247 4     -1111.848          28.000
R07  20661055.055 4 110600249.171 4      2087.457          28.000    20661061.922 5  86022439.037 5      1623.581          31.000
R21  19913210.328 8 106559617.816 8     -2437.461          50.000    19913210.914 7  82879696.064 7     -1895.803          46.000
C11                                                                  25802876.719 6 103897462.180 6     -2751.129          36.000
C14  21662387.156 8 112801744.356 8      -731.980          51.000    21662385.492 8  87225492.768 8      -566.008          51.000
C28  22489367.953 6 117108045.979 6      -468.316          36.000
E03  23333690.031 8 122619380.961 8      -201.188          51.000    23333691.750 8  93955160.129 8      -154.130          51.000
E08  23381835.188 8 122872366.752 8      2132.180          51.000    23381836.297 8  94149043.195 8      1633.802          50.000
E15  23208067.938 8 121959235.685 8      -646.363          51.000    23208071.383 8  93449277.070 8      -495.256          51.000
> 2020 05 07 22 09 30.0000000  0 13        .000000000000
G01  22402311.227 8 117724934.654 8     -3047.535          50.000    22402310.977 8  91733727.210 8     -2374.703          50.000
G03  20623899.195 8 108379365.272 8     -1045.910          51.000    20623900.625 8  84451486.873 8      -814.995          51.000
G04  20498876.758 8 107722392.233 8      1228.246          49.000    20498877.727 8  83939501.852 8       957.075          49.000
G09  22383313.734 8 117625199.567 8      3069.867          50.000    22383315.914 8  91655977.975 8      2392.104          50.000
G17  22175436.180 5 116532718.994 5      -941.918          34.000
R06  19506479.789 5 104090307.621 5     -1118.848          33.000
R21  19926918.578 8 106632974.507 8     -2454.363          49.000    19926919.625 7  82936751.276 7     -1908.949          46.000
C11                                                                  25823356.711 5 103979928.958 5     -2747.997          35.000
C14  21666606.156 8 112823713.712 8      -733.984          50.000    21666604.469 8  87242480.882 8      -567.660          51.000
C28  22492089.008 6 117122222.884 6      -478.738          38.000
E03  23334844.164 8 122625447.209 8      -204.516          51.000    23334846.000 8  93959808.299 8      -156.782          51.000
E08  23369661.312 8 122808391.652 8      2131.348          51.000    23369662.297 8  94100023.331 8      1633.117          50.000
E15  23211775.141 8 121978715.524 8      -653.695          51.000    23211778.117 8  93464203.194 8      -500.922          51.000
> 2020 05 07 22 10  0.0000000  0 16        .000000000000
G01  22419774.680 8 117816706.456 8     -3065.215          50.000    22419774.539 8  91805237.679 8     -2388.479          50.000
G03  20629935.953 8 108411089.095 8     -1063.664          51.000    20629937.508 8  84476206.747 8      -828.829          51.000
G04  20491951.609 8 107685999.776 8      1203.145          50.000    20491952.508 8  83911144.123 8       937.515          49.000
G09  22365855.711 8 117533454.761 8      3051.875          50.000    22365857.578 8  91584488.550 8      2378.084          50.000
G17  22180898.367 6 116561443.159 6      -967.828          38.000
G22  22197961.523 5 116651125.543 5     -2087.309          35.000
R06  19512844.703 5 104124279.729 5     -1140.043          31.000
R07  20637774.953 5 110475590.913 5      2061.090          35.000
R21  19940781.969 8 106707161.850 8     -2485.930          49.000    19940783.328 7  82994452.563 7     -1933.501          46.000
C11                                                                  25843869.750 6 104062525.465 6     -2754.842          36.000
C14  21670896.094 8 112846053.115 8      -750.027          50.000    21670894.344 8  87259755.135 8      -579.984          51.000
C24  26310788.133 7 137007175.831 7      2876.090          43.000
C28  22494934.703 6 117137043.528 6      -504.047          40.000
E03  23336077.188 8 122631927.474 8      -222.180          51.000    23336079.000 8  93964773.690 8      -170.260          51.000
E08  23357551.086 8 122744751.253 8      2116.504          51.000    23357551.672 8  94051259.915 8      1621.827          50.000
E15  23215583.195 8 121998726.678 8      -675.102          51.000    23215585.984 8  93479536.408 8      -517.289          51.000
> 2020 05 07 22 10 30.0000000  0 16        .000000000000
G01  22437289.766 8 117908750.632 8     -3072.070          49.000    22437290.570 8  91876960.375 8     -2393.824          49.000
G03  20636024.188 8 108443083.298 8     -1070.352          51.000    20636025.930 8  84501137.295 8      -834.040          51.000
G04  20485120.344 8 107650100.624 8      1189.102          51.000    20485120.969 8  83883170.757 8       926.570          50.000
G09  22348450.539 8 117441988.770 8      3044.906          49.000    22348452.242 8  91513216.371 8      2372.654          49.000
G17  22186463.125 6 116590685.672 6      -982.840          37.000
G22  22209889.023 5 116713791.269 5     -2091.121          34.000
R06  19519280.039 5 104158625.196 5     -1150.391          33.000
R07  20626258.039 6 110413901.725 6      2050.965          38.000
R21  19954772.742 8 106782027.063 8     -2506.086          50.000    19954773.570 7  83052681.062 7     -1949.178          46.000
C11                                                                  25864386.453 5 104145137.234 5     -2753.232          34.000
C14  21675229.117 8 112868616.017 8      -755.207          50.000    21675227.000 8  87277202.196 8      -583.935          51.000
C24  26294210.984 7 136920851.068 7      2877.914          44.000
C28  22497875.961 6 117152361.712 6      -518.312          40.000
E03  23337361.078 8 122638673.844 8      -228.652          51.000    23337362.773 8  93969942.975 8      -175.201          51.000
E08  23345476.453 8 122681298.768 8      2112.586          51.000    23345476.977 8  94002640.488 8      1618.762          51.000
E15  23219464.414 8 122019122.028 8      -685.531          51.000    23219466.898 8  93495164.008 8      -525.289          51.000
> 2020 05 07 22 11  0.0000000  0 16        .000000000000
G01  22454852.891 8 118001046.321 8     -3078.086          49.000    22454854.562 8  91948879.094 8     -2398.505          49.000
G03  20642160.133 8 108475328.006 8     -1076.355          51.000    20642162.070 8  84526263.029 8      -838.719          51.000
G04  20478379.211 8 107614675.750 8      1175.520          50.000    20478379.680 8  83855566.961 8       915.992          50.000
G09  22331094.930 8 117350783.840 8      3038.461          49.000    22331096.188 8  91442147.622 8      2367.632          49.000
G17  22192122.031 5 116620425.798 5      -997.785          34.000    22192114.516 5  90872994.716 5      -777.495          32.000
G31  23499816.164 6 123492347.117 6     -1230.324          37.000    23499819.648 6  96227819.448 6      -958.688          37.000
R06  19525781.547 5 104193323.154 5     -1159.914          31.000
R07  20614796.211 5 110352554.909 5      2041.883          32.000
R21  19968885.648 8 106857547.997 8     -2525.672          50.000    19968886.141 7  83111419.525 7     -1964.411          45.000
C11                                                                  25884902.414 5 104227747.909 5     -2751.501          34.000
C14  21679601.305 8 112891382.492 8      -759.656          50.000    21679598.711 8  87294806.668 8      -587.363          51.000
C24  26277632.930 7 136834522.183 7      2880.246          44.000
C28  22500908.742 6 117168157.890 6      -531.996          37.000
E03  23338691.734 8 122645666.200 8      -234.379          51.000    23338693.469 8  93975300.762 8      -179.613          51.000
E08  23333433.820 8 122618015.134 8      2109.367          51.000    23333434.586 8  93954150.446 8      1616.301          51.000
E15  23223415.227 8 122039882.256 8      -695.398          51.000    23223417.039 8  93511071.198 8      -532.793          51.000
> 2020 05 07 22 11 30.0000000  0 16        .000000000000
G01  22472477.164 8 118093662.011 8     -3093.367          49.000    22472479.078 8  92021047.156 8     -2410.416          49.000
G03  20648357.070 8 108507892.899 8     -1091.633          51.000    20648358.805 8  84551638.261 8      -850.623          51.000
G04  20471741.734 8 107579795.711 8      1152.742          50.000    20471742.086 8  83828387.736 8       898.244          50.000
G09  22313802.531 8 117259911.688 8      3022.539          48.000    22313802.945 8  91371338.213 8      2355.228          48.000
G22  22233850.969 6 116839648.173 6     -2105.590          36.000
G31  23506918.656 6 123529679.084 6     -1255.270          37.000    23506923.172 6  96256909.318 6      -978.132          36.000
R06  19532362.102 5 104228426.069 5     -1178.762          30.000
R07  20603411.945 6 110291622.912 6      2022.832          38.000
R21  19983133.898 8 106933793.049 8     -2554.348          51.000    19983134.352 7  83170721.200 7     -1986.715          45.000
C11                                                                  25905431.352 5 104310409.321 5     -2756.717          35.000
C14  21684025.656 8 112914421.305 8      -773.266          50.000    21684022.883 8  87312621.742 8      -598.001          51.000
C24  26261068.008 7 136748261.120 7      2873.352          45.000
C28  22504046.000 5 117184501.157 5      -555.004          34.000
E03  23340082.188 8 122652973.837 8      -249.754          51.000    23340084.047 8  93980900.130 8      -191.325          51.000
E08  23321436.953 8 122554970.805 8      2096.629          51.000    23321437.523 8  93905843.764 8      1606.508          51.000
E15  23227448.773 8 122061077.484 8      -714.586          51.000    23227450.164 8  93527311.699 8      -547.552          51.000
> 2020 05 07 22 12  0.0000000  0 17        .000000000000
G01  22490159.539 8 118186581.479 8     -3101.141          50.000    22490160.000 8  92093451.932 8     -2416.473          50.000
G03  20654612.078 8 108540762.822 8     -1099.500          51.000    20654613.609 8  84577251.186 8      -856.753          51.000
G04  20465205.312 8 107545446.190 8      1137.320          51.000    20465205.391 8  83801621.885 8       886.224          49.000
G09  22296570.820 8 117169359.170 8      3014.230          48.000    22296570.812 8  91300777.851 8      2348.751          48.000
G19  22155337.852 5 116427085.761 5        80.762          31.000
G22  22245860.398 5 116902804.447 5     -2110.328          31.000
G31  23514134.367 6 123567600.151 6     -1272.438          36.000    23514133.430 5  96286458.100 5      -991.507          34.000
R06  19539019.641 4 104263949.800 4     -1189.160          29.000
R07  20592105.234 5 110231090.070 5      2012.195          35.000
R21  19997514.242 8 107010744.373 8     -2575.590          50.000    19997514.758 7  83230572.224 7     -2003.237          45.000
C11                                                                  25925969.727 5 104393108.617 5     -2756.180          35.000
C14  21688499.156 8 112937717.124 8      -779.609          50.000    21688496.680 8  87330635.548 8      -602.871          51.000
C24  26244513.727 7 136662055.753 7      2873.859          44.000
C28  22507286.242 6 117201376.346 6      -570.344          37.000
E03  23341529.859 8 122660581.263 8      -257.398          51.000    23341531.320 8  93986729.205 8      -197.227          51.000
E08  23309483.094 8 122492151.362 8      2091.426          51.000    23309483.445 8  93857709.413 8      1602.491          51.000
E15  23231562.234 8 122082693.013 8      -726.355          51.000    23231563.438 8  93543874.239 8      -556.567          51.000
> 2020 05 07 22 12 30.0000000  0 17        .000000000000
G01  22507895.148 8 118279780.033 8     -3113.262          51.000    22507893.547 8  92166074.148 8     -2425.918          51.000
G03  20660920.680 8 108573914.280 8     -1111.602          51.000    20660922.227 8  84603083.487 8      -866.183          51.000
G04  20458765.258 8 107511604.398 8      1117.578          50.000    20458765.141 8  83775251.675 8       870.840          48.000
G09  22279395.727 8 117079104.828 8      3001.582          48.000    22279396.312 8  91230449.775 8      2338.895          48.000
G17  22209721.445 5 116712883.657 5     -1057.543          31.000
G22  22257928.352 6 116966202.495 6     -2118.305          36.000
G31  23521457.344 6 123606085.788 6     -1293.988          36.000    23521451.969 5  96316446.812 5     -1008.315          34.000
R06  19545748.031 5 104299853.948 5     -1205.473          31.000
R07  20580865.883 5 110170933.345 5      1997.273          32.000    20580885.008 4  85688620.242 4      1553.432          26.000
R21  20012021.539 8 107088375.552 8     -2601.105          50.000    20012022.047 7  83290952.048 7     -2023.082          46.000
C11                                                                  25946512.641 5 104475826.513 5     -2759.170          33.000
C14  21693017.523 8 112961246.287 8      -790.113          50.000    21693015.406 8  87348829.797 8      -610.969          51.000
C24  26227966.062 7 136575885.740 7      2869.758          43.000
C28  22510624.250 6 117218760.222 6      -589.504          37.000
E03  23343030.133 8 122668464.655 8      -269.297          51.000    23343031.094 8  93992769.716 8      -206.329          51.000
E08  23297567.805 8 122429534.091 8      2081.926          51.000    23297567.664 8  93809729.960 8      1595.245          50.000
E15  23235751.000 8 122104705.777 8      -742.355          51.000    23235752.117 8  93560741.146 8      -568.803          51.000
> 2020 05 07 22 13  0.0000000  0 17        .000000000000
G01  22525684.484 8 118373262.703 8     -3120.574          50.000    22525681.867 8  92238917.753 8     -2431.616          50.000
G03  20667284.016 8 108607353.413 8     -1119.195          51.000    20667285.547 8  84629139.934 8      -872.100          51.000
G04  20452423.289 8 107478277.320 8      1102.512          51.000    20452422.992 8  83749282.521 8       859.100          49.000
G09  22262279.070 8 116989156.888 8      2993.359          48.000    22262280.523 8  91160360.463 8      2332.488          48.000
G17  22215795.227 5 116744783.529 5     -1073.074          34.000
G22  22270029.312 6 117029792.704 6     -2122.391          37.000
G31  23528888.617 5 123645141.474 5     -1311.520          30.000    23528884.273 4  96346879.799 4     -1021.969          27.000
R05  23363959.375 5 124893747.064 5     -3508.965          30.000
R21  20026657.055 8 107166690.793 8     -2621.734          51.000    20026657.289 7  83351863.932 7     -2039.127          46.000
R22  20275111.336 4 108229913.439 4      1891.867          27.000    20275109.680 4  84178820.523 4      1471.452          25.000
C11                                                                  25967060.602 5 104558566.301 5     -2758.080          33.000
C14  21697582.016 8 112985014.714 8      -796.023          50.000    21697580.047 8  87367209.049 8      -615.524          51.000
C24  26211426.414 6 136489760.175 6      2870.078          39.000
C28  22514061.422 6 117236659.002 6      -604.922          38.000
E03  23344583.844 8 122676629.854 8      -276.641          51.000    23344584.977 8  93999026.179 8      -211.998          51.000
E08  23285692.227 8 122367125.918 8      2077.078          51.000    23285691.320 8  93761910.728 8      1591.482          50.000
E15  23240016.594 8 122127122.390 8      -753.727          51.000    23240017.461 8  93577917.507 8      -577.489          51.000
> 2020 05 07 22 13 30.0000000  0 19        .000000000000
G01  22543544.586 7 118467120.775 7     -3128.359          47.000    22543543.070 7  92312053.897 7     -2437.683          46.000
G03  20673719.648 8 108641172.671 8     -1126.859          51.000    20673721.133 8  84655492.590 8      -878.072          51.000
G04  20446197.203 8 107445558.168 8      1087.168          51.000    20446197.109 8  83723787.100 8       847.144          49.000
G09  22245239.148 8 116899609.798 8      2984.816          50.000    22245240.656 8  91090583.500 8      2325.831          50.000
G17  22221984.398 6 116777319.344 6     -1088.688          37.000
G22  22282183.875 6 117093659.052 6     -2126.742          41.000    22282179.555 5  91241792.636 5     -1657.199          33.000
R05  23383674.297 5 124999143.263 5     -3507.332          33.000
R06  19559445.992 5 104372963.072 5     -1226.477          31.000
R07  20558621.352 5 110051889.287 5      1975.926          31.000
R15  22952328.727 6 122650288.391 6       849.086          38.000    22952329.734 5  95394672.164 5       660.400          30.000
R21  20041437.219 8 107245781.498 8     -2642.465          51.000    20041437.516 7  83413378.932 7     -2055.250          47.000
R22  20264573.266 5 108173668.451 5      1869.852          35.000    20264572.125 5  84135071.247 5      1454.329          30.000
C11                                                                  25987632.453 6 104641397.551 6     -2757.590          36.000
C14  21702210.062 8 113009113.709 8      -802.234          49.000    21702208.047 8  87385843.910 8      -620.360          51.000
C24  26194912.617 6 136403773.465 6      2870.301          36.000
C28  22517615.555 6 117255164.118 6      -620.500          39.000
E03  23346208.734 8 122685168.953 8      -284.242          51.000    23346210.188 8  94005569.129 8      -217.814          51.000
E08  23273873.781 8 122305020.077 8      2071.766          51.000    23273872.883 8  93714323.136 8      1587.472          51.000
E15  23244376.734 8 122150035.705 8      -765.402          51.000    23244377.641 8  93595474.470 8      -586.507          51.000
> 2020 05 07 22 14  0.0000000  0 19        .000000000000
G01  22561435.141 7 118561142.656 7     -3138.871          47.000    22561435.938 7  92385317.750 7     -2445.871          47.000
G03  20680187.547 8 108675161.653 8     -1137.801          51.000    20680188.883 8  84681977.515 8      -886.598          51.000
G04  20440046.992 8 107413237.221 8      1068.707          51.000    20440047.086 8  83698601.971 8       832.759          50.000
G09  22228236.023 8 116810255.174 8      2973.215          50.000    22228236.789 8  91020956.528 8      2316.794          50.000
G17  22228253.664 6 116810266.492 6     -1106.973          37.000
G22  22294350.219 6 117157591.028 6     -2134.375          39.000    22294346.203 5  91291609.706 5     -1663.149          34.000
R05  23403365.836 5 125104403.193 5     -3507.539          30.000
R06  19566385.180 5 104409988.386 5     -1240.109          33.000
R07  20547600.281 5 109992857.944 5      1960.902          32.000
R15  22947636.234 6 122625212.520 6       823.766          38.000    22947638.336 5  95375168.786 5       640.710          31.000
R21  20056320.938 8 107325431.015 8     -2666.328          51.000    20056322.297 7  83475328.523 7     -2073.811          47.000
R22  20254145.078 5 108117974.869 5      1843.574          33.000    20254133.586 4  84091737.006 4      1433.891          28.000
C11                                                                  26008187.164 6 104724157.637 6     -2759.067          36.000
C14  21706861.359 8 113033334.502 8      -811.484          48.000    21706859.359 8  87404572.950 8      -627.419          51.000
C24  26178384.906 5 136317720.229 5      2867.242          34.000
C28  22521246.039 6 117274067.106 6      -638.602          38.000
E03  23347864.836 8 122693871.233 8      -294.715          51.000    23347866.211 8  94012237.111 8      -225.898          51.000
E08  23262072.906 8 122243006.905 8      2063.516          51.000    23262072.562 8  93666806.555 8      1581.141          51.000
E15  23248791.266 8 122173235.778 8      -780.195          51.000    23248793.016 8  93613251.144 8      -597.803          51.000
> 2020 05 07 22 14 30.0000000  0 17        .000000000000
G01  22579378.914 7 118655441.450 7     -3147.316          47.000    22579381.773 7  92458797.368 7     -2452.454          46.000
G03  20686709.430 8 108709434.527 8     -1146.523          51.000    20686710.508 8  84708683.651 8      -893.395          51.000
G04  20433994.391 8 107381429.418 8      1052.281          51.000    20433994.492 8  83673816.658 8       819.959          51.000
G09  22211291.367 8 116721209.185 8      2963.539          50.000    22211291.727 8  90951570.043 8      2309.251          50.000
G22  22306550.133 6 117221703.002 6     -2139.902          39.000    22306545.547 5  91341566.991 5     -1667.456          35.000
R05  23423052.719 5 125209642.073 5     -3507.191          31.000
R06  19573386.617 5 104447352.314 5     -1252.516          32.000
R07  20536644.070 5 109934207.120 5      1948.871          34.000
R15  22943077.844 5 122600859.569 5       800.477          35.000    22943082.930 5  95356227.573 5       622.593          32.000
R21  20071330.477 8 107405753.320 8     -2687.969          51.000    20071332.414 7  83537801.407 7     -2090.642          46.000
C11                                                                  26028745.438 5 104806932.861 5     -2758.898          35.000
C14  21711557.586 8 113057789.932 8      -818.602          48.000    21711555.719 8  87423483.433 8      -632.886          51.000
C24  26161866.539 5 136231716.343 5      2866.438          35.000
C28  22524974.695 6 117293480.972 6      -654.938          37.000
E03  23349573.703 8 122702850.521 8      -303.363          51.000    23349574.883 8  94019117.331 8      -232.441          51.000
E08  23250311.562 8 122181201.314 8      2057.309          51.000    23250311.797 8  93619449.026 8      1576.361          51.000
E15  23253282.078 8 122196837.182 8      -792.793          51.000    23253284.906 8  93631335.306 8      -607.522          51.000
> 2020 05 07 22 15  0.0000000  0 16        .000000000000
G01  22597374.602 8 118750008.905 8     -3156.797          48.000    22597378.836 8  92532486.296 8     -2459.842          48.000
G03  20693284.016 8 108743984.248 8     -1156.246          51.000    20693284.938 8  84735605.508 8      -900.971          51.000
G04  20428038.102 8 107350128.392 8      1034.930          51.000    20428038.461 8  83649426.258 8       806.439          51.000
G09  22194404.016 8 116632466.804 8      2952.965          49.000    22194404.797 8  90882420.127 8      2301.012          49.000
G22  22318783.352 6 117285987.741 6     -2145.641          41.000    22318779.164 6  91391658.991 6     -1671.928          37.000
R05  23442734.758 5 125314851.774 5     -3506.375          32.000
R06  19580462.898 5 104485121.917 5     -1264.992          35.000
R15  22938654.492 6 122577224.536 6       775.672          38.000    22938658.875 5  95337844.717 5       603.300          31.000
R21  20086464.508 8 107486738.338 8     -2710.484          51.000    20086466.109 7  83600789.746 7     -2108.155          46.000
C11                                                                  26049304.930 6 104889716.402 6     -2759.732          36.000
C14  21716297.609 8 113082472.691 8      -826.566          49.000    21716295.711 8  87442569.711 8      -639.084          51.000
C24  26145359.156 6 136145757.855 6      2864.539          38.000
C28  22528799.641 6 117313398.563 6      -672.469          37.000
E03  23351333.656 8 122712099.378 8      -312.750          51.000    23351335.070 8  94026204.114 8      -239.658          51.000
E08  23238588.484 8 122119596.972 8      2050.148          51.000    23238589.055 8  93572245.701 8      1570.905          51.000
E15  23257848.180 8 122220833.203 8      -806.457          51.000    23257851.539 8  93649721.850 8      -617.890          51.000
> 2020 05 07 22 15 30.0000000  0 17        .000000000000
G01  22615435.062 8 118844915.759 8     -3167.125          49.000    22615439.656 8  92606439.695 8     -2467.890          49.000
G03  20699924.938 8 108778882.710 8     -1167.105          51.000    20699925.992 8  84762799.122 8      -909.433          51.000
G04  20422192.070 8 107319406.772 8      1016.391          51.000    20422192.266 8  83625487.335 8       791.993          51.000
G09  22177588.102 8 116544101.948 8      2941.238          49.000    22177589.484 8  90813564.356 8      2291.871          49.000
G17  22247670.680 5 116912290.807 5     -1159.703          35.000
G22  22331063.109 6 117350516.864 6     -2152.930          41.000    22331059.750 6  91441941.429 6     -1677.605          36.000
R05  23462425.117 4 125420104.728 4     -3507.234          28.000
