     3.02           OBSERVATION DATA    M (MIXED)           RINEX VERSION / TYPE
SAVERINEX           SC600               20200506 185932 LCL PGM / RUN BY / DATE
       G = GPS       R = GLONASS       C = COMPASS          COMMENT
       S = SBAS      J = QZSS          E = GALILEO          COMMENT
BEAN                                                        MARKER NAME
1                                                           MARKER NUMBER
GEODETIC                                                    MARKER TYPE
Unige DICCA         GTER                                    OBSERVER / AGENCY
SC60291900056       SC600               2.12(191226)        REC # / TYPE / VERS
                    HEMA45          NONE                    ANT # / TYPE
  4509407.8091   693652.4678  4442337.6214                  APPROX POSITION XYZ
        0.0000        0.0000        0.0000                  ANTENNA: DELTA H/E/N
G    8 C1C L1C D1C S1C C2Y L2Y D2Y S2Y                      SYS / # / OBS TYPES
R    8 C1C L1C D1C S1C C2P L2P D2P S2P                      SYS / # / OBS TYPES
C    8 C1I L1I D1I S1I C7I L7I D7I S7I                      SYS / # / OBS TYPES
E    8 C1C L1C D1C S1C C7Q L7Q D7Q S7Q                      SYS / # / OBS TYPES
DBHZ                                                        COMMENT
     30.000                                                 INTERVAL
  2020    05    06    16    00    0.0000000     GPS         TIME OF FIRST OBS
  2020    05    06    16    59   30.0000000     GPS         TIME OF LAST OBS
     0                                                      RCV CLOCK OFFS APPL
G L1C  0.00000                                              SYS / PHASE SHIFT
G L2Y  0.00000                                              SYS / PHASE SHIFT
R L1C  0.00000                                              SYS / PHASE SHIFT
R L2P  0.25000                                              SYS / PHASE SHIFT
C L1I  0.00000                                              SYS / PHASE SHIFT
C L7I  0.00000                                              SYS / PHASE SHIFT
E L1C  0.50000                                              SYS / PHASE SHIFT
E L7Q -0.25000                                              SYS / PHASE SHIFT
 13 R01  1 R02 -4 R03  5 R07  5 R08  6 R10 -5 R12 -1 R13 -2 GLONASS SLOT / FRQ #
    R14 -7 R15  0 R17  4 R18 -3 R23  3                      GLONASS SLOT / FRQ #
 C1C   71.950 C2C   71.950 C2P   71.950                     GLONASS COD/PHS/BIS
    18                                                      LEAP SECONDS
*** Above antenna height is from mark to ANTENNA BOTTOM.    COMMENT
    17     4        0.0000        ANT MEASURE TYPE/HEIGT    COMMENT
    0.0000    0.0000    0.0458    0.0405    0.0000          COMMENT
                    BASE STATION                            COMMENT
                                                            END OF HEADER
> 2020 05 06 16 00  0.0000000  0 18        .000000000000
G10  21477772.555 8 112866542.676 8      1876.031          51.000    21477775.016 8  87947964.799 8      1461.843          51.000
G16  20766306.977 8 109127670.440 8     -1430.145          50.000    20766306.336 8  85034547.113 8     -1114.398          49.000
G20  21000228.398 7 110356975.350 7      -497.383          46.000    21000227.422 6  85992460.267 6      -387.574          40.000
G26  22218921.344 8 116761204.393 8     -3117.387          51.000    22218924.625 8  90982751.957 8     -2429.136          50.000
G27  20660342.133 5 108570829.857 5      1273.305          30.000
R02  21475471.258 7 114597243.213 7      2940.086          43.000    21475475.109 6  89131191.930 6      2286.730          36.000
R15  21252818.750 8 113568592.455 8     -3327.305          50.000    21252822.375 7  88331140.392 7     -2587.904          46.000
R17  19708249.570 6 105462819.937 6      -717.707          36.000    19708245.141 4  82026624.151 4      -558.217          28.000
C05  39613633.961 5 206278586.153 5        -4.129          35.000
C11  22063707.070 5 114891480.715 5       765.855          31.000    22063685.727 6  88841370.328 6       591.849          36.000
C12                                                                  22882448.703 6  92138235.483 6     -1324.769          39.000
C21  23469168.547 7 122210145.562 7      1388.043          42.000
C22  25120312.969 4 130808014.522 4     -1465.648          29.000
C25  24980383.750 6 130079461.387 6     -2777.719          41.000
E13                                                                  24571803.875 5  98940451.932 5      1162.664          32.000
E15  23263455.125 8 122250358.894 8      -683.891          51.000    23263458.461 8  93672370.329 8      -524.020          51.000
E27  24523263.148 8 128870600.433 8     -2011.395          51.000    24523265.391 8  98745009.457 8     -1541.130          51.000
E30                                                                  26530838.633 5 106828688.588 5     -2498.557          32.000
> 2020 05 06 16 00 30.0000000  0 16        .000000000000
G10  21467149.641 8 112810717.136 8      1853.660          51.000    21467152.195 8  87904464.420 8      1444.411          51.000
G16  20774563.055 8 109171055.774 8     -1454.277          51.000    20774561.773 8  85068353.851 8     -1133.203          48.000
G20  21003161.852 7 110372390.917 7      -522.504          43.000    21003160.461 6  86004472.347 6      -407.149          39.000
G26  22236786.016 8 116855080.691 8     -3133.402          51.000    22236787.984 8  91055902.273 8     -2441.615          51.000
G27  20653131.977 5 108532962.061 5      1257.000          32.000    20653128.359 5  84571097.214 5       979.477          33.000
R02  21459030.922 7 114509515.038 7      2916.363          42.000    21459034.641 5  89062958.901 5      2268.280          35.000
R15  21271585.680 8 113668875.183 8     -3350.035          50.000    21271589.430 7  88409138.019 7     -2605.583          46.000
R17  19712340.844 5 105484719.140 5      -734.195          35.000
C05  39613698.758 5 206278924.048 5       -10.449          35.000
C11                                                                  22059335.664 6  88823851.680 6       581.941          39.000
C12                                                                  22892373.555 6  92178201.995 6     -1333.695          41.000
C21  23461254.141 6 122168936.198 6      1367.215          39.000
C25  24996445.586 6 130163088.232 6     -2789.605          39.000
E13                                                                  24563192.031 4  98905796.691 4      1154.113          29.000
E15  23267415.078 8 122271168.925 8      -695.461          51.000    23267418.500 8  93688315.671 8      -532.954          51.000
E27  24534816.570 8 128931321.739 8     -2028.754          50.000    24534818.984 8  98791536.162 8     -1554.503          51.000
> 2020 05 06 16 01  0.0000000  0 15        .000000000000
G10  21456562.578 8 112755079.789 8      1844.504          51.000    21456565.094 8  87861110.684 8      1437.279          51.000
G16  20782865.352 8 109214683.610 8     -1465.309          50.000    20782863.555 8  85102349.563 8     -1141.799          48.000
G18  23315736.117 6 122525010.860 6     -3090.172          36.000
G20  21006146.094 7 110388074.668 7      -534.188          43.000    21006145.453 6  86016693.482 6      -416.250          39.000
G26  22254648.789 8 116948947.325 8     -3135.512          51.000    22254649.234 8  91129045.049 8     -2443.256          51.000
R02  21442632.836 6 114422012.686 6      2906.145          39.000    21442637.883 6  88994901.480 6      2260.335          36.000
R15  21290387.578 8 113769342.773 8     -3358.977          50.000    21290389.719 7  88487279.441 7     -2612.540          44.000
R17  19716428.648 6 105506603.236 6      -736.273          37.000    19716422.734 4  82060660.817 4      -572.657          27.000
R24  22669441.188 5 121223684.846 5     -2936.207          31.000    22669446.328 4  94285104.570 4     -2283.717          28.000
C11  22054963.250 5 114846001.424 5       753.254          32.000    22054964.938 5  88806256.431 5       582.633          35.000
C12  22902273.242 5 119258135.138 5     -1722.629          31.000    22902272.094 6  92218061.475 6     -1332.263          41.000
C21  23453368.320 6 122127879.441 6      1359.188          38.000
C25  25012484.555 6 130246593.369 6     -2788.215          38.000
E15  23271348.203 8 122291837.795 8      -693.527          51.000    23271351.398 8  93704152.838 8      -531.365          51.000
E27  24546376.672 8 128992077.695 8     -2032.801          49.000    24546379.406 8  98838089.408 8     -1557.508          51.000
> 2020 05 06 16 01 30.0000000  0 15        .000000000000
G10  21446097.117 8 112700081.958 8      1825.520          51.000    21446099.609 8  87818255.241 8      1422.483          51.000
G16  20791298.906 8 109259002.575 8     -1485.906          48.000    20791296.938 8  85136883.816 8     -1157.849          48.000
G18  23333405.188 6 122617856.162 6     -3096.262          39.000    23333405.539 5  95546382.603 5     -2412.690          33.000
G20  21009267.109 7 110404475.633 7      -555.641          42.000    21009266.250 5  86029473.363 5      -432.973          34.000
G26  22272594.625 8 117043251.448 8     -3147.879          50.000    22272594.023 8  91202528.693 8     -2452.896          50.000
R02  21426363.227 6 114335195.769 6      2885.367          37.000    21426370.148 5  88927377.276 5      2244.178          34.000
R15  21309308.648 8 113870447.831 8     -3377.730          51.000    21309309.195 7  88565916.636 7     -2627.127          44.000
R17  19720602.164 5 105528929.823 5      -748.262          31.000    19720599.086 4  82078030.790 4      -581.987          28.000
C05  39613740.141 5 206279139.364 5        -5.035          35.000
C11  22050660.258 5 114823593.757 5       743.789          33.000    22050659.273 5  88788929.243 5       575.444          34.000
C12  22912231.375 5 119309989.228 5     -1730.785          33.000    22912230.211 7  92258158.252 7     -1338.274          44.000
C21  23445597.117 6 122087422.170 6      1341.344          37.000
C25  25028585.070 6 130330419.633 6     -2796.652          38.000
E15  23275339.969 8 122312814.442 8      -701.426          51.000    23275342.906 8  93720225.841 8      -537.414          51.000
E27  24558029.805 8 129053316.351 8     -2046.402          50.000    24558032.891 8  98885012.525 8     -1567.957          51.000
> 2020 05 06 16 02  0.0000000  0 15        .000000000000
G10  21435723.984 8 112645571.031 8      1808.707          51.000    21435726.523 8  87775779.190 8      1409.379          51.000
G16  20799834.352 8 109303856.981 8     -1504.191          49.000    20799832.562 8  85171835.289 8     -1172.097          48.000
G18  23351088.516 6 122710779.666 6     -3098.844          39.000    23351089.508 5  95618790.568 5     -2414.680          32.000
G20  21012494.750 6 110421438.593 6      -575.219          41.000    21012495.164 6  86042691.207 6      -448.222          36.000
G26  22290593.516 7 117137836.205 7     -3157.438          47.000    22290593.352 7  91276231.024 7     -2460.344          47.000
R02  21410192.016 5 114248911.836 5      2866.773          34.000    21410199.734 4  88860267.674 4      2229.713          27.000
R15  21328317.984 8 113972028.919 8     -3394.129          49.000    21328318.031 7  88644924.106 7     -2639.881          44.000
R24  22702451.305 5 121400209.360 5     -2943.406          33.000
C05  39613772.742 5 206279309.365 5        -5.625          35.000
C11  22046392.445 5 114801380.135 5       737.344          30.000    22046392.656 5  88771752.330 5       569.557          33.000
C12  22922219.008 5 119361997.043 5     -1736.418          34.000    22922218.383 7  92298373.953 7     -1342.594          44.000
C21  23437911.641 5 122047412.949 5      1325.551          33.000
C25  25044716.172 6 130414411.527 6     -2802.547          40.000
E15  23279360.805 8 122333943.980 8      -707.066          51.000    23279363.672 8  93736416.002 8      -541.760          51.000
E27  24569745.930 8 129114881.955 8     -2057.840          51.000    24569749.609 8  98932186.152 8     -1576.768          51.000
> 2020 05 06 16 02 30.0000000  0 16        .000000000000
G10  21425449.445 8 112591580.461 8      1791.258          51.000    21425452.453 8  87733708.612 8      1395.782          51.000
G16  20808477.570 8 109349277.200 8     -1523.082          50.000    20808476.195 8  85207227.657 8     -1186.817          48.000
G18  23368791.359 5 122803811.540 5     -3102.848          35.000    23368793.000 5  95691282.947 5     -2417.800          33.000
G20  21015835.461 5 110438994.647 5      -595.109          35.000    21015837.375 5  86056371.158 5      -463.725          35.000
G26  22308650.703 7 117232730.920 7     -3167.945          44.000    22308652.445 7  91350174.905 7     -2468.532          45.000
G27  20624815.031 5 108384138.109 5      1216.574          33.000    20624817.984 5  84455199.229 5       947.980          32.000
R02  21394129.438 6 114163197.372 6      2847.789          37.000    21394136.344 5  88793600.903 5      2214.953          32.000
R15  21347421.289 8 114074114.146 8     -3410.828          50.000    21347422.375 7  88724323.648 7     -2652.869          45.000
R17  19729105.414 6 105574438.830 6      -769.180          36.000    19729111.266 4  82113470.980 4      -598.251          29.000
C05  39613809.688 5 206279501.302 5        -6.055          35.000
C11  22042168.383 5 114779392.408 5       729.680          31.000    22042169.344 5  88754750.115 5       564.062          32.000
C12  22932242.992 5 119414189.737 5     -1741.953          34.000    22932241.586 7  92338732.694 7     -1347.366          43.000
C21  23430319.281 5 122007884.419 5      1309.965          35.000
C25  25060883.070 6 130498597.919 6     -2809.176          39.000
E15  23283416.516 8 122355257.547 8      -713.137          51.000    23283419.547 8  93752747.177 8      -546.465          51.000
E27  24581530.258 8 129176804.737 8     -2069.711          51.000    24581534.336 8  98979633.457 8     -1585.855          51.000
> 2020 05 06 16 03  0.0000000  0 18        .000000000000
G10  21415266.625 8 112538071.460 8      1773.730          51.000    21415270.211 8  87692013.280 8      1382.128          51.000
G16  20817220.539 8 109395221.518 8     -1542.145          50.000    20817219.578 8  85243028.425 8     -1201.671          50.000
G18  23386506.133 5 122896909.907 5     -3106.152          33.000
G20  21019280.609 6 110457102.419 6      -614.586          37.000    21019283.102 5  86070481.102 5      -478.895          31.000
G26  22326757.492 6 117327892.541 6     -3178.156          41.000    22326762.547 6  91424326.847 6     -2476.482          41.000
G27  20617895.172 5 108347784.100 5      1204.969          33.000
R02  21378166.266 6 114078015.362 6      2828.305          36.000    21378172.039 5  88727348.311 5      2199.789          30.000
R15  21366610.984 8 114176658.044 8     -3427.703          50.000    21366613.438 7  88804079.992 7     -2665.994          47.000
R17  19733445.227 6 105597640.897 6      -779.586          38.000    19733445.867 4  82131516.484 4      -606.342          29.000
C05  39613843.148 5 206279676.632 5        -7.465          35.000
C11  22037981.328 5 114757590.882 5       721.203          31.000    22037982.094 5  88737891.729 5       557.882          32.000
C12  22942293.656 5 119466527.304 5     -1748.902          34.000    22942292.023 7  92379203.383 7     -1352.211          43.000
C21  23422813.883 6 121968797.991 6      1293.668          37.000
C22  25172588.375 5 131080270.557 5     -1558.359          32.000
C25  25077078.273 6 130582936.269 6     -2815.676          38.000
E13  24520410.234 6 128855647.596 6      1483.199          36.000
E15  23287499.305 8 122376714.098 8      -719.457          51.000    23287502.555 8  93769187.907 8      -551.245          51.000
E27  24593374.586 8 129239042.747 8     -2081.684          51.000    24593378.766 8  99027322.306 8     -1595.029          51.000
> 2020 05 06 16 03 30.0000000  0 19        .000000000000
G10  21405188.078 8 112485108.534 8      1757.125          51.000    21405191.531 8  87650743.478 8      1369.188          51.000
G16  20826074.984 8 109441751.719 8     -1559.961          51.000    20826074.414 8  85279285.704 8     -1215.554          50.000
G18  23404246.000 6 122990136.007 6     -3109.031          37.000
G20  21022843.125 6 110475823.984 6      -633.652          38.000    21022845.852 5  86085069.214 5      -493.761          34.000
G26  22344927.273 7 117423381.585 7     -3187.520          43.000    22344934.828 7  91498733.907 7     -2483.781          43.000
R02  21362316.812 5 113993433.348 5      2809.879          35.000    21362321.828 5  88661562.386 5      2185.455          32.000
R15  21385897.773 8 114279719.970 8     -3443.199          51.000    21385900.969 7  88884239.232 7     -2678.044          47.000
R17  19737847.883 6 105621181.115 6      -789.445          39.000    19737846.781 5  82149825.519 5      -614.013          31.000
R18  20827732.453 4 111179851.163 4      1960.816          29.000
R24  22752055.258 5 121665482.368 5     -2952.395          32.000    22752064.336 5  94628719.987 5     -2296.310          30.000
C05  39613884.977 5 206279893.969 5        -6.941          35.000
C11  22033841.938 5 114736037.774 5       715.309          30.000    22033842.570 5  88721153.453 5       553.152          30.000
C12  22952384.406 5 119519071.729 5     -1754.309          34.000    22952382.547 7  92419834.038 7     -1356.410          44.000
C21  23415406.344 6 121930217.363 6      1278.574          38.000
C22  25181606.578 4 131127236.584 4     -1572.117          28.000
C25  25093313.500 6 130667486.258 6     -2821.250          38.000
E13  24511959.039 6 128811223.217 6      1478.402          37.000    24511960.328 5  98699494.293 5      1132.907          35.000
E15  23291621.219 8 122398375.903 8      -724.664          51.000    23291624.453 8  93785785.914 8      -555.322          51.000
E27  24605290.094 8 129301657.323 8     -2092.656          51.000    24605294.383 8  99075299.705 8     -1603.464          51.000
> 2020 05 06 16 04  0.0000000  0 18        .000000000000
G10  21395206.789 8 112432655.269 8      1741.273          51.000    21395209.719 8  87609870.812 8      1356.836          51.000
G16  20835033.227 8 109488828.033 8     -1576.863          50.000    20835033.008 8  85315968.522 8     -1228.725          49.000
G18  23422003.281 6 123083450.223 6     -3110.461          39.000
G20  21026514.500 4 110495120.166 4      -651.621          29.000    21026516.891 4  86100105.137 4      -507.757          29.000
G26  22363153.039 7 117519157.498 7     -3195.695          46.000    22363160.797 7  91573364.481 7     -2490.152          46.000
G27  20604280.430 5 108276206.611 5      1184.203          33.000
R02  21346582.320 4 113909475.343 4      2792.238          28.000    21346577.016 4  88596236.697 4      2171.729          28.000
R15  21405273.617 8 114383256.856 8     -3457.715          51.000    21405276.898 7  88964767.891 7     -2689.337          47.000
R17  19742305.125 6 105645020.390 6      -798.215          37.000    19742304.328 5  82168367.192 5      -620.837          31.000
R24  22768628.055 5 121754094.837 5     -2953.391          30.000    22768628.742 4  94697626.853 4     -2297.085          25.000
C05  39613927.914 5 206280117.058 5        -5.613          35.000
C11  22029743.922 5 114714695.888 5       708.984          31.000    22029743.508 5  88704650.445 5       548.627          32.000
C12  22962508.148 5 119571784.816 5     -1758.348          30.000    22962505.688 7  92460595.190 7     -1359.811          43.000
C21  23408087.898 6 121892106.190 6      1263.648          37.000
C25  25109580.312 6 130752207.502 6     -2825.445          40.000
E13  24503535.625 5 128766958.812 5      1474.207          35.000    24503536.906 5  98665577.407 5      1129.444          34.000
E15  23295775.031 8 122420204.304 8      -729.090          51.000    23295777.977 8  93802511.566 8      -558.635          51.000
E27  24617268.852 8 129364608.915 8     -2102.680          51.000    24617273.375 8  99123535.326 8     -1611.168          51.000
> 2020 05 06 16 04 30.0000000  0 16        .000000000000
G10  21385316.703 8 112380682.103 8      1724.070          51.000    21385319.461 8  87569372.297 8      1343.434          51.000
G16  20844088.961 8 109536418.191 8     -1595.316          50.000    20844089.180 8  85353051.720 8     -1243.107          50.000
G18  23439771.219 5 123176820.016 5     -3113.418          35.000
G20  21030289.273 5 110514917.991 5      -670.613          34.000    21030291.625 5  86115563.900 5      -522.562          33.000
G26  22381427.484 7 117615186.685 7     -3205.641          47.000    22381434.445 7  91648192.382 7     -2497.905          47.000
R15  21424731.016 8 114487232.674 8     -3473.531          51.000    21424734.391 7  89045637.912 7     -2701.638          46.000
R17  19746809.992 6 105669126.241 6      -808.238          36.000    19746808.406 4  82187116.102 4      -628.636          26.000
R24  22785211.797 5 121842735.020 5     -2955.312          33.000
C05  39613966.273 5 206280316.635 5        -6.504          35.000
C11  22025680.156 5 114693495.470 5       701.910          30.000    22025679.930 5  88688287.156 5       542.819          34.000
C12  22972656.172 4 119624655.949 4     -1763.922          28.000    22972654.812 7  92501462.989 7     -1364.239          42.000
C21  23400852.688 5 121854434.937 5      1247.863          35.000
C25  25125872.523 6 130837066.632 6     -2831.203          40.000
E13                                                                  24495135.031 5  98631760.006 5      1125.558          31.000
E15  23299954.672 8 122442167.586 8      -734.754          51.000    23299957.297 8  93819340.576 8      -562.966          51.000
E27  24629305.188 8 129427864.849 8     -2113.988          51.000    24629309.625 8  99172004.144 8     -1619.761          51.000
> 2020 05 06 16 05  0.0000000  0 16        .000000000000
G10  21375524.383 8 112329222.499 8      1707.980          51.000    21375527.102 8  87529273.975 8      1330.897          51.000
G16  20853248.680 8 109584552.930 8     -1612.422          51.000    20853248.734 8  85390559.285 8     -1256.433          50.000
G18  23457555.195 4 123270275.695 4     -3114.953          29.000    23457557.078 5  96054774.889 5     -2427.236          31.000
G20  21034173.625 5 110535330.586 5      -689.152          34.000    21034175.594 5  86131469.707 5      -537.005          34.000
G26  22399755.836 8 117711498.401 8     -3213.887          49.000    22399761.469 8  91723240.411 8     -2504.330          49.000
R02  21315394.875 4 113743016.707 4      2755.492          29.000    21315395.117 4  88466795.713 4      2143.164          28.000
R15  21444276.062 8 114591675.140 8     -3487.906          51.000    21444278.758 7  89126870.894 7     -2712.816          46.000
R17  19751371.977 6 105693530.682 6      -817.449          37.000    19751367.344 4  82206098.251 4      -635.794          25.000
C05  39614005.836 5 206280523.018 5        -5.637          35.000
C11  22021657.688 5 114672546.373 5       695.000          30.000    22021658.094 5  88672087.975 5       538.152          32.000
C12  22982843.500 5 119677668.212 5     -1769.289          34.000    22982836.586 7  92542461.568 7     -1367.852          42.000
C21  23393709.086 6 121817236.405 6      1232.977          37.000
C22  25209163.578 5 131270709.666 5     -1615.324          31.000
C25  25142196.992 6 130922092.641 6     -2835.848          40.000
E15  23304165.898 8 122464296.982 8      -739.242          51.000    23304168.523 8  93836296.862 8      -566.408          51.000
E27  24641405.727 8 129491455.433 8     -2124.090          51.000    24641409.070 8  99220729.349 8     -1627.522          50.000
> 2020 05 06 16 05 30.0000000  0 16        .000000000000
G10  21365825.000 8 112278251.165 8      1691.152          51.000    21365827.547 8  87489556.104 8      1317.781          51.000
G16  20862506.711 8 109633203.497 8     -1630.137          51.000    20862506.547 8  85428468.802 8     -1270.239          50.000
G20  21038161.945 6 110556288.725 6      -707.539          36.000    21038163.000 6  86147800.692 6      -551.332          36.000
G21  23506086.469 6 123525299.900 6     -2568.777          38.000
G26  22418132.227 8 117808063.224 8     -3222.836          48.000    22418136.219 8  91798485.673 8     -2511.301          49.000
R02  21299959.781 5 113660663.755 5      2735.465          35.000    21299962.773 5  88402742.466 5      2127.587          33.000
R15  21463902.391 8 114696552.764 8     -3502.859          51.000    21463905.148 7  89208442.317 7     -2724.446          46.000
R17  19755983.133 5 105718205.903 5      -826.656          35.000    19755980.344 4  82225290.083 4      -642.955          28.000
C05  39614041.625 5 206280709.557 5        -5.168          35.000
C11  22017671.180 5 114651783.220 5       689.289          33.000    22017671.625 5  88656032.718 5       532.818          35.000
C12  22993059.297 5 119730830.637 5     -1774.141          33.000    22993045.977 7  92583570.223 7     -1372.086          42.000
C21  23386651.680 6 121780485.146 6      1217.656          40.000
C22  25218515.883 6 131319403.606 6     -1629.816          37.000
C25  25158548.586 6 131007256.261 6     -2840.613          38.000
E15  23308403.367 8 122486565.007 8      -744.430          51.000    23308406.367 8  93853359.377 8      -570.344          51.000
E27  24653565.523 8 129555352.246 8     -2134.781          51.000    24653566.852 8  99269689.168 8     -1635.718          49.000
> 2020 05 06 16 06  0.0000000  0 18        .000000000000
G10  21356221.328 8 112227784.227 8      1673.188          51.000    21356223.875 8  87450231.256 8      1303.782          51.000
G16  20871865.367 8 109682383.283 8     -1648.758          51.000    20871864.945 8  85466790.667 8     -1284.749          50.000
G20  21042257.109 6 110577806.476 6      -727.371          39.000    21042257.492 6  86164567.736 6      -566.783          39.000
G21  23520756.781 5 123602387.557 5     -2571.043          35.000
G26  22436558.820 8 117904893.252 8     -3232.504          48.000    22436561.578 8  91873937.593 8     -2518.837          48.000
R02  21284637.703 6 113578880.417 6      2715.953          41.000    21284638.930 5  88339133.250 5      2112.411          35.000
R15  21483612.008 8 114801875.812 8     -3518.867          51.000    21483615.430 7  89290360.199 7     -2736.897          47.000
R17  19760646.516 6 105743166.342 6      -837.461          36.000    19760645.359 4  82244703.751 4      -651.359          28.000
R18  20773148.500 5 110888491.745 5      1923.750          31.000
R24  22835007.086 4 122109044.100 4     -2962.109          29.000    22835014.773 4  94973733.100 4     -2303.863          28.000
C05  39614076.312 5 206280890.662 5        -6.223          35.000
C11  22013723.797 5 114631220.898 5       681.734          32.000    22013723.062 5  88640132.656 5       527.042          31.000
C12                                                                  23003285.258 7  92624799.981 7     -1376.934          42.000
C21  23379683.578 6 121744196.967 6      1201.336          39.000
C22  25227950.422 6 131368528.299 6     -1645.422          38.000
C25  25174927.812 5 131092569.364 5     -2846.824          34.000
E15  23312669.750 8 122508985.675 8      -750.484          51.000    23312673.250 8  93870538.860 8      -575.067          51.000
E27  24665786.477 8 129619568.287 8     -2146.449          51.000    24665786.406 8  99318893.596 8     -1644.676          49.000
> 2020 05 06 16 06 30.0000000  0 15        .000000000000
G10  21346769.992 8 112178120.341 8      1648.055          48.000    21346773.062 8  87411532.121 8      1284.195          48.000
G16  20881381.336 8 109732388.273 8     -1674.512          51.000    20881380.328 8  85505755.570 8     -1304.817          49.000
G20  21046515.109 6 110600179.664 6      -754.074          38.000    21046514.977 6  86182001.377 6      -587.593          38.000
G26  22455091.516 8 118002282.997 8     -3249.625          48.000    22455093.773 8  91949825.670 8     -2532.175          48.000
R02  21269474.102 7 113497972.548 7      2688.480          42.000    21269476.508 5  88276205.049 5      2091.040          32.000
R15  21503460.648 8 114907941.772 8     -3541.652          50.000    21503464.844 7  89372855.911 7     -2754.622          47.000
R17  19765420.742 6 105768713.947 6      -855.199          37.000    19765417.320 4  82264574.027 4      -665.155          29.000
C05  39614166.750 5 206281360.630 5       -14.441          35.000
C11  22009869.688 5 114611153.970 5       666.855          31.000    22009868.945 4  88624621.564 4       515.836          29.000
C12                                                                  23013611.242 7  92666378.103 7     -1387.168          42.000
C21  23372861.492 6 121708667.473 6      1177.445          39.000
C22  25237524.180 6 131418376.548 6     -1667.719          38.000
C25  25191390.547 5 131178323.665 5     -2860.145          30.000
E15  23317021.633 8 122531855.449 8      -763.789          51.000    23317025.328 8  93888062.449 8      -585.223          51.000
E27  24678124.422 8 129684399.051 8     -2165.285          51.000    24678123.883 8  99368569.058 8     -1659.115          51.000
> 2020 05 06 16 07  0.0000000  0 15        .000000000000
G10  21337340.250 8 112128571.964 8      1657.047          48.000    21337344.305 8  87372922.946 8      1291.202          48.000
G16  20890922.922 8 109782527.814 8     -1666.160          51.000    20890921.555 8  85544825.314 8     -1298.307          49.000
G20  21050804.391 6 110622718.103 6      -747.066          39.000    21050802.992 6  86199563.757 6      -582.133          38.000
G26  22473598.969 8 118099540.840 8     -3232.301          48.000    22473601.453 8  92025610.959 8     -2518.676          48.000
R02  21254344.648 6 113417243.223 6      2695.230          40.000    21254344.930 5  88213415.530 5      2096.290          33.000
R15  21523316.250 8 115014045.418 8     -3529.801          49.000    21523320.969 7  89455380.920 7     -2745.401          46.000
R17  19770173.766 6 105794146.457 6      -838.105          39.000    19770170.406 5  82284354.846 5      -651.860          31.000
R24  22868305.078 5 122287107.948 5     -2948.766          35.000    22868312.742 4  95112223.200 4     -2293.484          24.000
C11  22005979.188 5 114590899.710 5       685.859          32.000    22005978.164 5  88608959.634 5       529.752          31.000
C12  23023902.852 5 119891504.901 5     -1773.648          30.000    23023892.266 6  92707776.737 6     -1371.150          41.000
C21  23366053.414 6 121673215.095 6      1187.805          38.000
C22  25247104.633 6 131468264.077 6     -1656.273          38.000
C25  25207812.555 5 131263688.720 5     -2839.219          32.000
E15  23321327.727 8 122554484.650 8      -742.852          51.000    23321331.359 8  93905401.695 8      -569.153          51.000
E27  24690447.289 8 129749153.836 8     -2149.719          51.000    24690447.430 8  99418186.323 8     -1647.208          51.000
> 2020 05 06 16 07 30.0000000  0 17        .000000000000
G10  21328000.242 8 112079490.792 8      1622.039          51.000    21328004.352 8  87334677.895 8      1263.927          51.000
G16  20900556.211 8 109833150.104 8     -1701.672          51.000    20900554.688 8  85584271.243 8     -1325.978          49.000
G20  21055191.422 6 110645771.138 6      -783.156          39.000    21055190.039 6  86217527.107 6      -610.255          37.000
G26  22492147.594 8 118197014.620 8     -3258.859          49.000    22492150.820 8  92101564.521 8     -2539.371          48.000
R02  21239316.984 6 113337052.889 6      2657.543          41.000    21239321.055 6  88151045.420 6      2066.981          37.000
R15  21543244.711 8 115120538.605 8     -3562.520          48.000    21543249.289 7  89538208.922 7     -2770.849          44.000
R17  19774970.500 6 105819820.285 6      -866.359          38.000    19774969.508 5  82304323.414 5      -673.835          32.000
R24  22884928.359 6 122375971.439 6     -2969.117          37.000
C05  39614186.805 5 206281465.492 5        -6.180          35.000
C11  22002119.320 5 114570805.726 5       660.691          34.000    22002119.047 5  88593421.595 5       511.115          33.000
C12  23034205.680 5 119945156.511 5     -1796.211          30.000    23034195.852 7  92749264.007 7     -1389.156          43.000
C21  23359327.180 6 121638188.234 6      1154.266          40.000
C22  25256758.656 6 131518536.384 6     -1688.430          38.000
C25  25224255.070 6 131349299.333 6     -2861.863          36.000
E13  24445348.750 5 128461174.081 5      1438.832          33.000
E15  23325654.695 8 122577223.078 8      -765.938          51.000    23325658.141 8  93922824.635 8      -586.917          51.000
E27  24702820.875 8 129814181.436 8     -2178.316          50.000    24702823.211 8  99468012.650 8     -1669.064          51.000
> 2020 05 06 16 08  0.0000000  0 16        .000000000000
G10  21318842.336 8 112031363.918 8      1599.984          51.000    21318846.086 8  87297176.482 8      1246.744          51.000
G16  20910373.391 8 109884739.796 8     -1724.031          51.000    20910371.945 8  85624470.989 8     -1343.401          49.000
G20  21059768.391 5 110669823.463 5      -806.789          35.000    21059767.391 5  86236269.175 5      -628.670          35.000
G26  22510829.281 8 118295187.412 8     -3272.438          49.000    22510833.344 8  92178062.761 8     -2549.951          49.000
R02  21224482.422 5 113257898.554 5      2632.957          34.000    21224488.234 5  88089480.984 5      2047.855          35.000
R15  21563337.133 7 115227910.627 7     -3581.914          46.000    21563341.727 7  89621720.446 7     -2785.936          42.000
R17  19779903.758 6 105846229.191 6      -880.469          37.000    19779905.672 5  82324863.660 5      -684.809          31.000
C05  39614275.773 5 206281928.600 5       -11.176          35.000
C11  21998384.016 6 114551353.257 6       649.305          37.000    21998383.750 6  88578379.767 6       502.434          36.000
C12                                                                  23044614.273 6  92791211.897 6     -1396.900          41.000
C21  23352774.992 6 121604069.218 6      1133.449          39.000
C22  25266578.906 6 131569673.097 6     -1707.547          37.000
C25  25240808.805 6 131435488.949 6     -2871.133          40.000
E13  24437204.242 5 128418378.073 5      1428.637          33.000
E15  23330094.758 8 122600555.715 8      -775.910          51.000    23330098.133 8  93940702.869 8      -594.535          51.000
E27  24715337.633 8 129879965.838 8     -2193.676          48.000    24715342.797 8  99518418.882 8     -1680.856          51.000
> 2020 05 06 16 08 30.0000000  0 15        .000000000000
G10  21309692.094 8 111983276.669 8      1597.734          51.000    21309695.273 8  87259705.949 8      1244.988          51.000
G16  20920199.906 8 109936379.310 8     -1726.574          51.000    20920198.578 8  85664709.559 8     -1345.383          49.000
G18  23582437.375 5 123926535.845 5     -3122.496          32.000
G26  22529469.250 8 118393140.442 8     -3265.977          50.000    22529473.938 8  92254389.765 8     -2544.920          50.000
R15  21583419.531 7 115335225.379 7     -3580.691          47.000    21583423.516 7  89705187.428 7     -2784.985          42.000
R17  19784799.133 5 105872439.922 5      -875.000          34.000    19784803.742 4  82345249.769 4      -680.553          27.000
C05  39614273.852 5 206281917.975 5         3.930          35.000
C11  21994598.211 6 114531635.015 6       657.410          39.000    21994597.461 6  88563132.444 6       508.191          36.000
C12                                                                  23054972.258 6  92832918.246 6     -1389.781          40.000
C21  23346222.062 6 121569951.260 6      1132.867          38.000
C22  25276391.438 6 131620764.755 6     -1706.762          38.000
C25  25257298.812 6 131521347.123 6     -2860.902          41.000
E13  24428994.070 5 128375236.118 5      1439.062          33.000
E15  23334473.430 8 122623565.804 8      -766.090          51.000    23334476.906 8  93958333.967 8      -587.049          51.000
E27  24727823.664 8 129945589.227 8     -2189.176          48.000    24727831.164 8  99568701.760 8     -1677.444          51.000
> 2020 05 06 16 09  0.0000000  0 15        .000000000000
G10  21300680.664 8 111935919.449 8      1566.453          51.000    21300683.539 8  87222804.277 8      1220.616          51.000
G16  20930166.555 8 109988755.846 8     -1758.105          51.000    20930165.562 8  85705522.408 8     -1369.952          50.000
G26  22548198.148 8 118491560.133 8     -3288.297          51.000    22548203.086 8  92331080.402 8     -2562.309          51.000
R15  21603621.898 7 115443178.857 7     -3608.973          47.000    21603625.047 6  89789151.163 6     -2806.982          41.000
R17  19789789.000 5 105899153.867 5      -898.648          35.000
R24  22934957.867 5 122643574.119 5     -2979.902          30.000    22934970.359 5  95389461.333 5     -2317.702          31.000
C05  39614312.039 5 206282117.275 5       -10.094          35.000
C11  21990892.305 6 114512333.788 6       636.371          38.000    21990891.789 6  88548207.531 6       492.203          39.000
C12  23065415.938 5 120107616.622 5     -1816.496          30.000    23065401.016 6  92874910.759 6     -1404.542          41.000
C21  23339801.422 6 121536518.471 6      1103.094          39.000
C22  25286325.930 6 131672492.591 6     -1734.918          39.000
C25  25273855.383 6 131607554.042 6     -2879.277          41.000
E13  24420853.555 5 128332451.315 5      1419.480          34.000
E15  23338921.773 8 122646941.747 8      -785.293          51.000    23338925.453 8  93976245.387 8      -601.706          51.000
E27  24740410.828 8 130011738.982 8     -2213.723          50.000    24740419.289 8  99619387.970 8     -1696.202          51.000
> 2020 05 06 16 09 30.0000000  0 16        .000000000000
G10  21291797.398 8 111889236.659 8      1562.797          51.000    21291800.172 8  87186428.117 8      1217.767          51.000
G16  20940262.570 8 110041810.933 8     -1761.766          51.000    20940261.797 8  85746864.004 8     -1372.804          50.000
G26  22567004.617 8 118590386.905 8     -3282.902          51.000    22567008.977 8  92408088.228 8     -2558.109          51.000
G27  20533823.109 5 107905963.287 5      1070.148          34.000    20533825.773 5  84082568.717 5       833.879          34.000
R02  21180484.719 5 113023163.359 5      2588.125          35.000    21180486.430 4  87906880.093 4      2012.971          27.000
R15  21623931.789 7 115551708.459 7     -3608.926          46.000    21623934.750 6  89873562.993 6     -2806.942          41.000
R17  19794863.156 6 105926312.092 6      -894.242          37.000
R24  22951698.695 5 122733040.650 5     -2967.480          34.000    22951698.289 5  95459033.121 5     -2308.043          32.000
C05  39614379.453 5 206282467.842 5         3.988          35.000
C11  21987254.539 6 114493393.454 6       643.082          37.000    21987255.594 6  88533561.667 6       497.227          37.000
C12  23075892.109 5 120162235.475 5     -1808.371          30.000    23075889.711 6  92917145.615 6     -1398.039          39.000
C21  23333502.156 6 121503715.385 6      1100.887          41.000
C22  25296371.266 6 131724798.350 6     -1735.117          40.000
C25  25290466.461 6 131694050.533 6     -2869.938          37.000
E15  23343428.844 8 122670625.932 8      -776.566          51.000    23343432.734 8  93994393.002 8      -595.013          51.000
E27  24753088.297 8 130078356.500 8     -2210.352          51.000    24753095.984 8  99670432.567 8     -1693.616          51.000
> 2020 05 06 16 10  0.0000000  0 17        .000000000000
G10  21283002.781 8 111843020.614 8      1535.707          51.000    21283005.586 8  87150415.620 8      1196.655          51.000
G16  20950447.680 8 110095334.003 8     -1788.930          51.000    20950446.961 8  85788570.271 8     -1393.971          50.000
G20  21078946.109 6 110770606.964 6      -876.012          37.000    21078943.758 6  86314746.155 6      -682.607          36.000
G26  22585848.219 8 118689409.121 8     -3300.949          51.000    22585851.578 8  92485248.322 8     -2572.171          51.000
G27  20527824.734 6 107874439.151 6      1049.062          36.000    20527826.602 6  84058004.453 6       817.451          36.000
R02  21166088.695 5 112946239.437 5      2557.746          33.000    21166079.664 5  87847049.806 5      1989.358          32.000
R15  21644308.820 7 115660597.131 7     -3632.539          45.000    21644312.516 7  89958254.126 7     -2825.311          42.000
R17  19799981.914 6 105953701.214 6      -913.910          40.000    19799991.984 4  82408483.019 4      -710.819          26.000
R24  22968427.383 5 122822490.081 5     -2979.680          32.000    22968435.195 4  95528632.774 4     -2317.526          27.000
C05  39614436.266 5 206282764.981 5        -6.211          35.000
C11  21983645.805 6 114474606.963 6       626.480          36.000    21983648.062 6  88519034.723 6       484.643          38.000
C12                                                                  23086399.383 6  92959462.421 6     -1409.741          40.000
C21  23327284.375 7 121471335.847 7      1075.137          42.000
C22  25306487.242 6 131777473.300 6     -1758.910          39.000
C25  25307091.164 5 131780626.882 5     -2885.047          33.000
E15  23347954.648 8 122694408.696 8      -791.461          51.000    23347958.641 8  94012616.161 8      -606.459          51.000
E27  24765815.398 8 130145231.027 8     -2230.449          51.000    24765820.898 8  99721674.070 8     -1709.096          51.000
> 2020 05 06 16 10 30.0000000  0 17        .000000000000
G10  21274285.094 8 111797209.108 8      1519.605          51.000    21274287.898 8  87114718.337 8      1184.108          51.000
G16  20960709.398 8 110149259.891 8     -1804.883          51.000    20960708.758 8  85830590.405 8     -1406.402          49.000
G20  21083997.547 6 110797160.209 6      -892.914          38.000    21083997.148 6  86335437.069 6      -695.774          38.000
G26  22604716.242 8 118788560.610 8     -3307.836          51.000    22604718.789 8  92562509.138 8     -2577.538          51.000
G27  20521869.430 6 107843141.042 6      1038.992          36.000    20521869.867 6  84033616.312 6       809.604          36.000
R02  21151767.508 6 112869804.516 6      2538.922          37.000    21151756.297 5  87787600.559 5      1974.717          33.000
R15  21664740.945 7 115769775.732 7     -3644.762          47.000    21664744.500 7  90043170.756 7     -2834.815          42.000
R17  19805131.578 6 105981256.270 6      -921.816          38.000    19805138.406 4  82429914.678 4      -716.971          29.000
R24  22985151.594 5 122911915.660 5     -2980.535          31.000    22985150.586 4  95598154.323 4     -2318.194          28.000
C05  39614470.281 5 206282941.052 5        -4.590          35.000
C11  21980054.945 5 114455911.683 5       621.129          35.000    21980057.430 6  88504578.396 6       480.166          39.000
C12                                                                  23096917.969 6  93001812.265 6     -1412.619          39.000
C21  23321136.148 7 121439318.013 7      1060.430          43.000
C22  25316661.055 6 131830452.827 6     -1771.320          38.000
E13  24396663.844 5 128205332.400 5      1409.602          34.000
E15  23352487.008 8 122718225.861 8      -795.113          51.000    23352490.836 8  94030865.661 8      -609.228          51.000
E27  24778578.945 8 130212297.352 8     -2239.352          51.000    24778581.305 8  99773062.482 8     -1715.813          50.000
> 2020 05 06 16 11  0.0000000  0 15        .000000000000
G10  21265677.977 8 111751978.287 8      1494.594          51.000    21265680.812 8  87079473.539 8      1164.619          51.000
G16  20971080.742 8 110203761.681 8     -1829.738          51.000    20971080.242 8  85873059.322 8     -1425.770          48.000
G20  21089165.742 7 110824323.567 7      -919.027          42.000    21089165.883 6  86356603.292 6      -716.125          39.000
G26  22623641.352 8 118888013.631 8     -3323.465          49.000    22623644.008 8  92640004.934 8     -2589.716          49.000
G27  20515990.297 6 107812244.821 6      1019.566          37.000    20515991.117 6  84009541.321 6       794.464          38.000
R02  21137566.500 6 112794039.626 6      2510.766          38.000    21137558.461 5  87728672.384 5      1952.821          33.000
R15  21685260.320 7 115879417.439 7     -3665.750          47.000    21685262.945 7  90128447.591 7     -2851.142          42.000
R17  19810344.875 6 106009154.644 6      -939.199          40.000    19810351.852 5  82451613.462 5      -730.488          33.000
C05  39614514.891 5 206283173.774 5       -11.996          35.000
C11  21976515.648 6 114437481.188 6       606.531          37.000    21976517.852 6  88490326.747 6       468.990          39.000
C12  23107480.688 5 120326693.767 5     -1839.734          33.000    23107477.625 6  93044328.977 6     -1422.542          37.000
C21  23315090.695 7 121407836.226 7      1037.039          42.000
C22  25326925.891 5 131883908.422 5     -1792.910          35.000
E15  23357059.078 8 122742251.714 8      -807.699          51.000    23357062.625 8  94049275.077 8      -618.886          51.000
E27  24791411.398 8 130279728.635 8     -2257.180          51.000    24791410.875 8  99824730.534 8     -1729.557          49.000
> 2020 05 06 16 11 30.0000000  0 17        .000000000000
G10  21257166.805 8 111707251.633 8      1482.266          51.000    21257169.523 8  87044621.591 8      1155.012          51.000
G16  20981546.453 8 110258759.940 8     -1841.812          50.000    20981546.117 8  85915915.101 8     -1435.179          49.000
G20  21094435.656 7 110852018.186 7      -932.332          42.000    21094435.898 6  86378183.489 6      -726.492          39.000
G26  22642608.266 8 118987687.703 8     -3326.422          48.000    22642611.625 8  92717672.997 8     -2592.017          48.000
G27  20510172.922 6 107781673.701 6      1013.562          37.000    20510173.344 6  83985719.673 6       789.795          37.000
R02  21123476.938 6 112718869.711 6      2495.281          41.000    21123470.516 6  87670206.907 6      1940.777          37.000
R15  21705849.750 7 115989438.581 7     -3673.781          42.000    21705852.547 7  90214019.525 7     -2857.388          43.000
R17  19815607.523 6 106037316.666 6      -943.328          40.000    19815615.984 5  82473517.233 5      -733.700          34.000
R24  23018642.461 4 123091025.188 4     -2986.848          29.000    23018641.336 5  95737459.650 5     -2323.104          31.000
C05  39614555.359 5 206283384.407 5        -7.059          35.000
C11  21973012.695 6 114419238.600 6       604.500          37.000    21973014.336 6  88476220.402 6       467.704          39.000
C12  23118069.578 5 120381854.133 5     -1840.004          30.000    23118062.812 6  93086952.794 6     -1422.732          36.000
C21  23309133.102 7 121376814.327 7      1026.168          43.000
C22  25337266.492 5 131937761.274 5     -1802.211          33.000
C25  25357077.859 4 132040960.626 4     -2897.336          29.000
E15  23361656.000 8 122766407.832 8      -807.598          51.000    23361659.297 8  94067784.302 8      -618.734          51.000
E27  24804297.617 8 130347445.325 8     -2262.172          51.000    24804295.656 8  99876617.269 8     -1733.299          49.000
> 2020 05 06 16 12  0.0000000  0 17        .000000000000
G10  21248726.594 8 111662897.214 8      1464.734          51.000    21248728.875 8  87010059.704 8      1141.351          51.000
G16  20992081.039 8 110314119.896 8     -1858.902          49.000    20992080.562 8  85959052.729 8     -1448.495          49.000
G20  21099781.281 7 110880109.396 7      -950.582          45.000    21099781.695 6  86400072.740 6      -740.716          37.000
G21  23697426.070 6 124530764.675 6     -2585.473          39.000
G26  22661591.094 7 119087447.031 7     -3334.320          45.000    22661595.578 7  92795407.504 7     -2598.175          45.000
G27  20504391.344 5 107751295.395 5      1001.613          33.000    20504392.000 5  83962048.336 5       780.484          33.000
R02  21109473.203 6 112644162.705 6      2475.145          38.000    21109469.727 5  87612101.506 5      1925.109          34.000
R15  21726481.680 6 116099699.006 6     -3687.230          37.000    21726487.102 7  90299777.593 7     -2867.846          43.000
R17  19820894.531 6 106065606.222 6      -952.652          41.000    19820898.961 5  82495520.192 5      -740.955          35.000
C05  39614566.312 5 206283440.827 5        -6.848          35.000
C11  21969520.281 6 114401052.124 6       597.719          37.000    21969521.164 6  88462157.420 6       462.279          38.000
C12                                                                  23128650.289 5  93129581.330 5     -1426.816          33.000
C21  23303239.203 7 121346121.440 7      1010.133          42.000
C22  25347657.211 4 131991877.720 4     -1815.629          29.000
C25  25373757.086 5 132127811.498 5     -2902.445          31.000
E15  23366252.078 8 122790560.406 8      -812.676          51.000    23366255.508 8  94086290.812 8      -622.718          51.000
E27  24817212.109 8 130415312.515 8     -2272.324          50.000    24817210.555 8  99928619.353 8     -1741.257          50.000
> 2020 05 06 16 12 30.0000000  0 15        .000000000000
G10  21240433.672 8 111619316.474 8      1446.559          51.000    21240435.539 8  86976100.694 8      1127.189          51.000
G16  21002760.211 8 110370239.950 8     -1876.543          49.000    21002759.414 8  86002782.651 8     -1462.241          48.000
G20  21105278.469 7 110908996.303 7      -969.484          44.000    21105278.805 6  86422581.984 6      -755.442          36.000
G21  23712207.844 5 124608441.492 5     -2587.070          35.000
G26  22680665.930 7 119187689.196 7     -3342.555          45.000    22680671.391 7  92873518.266 7     -2604.588          45.000
G27  20498722.773 5 107721515.384 5       989.148          35.000    20498724.070 6  83938839.941 6       770.765          36.000
R02  21095632.078 5 112570329.647 5      2453.238          34.000    21095632.992 6  87554675.665 6      1908.068          36.000
R15  21747233.547 7 116210600.869 7     -3700.352          42.000    21747240.656 6  90386034.608 6     -2878.051          41.000
R17  19826282.242 6 106094430.236 6      -962.801          41.000    19826283.961 6  82517938.856 6      -748.845          37.000
C05  39614623.562 5 206283739.507 5        -6.906          35.000
C11  21966114.406 6 114383318.428 6       590.426          37.000    21966114.828 6  88448444.651 6       456.416          40.000
C12  23139312.250 4 120492454.510 4     -1852.156          27.000    23139315.109 5  93172521.183 5     -1431.154          30.000
C21  23297484.703 6 121316155.133 6       993.398          41.000
E15  23370923.500 8 122815109.014 8      -817.965          51.000    23370927.211 8  94105100.773 8      -626.821          51.000
E27  24830230.719 8 130483728.692 8     -2282.797          49.000    24830230.836 8  99981042.104 8     -1749.171          50.000
> 2020 05 06 16 13  0.0000000  0 12        .000000000000
G10  21232253.281 8 111576326.986 8      1419.551          51.000    21232254.984 8  86942602.414 8      1106.143          51.000
G16  21013548.820 8 110426934.654 8     -1902.953          50.000    21013547.781 7  86046960.333 7     -1482.821          47.000
G20  21110891.867 7 110938493.692 7      -997.039          45.000    21110890.922 5  86445566.894 5      -776.920          33.000
G26  22699797.750 7 119288227.918 7     -3359.621          46.000    22699803.086 7  92951860.106 7     -2617.890          46.000
G27  20493132.867 5 107692142.678 5       968.883          35.000    20493134.312 5  83915952.143 5       754.971          35.000
R15  21768072.039 7 116321953.170 7     -3722.824          44.000    21768078.273 6  90472641.904 6     -2895.533          41.000
R17  19831734.867 6 106123601.438 6      -981.633          41.000    19831735.578 6  82540627.514 6      -763.492          39.000
C05                                                                  39614697.398 5 159511972.038 5       -12.590          35.000
C11  21962760.664 6 114365855.917 6       573.750          36.000    21962761.203 7  88434941.508 7       443.902          42.000
C21  23291834.414 6 121286734.270 6       968.234          39.000
E15  23375635.211 8 122839869.415 8      -832.438          51.000    23375639.102 8  94124073.010 8      -637.830          51.000
E27  24843317.992 8 130552508.418 8     -2302.281          49.000    24843320.328 8 100033743.444 8     -1764.029          51.000
> 2020 05 06 16 13 30.0000000  0 15        .000000000000
G10  21224137.297 8 111533676.497 8      1400.785          51.000    21224138.805 8  86909368.297 8      1091.521          51.000
G16  21024398.461 8 110483949.079 8     -1921.043          51.000    21024397.125 7  86091387.143 7     -1496.917          47.000
G20  21116573.000 7 110968346.861 7     -1016.355          45.000    21116571.930 5  86468829.062 5      -791.965          34.000
G26  22718937.695 7 119388807.114 7     -3368.566          47.000    22718942.414 7  93030233.465 7     -2624.857          47.000
G27  20487573.773 6 107662928.966 6       955.953          38.000    20487574.562 6  83893188.177 6       744.895          38.000
R02  21068296.836 6 112424451.417 6      2400.883          40.000    21068297.305 5  87441272.712 5      1867.353          34.000
R15  21788945.875 7 116433493.387 7     -3736.645          43.000    21788951.875 7  90559395.380 7     -2906.279          42.000
R17  19837203.320 6 106152860.943 6      -992.293          40.000    19837204.039 6  82563384.921 6      -771.783          39.000
R18  20615976.383 4 110049528.344 4      1795.676          29.000    20615971.633 4  85594007.845 4      1396.649          27.000
C05  39614724.594 5 206284265.909 5       -17.172          35.000
C11  21959411.336 6 114348413.782 6       566.023          36.000    21959412.297 7  88421454.147 7       437.595          42.000
C12  23160719.961 5 120603951.302 5     -1871.309          33.000
C21  23286241.336 6 121257608.793 6       951.102          39.000
E15  23380338.906 8 122864587.523 8      -838.477          51.000    23380342.656 8  94143012.854 8      -642.454          51.000
E27  24856426.055 8 130621396.506 8     -2313.285          49.000    24856430.547 8 100086527.843 8     -1772.481          51.000
> 2020 05 06 16 14  0.0000000  0 17        .000000000000
G10  21216147.133 8 111491688.205 8      1395.895          51.000    21216148.359 8  86876650.177 8      1087.710          51.000
G16  21035369.977 8 110541603.628 8     -1925.070          51.000    21035368.320 7  86136312.736 7     -1500.055          47.000
G20  21122382.688 7 110998876.308 7     -1021.672          44.000    21122381.227 6  86492618.235 6      -796.108          37.000
G26  22738146.227 7 119489746.056 7     -3363.293          47.000    22738150.336 7  93108887.144 7     -2620.751          47.000
G27  20482106.453 6 107634197.168 6       957.285          39.000    20482106.789 6  83870799.769 6       745.933          39.000
R02  21054815.523 6 112352510.917 6      2392.742          38.000    21054816.719 5  87385319.000 5      1861.025          34.000
R15  21809914.633 6 116545544.327 6     -3736.035          41.000    21809921.641 7  90646546.126 7     -2905.805          42.000
R17  19842748.945 6 106182536.261 6      -988.719          40.000    19842750.477 6  82586465.718 6      -769.000          40.000
C05  39614781.438 5 206284561.337 5        -4.879          35.000    39614785.625 5 159512326.122 5        -4.126          35.000
C11  21956127.547 6 114331311.220 6       571.566          37.000    21956128.891 7  88408229.343 7       442.047          43.000
C12  23171477.805 5 120659958.953 5     -1864.723          35.000
C21  23280765.242 5 121229098.637 5       947.469          34.000
C22  25390201.281 5 132213453.749 5     -1867.914          32.000
C25  25440872.203 5 132477280.932 5     -2915.262          32.000
E13  24341158.180 5 127913650.355 5      1374.777          33.000
E15  23385095.703 8 122889584.734 8      -830.594          51.000    23385099.172 8  94162166.555 8      -636.480          51.000
E27  24869616.562 8 130690713.302 8     -2310.461          50.000    24869622.289 8 100139640.706 8     -1770.272          51.000
> 2020 05 06 16 14 30.0000000  0 18        .000000000000
G10  21208238.766 8 111450130.194 8      1375.539          51.000    21208240.188 8  86844267.351 8      1071.849          51.000
G16  21046418.477 8 110599662.774 8     -1944.680          51.000    21046416.727 7  86181553.573 7     -1515.338          47.000
G20  21128276.414 7 111029847.870 7     -1042.348          44.000    21128274.656 6  86516751.894 6      -812.219          36.000
G26  22757378.172 7 119590809.112 7     -3373.359          45.000    22757382.086 7  93187637.519 7     -2628.595          45.000
G27  20476686.352 5 107605715.319 5       942.652          32.000    20476687.586 5  83848606.119 5       734.531          31.000
R02  21041432.805 7 112281104.226 7      2368.660          43.000    21041435.273 5  87329780.527 5      1842.288          31.000
R03  23529865.789 6 125957208.046 6      4368.082          39.000    23529870.641 4  97966737.635 4      3397.397          28.000
R15  21830933.188 6 116657864.375 6     -3751.297          41.000    21830941.547 6  90733906.134 6     -2917.678          41.000
R17  19848327.188 6 106212389.656 6     -1000.887          40.000    19848329.500 6  82609685.061 6      -778.464          39.000
C05  39614818.312 5 206284753.512 5        -7.297          35.000    39614822.719 5 159512474.683 5        -5.494          35.000
C11  21952864.719 6 114314317.573 6       562.457          37.000    21952865.984 7  88395088.793 7       434.559          42.000
C12  23182243.984 6 120716023.099 6     -1872.297          37.000    23182239.758 5  93345278.226 5     -1447.788          35.000
C21  23275363.734 6 121200973.707 6       928.484          38.000
C22  25401016.359 5 132269770.617 5     -1884.598          33.000
C25  25457694.906 5 132564853.041 5     -2921.203          34.000
E13  24333335.977 5 127872547.107 5      1366.672          33.000
E15  23389861.094 8 122914627.390 8      -838.055          51.000    23389864.461 8  94181355.078 8      -642.182          51.000
E27  24882844.617 8 130760223.920 8     -2322.871          51.000    24882850.344 8 100192902.084 8     -1779.883          51.000
> 2020 05 06 16 15  0.0000000  0 19        .000000000000
G10  21200424.633 8 111409067.631 8      1360.641          51.000    21200426.453 8  86812270.589 8      1060.239          51.000
G16  21057556.016 8 110658189.056 8     -1958.574          51.000    21057554.094 7  86227158.418 7     -1526.165          46.000
G18  23816033.039 5 125154111.756 5     -3156.996          33.000
G20  21134266.016 7 111061324.093 7     -1057.637          44.000    21134265.195 6  86541278.839 6      -824.133          37.000
G26  22776645.188 7 119692057.583 7     -3377.910          45.000    22776649.266 7  93266532.412 7     -2632.138          45.000
