     3.02           OBSERVATION DATA    M (MIXED)           RINEX VERSION / TYPE
SAVERINEX           SC600               20200517 175930 LCL PGM / RUN BY / DATE
       G = GPS       R = GLONASS       C = COMPASS          COMMENT
       S = SBAS      J = QZSS          E = GALILEO          COMMENT
BEAN                                                        MARKER NAME
1                                                           MARKER NUMBER
GEODETIC                                                    MARKER TYPE
Unige DICCA         GTER                                    OBSERVER / AGENCY
SC60291900056       SC600               2.12(191202)        REC # / TYPE / VERS
                    HEMA45          NONE                    ANT # / TYPE
  4509407.8091   693652.4678  4442337.6214                  APPROX POSITION XYZ
        0.0000        0.0000        0.0000                  ANTENNA: DELTA H/E/N
G    8 C1C L1C D1C S1C C2Y L2Y D2Y S2Y                      SYS / # / OBS TYPES
R    8 C1C L1C D1C S1C C2P L2P D2P S2P                      SYS / # / OBS TYPES
C    4 C1I L1I D1I S1I                                      SYS / # / OBS TYPES
E    8 C1C L1C D1C S1C C7Q L7Q D7Q S7Q                      SYS / # / OBS TYPES
DBHZ                                                        COMMENT
     30.000                                                 INTERVAL
  2020    05    17    15    00    0.0000000     GPS         TIME OF FIRST OBS
  2020    05    17    15    59   30.0000000     GPS         TIME OF LAST OBS
     0                                                      RCV CLOCK OFFS APPL
G L1C  0.00000                                              SYS / PHASE SHIFT
G L2Y  0.00000                                              SYS / PHASE SHIFT
R L1C  0.00000                                              SYS / PHASE SHIFT
R L2P  0.25000                                              SYS / PHASE SHIFT
C L1I  0.00000                                              SYS / PHASE SHIFT
E L1C  0.50000                                              SYS / PHASE SHIFT
E L7Q -0.25000                                              SYS / PHASE SHIFT
 14 R02 -4 R03  5 R04  6 R05  1 R06 -4 R09 -2 R10 -7 R11  0 GLONASS SLOT / FRQ #
    R15  0 R16 -1 R18 -3 R19  3 R20  2 R21  4               GLONASS SLOT / FRQ #
 C1C   71.950 C2C   71.950 C2P   71.950                     GLONASS COD/PHS/BIS
    18                                                      LEAP SECONDS
*** Above antenna height is from mark to ANTENNA BOTTOM.    COMMENT
    17     4        0.0000        ANT MEASURE TYPE/HEIGT    COMMENT
    0.0000    0.0000    0.0458    0.0405    0.0000          COMMENT
                    BASE STATION                            COMMENT
                                                            END OF HEADER
> 2020 05 17 15 00  0.0000000  0 13        .000000000000
G10  21841570.875 8 114778200.586 8      2335.559          49.000    21841575.141 8  89437602.004 8      1819.919          48.000
G16  20565838.984 8 108074199.799 8      -832.273          51.000    20565837.273 8  84213643.239 8      -648.525          50.000
G20  20968032.164 8 110187794.101 8        70.539          50.000    20968030.867 7  85860628.739 7        54.966          43.000
G21  22446898.148 5 117959274.758 5     -2309.141          34.000    22446891.258 5  91916264.872 5     -1799.330          34.000
G26  21728395.914 8 114183490.557 8     -2798.879          49.000    21728397.164 8  88974135.584 8     -2180.948          49.000
R04  21692854.789 5 116164183.365 5       -27.355          30.000
R05  22012237.164 6 117668016.521 6      3344.770          39.000
R10  20880310.273 7 111303799.636 7     -2865.309          47.000
C27  22392541.516 6 116603827.919 6     -1473.859          41.000
C30  22045494.484 5 114796644.651 5      1143.496          32.000
E11                                                                  23775405.570 6  95733712.479 6     -1322.723          38.000
E25  25744270.633 8 135287029.377 8     -2867.219          51.000    25744272.406 8 103661472.449 8     -2196.969          51.000
E36  23330873.344 7 122604570.873 7       463.266          44.000    23330875.414 7  93943785.893 7       355.060          44.000
> 2020 05 17 15 00 30.0000000  0 13        .000000000000
G10  21828278.500 8 114708346.888 8      2322.102          51.000    21828282.266 8  89383170.569 8      1809.430          51.000
G16  20570644.430 8 108099454.386 8      -850.578          50.000    20570643.281 8  84233322.122 8      -662.788          49.000
G20  20967684.461 8 110185967.843 8        52.012          49.000    20967683.375 7  85859205.731 7        40.529          42.000
G21  22460091.062 5 118028599.180 5     -2311.711          34.000
G26  21744409.312 8 114267640.438 8     -2810.270          50.000    21744410.953 8  89039706.866 8     -2189.823          50.000
R04  21693085.383 6 116165394.085 6       -52.984          37.000
R05  21993503.305 5 117567886.660 5      3331.438          33.000    21993508.969 4  91441704.458 4      2591.121          29.000
R10  20896491.336 8 111390054.718 8     -2884.348          48.000
C27  22401049.164 7 116648132.238 7     -1479.125          43.000
C30  22038925.398 4 114762449.856 4      1137.762          29.000
E11  23785275.477 5 124992479.045 5     -1728.707          32.000    23785270.445 6  95773432.534 6     -1324.594          37.000
E25  25760658.164 8 135373145.991 8     -2873.016          51.000    25760659.156 8 103727457.862 8     -2201.399          50.000
E36  23328246.703 7 122590768.922 7       457.508          43.000    23328248.016 7  93933210.369 7       350.627          44.000
> 2020 05 17 15 01  0.0000000  0 10        .000000000000
G10  21815015.969 8 114638648.865 8      2302.770          51.000    21815018.977 8  89328860.411 8      1794.366          51.000
G16  20575506.492 8 108125006.044 8      -874.551          49.000    20575505.531 8  84253232.492 8      -681.468          49.000
G20  20967395.523 8 110184449.300 8        27.543          48.000    20967394.156 7  85858022.470 7        21.462          43.000
G26  21760438.852 8 114351875.051 8     -2827.047          50.000    21760441.062 8  89105344.167 8     -2202.897          50.000
R05  21974800.438 5 117467913.362 5      3311.980          32.000    21974805.883 4  91363947.675 4      2575.994          28.000
R10  20912731.109 7 111476622.455 7     -2908.891          46.000
C27  22409539.883 7 116692346.005 7     -1490.086          43.000
E11                                                                  23795101.086 6  95813018.177 6     -1331.307          36.000
E25  25777030.625 8 135459180.967 8     -2884.312          51.000    25777030.805 8 103793380.695 8     -2210.052          50.000
E36  23325605.031 7 122576889.337 7       445.941          42.000    23325606.344 7  93922575.348 7       341.833          45.000
> 2020 05 17 15 01 30.0000000  0 10        .000000000000
G10  21801956.469 8 114570018.445 8      2311.734          51.000    21801959.156 8  89275382.166 8      1801.351          51.000
G16  20580597.969 7 108151763.876 7      -870.180          47.000    20580597.453 7  84274082.737 7      -678.062          47.000
G20  20967338.188 7 110184148.246 7        31.676          47.000    20967336.891 7  85857787.911 7        24.682          44.000
G26  21776657.266 8 114437101.915 8     -2815.449          50.000    21776659.992 8  89171754.681 8     -2193.857          51.000
R10  20929202.422 7 111564422.576 7     -2904.723          46.000
C27  22418186.281 7 116737370.330 7     -1472.738          44.000
C30  22025943.766 5 114694868.420 5      1142.184          34.000
E11                                                                  23805070.438 5  95853165.858 5     -1315.605          34.000
E25  25793560.406 8 135546042.272 8     -2867.160          51.000    25793560.477 8 103859936.681 8     -2196.876          50.000
E36  23323121.906 7 122563841.312 7       463.027          43.000    23323123.469 7  93912577.548 7       354.820          45.000
> 2020 05 17 15 02  0.0000000  0 10        .000000000000
G10  21788823.688 8 114501004.249 8      2273.855          51.000    21788826.266 8  89221604.874 8      1771.835          51.000
G16  20585642.148 7 108178274.099 7      -912.469          47.000    20585642.039 7  84294740.035 7      -711.015          47.000
G20  20967235.852 7 110183610.785 7       -11.156          44.000    20967235.055 7  85857369.141 7        -8.693          44.000
G26  21792787.203 8 114521865.144 8     -2850.688          50.000    21792790.664 8  89237803.931 8     -2221.318          50.000
R05  21937751.883 5 117269855.943 5      3282.215          33.000
R10  20945627.797 7 111651976.280 7     -2947.707          46.000
C27  22426711.891 7 116781764.551 7     -1501.969          44.000
E11                                                                  23814902.484 5  95892761.362 5     -1335.794          33.000
E25  25809970.195 8 135632274.513 8     -2896.855          51.000    25809971.000 8 103926010.668 8     -2219.642          50.000
E36  23320520.672 7 122550170.897 7       433.172          45.000    23320522.562 7  93902102.824 7       331.911          46.000
> 2020 05 17 15 02 30.0000000  0 10        .000000000000
G10  21775974.219 8 114433479.250 8      2265.801          51.000    21775977.016 8  89168988.014 8      1765.559          51.000
G16  20590995.359 8 108206406.433 8      -925.020          48.000    20590995.539 8  84316661.331 8      -720.794          48.000
G20  20967444.172 7 110184707.561 7       -23.887          44.000    20967443.859 7  85858223.785 7       -18.616          43.000
G26  21809184.234 8 114608033.374 8     -2855.941          50.000    21809188.344 8  89304947.987 8     -2225.409          50.000
R05  21919439.859 5 117171986.690 5      3273.809          33.000    21919451.078 5  91133766.410 5      2546.302          31.000
R10  20962360.961 6 111741176.976 6     -2960.523          41.000
C27  22435472.234 7 116827382.168 7     -1501.473          45.000
E11                                                                  23824953.914 5  95933237.653 5     -1333.591          33.000
E25  25826615.453 8 135719746.759 8     -2896.637          51.000    25826617.547 8 103993034.802 8     -2219.480          50.000
E36  23318157.062 7 122537748.440 7       433.062          45.000    23318159.453 7  93892584.318 7       331.806          46.000
> 2020 05 17 15 03  0.0000000  0 10        .000000000000
G10  21763067.109 8 114365650.868 8      2232.098          51.000    21763070.125 8  89116134.749 8      1739.297          51.000
G16  20596315.938 8 108234365.988 8      -962.984          49.000    20596316.242 8  84338447.997 8      -750.374          49.000
G20  20967622.016 7 110185643.896 7       -62.070          44.000    20967622.102 7  85858953.365 7       -48.370          43.000
G26  21825506.625 8 114693809.553 8     -2886.465          50.000    21825510.930 8  89371786.549 8     -2249.193          50.000
R05  21901103.000 5 117073930.454 5      3239.273          34.000    21901105.469 4  91057500.533 4      2519.435          25.000
R10  20979059.930 6 111830200.810 6     -2998.812          41.000
C27  22444125.859 7 116872444.396 7     -1526.480          45.000
E11                                                                  23834884.164 5  95973218.964 5     -1350.301          34.000
E25  25843154.250 8 135806662.441 8     -2921.809          50.000    25843157.969 8 104059632.499 8     -2238.806          50.000
E36  23315689.297 7 122524778.691 7       407.566          45.000    23315692.062 7  93882646.447 7       312.339          46.000
> 2020 05 17 15 03 30.0000000  0 12        .000000000000
G10  21750229.445 8 114298187.590 8      2236.766          51.000    21750232.633 8  89063565.977 8      1742.934          51.000
G16  20601730.469 8 108262818.308 8      -962.504          50.000    20601730.648 8  84360618.642 8      -750.003          50.000
G18  22645217.438 5 119001413.117 5     -2926.844          32.000
G20  20967896.570 7 110187085.685 7       -62.230          43.000    20967896.633 7  85860076.811 7       -48.491          43.000
G26  21841881.008 8 114779857.772 8     -2878.664          50.000    21841885.117 8  89438837.046 8     -2243.115          49.000
R05  21882829.898 5 116976254.832 5      3243.195          34.000
R10  20995853.430 7 111919718.925 7     -2998.066          45.000
C27  22452799.945 7 116917611.178 7     -1513.297          46.000
E09  25979646.789 7 136523961.037 7      2773.980          43.000    25979656.062 7 104609303.888 7      2125.512          42.000
E11                                                                  23844819.406 5  96013215.350 5     -1337.563          35.000
E25  25859713.289 8 135893686.103 8     -2908.344          48.000    25859718.594 8 104126312.948 8     -2228.471          50.000
E36  23313243.852 7 122511927.500 7       420.590          45.000    23313246.609 7  93872799.450 7       322.303          46.000
> 2020 05 17 15 04  0.0000000  0 13        .000000000000
G10  21737544.609 8 114231528.745 8      2215.309          51.000    21737547.898 8  89011624.050 8      1726.214          51.000
G16  20607322.039 8 108292200.047 8      -988.145          51.000    20607321.914 8  84383513.496 8      -769.983          50.000
G18  22661985.312 5 119089534.617 5     -2938.824          32.000
G20  20968350.516 7 110189469.952 7       -88.434          45.000    20968350.109 7  85861934.689 7       -68.912          44.000
G26  21858390.203 8 114866612.950 8     -2896.883          50.000    21858393.797 8  89506438.423 8     -2257.314          50.000
R05  21864712.625 5 116879408.985 5      3221.086          32.000    21864714.789 5  90906215.105 5      2505.292          30.000
R10  21012822.102 7 112010171.125 7     -3023.840          45.000
R21  21602474.500 5 115599178.134 5      2420.906          31.000
C27  22461577.531 7 116963315.470 7     -1525.695          45.000
E09  25963854.695 7 136440970.207 7      2766.926          44.000    25963862.172 6 104545713.610 6      2119.873          39.000
E11                                                                  23854841.992 5  96053561.366 5     -1345.480          35.000
E25  25876375.680 7 135981253.210 7     -2921.148          46.000    25876382.391 8 104193409.810 8     -2238.301          49.000
E36  23310903.953 7 122499631.710 7       407.332          45.000    23310906.430 7  93863378.008 7       312.141          45.000
> 2020 05 17 15 04 30.0000000  0 12        .000000000000
G10  21724943.633 8 114165310.095 8      2193.113          51.000    21724946.648 8  88960025.132 8      1708.919          51.000
G16  20613020.766 8 108322144.027 8     -1014.410          51.000    20613020.242 8  84406846.461 8      -790.449          51.000
G20  20968914.172 7 110192430.305 7      -115.090          47.000    20968913.336 7  85864241.446 7       -89.680          44.000
G26  21874963.781 8 114953706.482 8     -2915.535          50.000    21874967.180 8  89574303.447 8     -2271.846          49.000
R05  21846677.219 5 116783024.825 5      3198.047          30.000    21846683.656 4  90831249.751 4      2487.370          27.000
R10  21029895.445 7 112101181.782 7     -3049.852          47.000
R21  21588903.492 5 115526649.842 5      2407.359          35.000    21588908.297 4  89854024.042 4      1872.385          25.000
C27  22470387.859 7 117009193.969 7     -1538.879          46.000
E09  25948063.562 7 136357986.592 7      2759.152          43.000    25948065.695 5 104482128.912 5      2114.281          34.000
E11                                                                  23864882.000 5  96093975.661 5     -1353.076          33.000
E25  25893071.867 7 136068995.636 7     -2934.602          45.000    25893079.227 8 104260641.002 8     -2248.609          48.000
E36  23308599.930 7 122487524.444 7       393.562          45.000    23308601.852 7  93854101.022 7       301.519          44.000
> 2020 05 17 15 05  0.0000000  0 13        .000000000000
G10  21712390.016 8 114099340.011 8      2181.590          51.000    21712393.062 8  88908619.902 8      1699.943          51.000
G16  20618789.547 8 108352455.978 8     -1029.715          51.000    20618788.570 8  84430466.157 8      -802.375          51.000
G18  22695569.945 4 119266023.682 4     -2952.168          29.000
G20  20969550.430 7 110195772.615 7      -131.090          47.000    20969549.727 7  85866845.859 7      -102.148          45.000
G26  21891564.289 8 115040942.278 8     -2923.500          49.000    21891567.641 8  89642279.338 8     -2278.055          49.000
R05  21828699.883 5 116686983.221 5      3185.930          34.000    21828706.914 4  90756510.224 4      2477.945          27.000
R10  21047037.172 8 112192550.347 8     -3065.074          48.000
R21  21575338.242 6 115454114.660 6      2404.312          37.000
C27  22479195.047 8 117055054.334 8     -1541.625          48.000
E09  25932236.703 7 136274818.497 7      2761.988          42.000    25932230.906 5 104418402.933 5      2116.356          34.000
E11                                                                  23874899.969 5  96134328.388 5     -1353.606          30.000
E25  25909765.016 7 136156717.764 7     -2936.973          46.000    25909771.500 7 104327856.609 7     -2250.485          45.000
E36  23306294.969 7 122475411.492 7       390.402          46.000    23306296.523 7  93844819.658 7       299.202          44.000
> 2020 05 17 15 05 30.0000000  0 12        .000000000000
G10  21700013.234 8 114034300.131 8      2165.289          51.000    21700016.430 8  88857939.491 8      1687.238          51.000
G16  20624757.328 8 108383814.750 8     -1049.852          51.000    20624755.906 8  84454901.550 8      -818.063          51.000
G20  20970388.336 8 110200175.922 8      -151.602          49.000    20970387.586 7  85870277.029 7      -118.131          44.000
G26  21908320.672 8 115128997.595 8     -2935.883          48.000    21908324.008 8  89710893.830 8     -2287.701          48.000
R05  21810897.602 6 116591832.257 6      3168.652          38.000
R10  21064374.266 7 112284961.844 7     -3084.488          47.000
C27  22488128.320 8 117101569.602 8     -1548.633          48.000
C30  21975454.617 5 114431988.261 5      1061.090          32.000
E02  24156027.805 7 126940788.834 7      -671.352          42.000    24156027.578 7  97266313.151 7      -514.272          43.000
E09  25916504.227 6 136192147.333 6      2760.387          41.000    25916498.211 6 104355057.624 6      2115.078          36.000
E25  25926583.695 7 136245097.379 7     -2944.035          47.000    25926587.555 7 104395575.984 7     -2255.957          44.000
E36  23304118.312 7 122463971.893 7       383.039          46.000    23304120.094 7  93836054.267 7       293.453          45.000
> 2020 05 17 15 06  0.0000000  0 13        .000000000000
G10  21687633.391 8 113969245.204 8      2163.121          51.000    21687637.016 8  88807247.354 8      1685.549          51.000
G16  20630743.688 8 108415272.188 8     -1055.758          51.000    20630742.016 8  84479413.837 8      -822.668          51.000
G20  20971248.055 8 110204692.943 8      -158.000          48.000    20971246.938 7  85873796.776 7      -123.114          44.000
G26  21925051.852 7 115216922.780 7     -2934.207          46.000    21925055.789 7  89779406.946 7     -2286.395          46.000
R05  21793097.867 6 116496686.519 6      3165.887          38.000
R10  21081724.758 7 112377451.194 7     -3089.922          47.000
R21  21548437.805 5 115310030.988 5      2403.480          33.000    21548436.992 4  89685588.365 4      1869.383          28.000
C27  22497006.664 7 117147800.847 7     -1541.832          47.000
C30  21969295.438 5 114399889.239 5      1067.199          32.000
E02  24159839.008 7 126960822.381 7      -672.887          42.000    24159838.773 7  97281663.553 7      -515.592          43.000
E09  25900685.859 6 136109027.852 6      2772.574          39.000    25900683.672 6 104291368.760 6      2124.560          39.000
E25  25943346.695 7 136333185.393 7     -2937.051          47.000    25943347.625 7 104463071.869 7     -2250.393          43.000
E36  23301889.469 7 122452257.937 7       389.473          46.000    23301892.070 7  93827078.663 7       298.355          45.000
> 2020 05 17 15 06 30.0000000  0 15        .000000000000
G10  21675350.516 8 113904701.018 8      2145.543          51.000    21675354.602 8  88756953.224 8      1671.855          51.000
G16  20636848.195 8 108447351.357 8     -1077.078          51.000    20636846.656 8  84504410.586 8      -839.282          50.000
G20  20972228.805 8 110209846.909 8      -179.801          48.000    20972228.164 7  85877812.879 7      -140.105          43.000
G21  22620181.523 5 118869855.372 5     -2355.473          35.000
G26  21941857.008 7 115305239.304 7     -2947.930          46.000    21941862.203 7  89848225.032 7     -2297.088          46.000
R04  21707577.188 5 116243018.233 5      -373.215          33.000
R05  21775400.000 6 116402083.148 6      3146.887          38.000    21775396.797 4  90534862.787 4      2447.579          29.000
R10  21099189.062 8 112470545.505 8     -3110.727          48.000
R21  21535005.234 5 115238148.017 5      2394.734          35.000    21535004.195 4  89629679.475 4      1862.571          28.000
C27  22505929.695 8 117194266.760 8     -1550.281          48.000
C30  21963191.938 5 114368102.792 5      1058.445          32.000
E02  24163743.727 7 126981346.741 7      -689.660          42.000    24163744.234 7  97297390.018 7      -528.468          43.000
E09  25884882.227 6 136025985.696 6      2769.195          38.000    25884884.422 7 104227739.140 7      2121.872          42.000
E25  25960153.227 7 136421503.726 7     -2945.312          46.000    25960153.602 7 104530744.263 7     -2256.747          45.000
E36  23299707.570 7 122440792.928 7       380.664          45.000    23299711.164 7  93818293.833 7       291.480          45.000
> 2020 05 17 15 07  0.0000000  0 14        .000000000000
G10  21663114.211 8 113840401.569 8      2125.406          51.000    21663118.289 8  88706849.773 8      1656.161          51.000
G16  20643019.539 8 108479783.462 8     -1100.727          51.000    20643018.398 8  84529682.349 8      -857.709          50.000
G20  20973279.781 8 110215369.430 8      -203.984          48.000    20973279.039 7  85882116.145 7      -158.949          42.000
G21  22633608.086 5 118940402.070 5     -2363.469          33.000
G26  21958685.516 7 115393676.519 7     -2963.605          47.000    21958691.461 7  89917137.152 7     -2309.303          47.000
R04  21709717.688 5 116254452.766 5      -405.004          30.000
R05  21757753.711 6 116307753.792 6      3125.734          39.000    21757754.000 5  90461495.482 5      2431.124          33.000
R10  21116715.094 7 112563969.009 7     -3133.527          46.000
C27  22514846.977 8 117240701.269 8     -1561.012          48.000
C30  21957086.789 5 114336309.620 5      1045.465          30.000
E02  24167690.820 6 127002093.308 6      -708.910          41.000    24167692.508 7  97313286.770 7      -543.329          43.000
E09  25869043.312 6 135942754.725 6      2763.551          37.000    25869048.836 7 104163964.819 7      2117.547          44.000
E25  25976951.875 7 136509782.430 7     -2955.812          45.000    25976954.102 7 104598386.328 7     -2264.825          46.000
E36  23297521.578 7 122429308.250 7       369.223          44.000    23297525.812 7  93809493.889 7       282.983          45.000
> 2020 05 17 15 07 30.0000000  0 13        .000000000000
G10  21651055.219 8 113777033.036 8      2104.965          51.000    21651059.109 8  88657471.732 8      1640.232          51.000
G16  20649387.977 8 108513251.675 8     -1124.625          51.000    20649387.148 8  84555761.473 8      -876.328          49.000
G20  20974530.867 7 110221944.409 7      -228.508          47.000    20974529.859 6  85887239.529 6      -178.055          40.000
G26  21975667.578 8 115482916.689 8     -2979.879          49.000    21975673.219 8  89986674.919 8     -2321.984          48.000
R04  21712090.898 6 116267170.864 6      -436.945          36.000    21712078.641 4  90430045.213 4      -339.849          27.000
R05  21740288.414 6 116214398.374 6      3103.844          36.000    21740291.383 5  90388885.700 5      2414.101          33.000
R10  21134431.797 7 112658411.505 7     -3156.770          46.000
C27  22523888.375 8 117287782.122 8     -1571.949          48.000
C30  21951111.516 5 114305187.681 5      1034.199          30.000
E02  24171810.422 6 127023745.924 6      -728.547          40.000    24171813.188 7  97329877.724 7      -558.243          43.000
E09  25853299.008 6 135860021.125 6      2757.738          36.000    25853307.109 7 104100571.584 7      2112.943          45.000
E25  25993872.703 7 136598703.861 7     -2966.473          45.000    25993877.602 7 104666520.890 7     -2272.991          47.000
E36  23295462.195 7 122418487.650 7       357.766          44.000    23295466.758 7  93801202.770 7       274.159          45.000
> 2020 05 17 15 08  0.0000000  0 12        .000000000000
G10  21639013.719 8 113713755.838 8      2104.242          51.000    21639017.242 8  88608164.874 8      1639.669          51.000
G16  20655793.320 8 108546913.890 8     -1128.723          51.000    20655792.688 8  84581991.767 8      -879.524          49.000
G18  22796949.234 5 119798758.255 5     -2964.379          34.000
G20  20975822.023 7 110228729.696 7      -233.047          45.000    20975821.531 6  85892526.763 6      -181.592          41.000
G26  21992642.148 8 115572115.682 8     -2975.969          49.000    21992647.219 8  90056180.590 8     -2318.940          49.000
R05  21722845.305 5 116121165.641 5      3102.422          31.000    21722853.023 5  90316371.338 5      2412.995          35.000
R10  21152179.633 8 112753015.066 8     -3159.645          48.000
C27  22532893.695 8 117334675.046 8     -1563.371          49.000
E02  24175942.289 6 127045462.569 6      -728.410          39.000    24175945.758 7  97346517.717 7      -558.103          44.000
E09  25837489.836 6 135776945.375 6      2771.508          38.000    25837499.633 7 104036916.200 7      2123.491          45.000
E25  26010755.875 7 136687424.676 7     -2957.551          45.000    26010762.492 8 104734501.746 8     -2266.235          48.000
E36  23293369.125 7 122407489.089 7       366.176          44.000    23293374.062 7  93792775.290 7       280.471          44.000
> 2020 05 17 15 08 30.0000000  0 11        .000000000000
G10  21627104.500 8 113651173.092 8      2057.457          51.000    21627107.898 8  88559399.172 8      1603.216          51.000
G16  20662349.555 8 108581370.057 8     -1178.824          51.000    20662349.289 8  84608840.696 8      -918.567          48.000
G20  20977267.305 7 110236325.981 7      -283.578          45.000    20977267.359 6  85898445.974 6      -220.970          37.000
G26  22009722.867 8 115661872.309 8     -3018.250          51.000    22009727.297 8  90126120.794 8     -2351.883          51.000
R05  21705538.727 5 116028550.016 5      3053.414          32.000    21705549.734 4  90244431.057 4      2374.872          29.000
R10  21170071.828 8 112848385.192 8     -3209.012          48.000
C27  22541977.445 8 117381975.425 8     -1600.363          49.000
E02  24180201.414 7 127067843.898 7      -774.137          42.000    24180205.211 7  97363667.010 7      -593.245          46.000
E09  25821730.742 6 135694130.460 6      2739.074          38.000    25821740.914 7 103973460.718 7      2098.708          45.000
E25  26027715.477 7 136776544.176 7     -2994.270          45.000    26027722.477 7 104802788.079 7     -2294.349          47.000
E36  23291356.430 7 122396913.245 7       328.488          43.000    23291361.688 7  93784671.731 7       251.603          44.000
> 2020 05 17 15 09  0.0000000  0 13        .000000000000
G10  21615320.461 8 113589246.584 8      2070.660          51.000    21615323.320 8  88511144.780 8      1613.504          51.000
G16  20669049.281 8 108616579.369 8     -1168.859          50.000    20669049.000 8  84636276.502 8      -910.800          48.000
G20  20978859.367 7 110244692.818 7      -274.512          43.000    20978859.500 6  85904965.568 6      -213.905          36.000
G21  22687738.484 5 119224896.220 5     -2369.660          33.000
G26  22026901.547 8 115752143.937 8     -3000.324          50.000    22026905.469 8  90196462.301 8     -2337.915          50.000
R05  21688366.789 6 115936757.023 6      3065.445          36.000    21688376.211 4  90173036.531 4      2384.232          28.000
R10  21188098.219 7 112944476.882 7     -3197.477          47.000
C27  22551131.289 8 117429643.160 8     -1577.941          48.000
E02  24184578.977 6 127090849.122 6      -759.984          40.000    24184583.938 7  97381294.416 7      -582.257          47.000
E09  25806014.477 6 135611538.289 6      2766.574          40.000    25806024.094 7 103910175.855 7      2119.917          45.000
E11  23955906.555 5 125889139.047 5     -1779.062          31.000
E25  26044743.070 7 136866020.307 7     -2971.090          44.000    26044749.859 7 104871347.675 7     -2276.612          47.000
E36  23289416.625 7 122386719.403 7       350.559          43.000    23289421.742 7  93776860.863 7       268.828          44.000
> 2020 05 17 15 09 30.0000000  0 12        .000000000000
G10  21603540.914 8 113527342.510 8      2061.027          51.000    21603543.242 8  88462907.879 8      1605.995          51.000
G16  20675771.281 8 108651904.864 8     -1181.637          49.000    20675770.812 7  84663802.852 7      -920.756          47.000
G20  20980476.664 6 110253193.590 6      -287.699          41.000    20980477.445 6  85911589.658 6      -224.178          37.000
G26  22044056.578 8 115842292.454 8     -3005.031          50.000    22044060.023 8  90266707.858 8     -2341.583          50.000
R04  21722921.023 5 116325234.815 5      -525.277          34.000
R05  21671206.680 6 115845022.916 6      3054.535          37.000    21671212.305 5  90101687.854 5      2375.756          30.000
R10  21206137.617 7 113040641.189 7     -3208.758          46.000
C27  22560234.695 8 117477047.898 8     -1577.879          49.000
E02  24188954.383 6 127113842.081 6      -768.301          40.000    24188960.102 8  97398912.406 8      -588.770          48.000
E09  25790219.867 6 135528534.957 6      2771.531          41.000    25790229.102 7 103846575.976 7      2123.578          45.000
E25  26061716.961 7 136955215.512 7     -2970.512          44.000    26061723.531 7 104939691.982 7     -2276.190          45.000
E36  23287428.797 7 122376271.310 7       350.441          44.000    23287433.117 7  93768855.208 7       268.415          43.000
> 2020 05 17 15 10  0.0000000  0 13        .000000000000
G10  21591860.820 8 113465961.094 8      2018.113          51.000    21591862.641 8  88415078.252 8      1572.556          51.000
G16  20682610.125 8 108687844.178 8     -1227.324          48.000    20682609.836 8  84691807.482 8      -956.360          48.000
G20  20982214.422 7 110262326.318 7      -334.094          43.000    20982214.469 5  85918706.083 5      -260.336          34.000
G26  22061282.430 8 115932813.816 8     -3042.754          50.000    22061285.211 8  90337243.909 8     -2370.980          50.000
R04  21725982.625 5 116341617.375 5      -580.082          33.000    21725980.055 4  90487927.242 4      -451.169          26.000
R05  21654153.359 6 115753859.220 6      3009.957          40.000    21654156.617 5  90030782.857 5      2341.081          32.000
R10  21224285.367 8 113137378.984 8     -3253.598          48.000
C27  22569382.711 8 117524683.121 8     -1610.680          49.000
C30  21921602.516 5 114151633.140 5       991.488          31.000
E02  24193422.578 7 127137320.586 7      -809.828          43.000    24193428.977 8  97416902.453 8      -620.548          49.000
E09  25774442.438 7 135445620.772 7      2743.188          42.000    25774451.047 7 103783044.367 7      2101.935          46.000
E25  26078732.008 7 137044626.205 7     -3002.953          44.000    26078737.508 7 105008201.397 7     -2301.003          44.000
E36  23285487.328 7 122366066.888 7       316.949          44.000    23285490.758 7  93761036.212 7       242.809          43.000
> 2020 05 17 15 10 30.0000000  0 12        .000000000000
G10  21580329.672 8 113405363.227 8      2019.941          51.000    21580331.320 8  88367859.175 8      1573.983          51.000
G16  20689615.312 8 108724655.550 8     -1228.387          49.000    20689614.898 8  84720491.644 8      -957.184          48.000
G20  20984122.000 7 110272349.462 7      -335.863          43.000    20984120.883 6  85926516.319 6      -261.712          38.000
G26  22078627.977 8 116023964.539 8     -3035.715          50.000    22078629.992 8  90408270.366 8     -2365.495          50.000
R05  21637257.273 6 115663533.393 6      3010.215          40.000    21637258.945 5  89960529.604 5      2341.284          32.000
R10  21242590.000 8 113234948.995 8     -3252.883          48.000
C27  22578624.133 8 117572805.147 8     -1599.188          48.000
C30  21915850.758 5 114121715.999 5      1001.367          34.000
E02  24198033.094 7 127161543.038 7      -806.766          45.000    24198039.594 8  97435462.522 8      -618.081          51.000
E09  25758731.453 7 135363056.705 7      2759.398          42.000    25758739.422 7 103719781.025 7      2114.326          46.000
E25  26095837.039 7 137134509.527 7     -2991.004          44.000    26095840.578 7 105077072.937 7     -2291.796          43.000
E36  23283640.859 7 122356364.519 7       328.188          43.000    23283644.391 7  93753601.928 7       251.465          44.000
> 2020 05 17 15 11  0.0000000  0 13        .000000000000
G10  21568855.125 8 113345063.191 8      2000.930          51.000    21568856.820 8  88320872.152 8      1559.169          51.000
G16  20696693.586 8 108761850.001 8     -1250.266          49.000    20696692.828 8  84749474.330 8      -974.233          48.000
G18  22899259.328 5 120336414.829 5     -3000.352          33.000
G20  20986106.016 7 110282774.772 7      -358.320          43.000    20986105.469 6  85934639.950 6      -279.211          41.000
G26  22095999.805 8 116115254.540 8     -3049.293          49.000    22096001.609 8  90479405.386 8     -2376.072          49.000
R05  21620425.406 6 115573553.684 6      2989.586          39.000    21620426.133 5  89890545.390 5      2325.227          31.000
R10  21260957.242 8 113332852.145 8     -3273.039          48.000
C27  22587866.320 7 117620930.453 7     -1608.312          46.000
C30  21910107.641 5 114091831.334 5       990.973          31.000
E02  24202692.305 7 127186021.291 7      -824.230          43.000    24202698.117 8  97454218.587 8      -631.544          50.000
E09  25742993.984 6 135280357.114 6      2754.785          41.000    25743001.781 7 103656413.825 7      2110.893          46.000
E25  26112938.656 6 137224375.930 6     -2999.059          41.000    26112940.219 7 105145931.525 7     -2298.183          42.000
E36  23281796.602 7 122346676.112 7       318.711          43.000    23281800.891 7  93746178.375 7       244.132          44.000
> 2020 05 17 15 11 30.0000000  0 12        .000000000000
G10  21557529.961 8 113285548.998 8      1979.820          51.000    21557531.578 8  88274497.454 8      1542.714          51.000
G16  20703936.953 8 108799912.818 8     -1274.180          49.000    20703936.086 8  84779133.675 8      -992.867          49.000
G20  20988258.859 7 110294087.953 7      -382.852          43.000    20988258.602 7  85943455.437 7      -298.326          42.000
G26  22113489.766 7 116207167.610 7     -3065.109          47.000    22113492.016 7  90551025.918 7     -2388.397          47.000
R05  21603750.805 6 115484418.641 6      2966.270          38.000    21603752.867 5  89821218.165 5      2307.099          34.000
R10  21279478.797 8 113431577.262 8     -3295.297          49.000
C27  22597200.969 7 117669540.453 7     -1619.516          44.000
C30  21904463.617 5 114062461.329 5       979.660          33.000
E02  24207491.344 7 127211240.881 7      -843.855          43.000    24207496.836 8  97473542.663 8      -646.579          49.000
E09  25727322.672 6 135198010.062 6      2748.094          39.000    25727331.320 7 103593316.772 7      2105.748          46.000
E25  26130129.422 6 137314709.764 6     -3009.988          39.000    26130129.320 7 105215148.233 7     -2306.088          42.000
E36  23280047.867 7 122337487.375 7       307.066          45.000    23280051.953 7  93739137.644 7       235.324          44.000
> 2020 05 17 15 12  0.0000000  0 13        .000000000000
G10  21546237.758 8 113226209.212 8      1970.020          51.000    21546239.688 8  88228258.698 8      1535.080          51.000
G16  20711228.672 8 108838229.704 8     -1286.465          51.000    20711227.820 8  84808990.970 8     -1002.440          50.000
G20  20990463.781 7 110305674.913 7      -395.602          44.000    20990463.344 7  85952484.216 7      -308.261          42.000
G26  22130981.008 7 116299087.990 7     -3068.965          47.000    22130984.242 7  90622652.168 7     -2391.404          47.000
R05  21587117.117 6 115395508.605 6      2954.801          39.000    21587121.875 5  89752066.004 5      2298.181          33.000
R10  21298036.367 7 113530497.912 7     -3305.613          47.000
C05  39624549.062 5 206335424.676 5        -4.762          35.000
C27  22606511.938 7 117718027.165 7     -1619.016          44.000
C30  21898803.430 5 114032998.768 5       978.309          32.000
E02  24212314.773 7 127236587.973 7      -851.844          44.000    24212318.859 8  97492964.459 8      -652.765          48.000
E09  25711602.438 6 135115404.332 6      2752.758          39.000    25711611.609 7 103530021.456 7      2109.397          46.000
E25  26147292.914 6 137404895.877 6     -3008.828          36.000    26147290.969 7 105284251.776 7     -2305.268          42.000
E36  23278277.688 7 122328184.530 7       307.121          45.000    23278281.102 7  93732009.494 7       235.321          44.000
> 2020 05 17 15 12 30.0000000  0 12        .000000000000
G10  21535032.570 8 113167326.994 8      1955.227          51.000    21535034.852 8  88182376.474 8      1523.556          51.000
G16  20718622.219 8 108877080.964 8     -1303.828          51.000    20718621.070 8  84839264.687 8     -1015.970          51.000
G20  20992774.367 7 110317816.106 7      -414.023          44.000    20992774.094 7  85961944.887 7      -322.613          44.000
G26  22148526.992 7 116391294.620 7     -3078.527          47.000    22148531.023 7  90694501.459 7     -2398.856          47.000
R05  21570581.789 6 115307113.994 6      2937.887          39.000    21570587.922 5  89683314.577 5      2285.023          35.000
R10  21316681.805 7 113629895.350 7     -3321.094          45.000
C05  39624573.398 5 206335551.362 5        -4.078          35.000
C27  22615852.977 6 117766668.966 6     -1624.066          41.000
E02  24217216.195 7 127262343.253 7      -865.379          44.000    24217218.250 7  97512699.010 7      -663.020          47.000
E09  25695888.352 6 135032822.994 6      2752.246          41.000    25695896.555 7 103466744.897 7      2108.945          46.000
E25                                                                  26164477.258 6 105353456.209 6     -2308.297          40.000
E36  23276538.961 7 122319048.382 7       301.832          44.000    23276542.430 7  93725009.088 7       231.289          44.000
> 2020 05 17 15 13  0.0000000  0 15        .000000000000
G10  21523877.508 8 113108707.740 8      1940.617          51.000    21523879.914 8  88136699.138 8      1512.169          51.000
G16  20726079.664 8 108916268.990 8     -1320.797          51.000    20726078.477 8  84869800.805 8     -1029.195          50.000
G18  22967922.938 5 120697234.424 5     -3011.891          34.000
G20  20995152.828 7 110330314.779 7      -431.445          46.000    20995152.766 7  85971684.123 7      -336.191          42.000
G26  22166090.039 8 116483588.541 8     -3086.797          48.000    22166094.156 8  90766418.766 8     -2405.299          48.000
R05  21554105.258 6 115219039.194 6      2921.785          37.000    21554113.125 4  89614811.930 4      2272.493          29.000
R10  21335378.125 7 113729565.686 7     -3335.895          46.000
C05  39624556.273 5 206335460.967 5        -2.125          35.000
C27  22625184.922 6 117815271.014 6     -1628.027          41.000
C30  21887580.570 5 113974365.169 5       967.137          31.000
E02  24222157.953 7 127288309.628 7      -877.898          46.000    24222158.289 7  97532595.286 7      -672.607          47.000
E09  25680143.141 7 134950071.628 7      2752.230          42.000    25680149.539 7 103403338.080 7      2108.969          46.000
E11  24037966.000 5 126320349.330 5     -1805.574          33.000
E25                                                                  26181650.117 6 105422609.591 6     -2311.027          39.000
E36  23274794.523 7 122309882.006 7       297.184          44.000    23274798.453 7  93717985.479 7       227.745          44.000
> 2020 05 17 15 13 30.0000000  0 16        .000000000000
G10  21512868.133 8 113050854.388 8      1922.082          51.000    21512870.938 8  88091618.653 8      1497.726          51.000
G16  20733696.086 8 108956294.085 8     -1341.598          51.000    20733695.227 8  84900989.158 8     -1045.404          51.000
G18  22985153.109 5 120787782.239 5     -3017.711          32.000
G20  20997694.625 7 110343671.445 7      -453.062          46.000    20997693.961 7  85982091.870 7      -353.039          43.000
G21  22810540.922 5 119870219.748 5     -2403.242          32.000
G26  22183764.969 8 116576468.530 8     -3099.258          50.000    22183768.531 8  90838792.765 8     -2415.006          50.000
R04  21751813.031 5 116479920.274 5      -750.203          35.000
R05  21537785.062 5 115131798.018 5      2900.371          35.000    21537793.758 4  89546957.612 4      2255.847          28.000
R10  21354222.039 7 113830013.165 7     -3354.730          46.000
C05  39624592.664 5 206335651.116 5        -4.574          35.000
C27  22634607.102 6 117864329.426 6     -1636.547          40.000
C30  21882042.469 5 113945569.857 5       958.059          33.000
E02  24227234.602 7 127314987.724 7      -894.699          44.000    24227234.445 7  97553036.940 7      -685.609          47.000
E09  25664461.805 7 134867653.435 7      2747.980          43.000    25664466.031 7 103340186.555 7      2105.676          44.000
E25  26198916.875 5 137676245.040 5     -3023.605          34.000    26198906.188 6 105492094.513 6     -2317.010          38.000
E36  23273139.984 7 122301186.105 7       288.309          43.000    23273143.703 7  93711322.407 7       220.951          43.000
> 2020 05 17 15 14  0.0000000  0 13        .000000000000
G10  21501989.805 8 112993689.765 8      1893.473          50.000    21501992.734 8  88047074.830 8      1475.436          50.000
G16  20741456.594 8 108997075.993 8     -1372.508          51.000    20741455.859 8  84932767.254 8     -1069.487          51.000
G20  21000384.555 7 110357806.253 7      -484.770          45.000    21000384.055 7  85993106.009 7      -377.746          43.000
G26  22201536.047 8 116669853.191 8     -3121.852          50.000    22201538.867 8  90911559.993 8     -2432.612          50.000
R05  21521607.664 6 115045314.064 6      2869.508          40.000    21521616.047 4  89479692.569 4      2231.849          25.000
R10  21373196.375 7 113931153.557 7     -3383.484          47.000
C05  39624667.703 5 206336042.405 5       -16.852          35.000
C27  22644100.930 5 117913765.836 5     -1654.438          34.000
C30  21876582.633 5 113917185.438 5       938.859          34.000
E02  24232431.070 7 127342297.899 7      -921.414          43.000    24232431.359 7  97573962.921 7      -706.054          47.000
E09  25648828.516 7 134785491.366 7      2733.766          45.000    25648830.914 6 103277231.292 6      2094.943          41.000
E25  26216243.938 6 137767280.675 6     -3040.820          36.000    26216230.227 6 105561848.961 6     -2330.252          38.000
E36  23271559.469 6 122292881.197 6       269.699          41.000    23271562.758 7  93704958.935 7       206.536          42.000
> 2020 05 17 15 14 30.0000000  0 14        .000000000000
G10  21491169.883 8 112936830.949 8      1891.090          51.000    21491172.766 8  88002769.276 8      1473.583          51.000
G16  20749287.594 8 109038228.805 8     -1376.980          51.000    20749287.062 8  84964834.358 8     -1072.972          51.000
G20  21003149.133 7 110372333.704 7      -489.867          46.000    21003148.695 6  86004426.106 6      -381.715          41.000
G21  22838052.359 5 120014774.815 5     -2406.148          31.000
G26  22219329.344 8 116763355.240 8     -3117.812          51.000    22219331.133 8  90984418.674 8     -2429.467          51.000
R05  21505499.977 5 114959200.339 5      2865.223          35.000    21505503.531 4  89412739.179 4      2228.513          28.000
R10  21392226.594 7 114032591.319 7     -3385.281          46.000
C05  39624708.070 5 206336252.514 5        -2.953          35.000
C27  22653593.203 5 117963198.553 5     -1646.523          35.000
C30  21871135.297 5 113888830.981 5       945.699          31.000
E02  24237675.008 7 127369854.784 7      -921.770          45.000    24237675.414 7  97595077.923 7      -706.282          47.000
E09  25633170.375 7 134703202.660 7      2746.047          46.000    25633170.172 6 103214178.968 6      2103.904          37.000
E25  26233557.406 6 137858281.585 6     -3031.727          38.000    26233549.266 6 105631576.766 6     -2322.951          41.000
E36  23269979.617 6 122284582.095 6       277.527          40.000    23269982.539 6  93698599.907 6       212.501          41.000
> 2020 05 17 15 15  0.0000000  0 13        .000000000000
G10  21480440.008 8 112880444.208 8      1870.707          51.000    21480442.586 8  87958831.568 8      1457.694          51.000
G16  20757220.180 8 109079916.085 8     -1399.406          51.000    20757219.867 8  84997317.927 8     -1090.446          50.000
G20  21006019.586 7 110387417.606 7      -512.930          44.000    21006018.195 6  86016179.740 6      -399.685          40.000
G26  22237175.664 8 116857136.769 8     -3131.500          50.000    22237176.516 8  91057495.133 8     -2440.130          50.000
R05  21489491.367 4 114873628.199 4      2842.754          29.000    21489492.461 4  89346172.146 4      2211.028          28.000
R10  21411342.602 7 114134490.035 7     -3405.066          47.000
C05  39624744.852 5 206336444.450 5        -7.227          35.000
C27  22663117.625 5 118012790.354 5     -1656.750          34.000
C30  21865725.859 5 113860669.847 5       934.605          30.000
E02  24242997.477 7 127397822.250 7      -940.000          45.000    24242997.664 8  97616507.512 8      -720.221          48.000
E09  25617519.406 8 134620953.896 8      2739.992          48.000    25617516.055 6 103151157.211 6      2099.498          36.000
E25  26250894.492 6 137949410.302 6     -3040.531          40.000    26250892.820 7 105701402.564 7     -2329.740          43.000
E36  23268432.523 6 122276452.840 6       267.324          41.000    23268434.734 6  93692370.985 6       204.890          40.000
> 2020 05 17 15 15 30.0000000  0 13        .000000000000
G10  21469806.461 8 112824563.867 8      1854.559          51.000    21469809.445 8  87915288.501 8      1445.111          51.000
G16  20765260.656 8 109122169.385 8     -1417.664          51.000    20765260.289 8  85030242.554 8     -1104.673          50.000
G20  21009001.797 7 110403089.748 7      -532.086          42.000    21009000.617 6  86028391.829 6      -414.612          39.000
G26  22255080.719 8 116951227.943 8     -3141.148          49.000    22255080.852 8  91130812.841 8     -2447.651          49.000
R05  21473589.562 6 114788634.725 6      2823.645          36.000    21473589.484 4  89280056.171 4      2196.156          24.000
R10  21430549.953 7 114236877.584 7     -3420.773          45.000
C05  39624784.695 5 206336652.428 5        -7.109          35.000
C27  22672679.586 5 118062573.202 5     -1661.891          33.000
C30  21860361.500 5 113832734.842 5       928.188          31.000
E02  24248403.742 7 127426232.208 7      -954.160          45.000    24248404.367 8  97638276.164 8      -731.068          48.000
E09  25601882.125 7 134538779.621 7      2738.125          47.000    25601875.664 5 103088192.585 5      2098.038          35.000
E25  26268262.906 6 138040697.638 6     -3045.238          39.000    26268266.633 7 105771349.859 7     -2333.460          45.000
E36  23266924.445 7 122268525.578 7       261.270          42.000    23266925.984 6  93686296.851 6       200.155          41.000
> 2020 05 17 15 16  0.0000000  0 11        .000000000000
G10  21459263.023 8 112769156.469 8      1839.684          51.000    21459266.188 8  87872113.953 8      1433.520          51.000
G16  20773401.883 8 109164952.166 8     -1434.152          51.000    20773401.219 8  85063579.758 8     -1117.524          49.000
G20  21012089.180 7 110419314.381 7      -549.230          42.000    21012087.586 6  86041034.362 6      -427.972          36.000
G26  22273037.461 8 117045591.071 8     -3149.391          48.000    22273037.633 8  91204342.480 8     -2454.074          49.000
R05  21457793.453 6 114704188.381 6      2806.391          39.000    21457796.055 4  89214375.679 4      2182.745          29.000
R10  21449841.117 7 114339714.167 7     -3434.469          46.000
C05  39624820.906 5 206336839.531 5        -5.078          35.000
E02  24253886.898 7 127455048.752 7      -966.629          45.000    24253888.727 8  97660356.372 8      -740.637          49.000
E09  25586252.336 7 134456646.570 7      2737.754          47.000    25586244.797 6 103025259.565 6      2097.688          37.000
E25  26285654.711 5 138132106.411 5     -3048.035          34.000    26285663.391 7 105841390.315 7     -2335.636          46.000
E36  23265448.055 6 122260764.634 6       256.777          40.000    23265449.766 7  93680350.151 7       196.623          42.000
> 2020 05 17 15 16 30.0000000  0 14        .000000000000
G10  21448772.641 8 112714026.703 8      1822.832          51.000    21448775.594 8  87829155.710 8      1420.392          51.000
G16  20781606.305 8 109208066.032 8     -1452.762          51.000    20781604.867 8  85097174.968 8     -1132.022          48.000
G18  23088961.727 6 121333274.855 6     -3040.691          36.000
G20  21015243.797 6 110435893.581 6      -568.449          40.000    21015241.266 5  86053953.175 5      -442.944          34.000
G26  22291007.781 7 117140026.590 7     -3158.898          47.000    22291008.703 7  91277928.536 7     -2461.482          47.000
R05  21442062.797 5 114620092.576 5      2787.047          34.000    21442063.672 4  89148983.857 4      2167.703          27.000
R10  21469179.062 7 114442795.210 7     -3450.195          46.000
C05  39624815.664 5 206336812.424 5        -5.910          35.000
C27  22691861.734 5 118162478.002 5     -1672.832          30.000
C30  21849714.594 5 113777161.646 5       914.352          30.000
E02  24259409.586 7 127484074.114 7      -980.988          45.000    24259413.086 8  97682596.626 8      -751.651          49.000
E09  25570593.211 8 134374359.768 8      2735.355          48.000    25570587.375 6 102962208.743 6      2096.071          40.000
E25                                                                  26303044.312 7 105911371.413 7     -2339.348          46.000
E36  23263964.898 6 122252972.433 6       249.840          39.000    23263967.914 7  93674379.495 7       191.702          43.000
> 2020 05 17 15 17  0.0000000  0 12        .000000000000
G10  21438470.977 8 112659889.635 8      1790.961          51.000    21438473.781 8  87786970.988 8      1395.554          51.000
G16  20790009.328 8 109252223.328 8     -1486.309          50.000    20790007.492 8  85131583.258 8     -1158.163          48.000
G18  23106387.719 6 121424845.544 6     -3059.660          37.000
G20  21018601.602 6 110453539.967 6      -602.969          40.000    21018601.516 5  86067703.502 5      -469.855          33.000
G26  22309126.742 7 117235245.413 7     -3184.016          45.000    22309129.172 7  91352124.973 7     -2481.051          46.000
R10  21488697.508 7 114546840.183 7     -3481.195          47.000
C05  39624904.891 5 206337276.918 5       -20.996          35.000
C27  22701576.156 5 118213043.645 5     -1693.715          31.000
E02  24265107.984 7 127514021.066 7     -1010.758          46.000    24265112.414 8  97705542.980 8      -774.387          49.000
E09  25555040.727 8 134292634.568 8      2717.734          49.000    25555037.852 7 102899588.245 7      2082.366          43.000
E25                                                                  26320545.047 7 105981838.374 7     -2354.714          45.000
E36  23262612.094 7 122245861.880 7       228.719          43.000    23262615.711 7  93668931.169 7       175.105          43.000
> 2020 05 17 15 17 30.0000000  0 12        .000000000000
G10  21428175.148 8 112605785.273 8      1802.961          51.000    21428178.047 8  87744811.765 8      1404.905          51.000
G16  20798427.539 8 109296461.137 8     -1475.973          50.000    20798425.633 8  85166054.283 8     -1150.106          48.000
G18  23123745.984 5 121516053.282 5     -3034.234          32.000
G20  21021979.047 6 110471290.753 6      -593.516          39.000    21021979.680 4  86081535.038 4      -462.492          26.000
G26  22327210.992 7 117330283.359 7     -3164.906          45.000    22327215.672 7  91426180.521 7     -2466.161          46.000
R05  21411022.633 5 114454242.336 5      2761.469          34.000
R10  21508213.195 8 114650869.121 8     -3467.332          48.000
C05  39624905.516 5 206337280.030 5         7.676          35.000
E02  24270798.828 7 127543927.180 7      -996.250          45.000    24270803.258 8  97728458.021 8      -763.402          48.000
E09  25539412.320 8 134210511.306 8      2744.012          49.000    25539413.062 7 102836662.697 7      2102.530          44.000
E25                                                                  26337982.250 7 106052052.875 7     -2336.340          43.000
E36  23261206.547 7 122238470.950 7       250.938          46.000    23261209.539 7  93663267.945 7       192.468          43.000
> 2020 05 17 15 18  0.0000000  0 12        .000000000000
G10  21418064.164 8 112552653.034 8      1759.766          51.000    21418067.531 8  87703410.038 8      1371.246          51.000
G16  20807039.305 8 109341715.989 8     -1520.535          50.000    20807037.312 8  85201317.820 8     -1184.830          48.000
G20  21025554.984 6 110490083.207 6      -638.848          41.000    21025556.727 5  86096178.516 5      -497.803          30.000
G26  22345439.312 7 117426075.725 7     -3200.730          47.000    22345445.102 7  91500823.919 7     -2494.076          47.000
R05  21395713.359 5 114372396.710 5      2715.699          34.000    21395726.000 5  88956314.614 5      2112.214          30.000
R10  21527903.711 8 114755829.085 8     -3509.199          48.000
C05  39624995.766 5 206337749.846 5       -18.613          35.000
C27  22721019.164 5 118314293.638 5     -1703.297          32.000
E02  24276659.789 7 127574729.478 7     -1036.848          44.000    24276663.461 7  97752059.717 7      -794.465          47.000
E09  25523886.852 8 134128929.700 8      2715.227          48.000    25523891.086 7 102774152.175 7      2080.510          45.000
E25  26355529.617 6 138499237.168 6     -3080.090          37.000    26355534.703 7 106122732.024 7     -2360.189          42.000
E36  23259925.828 7 122231736.799 7       218.266          45.000    23259927.734 7  93658108.017 7       167.416          43.000
> 2020 05 17 15 18 30.0000000  0 13        .000000000000
G10  21407980.352 8 112499662.614 8      1764.672          51.000    21407983.680 8  87662118.807 8      1375.069          51.000
G16  20815686.211 8 109387154.939 8     -1516.871          51.000    20815684.367 8  85236724.785 8     -1181.977          49.000
G20  21029170.953 6 110509084.240 6      -635.812          39.000    21029171.609 5  86110984.342 5      -495.447          33.000
G26  22363652.914 8 117521788.139 8     -3188.469          48.000    22363658.891 8  91575404.999 8     -2484.521          48.000
R04  21801417.203 5 116745538.392 5     -1006.602          33.000
R05  21380438.828 6 114290772.451 6      2718.270          38.000    21380450.836 5  88892829.112 5      2114.210          33.000
R10  21547609.609 8 114860871.671 8     -3502.047          50.000
C05  39625017.703 5 206337864.078 5         3.320          35.000
C30  21829028.102 5 113669477.373 5       894.680          31.000
E02  24282532.922 7 127605595.183 7     -1029.215          45.000    24282535.258 7  97775710.029 7      -788.550          47.000
E09  25508306.453 7 134047059.863 7      2734.516          47.000    25508313.328 7 102711420.797 7      2095.377          43.000
E25  26373040.031 6 138591252.077 6     -3062.535          38.000    26373044.242 6 106193236.832 6     -2346.618          40.000
E36  23258610.789 7 122224827.056 7       234.023          45.000    23258612.547 7  93652813.596 7       179.182          43.000
> 2020 05 17 15 19  0.0000000  0 15        .000000000000
G10  21397995.789 8 112447193.055 8      1733.191          51.000    21397998.992 8  87621233.465 8      1350.539          51.000
G16  20824439.578 8 109433153.344 8     -1549.699          51.000    20824437.867 8  85272567.715 8     -1207.558          49.000
G20  21032897.672 6 110528669.847 6      -669.836          36.000    21032898.227 5  86126245.918 5      -521.947          35.000
G26  22381922.844 8 117617795.232 8     -3212.188          48.000    22381928.391 8  91650215.679 8     -2503.003          48.000
R04  21807176.375 5 116776355.857 5     -1047.746          33.000
R05  21365285.250 5 114209757.315 5      2682.816          35.000    21365294.188 5  88829817.363 5      2086.638          35.000
R10  21567401.781 8 114966374.814 8     -3531.547          48.000
C05  39625042.758 5 206337995.312 5       -11.195          35.000
C27  22740531.977 4 118415912.748 4     -1707.523          27.000
C30  21823931.844 4 113642953.503 4       873.598          29.000
E02  24288489.875 7 127636900.753 7     -1057.957          46.000    24288491.523 7  97799697.429 7      -810.660          47.000
E09  25492743.172 7 133965280.919 7      2717.238          45.000    25492752.250 7 102648759.044 7      2082.171          42.000
E11  24163117.117 5 126978037.164 5     -1848.113          33.000
E25  26390579.445 6 138683414.915 6     -3081.953          38.000    26390581.773 6 106263854.933 6     -2361.116          40.000
E36  23257334.016 7 122218118.582 7       213.121          45.000    23257335.961 7  93647673.333 7       163.345          43.000
> 2020 05 17 15 19 30.0000000  0 11        .000000000000
G10  21388146.453 8 112395434.961 8      1712.715          51.000    21388149.703 8  87580902.541 8      1334.586          51.000
G16  20833335.000 8 109479899.533 8     -1571.328          51.000    20833333.625 8  85308993.308 8     -1224.412          49.000
G20  21036771.891 6 110549029.050 6      -692.223          40.000    21036772.617 6  86142110.126 6      -539.394          38.000
G26  22400284.500 8 117714283.983 8     -3224.969          48.000    22400289.188 8  91725401.677 8     -2512.966          48.000
R05  21350282.992 6 114129548.037 6      2659.668          36.000    21350288.016 6  88767432.333 6      2068.625          37.000
R10  21587315.266 8 115072526.200 8     -3549.898          48.000
