     3.02           OBSERVATION DATA    M (MIXED)           RINEX VERSION / TYPE
SAVERINEX           SC600               20200507 113228 LCL PGM / RUN BY / DATE
       G = GPS       R = GLONASS       C = COMPASS          COMMENT
       S = SBAS      J = QZSS          E = GALILEO          COMMENT
BEAN                                                        MARKER NAME
1                                                           MARKER NUMBER
GEODETIC                                                    MARKER TYPE
Unige DICCA         GTER                                    OBSERVER / AGENCY
SC60291900056       SC600               2.12(191226)        REC # / TYPE / VERS
                    HEMA45          NONE                    ANT # / TYPE
  4509407.8091   693652.4678  4442337.6214                  APPROX POSITION XYZ
        0.0000        0.0000        0.0000                  ANTENNA: DELTA H/E/N
G    8 C1C L1C D1C S1C C2Y L2Y D2Y S2Y                      SYS / # / OBS TYPES
R    8 C1C L1C D1C S1C C2P L2P D2P S2P                      SYS / # / OBS TYPES
C    4 C1I L1I D1I S1I                                      SYS / # / OBS TYPES
E    8 C1C L1C D1C S1C C7Q L7Q D7Q S7Q                      SYS / # / OBS TYPES
DBHZ                                                        COMMENT
     30.000                                                 INTERVAL
  2020    05    07    09    00    0.0000000     GPS         TIME OF FIRST OBS
  2020    05    07    09    32    0.0000000     GPS         TIME OF LAST OBS
     0                                                      RCV CLOCK OFFS APPL
G L1C  0.00000                                              SYS / PHASE SHIFT
G L2Y  0.00000                                              SYS / PHASE SHIFT
R L1C  0.00000                                              SYS / PHASE SHIFT
R L2P  0.25000                                              SYS / PHASE SHIFT
C L1I  0.00000                                              SYS / PHASE SHIFT
E L1C  0.50000                                              SYS / PHASE SHIFT
E L7Q -0.25000                                              SYS / PHASE SHIFT
 12 R01  1 R02 -4 R03  5 R08  6 R09 -2 R10 -5 R11  0 R12 -1 GLONASS SLOT / FRQ #
    R20  2 R21  4 R22 -3 R23  3                             GLONASS SLOT / FRQ #
 C1C   71.950 C2C   71.950 C2P   71.950                     GLONASS COD/PHS/BIS
    18                                                      LEAP SECONDS
*** Above antenna height is from mark to ANTENNA BOTTOM.    COMMENT
    17     4        0.0000        ANT MEASURE TYPE/HEIGT    COMMENT
    0.0000    0.0000    0.0458    0.0405    0.0000          COMMENT
                    BASE STATION                            COMMENT
                                                            END OF HEADER
> 2020 05 07 09 00  0.0000000  0 14        .000000000000
G02  23929925.172 5 125752631.306 5      2138.629          35.000
G12  20057430.055 8 105402492.192 8       108.922          49.000    20057429.133 8  82131813.905 8        84.874          48.000
G19  22981632.953 5 120769312.911 5     -2949.801          32.000
G24  20669961.828 8 108621349.666 8     -1598.309          51.000    20669964.484 8  84640017.639 8     -1245.435          51.000
R03  21768368.195 6 116527776.241 6     -2558.379          40.000
R21  23329238.531 5 124839403.594 5     -3554.453          30.000
R22  20362365.055 6 108695796.344 6        -3.352          41.000    20362370.477 6  84541157.893 6        -2.610          40.000
R23  21841891.148 8 116839355.051 8      4169.477          50.000    21841897.016 7  90875042.124 7      3242.926          42.000
C27  24715651.344 5 128700902.723 5     -2207.156          31.000
C29  24131747.617 7 125660316.567 7      3191.004          45.000
C30  22410384.281 8 116696816.012 8       635.062          51.000
E09  24000644.945 8 126124246.330 8     -2585.645          48.000    24000647.617 7  96640634.156 7     -1981.193          47.000
E31  23765762.297 8 124889924.785 8      -699.246          51.000    23765765.789 8  95694930.565 8      -535.789          51.000
E33                                                                  25638917.047 6 103237302.377 6      1264.630          36.000
> 2020 05 07 09 00 30.0000000  0 15        .000000000000
G02  23917749.266 5 125688619.819 5      2133.641          32.000    23917753.547 5  97939201.643 5      1662.577          31.000
G12  20056844.297 8 105399413.845 8       100.328          49.000    20056843.594 8  82129415.187 8        78.178          49.000
G19  22998508.516 5 120857992.666 5     -2959.062          34.000
G24  20679124.078 8 108669496.350 8     -1607.520          51.000    20679126.633 8  84677534.528 8     -1252.613          51.000
R03  21782760.492 6 116604818.230 6     -2573.672          40.000
R12  20555622.711 6 109804438.747 6     -1797.801          38.000    20555625.289 5  85403492.841 5     -1398.289          30.000
R22  20362465.430 6 108696324.847 6       -27.648          41.000    20362470.023 6  84541568.947 6       -21.504          40.000
R23  21818536.250 8 116714423.903 8      4163.293          48.000    21818542.711 7  90777873.453 7      3238.114          42.000
C27  24728403.789 4 128767286.237 4     -2214.957          29.000
C29  24113381.875 7 125564681.661 7      3188.715          44.000
C30  22406773.375 8 116678013.498 8       622.406          51.000
E09  24015425.195 8 126201911.761 8     -2587.977          49.000    24015426.523 7  96700143.971 7     -1983.073          47.000
E24  22827112.141 5 119957283.677 5      1415.035          33.000
E31  23769767.320 8 124910969.948 8      -699.699          51.000    23769770.680 8  95711056.079 8      -536.112          51.000
E33  25629537.547 5 134684118.329 5      1642.176          32.000    25629532.852 5 103199510.972 5      1258.105          33.000
> 2020 05 07 09 01  0.0000000  0 12        .000000000000
G12  20056316.227 8 105396638.357 8        86.559          50.000    20056315.391 8  82127252.457 8        67.448          49.000
G24  20688346.164 8 108717958.069 8     -1621.359          51.000    20688348.609 8  84715296.910 8     -1263.397          51.000
R03  21797243.031 6 116682348.274 6     -2593.461          38.000
R12  20565751.234 5 109858557.480 5     -1807.676          32.000
R22  20362710.078 6 108697625.521 6       -57.105          40.000    20362713.648 6  84542580.542 6       -44.415          41.000
R23  21795223.523 8 116589721.363 8      4152.043          48.000    21795230.242 6  90680882.584 6      3229.364          38.000
C29  24095035.500 7 125469150.732 7      3181.684          45.000
C30  22403243.352 8 116659633.532 8       604.840          51.000
E01  27229984.289 5 143094531.983 5     -2191.969          30.000
E09  24030227.141 8 126279691.164 8     -2595.457          50.000    24030227.172 7  96759741.121 7     -1988.658          47.000
E24  22819052.703 5 119914934.001 5      1410.023          33.000
E31  23773783.086 8 124932071.884 8      -705.219          51.000    23773786.266 8  95727225.089 8      -540.356          51.000
> 2020 05 07 09 01 30.0000000  0 11        .000000000000
G12  20055845.672 8 105394164.996 8        72.848          50.000    20055844.711 8  82125325.169 8        56.764          50.000
G24  20697628.102 8 108766734.992 8     -1635.770          51.000    20697630.453 8  84753304.885 8     -1274.629          51.000
R03  21811815.664 6 116760362.168 6     -2613.203          38.000    21811813.016 4  90813596.140 4     -2032.491          29.000
R12  20575913.117 6 109912847.661 6     -1817.289          37.000
R21  23389342.906 5 125161069.444 5     -3596.145          33.000
R22  20363099.164 6 108699698.258 6       -86.746          40.000    20363102.461 6  84544192.792 6       -67.466          41.000
R23  21771954.938 8 116465251.403 8      4140.332          48.000    21771960.312 5  90584072.629 5      3220.258          34.000
C29  24076709.328 7 125373725.841 7      3174.336          45.000
C30  22399794.773 8 116641676.384 8       586.926          51.000
E09  24045050.109 8 126357582.421 8     -2602.949          49.000    24045049.273 7  96819423.981 7     -1994.512          46.000
E31  23777809.492 8 124953230.222 8      -710.957          51.000    23777812.453 8  95743437.324 8      -544.738          51.000
> 2020 05 07 09 02  0.0000000  0 13        .000000000000
G12  20055488.961 8 105392290.187 8        55.371          50.000    20055488.133 8  82123864.289 8        43.146          50.000
G24  20707026.500 8 108816123.327 8     -1653.691          51.000    20707028.773 8  84791789.275 8     -1288.591          51.000
R03  21826535.773 6 116839159.052 6     -2636.914          37.000    21826536.266 5  90874882.605 5     -2050.933          33.000
R12  20586169.094 5 109967622.524 5     -1830.594          35.000
R21  23409564.227 5 125269277.135 5     -3614.809          33.000
R22  20363689.820 6 108702844.768 6      -119.988          41.000    20363691.477 7  84546639.968 7       -93.324          42.000
R23  21748787.195 7 116341321.370 7      4124.758          46.000    21748790.336 5  90487682.770 5      3208.154          31.000
C27  24767042.797 5 128968489.784 5     -2257.051          32.000
C29  24058460.961 7 125278703.716 7      3163.523          45.000
C30  22396483.984 8 116624437.061 8       565.527          51.000
E09  24059950.031 8 126435880.895 8     -2613.781          49.000    24059949.430 7  96879418.870 7     -2002.875          47.000
E31  23781903.117 8 124974742.069 8      -720.133          51.000    23781905.875 8  95759920.424 8      -551.790          51.000
E33  25601743.648 5 134538073.139 5      1599.191          32.000
> 2020 05 07 09 02 30.0000000  0 14        .000000000000
G12  20055195.016 8 105390745.625 8        45.477          50.000    20055194.125 8  82122660.740 8        35.436          50.000
G24  20716490.086 8 108865854.604 8     -1663.848          51.000    20716492.297 8  84830540.904 8     -1296.505          51.000
R03  21841345.453 5 116918461.870 5     -2652.609          30.000    21841354.164 5  90936562.700 5     -2063.138          35.000
R12  20596462.375 6 110022610.466 6     -1837.168          37.000
R21  23429856.406 4 125377870.174 4     -3625.547          29.000
R22  20364429.430 6 108706793.210 6      -145.320          40.000    20364431.977 7  84549711.096 7      -113.027          42.000
R23  21725670.422 7 116217663.515 7      4116.738          44.000    21725675.242 6  90391504.549 6      3201.908          36.000
C27  24780066.812 5 129036319.162 5     -2265.953          33.000
C29  24040239.820 7 125183821.486 7      3159.918          45.000
C30  22393260.070 8 116607650.906 8       551.500          51.000
E09  24074875.492 7 126514317.110 7     -2617.375          47.000    24074876.586 7  96939519.290 7     -2005.389          47.000
E24  22795046.992 5 119788785.330 5      1395.965          32.000
E31  23786013.070 8 124996339.751 8      -721.855          51.000    23786015.555 8  95776469.286 8      -553.053          51.000
E33  25592637.109 5 134490215.562 5      1589.648          32.000
> 2020 05 07 09 03  0.0000000  0 12        .000000000000
G12  20054965.578 8 105389540.026 8        32.996          51.000    20054964.438 8  82121721.294 8        25.708          51.000
G24  20726020.531 8 108915938.228 8     -1676.773          51.000    20726022.766 8  84869567.080 8     -1306.577          51.000
R03  21856252.305 4 116998276.244 4     -2670.359          29.000    21856265.523 5  90998640.547 5     -2076.946          33.000
R12  20606798.859 6 110077819.998 6     -1845.273          39.000    20606812.812 4  85616122.373 4     -1435.213          28.000
R21  23450216.062 4 125486834.801 4     -3639.914          28.000
R22  20365321.172 7 108711552.431 7      -173.523          43.000    20365323.516 7  84553412.737 7      -134.960          42.000
R23  21702605.484 6 116094291.633 6      4106.352          40.000    21702614.633 6  90295548.575 6      3193.826          38.000
C27  24793151.414 5 129104458.126 5     -2278.188          32.000
C29  24022047.359 7 125089090.485 7      3153.695          44.000
C30  22390124.930 8 116591327.349 8       535.059          51.000
E09  24089827.969 7 126592898.283 7     -2623.207          45.000    24089831.945 8  96999730.814 8     -2010.044          48.000
E31  23790141.008 8 125018032.271 8      -726.133          51.000    23790143.266 8  95793090.813 8      -556.393          51.000
> 2020 05 07 09 03 30.0000000  0  9        .000000000000
G12  20054828.461 8 105388819.475 8         2.684          51.000    20054827.492 8  82121159.838 8         2.091          51.000
G24  20735645.672 8 108966519.476 8     -1707.699          51.000    20735647.984 8  84908980.978 8     -1330.678          51.000
R12  20617200.023 6 110133379.575 6     -1872.676          38.000    20617213.047 4  85659334.464 4     -1456.526          28.000
R22  20366392.453 7 108717271.183 7      -220.055          43.000    20366394.625 7  84557860.675 7      -171.154          42.000
R23  21679624.055 7 115971359.168 7      4076.875          44.000    21679634.711 6  90199934.354 6      3170.900          39.000
C29  24003912.211 7 124994658.161 7      3129.402          45.000
C30  22387107.023 8 116575612.121 8       500.504          51.000
E09  24104835.633 7 126671769.145 7     -2647.254          45.000    24104842.586 8  97060164.318 8     -2028.358          48.000
E31  23794314.922 8 125039966.122 8      -748.492          51.000    23794316.953 8  95809897.256 8      -573.526          51.000
> 2020 05 07 09 04  0.0000000  0 10        .000000000000
G12  20054741.305 8 105388361.389 8         4.551          51.000    20054740.547 8  82120802.898 8         3.546          51.000
G24  20745323.625 8 109017376.401 8     -1706.223          51.000    20745325.656 8  84948609.728 8     -1329.524          51.000
R12  20627634.578 6 110189105.394 6     -1866.434          39.000
R22  20367600.797 7 108723723.992 7      -233.809          42.000    20367603.211 7  84562879.551 7      -181.848          42.000
R23  21656684.797 7 115848644.733 7      4080.238          44.000    21656695.156 6  90104489.759 6      3173.519          39.000
C27  24819540.516 4 129241862.586 4     -2303.496          29.000
C29  23985793.438 7 124900306.934 7      3137.301          47.000
C30  22384163.969 8 116560285.853 8       498.105          51.000
E09  24119856.766 7 126750705.995 7     -2638.805          46.000    24119865.414 8  97120648.400 8     -2022.022          48.000
E31  23798492.547 8 125061919.425 8      -738.605          51.000    23798494.484 8  95826718.614 8      -565.974          51.000
> 2020 05 07 09 04 30.0000000  0 13        .000000000000
G12  20054752.352 8 105388419.181 8        -8.121          51.000    20054751.273 8  82120847.921 8        -6.328          51.000
G19  23136013.977 4 121580573.887 4     -3063.449          28.000
G24  20755102.375 8 109068762.362 8     -1719.277          51.000    20755103.930 8  84988650.715 8     -1339.697          51.000
G25  21059007.227 5 110665859.176 5      1880.293          33.000
R03  21901666.641 5 117241229.529 5     -2727.828          34.000    21901647.047 5  91187626.982 5     -2121.650          32.000
R12  20638141.953 6 110245234.578 6     -1875.184          39.000    20638151.836 4  85746317.765 4     -1458.485          27.000
R22  20368995.117 7 108731168.188 7      -262.004          43.000    20368998.672 6  84568669.520 6      -203.781          40.000
R23  21633834.773 7 115726411.632 7      4068.949          45.000    21633845.086 6  90009419.568 6      3164.735          37.000
C27  24832846.984 4 129311154.020 4     -2315.609          29.000
C29  23967739.781 8 124806290.658 8      3130.758          50.000
C30  22381343.789 8 116545600.465 8       481.234          51.000
E09  24134939.211 8 126829960.877 8     -2644.738          48.000    24134947.859 7  97181376.137 7     -2026.482          46.000
E31  23802722.195 8 125084145.985 8      -743.070          51.000    23802724.117 8  95843749.345 8      -569.360          51.000
> 2020 05 07 09 05  0.0000000  0 12        .000000000000
G12  20054830.914 8 105388831.966 8       -20.262          50.000    20054829.547 8  82121169.561 8       -15.788          51.000
G24  20764951.023 8 109120516.143 8     -1731.891          51.000    20764952.562 8  85028978.324 8     -1349.528          51.000
R03  21917001.273 6 117323323.760 6     -2745.785          40.000    21916980.875 5  91251477.937 5     -2135.617          31.000
R12  20648694.141 6 110301604.076 6     -1883.469          39.000    20648693.430 4  85790160.686 4     -1464.917          25.000
R22  20370543.750 7 108739440.713 7      -290.082          42.000    20370547.773 6  84575103.777 6      -225.619          37.000
R23  21611045.758 7 115604501.484 7      4057.562          46.000    21611055.070 6  89914600.527 6      3155.882          36.000
C27  24846216.719 5 129380777.385 5     -2326.727          32.000
C29  23949720.625 8 124712452.797 8      3124.352          51.000
C30  22378616.508 8 116531397.568 8       464.797          51.000
E09  24150051.578 8 126909371.653 8     -2650.316          48.000    24150059.102 7  97242223.314 7     -2030.732          45.000
E31  23806973.297 8 125106485.410 8      -747.211          51.000    23806975.258 8  95860866.555 8      -572.529          51.000
E33  25548166.188 5 134256521.635 5      1525.277          35.000    25548169.320 6 102871888.543 6      1169.105          37.000
> 2020 05 07 09 05 30.0000000  0 12        .000000000000
G12  20054981.922 8 105389625.330 8       -33.031          51.000    20054980.648 8  82121787.767 8       -25.739          51.000
G24  20774874.508 8 109172664.136 8     -1745.129          51.000    20774876.578 8  85069613.106 8     -1359.841          51.000
R03  21932432.906 7 117405954.428 7     -2763.562          43.000    21932414.734 4  91315727.149 4     -2149.441          27.000
R12  20659297.234 7 110358240.314 7     -1892.816          42.000    20659296.352 5  85834193.538 5     -1472.191          31.000
R22  20372253.477 6 108748567.832 6      -319.109          37.000    20372257.844 6  84582202.627 6      -248.193          37.000
R23  21588322.711 7 115482945.100 7      4045.598          46.000    21588331.242 5  89820056.727 5      3146.579          34.000
C27  24859653.906 5 129450744.685 5     -2338.090          35.000
C29  23931740.703 8 124618821.461 8      3117.242          51.000
C30  22375986.867 8 116517703.368 8       447.695          51.000
E09  24165197.812 7 126988962.506 7     -2656.242          46.000    24165203.680 7  97303208.460 7     -2035.279          42.000
E31  23811250.766 8 125128963.778 8      -751.852          51.000    23811252.922 8  95878090.232 8      -576.085          51.000
E33  25539492.266 6 134210936.340 6      1513.023          36.000    25539494.750 6 102836959.532 6      1159.210          36.000
> 2020 05 07 09 06  0.0000000  0 13        .000000000000
G12  20055209.727 8 105390822.767 8       -46.438          50.000    20055208.680 8  82122720.823 8       -36.185          50.000
G24  20784877.203 8 109225229.319 8     -1758.996          50.000    20784879.664 8  85110573.001 8     -1370.646          50.000
R03  21947966.797 7 117489142.734 7     -2782.027          42.000    21947957.617 4  91380429.050 4     -2163.808          28.000
R12  20669953.961 5 110415168.249 5     -1901.996          35.000    20669950.266 5  85878470.257 5     -1479.339          31.000
R22  20374126.984 6 108758573.600 6      -347.805          40.000    20374133.695 5  84589985.065 5      -270.515          32.000
R23  21565671.172 7 115361771.769 7      4032.781          47.000    21565677.281 5  89725810.873 5      3136.611          33.000
C27  24873161.203 5 129521078.044 5     -2349.922          33.000
C29  23913804.797 8 124525423.024 8      3109.520          51.000
C30  22373459.656 8 116504542.363 8       430.008          51.000
E09  24180381.711 7 127068755.880 7     -2662.758          43.000    24180385.336 6  97364348.745 6     -2040.409          40.000
E24  22739857.594 5 119498745.022 5      1365.598          35.000
E31  23815559.305 8 125151605.360 8      -757.223          51.000    23815561.703 8  95895438.973 8      -580.183          51.000
E33  25530891.742 5 134165747.936 5      1499.547          35.000    25530896.688 6 102802338.438 6      1149.237          38.000
> 2020 05 07 09 06 30.0000000  0 12        .000000000000
G12  20055507.961 8 105392390.490 8       -58.016          50.000    20055506.977 8  82123942.425 8       -45.207          50.000
G24  20794952.742 8 109278178.410 8     -1770.848          49.000    20794955.898 8  85151832.045 8     -1379.878          49.000
R03  21963597.961 6 117572850.662 6     -2798.293          39.000    21963618.945 4  91445632.323 4     -2176.450          28.000
R12  20680658.758 6 110472353.973 6     -1910.277          38.000    20680660.438 5  85922948.029 5     -1485.768          35.000
R22  20376159.188 6 108769423.460 6      -375.711          39.000
R23  21543085.844 8 115240952.426 8      4021.871          49.000    21543090.148 6  89631840.372 6      3128.128          37.000
C27  24886732.609 5 129591742.573 5     -2360.930          32.000
C29  23895906.914 8 124432226.800 8      3103.547          50.000
C30  22371028.492 8 116491881.940 8       414.047          51.000
E09  24195595.148 6 127148716.646 6     -2667.664          36.000    24195599.242 6  97425617.329 6     -2044.018          40.000
E31  23819892.586 8 125174376.827 8      -760.727          51.000    23819895.117 8  95912887.228 8      -582.900          51.000
E33  25522361.789 6 134120918.668 6      1488.145          36.000    25522369.477 6 102768001.019 6      1140.183          39.000
> 2020 05 07 09 07  0.0000000  0 12        .000000000000
G12  20055881.531 8 105394353.081 8       -73.012          50.000    20055880.406 8  82125471.709 8       -56.892          50.000
G24  20805105.992 8 109331535.243 8     -1786.266          50.000    20805109.750 8  85193408.802 8     -1391.895          50.000
R03  21979331.156 5 117657099.253 5     -2818.141          33.000    21979362.578 4  91511193.123 4     -2191.878          25.000
R22  20378355.086 6 108781142.750 6      -406.238          37.000    20378381.711 4  84607576.090 4      -315.945          29.000
R23  21520572.375 8 115120516.799 8      4007.125          51.000    21520576.672 6  89538168.252 6      3116.653          40.000
C27  24900372.211 4 129662772.328 4     -2373.715          27.000
C29  23878052.438 8 124339259.723 8      3093.984          49.000
C30  22368697.922 8 116479747.065 8       394.684          51.000
E09  24210839.789 5 127228867.792 5     -2676.031          34.000    24210850.781 6  97487031.833 6     -2050.346          40.000
E12  25224750.250 6 132556957.940 6      3100.402          41.000
E31  23824255.312 8 125197303.044 8      -767.840          51.000    23824257.773 8  95930454.067 8      -588.312          51.000
E33  25513909.578 5 134076501.900 5      1473.082          34.000    25513916.148 6 102733967.311 6      1128.602          39.000
> 2020 05 07 09 07 30.0000000  0 12        .000000000000
G12  20056354.625 8 105396838.929 8       -64.453          50.000    20056353.648 8  82127408.735 8       -50.223          50.000
G24  20815361.734 8 109385429.088 8     -1778.289          51.000    20815365.484 8  85235403.994 8     -1385.680          51.000
R03  21995186.070 5 117742016.329 5     -2814.141          34.000    21995222.117 4  91577229.694 4     -2188.779          26.000
R12  20702253.602 4 110587721.378 4     -1908.195          28.000    20702255.352 6  86012672.195 6     -1484.152          38.000
R22  20380738.250 6 108793861.820 6      -412.883          39.000    20380741.648 4  84617380.011 4      -321.125          29.000
R23  21498155.586 8 115000601.111 8      4016.121          50.000    21498160.711 6  89444900.544 6      3123.653          40.000
C29  23860267.375 8 124246652.271 8      3107.855          50.000
C30  22366493.336 8 116468266.310 8       398.742          51.000
E09  24226155.109 6 127309290.916 6     -2660.367          38.000    24226164.555 6  97548689.989 6     -2038.544          41.000
E12  25207075.125 6 132464080.327 6      3119.773          41.000
E31  23828672.102 8 125220513.368 8      -751.227          51.000    23828674.500 8  95948238.597 8      -575.615          51.000
E33                                                                  25505563.875 6 102700337.663 6      1135.166          40.000
> 2020 05 07 09 08  0.0000000  0 12        .000000000000
G12  20056842.055 8 105399400.158 8      -108.074          51.000    20056841.164 8  82129404.510 8       -84.214          51.000
G24  20825634.508 8 109439411.953 8     -1822.355          51.000    20825637.789 8  85277468.530 8     -1420.020          51.000
G32  22449079.773 6 117970702.471 6      1438.023          38.000
R03  22011084.438 6 117827142.234 6     -2862.953          38.000
R22  20383223.805 6 108807125.968 6      -472.863          41.000    20383227.039 5  84627688.579 5      -367.780          33.000
R23  21475751.320 7 114880754.502 7      3971.855          47.000    21475756.664 6  89351686.571 6      3089.221          38.000
C29  23842467.414 8 124153963.272 8      3069.633          51.000
C30  22364329.062 8 116456996.584 8       350.805          51.000
E09  24241443.836 6 127389628.785 6     -2697.176          40.000    24241454.016 6  97610247.530 6     -2066.793          41.000
E12  25189351.820 6 132370952.098 6      3086.941          40.000
E31  23833057.789 8 125243560.321 8      -786.977          51.000    23833060.188 8  95965897.945 8      -603.083          51.000
E33                                                                  25497227.562 6 102666770.278 6      1101.500          39.000
> 2020 05 07 09 08 30.0000000  0 15        .000000000000
G12  20057434.438 8 105402512.871 8      -109.684          51.000    20057433.141 8  82131829.973 8       -85.471          51.000
G19  23277986.344 5 122326633.461 5     -3154.668          30.000
G24  20836014.742 8 109493959.698 8     -1824.465          51.000    20836017.438 8  85319973.213 8     -1421.664          51.000
G25  20975009.992 6 110224453.360 6      1797.027          39.000    20975013.609 6  85889173.807 6      1400.281          36.000
G32  22440860.977 6 117927515.848 6      1431.496          36.000
R03  22027113.820 6 117912958.115 6     -2868.781          39.000    22027126.422 4  91710040.021 4     -2231.280          27.000
R12  20723990.703 5 110703816.783 5     -1947.066          34.000    20723997.539 6  86103000.469 6     -1514.394          39.000
R22  20385901.883 7 108821418.400 7      -490.441          42.000    20385904.133 5  84638804.935 5      -381.457          34.000
R23  21453450.430 7 114761466.709 7      3970.156          42.000    21453455.461 5  89258907.277 5      3087.902          35.000
C29  23824743.680 8 124061667.312 8      3073.164          51.000
C30  22362296.062 8 116446410.464 8       344.613          51.000
E09  24256798.234 6 127470310.091 6     -2691.957          41.000    24256808.539 6  97672068.210 6     -2062.558          41.000
E12  25171672.438 6 132278052.074 6      3096.316          39.000
E31  23837503.031 8 125266920.512 8      -780.715          51.000    23837505.414 8  95983797.314 8      -598.234          51.000
E33                                                                  25488998.469 6 102633631.512 6      1099.731          38.000
> 2020 05 07 09 09  0.0000000  0 15        .000000000000
G12  20058107.812 8 105406051.976 8      -124.535          50.000    20058106.242 8  82134587.697 8       -97.040          50.000
G24  20846478.578 8 109548947.417 8     -1839.730          51.000    20846480.781 8  85362820.730 8     -1433.559          51.000
G25  20964790.836 6 110170760.025 6      1783.992          36.000    20964798.430 5  85847343.874 5      1390.124          32.000
G32  22432753.930 6 117884917.907 6      1410.625          38.000
R03  22043248.859 6 117999333.264 6     -2887.855          41.000    22043265.719 5  91777220.658 5     -2246.110          33.000
R12  20734966.000 6 110762421.496 6     -1958.270          38.000    20734968.375 6  86148581.994 6     -1523.099          39.000
R22  20388748.406 7 108836612.188 7      -521.020          42.000    20388751.625 5  84650622.476 5      -405.231          35.000
R23  21431230.461 6 114642615.741 6      3954.680          41.000    21431235.578 5  89166467.697 5      3075.865          35.000
C29  23807072.031 8 123969643.408 8      3063.406          51.000
C30  22360371.062 8 116436385.022 8       325.320          51.000
E01  27431163.719 5 144151737.947 5     -2213.000          32.000
E09  24272194.367 6 127551208.545 6     -2699.691          39.000    24272203.008 6  97734055.272 6     -2068.688          38.000
E12  25154014.000 6 132185257.981 6      3091.898          38.000
E31  23841984.266 8 125290469.544 8      -787.547          51.000    23841986.602 8  96001841.372 8      -603.430          51.000
E33  25480848.969 6 133902772.926 6      1420.332          36.000    25480852.852 5 102600827.045 5      1088.639          32.000
> 2020 05 07 09 09 30.0000000  0 15        .000000000000
G12  20058846.391 8 105409933.248 8      -135.543          51.000    20058845.008 8  82137612.079 8      -105.615          51.000
G19  23314140.773 5 122516636.060 5     -3177.586          32.000
G24  20857010.047 8 109604290.749 8     -1851.211          51.000    20857011.859 8  85405945.352 8     -1442.502          51.000
G32  22424744.453 5 117842826.518 5      1394.352          32.000
R03  22059473.000 7 118086178.498 7     -2903.160          42.000    22059493.180 5  91844766.862 5     -2258.013          35.000
R12  20745979.430 6 110821258.754 6     -1965.445          38.000    20745979.414 5  86194344.223 5     -1528.677          35.000
R22  20391747.922 7 108852621.669 7      -547.730          44.000    20391749.289 6  84663074.155 6      -426.019          36.000
R23  21409078.102 7 114524120.860 7      3943.379          44.000    21409084.953 6  89074305.017 6      3067.076          38.000
C29  23789436.578 8 123877810.877 8      3057.289          50.000
C30  22358537.312 8 116426837.509 8       309.758          51.000
E01  27443794.250 5 144218109.525 5     -2212.723          31.000
E09  24287615.891 6 127632238.628 6     -2703.410          36.000    24287619.859 5  97796143.114 5     -2071.411          35.000
E12  25136360.117 6 132092488.186 6      3091.480          36.000
E31  23846485.555 8 125314123.698 8      -790.781          51.000    23846487.820 8  96019965.989 8      -605.938          51.000
E33  25472765.844 5 133860288.284 5      1409.172          32.000
> 2020 05 07 09 10  0.0000000  0 15        .000000000000
G12  20059650.359 8 105414157.596 8      -146.543          51.000    20059649.102 8  82140903.772 8      -114.189          51.000
G19  23332302.969 5 122612080.439 5     -3187.043          31.000
G24  20867609.523 8 109659990.625 8     -1862.598          51.000    20867610.891 8  85449347.817 8     -1451.378          51.000
R03  22075803.578 7 118173493.826 7     -2918.125          42.000    22075807.000 6  91912725.347 6     -2269.656          38.000
R12  20757037.750 6 110880330.110 6     -1973.062          39.000    20757039.445 6  86240288.635 6     -1534.604          37.000
R22  20394899.266 7 108869446.845 7      -574.668          43.000    20394902.797 6  84676160.512 6      -446.958          38.000
R23  21386994.562 7 114405987.770 7      3931.633          46.000    21387002.750 6  88982423.740 6      3057.937          40.000
C27  24983567.047 4 130095988.844 4     -2438.719          28.000
C29  23771838.359 8 123786173.391 8      3051.359          50.000
C30  22356795.773 8 116417769.595 8       294.254          51.000
E09  24303061.969 5 127713451.909 5     -2707.152          31.000    24303062.164 5  97858331.462 5     -2074.264          34.000
E12  25118711.555 5 131999746.366 5      3091.363          35.000
E24  22678237.055 5 119174939.766 5      1334.484          33.000
E31  23851007.094 8 125337884.403 8      -793.781          51.000    23851009.328 8  96038172.238 8      -608.234          51.000
E33  25464752.867 5 133818179.446 5      1397.773          34.000
> 2020 05 07 09 10 30.0000000  0 14        .000000000000
G12  20060540.328 8 105418834.950 8      -159.633          50.000    20060539.008 8  82144548.465 8      -124.386          51.000
G24  20878297.820 8 109716157.383 8     -1876.172          51.000    20878299.297 8  85493114.116 8     -1461.952          51.000
R03  22092220.695 6 118261382.001 6     -2935.371          39.000    22092226.336 6  91981082.769 6     -2283.069          38.000
R12  20768161.023 6 110939748.296 6     -1982.145          36.000    20768165.750 6  86286502.682 6     -1541.677          36.000
R22  20398225.242 7 108887200.099 7      -603.316          43.000    20398229.062 6  84689968.594 6      -469.243          37.000
R23  21365000.070 7 114288334.473 7      3917.715          45.000    21365009.555 6  88890915.633 6      3047.112          40.000
C27  24997662.656 5 130169395.274 5     -2450.098          30.000
C29  23754299.250 8 123694843.033 8      3043.000          50.000
C30  22355167.641 8 116409291.345 8       276.516          51.000
E09                                                                  24318553.719 5  97920703.901 5     -2079.283          35.000
E12  25101089.180 5 131907113.513 5      3088.379          32.000
E24  22670652.562 6 119135065.024 6      1329.758          36.000
E31  23855569.977 8 125361862.514 8      -799.094          51.000    23855572.164 8  96056545.070 8      -612.260          51.000
E33  25456830.242 6 133776546.725 6      1383.809          36.000    25456832.461 5 102504110.853 5      1060.267          34.000
> 2020 05 07 09 11  0.0000000  0 13        .000000000000
G12  20061495.875 8 105423857.011 8      -170.539          51.000    20061494.469 8  82148461.766 8      -132.888          51.000
G24  20889054.258 8 109772682.661 8     -1887.535          51.000    20889055.844 8  85537159.781 8     -1470.807          51.000
R03  22108719.672 6 118349731.782 6     -2950.168          37.000    22108729.625 6  92049799.335 6     -2294.572          37.000
R12  20779328.641 6 110999403.340 6     -1989.918          40.000    20779327.930 4  86332904.048 4     -1547.702          27.000
R22  20401703.461 7 108905770.494 7      -630.086          44.000    20401707.508 6  84704412.314 6      -490.067          36.000
R23  21343075.625 7 114171055.308 7      3905.641          47.000    21343085.836 6  88799698.476 6      3037.720          40.000
C27  25011816.602 5 130243098.490 5     -2458.648          35.000
C29  23736799.023 8 123603715.086 8      3036.723          49.000
C30  22353631.805 8 116401295.952 8       260.953          50.000
E09                                                                  24334071.953 6  97983176.208 6     -2082.130          37.000
E24  22663085.289 5 119095280.308 5      1327.504          32.000
E31  23860153.688 8 125385950.093 8      -802.082          51.000    23860155.859 8  96075001.782 8      -614.603          51.000
E33  25448976.305 5 133735273.456 5      1371.797          34.000    25448981.117 6 102472488.147 6      1051.584          38.000
> 2020 05 07 09 11 30.0000000  0 14        .000000000000
G12  20062516.961 8 105429222.312 8      -186.695          51.000    20062515.516 8  82152642.494 8      -145.477          51.000
G24  20899878.594 8 109829564.338 8     -1904.117          51.000    20899880.234 8  85581483.162 8     -1483.728          51.000
G25  20914574.984 6 109906806.944 6      1732.094          37.000
G29  23862693.477 6 125399288.666 6      3794.180          36.000    23862702.133 5  97713762.803 5      2956.507          35.000
R03  22125304.602 6 118438538.254 6     -2970.129          37.000    22125318.836 6  92118870.970 6     -2310.100          36.000
R12  20790541.594 5 111059294.501 5     -2003.117          34.000    20790542.547 5  86379486.051 5     -1557.980          32.000
R22  20405334.852 6 108925156.610 6      -661.789          41.000    20405337.062 5  84719490.356 5      -514.725          35.000
R23  21321223.086 8 114054153.986 8      3888.215          50.000    21321232.758 6  88708775.268 6      3024.170          40.000
C27  25026027.227 6 130317092.296 6     -2473.672          37.000
C29  23719337.375 7 123512791.001 7      3025.387          47.000
C30  22352188.984 8 116393782.816 8       240.242          51.000
E09                                                                  24349613.141 6  98045746.365 6     -2088.957          38.000
E31  23864758.023 8 125410146.285 8      -810.445          51.000    23864760.258 8  96093541.724 8      -621.056          51.000
E33  25441192.469 5 133694368.119 5      1355.289          35.000    25441198.711 6 102441143.563 6      1038.459          39.000
> 2020 05 07 09 12  0.0000000  0 15        .000000000000
G02  23652879.852 5 124296744.590 5      1898.168          34.000
G12  20063635.414 8 105435099.628 8      -197.094          51.000    20063633.906 8  82157222.233 8      -153.580          51.000
G24  20910802.914 8 109886971.746 8     -1914.969          51.000    20910805.031 8  85626216.179 8     -1492.183          51.000
G25  20904734.406 5 109855096.595 5      1723.930          32.000
G29  23841067.188 6 125285634.878 6      3790.805          38.000    23841075.750 6  97625201.434 6      2953.877          36.000
R03  22142010.758 6 118527970.141 6     -2984.039          39.000    22142024.734 6  92188429.040 6     -2320.919          38.000
R22  20409150.641 7 108945529.589 7      -687.996          44.000    20409153.141 5  84735336.040 5      -535.108          35.000
R23  21299474.766 8 113937807.471 8      3876.441          51.000    21299483.164 6  88618283.567 6      3015.013          41.000
C27  25040324.344 6 130391542.787 6     -2482.031          37.000
C29  23701947.141 7 123422241.142 7      3019.312          47.000
C30  22350870.914 8 116386920.173 8       225.180          51.000
E09  24365218.445 6 128040088.767 6     -2729.465          36.000    24365209.062 6  98108542.889 6     -2091.276          39.000
E24  22648022.992 5 119016167.984 5      1317.523          34.000
E31  23869415.289 8 125434620.812 8      -813.145          51.000    23869417.664 8  96112294.919 8      -623.047          51.000
E33  25433510.422 5 133653997.877 5      1344.008          31.000    25433516.984 6 102410208.116 6      1029.854          40.000
> 2020 05 07 09 12 30.0000000  0 14        .000000000000
G12  20064795.031 8 105441192.662 8      -211.750          51.000    20064793.195 8  82161970.064 8      -165.000          51.000
G24  20921770.898 8 109944608.572 8     -1930.070          51.000    20921773.195 8  85671127.964 8     -1503.951          51.000
G29  23819437.305 6 125171961.495 6      3784.656          37.000    23819439.359 6  97536624.779 6      2949.086          36.000
R03  22158777.539 6 118617721.611 6     -3002.148          39.000    22158790.820 6  92258235.720 6     -2335.004          38.000
R22  20413095.398 6 108966588.063 6      -718.477          40.000    20413100.156 6  84751714.872 6      -558.815          36.000
R23  21277774.320 8 113821719.552 8      3860.082          50.000    21277781.297 6  88527992.998 6      3002.286          40.000
C27  25054652.609 6 130466154.902 6     -2494.684          37.000
C29  23684573.547 7 123331774.586 7      3008.965          47.000
C30  22349621.781 8 116380415.064 8       205.816          51.000
E09  24380811.414 6 128122041.412 6     -2736.945          38.000    24380803.375 6  98171337.712 6     -2097.059          39.000
E12  25030715.320 5 131537289.948 5      3076.617          35.000
E24  22640505.305 5 118976664.030 5      1311.109          31.000
E31  23874069.164 8 125459077.811 8      -820.074          51.000    23874071.836 8  96131034.684 8      -628.309          51.000
E33                                                                  25425879.156 6 102379456.143 6      1018.349          38.000
> 2020 05 07 09 13  0.0000000  0 13        .000000000000
G12  20066043.977 8 105447755.001 8      -226.789          51.000    20066041.914 8  82167083.570 8      -176.719          51.000
G24  20932830.555 8 110002727.846 8     -1945.594          51.000    20932832.898 8  85716415.651 8     -1516.047          51.000
G29  23797846.625 5 125058542.416 5      3776.973          35.000    23797845.922 5  97448199.250 5      2943.096          31.000
R03  22175652.125 7 118708047.423 7     -3020.648          42.000    22175663.141 6  92328489.077 6     -2349.393          37.000
R22  20417216.352 6 108988481.529 6      -749.270          41.000    20417222.961 5  84768843.493 5      -582.762          32.000
R23  21256171.094 7 113706153.018 7      3843.309          46.000    21256177.133 6  88438107.948 6      2989.243          41.000
C27  25069059.812 5 130541178.136 5     -2508.117          34.000
C29  23667265.156 8 123241645.045 8      2998.414          48.000
C30  22348489.477 8 116374519.134 8       186.137          51.000
E09  24396451.250 6 128204243.735 6     -2744.371          41.000    24396444.422 6  98234323.814 6     -2102.776          39.000
E12  25013162.992 6 131445053.458 6      3071.562          36.000
E31  23878768.109 8 125483771.108 8      -827.254          51.000    23878770.953 8  96149955.524 8      -633.909          51.000
E33  25418335.633 6 133574242.599 6      1313.039          39.000    25418335.391 6 102349083.069 6      1006.089          36.000
> 2020 05 07 09 13 30.0000000  0 14        .000000000000
G12  20067366.062 8 105454702.809 8      -238.082          50.000    20067364.180 8  82172497.457 8      -185.518          50.000
G24  20943965.844 8 110061245.794 8     -1957.355          50.000    20943968.430 8  85762014.022 8     -1525.212          50.000
R03  22192627.250 7 118798884.525 7     -3035.176          43.000    22192620.625 5  92399116.858 5     -2360.692          35.000
R12  20835947.094 5 111301903.353 5     -2040.359          30.000
R22  20421499.500 7 109011338.984 7      -776.387          43.000    20421498.695 4  84786621.469 4      -603.859          29.000
R23  21234649.102 6 113591028.022 6      3830.133          40.000    21234655.609 6  88348566.305 6      2978.989          41.000
C27  25083529.664 5 130616528.377 5     -2517.461          32.000
C29  23650006.297 8 123151772.758 8      2991.195          48.000
C30  22347458.367 8 116369150.395 8       170.062          51.000
E09  24412123.469 6 128286611.066 6     -2748.496          41.000    24412116.391 6  98297436.363 6     -2105.835          38.000
E12  24995628.562 6 131352906.767 6      3069.809          37.000    24995627.422 5 100647030.166 5      2352.101          33.000
E24  22625592.625 5 118898289.969 5      1301.516          34.000
E31  23883496.391 8 125508617.952 8      -830.949          51.000    23883499.203 8  96168994.005 8      -636.707          51.000
E33  25410870.898 5 133535016.394 5      1300.648          34.000    25410872.953 5 102319026.609 5       996.481          35.000
> 2020 05 07 09 14  0.0000000  0 12        .000000000000
G12  20068758.695 8 105462021.480 8      -249.137          50.000    20068757.195 8  82178200.329 8      -194.133          50.000
G24  20955174.039 8 110120148.195 8     -1968.832          48.000    20955177.320 8  85807911.966 8     -1534.158          48.000
G25  20865916.211 4 109651131.941 4      1678.441          28.000
R03  22209681.148 7 118890162.764 7     -3049.414          43.000    22209671.000 6  92470110.985 6     -2371.770          36.000
R22  20425939.531 6 109035037.819 6      -803.094          37.000    20425936.758 4  84805022.897 4      -624.625          29.000
R23  21213205.062 6 113476335.175 6      3817.008          41.000    21213215.156 6  88259360.544 6      2968.781          41.000
C29  23632794.578 8 123062146.087 8      2984.457          48.000
C30  22346526.070 8 116364295.142 8       154.273          51.000
E09  24427824.867 6 128369127.565 6     -2751.922          39.000    24427816.375 6  98360663.185 6     -2108.753          38.000
E12  24978108.492 6 131260837.992 6      3068.973          38.000    24978106.328 5 100576483.961 5      2351.293          33.000
E31  23888251.164 8 125533604.386 8      -834.203          51.000    23888253.844 8  96188139.440 8      -639.189          51.000
E33  25403478.703 6 133496187.450 6      1288.414          36.000
> 2020 05 07 09 14 30.0000000  0 14        .000000000000
G12  20070221.258 8 105469707.670 8      -260.336          51.000    20070220.070 8  82184189.554 8      -202.859          51.000
G24  20966454.688 7 110179431.664 7     -1980.398          47.000    20966458.625 7  85854106.884 7     -1543.168          47.000
G29  23733266.852 5 124719155.734 5      3766.645          31.000    23733259.438 5  97183722.853 5      2935.048          30.000
R03  22226818.094 6 118981900.730 6     -3063.461          41.000    22226807.133 5  92541462.660 5     -2382.695          35.000
R22  20430535.094 6 109059574.027 6      -829.855          38.000    20430538.344 5  84824106.701 5      -645.443          31.000
R23  21191846.414 8 113362075.333 8      3803.414          48.000    21191855.883 7  88170491.833 7      2958.214          42.000
C27  25112646.594 5 130768144.593 5     -2535.406          32.000
C29  23615629.938 8 122972764.366 8      2977.297          48.000
C30  22345691.656 8 116359950.505 8       138.348          50.000
E01  27570409.266 5 144883473.057 5     -2221.340          35.000
E09  24443554.422 6 128451788.465 6     -2755.934          37.000    24443544.383 6  98424000.631 6     -2111.501          39.000
E12  24960602.617 6 131168846.407 6      3066.770          37.000    24960599.039 5 100505996.842 5      2350.371          33.000
E31  23893031.875 8 125558727.484 8      -837.770          51.000    23893034.469 8  96207389.589 8      -641.909          51.000
E33  25396166.023 6 133457760.342 6      1276.379          37.000
> 2020 05 07 09 15  0.0000000  0 14        .000000000000
G02  23589102.094 5 123961554.744 5      1826.887          31.000
G12  20071752.555 8 105477755.051 8      -275.645          51.000    20071751.328 8  82190460.227 8      -214.788          51.000
G24  20977806.852 8 110239089.437 8     -1996.273          48.000    20977811.156 7  85900593.430 7     -1555.538          47.000
G29  23711785.414 6 124606287.502 6      3757.734          36.000    23711780.734 6  97095774.953 6      2928.105          37.000
R03  22244037.797 6 119074088.734 6     -3081.844          38.000    22244028.734 6  92613164.418 6     -2396.993          36.000
R22  20435286.508 5 109084940.676 5      -860.883          34.000    20435293.516 5  84843836.444 5      -669.572          35.000
R23  21170568.844 8 113248247.622 8      3785.617          51.000    21170576.938 6  88081959.230 6      2944.372          41.000
C27  25127293.805 6 130844411.229 6     -2548.766          36.000
C29  23598511.430 8 122883624.386 8      2965.961          48.000
C30  22344954.367 8 116356111.133 8       118.148          49.000
E01  27583107.156 5 144950191.775 5     -2225.551          33.000
E09  24459311.023 5 128534546.308 5     -2763.457          32.000    24459299.445 6  98487443.047 6     -2117.406          39.000
E12  24943110.727 6 131076928.652 6      3061.012          36.000    24943107.102 5 100435557.369 5      2345.636          32.000
E31  23897837.562 8 125583981.809 8      -845.367          51.000    23897840.109 8  96226740.298 8      -647.749          51.000
> 2020 05 07 09 15 30.0000000  0 13        .000000000000
G12  20073357.188 8 105486187.787 8      -285.211          50.000    20073355.961 8  82197031.196 8      -222.242          50.000
G24  20989235.430 8 110299146.486 8     -2006.273          50.000    20989239.836 8  85947391.099 8     -1563.330          49.000
G29  23690342.703 6 124493604.431 6      3755.586          39.000    23690337.398 6  97007970.044 6      2926.428          37.000
R03  22261344.578 5 119166747.650 5     -3093.934          34.000    22261339.781 6  92685232.380 6     -2406.396          36.000
R22  20440199.094 6 109111161.839 6      -885.742          38.000    20440205.312 4  84864230.698 4      -688.917          29.000
R23  21149377.930 8 113134882.121 8      3773.379          51.000    21149384.008 6  87993786.096 6      2934.853          41.000
C27  25142003.281 6 130920999.325 6     -2556.254          36.000
C29  23581444.641 8 122794752.882 8      2960.117          49.000
C30  22344318.773 8 116352801.559 8       103.781          48.000
E09                                                                  24475085.875 6  98551007.991 6     -2119.112          40.000
E12  24925637.516 5 130985111.618 5      3061.191          33.000
E31  23902672.953 8 125609392.181 8      -847.348          51.000    23902675.469 8  96246210.583 8      -649.272          51.000
E33                                                                  25381775.055 6 102201889.832 6       957.215          36.000
> 2020 05 07 09 16  0.0000000  0 13        .000000000000
G12  20075029.547 8 105494976.683 8      -298.449          51.000    20075028.578 8  82203879.696 8      -232.558          51.000
G24  21000734.359 8 110359572.859 8     -2019.812          49.000    21000738.570 8  85994476.562 8     -1573.880          50.000
G29  23668926.820 6 124381063.453 6      3749.590          39.000    23668920.141 6  96920275.848 6      2921.764          36.000
R03  22278734.859 5 119259844.082 5     -3110.113          33.000    22278731.969 6  92757640.594 6     -2418.983          38.000
R12  20893839.703 5 111611141.074 5     -2082.938          30.000    20893841.625 5  86808672.753 5     -1620.062          33.000
R22  20445265.430 6 109138206.759 6      -914.625          36.000    20445269.320 5  84885265.793 5      -711.372          32.000
R23  21128268.492 8 113021953.739 8      3757.441          51.000    21128272.539 6  87905952.949 6      2922.457          39.000
C27  25156768.102 6 130997878.439 6     -2567.012          39.000
C29  23564424.742 8 122706123.621 8      2950.691          50.000
C30  22343779.586 7 116349993.446 7        85.629          47.000
E09                                                                  24490897.695 6  98614672.026 6     -2123.327          41.000
E31  23907532.523 8 125634929.919 8      -852.852          51.000    23907535.211 8  96265778.462 8      -653.487          51.000
E33                                                                  25374696.453 6 102173371.473 6       946.056          37.000
> 2020 05 07 09 16 30.0000000  0 15        .000000000000
G02  23558102.219 5 123798678.900 5      1793.691          32.000
G12  20076778.109 8 105504165.584 8      -310.590          51.000    20076777.266 8  82211039.859 8      -242.021          51.000
G24  21012311.844 8 110420412.213 8     -2032.641          51.000    21012315.766 8  86041883.840 8     -1583.876          51.000
G25  20818793.438 5 109403500.731 5      1625.531          30.000    20818791.539 5  85249461.423 5      1266.645          30.000
G29  23647546.375 6 124268711.852 6      3744.160          38.000    23647539.984 6  96832729.210 6      2917.533          38.000
R03  22296213.859 5 119353418.980 5     -3124.199          31.000    22296213.930 6  92830421.048 6     -2429.936          39.000
R12  20905570.461 4 111673811.074 4     -2091.934          29.000    20905574.375 5  86857427.671 5     -1627.069          32.000
R22  20450494.594 6 109166119.561 6      -942.445          37.000    20450499.508 6  84906975.855 6      -733.010          37.000
R23  21107249.680 8 112909512.809 8      3742.223          51.000    21107251.320 6  87818498.896 6      2910.615          37.000
C27  25171596.539 6 131075090.872 6     -2576.711          40.000
C29  23547460.328 8 122617783.197 8      2942.152          50.000
C30  22343344.961 7 116347731.130 7        68.543          46.000
E09  24506747.016 5 128783813.956 5     -2775.766          34.000    24506742.953 6  98678468.035 6     -2126.918          41.000
E31  23912424.898 8 125660639.865 8      -857.586          51.000    23912427.766 8  96285478.284 8      -657.120          51.000
E33                                                                  25367695.148 5 102145189.463 5       935.679          34.000
> 2020 05 07 09 17  0.0000000  0 15        .000000000000
G12  20078600.766 8 105513743.500 8      -320.777          51.000    20078599.914 8  82218503.166 8      -249.956          51.000
G24  21023965.984 8 110481653.706 8     -2043.059          51.000    21023969.688 8  86089604.466 8     -1591.994          51.000
G25  20809563.109 5 109354982.885 5      1616.453          34.000
G29  23626199.812 6 124156541.386 6      3740.934          39.000    23626194.984 6  96745323.663 6      2915.010          39.000
R03  22313776.352 5 119447457.307 5     -3136.953          35.000    22313781.539 6  92903562.060 6     -2439.849          41.000
R12  20917359.906 5 111736785.486 5     -2098.773          35.000    20917361.492 5  86906407.726 5     -1632.379          34.000
R22  20455884.867 6 109194888.447 6      -968.027          40.000    20455888.117 5  84929351.615 5      -752.916          33.000
R23  21086319.922 8 112797552.605 8      3728.980          51.000    21086320.531 6  87731418.746 6      2900.318          37.000
C27  25186486.148 6 131152624.040 6     -2584.793          41.000
C29  23530549.477 8 122529723.154 8      2935.641          50.000
C30  22343013.156 7 116346003.890 7        53.605          47.000
E09  24522621.977 5 128867232.892 5     -2778.152          35.000    24522618.977 7  98742386.384 7     -2128.801          42.000
E12  24873327.633 5 130710214.975 5      3053.082          34.000    24873344.273 6 100154641.021 6      2339.560          37.000
E31  23917348.023 8 125686511.325 8      -860.129          51.000    23917350.984 8  96305301.859 8      -659.021          51.000
E33  25360775.570 6 133271765.672 6      1209.664          36.000    25360775.398 6 102117336.621 6       926.769          38.000
> 2020 05 07 09 17 30.0000000  0 15        .000000000000
G12  20080486.500 8 105523653.088 8      -338.199          51.000    20080485.789 8  82226224.937 8      -263.532          51.000
G24  21035685.773 8 110543239.530 8     -2061.004          51.000    21035688.922 8  86137593.379 8     -1605.980          51.000
G25  20800387.586 6 109306752.783 6      1600.250          36.000    20800385.148 5  85174117.339 5      1246.936          30.000
G29  23604877.445 6 124044497.758 6      3730.359          38.000    23604873.664 6  96658016.997 6      2906.774          38.000
R03  22331415.945 7 119541897.211 7     -3157.199          42.000    22331424.320 6  92977015.315 6     -2455.599          40.000
R12  20929192.766 6 111799991.922 6     -2113.340          39.000    20929197.070 6  86955568.203 6     -1643.709          36.000
R22  20461423.227 5 109224453.951 5     -1001.129          34.000    20461425.961 5  84952347.097 5      -778.644          33.000
R23  21065468.859 8 112686019.979 8      3708.109          49.000    21065470.578 6  87644671.189 6      2884.088          37.000
C27  25201425.773 6 131230419.879 6     -2599.922          41.000
C29  23513682.102 8 122441889.752 8      2921.633          50.000
C30  22342773.852 8 116344755.764 8        31.348          49.000
E09  24538516.062 6 128950753.025 6     -2787.906          37.000    24538514.172 7  98806382.303 7     -2136.236          42.000
E12  24855927.477 6 130618769.896 6      3045.277          36.000    24855936.648 6 100084568.074 6      2333.200          39.000
E31  23922291.180 8 125712487.813 8      -870.055          51.000    23922294.086 8  96325205.919 8      -666.641          51.000
E33  25353929.117 5 133235789.789 5      1190.512          35.000    25353931.836 6 102089770.722 6       912.306          37.000
> 2020 05 07 09 18  0.0000000  0 16        .000000000000
G12  20082448.875 8 105533965.112 8      -350.277          51.000    20082448.203 8  82234260.274 8      -272.943          51.000
G24  21047484.773 8 110605241.141 8     -2073.484          51.000    21047487.031 8  86185906.268 8     -1615.702          51.000
G25  20791278.086 5 109258881.452 5      1589.695          35.000    20791275.469 5  85136814.973 5      1238.733          30.000
G29  23583593.461 6 123932655.216 6      3724.777          38.000    23583591.344 6  96570866.997 6      2902.424          37.000
G32  22304809.688 5 117212565.555 5      1074.203          32.000
R03  22349145.188 7 119636807.072 7     -3171.246          45.000    22349154.297 6  93050834.051 6     -2466.528          41.000
R12  20941082.336 6 111863502.691 6     -2121.969          37.000    20941086.117 6  87004965.445 6     -1650.423          37.000
R22  20467124.406 6 109254887.337 6     -1028.875          39.000    20467127.094 5  84976017.514 5      -800.236          31.000
R23  21044712.156 8 112574992.436 8      3692.574          50.000    21044716.023 6  87558316.490 6      2872.005          38.000
C27  25216428.805 6 131308547.092 6     -2609.723          40.000
C29  23496872.109 8 122354355.844 8      2912.906          50.000
C30  22342639.984 8 116344057.419 8        14.273          50.000
E09  24554442.211 6 129034443.971 6     -2792.207          36.000    24554441.578 7  98870509.069 7     -2139.708          42.000
E12  24838551.047 6 130527450.520 6      3041.660          39.000    24838556.375 6 100014596.053 6      2330.757          41.000
E31  23927268.102 8 125738640.797 8      -874.605          51.000    23927270.891 8  96345245.213 8      -670.164          51.000
E33  25347166.617 5 133200260.720 5      1176.914          35.000
> 2020 05 07 09 18 30.0000000  0 14        .000000000000
G12  20084481.109 8 105544643.898 8      -362.062          51.000    20084480.070 8  82242581.411 8      -282.127          51.000
G24  21059355.883 8 110667622.040 8     -2085.625          51.000    21059357.352 8  86234514.691 8     -1625.165          51.000
G29  23562342.102 6 123820981.037 6      3719.629          38.000    23562341.586 6  96483848.223 6      2898.412          38.000
R03  22366956.258 7 119732147.129 7     -3185.289          44.000    22366965.180 6  93124987.340 6     -2477.447          41.000
R12  20953021.227 5 111927282.445 5     -2130.477          32.000    20953027.047 6  87054571.863 6     -1657.043          38.000
R22  20472982.109 6 109286151.627 6     -1055.840          41.000    20472984.500 5  85000334.172 5      -821.209          32.000
R23  21024044.797 8 112464438.497 8      3677.238          50.000    21024050.453 6  87472330.154 6      2860.074          40.000
C27  25231488.352 6 131386969.120 6     -2619.145          37.000
C29  23480113.641 8 122267089.105 8      2904.430          51.000
C30  22342604.992 8 116343874.198 8        -2.492          51.000
E09  24570393.633 6 129118268.851 6     -2796.434          37.000    24570393.797 7  98934738.477 7     -2142.710          42.000
E12  24821193.500 7 130436230.099 7      3039.090          42.000    24821195.906 6  99944699.906 6      2328.516          41.000
E31  23932271.930 8 125764935.430 8      -878.949          51.000    23932274.789 8  96365393.046 8      -673.445          51.000
E33  25340482.367 5 133165136.781 5      1164.051          33.000    25340494.477 5 102035674.069 5       891.570          33.000
> 2020 05 07 09 19  0.0000000  0 15        .000000000000
G12  20086582.539 8 105555686.552 8      -374.434          51.000    20086581.039 8  82251186.078 8      -291.766          51.000
G24  21071298.500 8 110730379.647 8     -2098.480          51.000    21071299.719 8  86283416.656 8     -1635.180          51.000
