     3.02           OBSERVATION DATA    M (MIXED)           RINEX VERSION / TYPE
SAVERINEX           SC600               20200513 015932 LCL PGM / RUN BY / DATE
       G = GPS       R = GLONASS       C = COMPASS          COMMENT
       S = SBAS      J = QZSS          E = GALILEO          COMMENT
BEAN                                                        MARKER NAME
1                                                           MARKER NUMBER
GEODETIC                                                    MARKER TYPE
Unige DICCA         GTER                                    OBSERVER / AGENCY
SC60291900056       SC600               2.12(191226)        REC # / TYPE / VERS
                    HEMA45          NONE                    ANT # / TYPE
  4509407.8091   693652.4678  4442337.6214                  APPROX POSITION XYZ
        0.0000        0.0000        0.0000                  ANTENNA: DELTA H/E/N
G    8 C1C L1C D1C S1C C2Y L2Y D2Y S2Y                      SYS / # / OBS TYPES
R    8 C1C L1C D1C S1C C2P L2P D2P S2P                      SYS / # / OBS TYPES
C    4 C1I L1I D1I S1I                                      SYS / # / OBS TYPES
E    8 C1C L1C D1C S1C C7Q L7Q D7Q S7Q                      SYS / # / OBS TYPES
DBHZ                                                        COMMENT
     30.000                                                 INTERVAL
  2020    05    12    23    00    0.0000000     GPS         TIME OF FIRST OBS
  2020    05    12    23    59   30.0000000     GPS         TIME OF LAST OBS
     0                                                      RCV CLOCK OFFS APPL
G L1C  0.00000                                              SYS / PHASE SHIFT
G L2Y  0.00000                                              SYS / PHASE SHIFT
R L1C  0.00000                                              SYS / PHASE SHIFT
R L2P  0.25000                                              SYS / PHASE SHIFT
C L1I  0.00000                                              SYS / PHASE SHIFT
E L1C  0.50000                                              SYS / PHASE SHIFT
E L7Q -0.25000                                              SYS / PHASE SHIFT
 12 R02 -4 R03  5 R04  6 R05  1 R10 -5 R12 -1 R13 -2 R14 -7 GLONASS SLOT / FRQ #
    R15  0 R17  4 R18 -3 R19  3                             GLONASS SLOT / FRQ #
 C1C   71.950 C2C   71.950 C2P   71.950                     GLONASS COD/PHS/BIS
    18                                                      LEAP SECONDS
*** Above antenna height is from mark to ANTENNA BOTTOM.    COMMENT
    17     4        0.0000        ANT MEASURE TYPE/HEIGT    COMMENT
    0.0000    0.0000    0.0458    0.0405    0.0000          COMMENT
                    BASE STATION                            COMMENT
                                                            END OF HEADER
> 2020 05 12 23 00  0.0000000  0 15        .000000000000
G03  22014415.312 5 115686520.226 5     -2296.723          30.000    22014433.031 4  90145429.341 4     -1789.681          29.000
G04  20473483.867 8 107588895.185 8     -1082.062          51.000    20473483.898 8  83835512.621 8      -843.166          51.000
G09  20592423.930 8 108214038.720 8      1267.223          51.000    20592425.945 8  84322617.969 8       987.446          51.000
G17  23796000.898 7 125048809.985 7     -2786.934          43.000    23796000.133 7  97440611.646 7     -2171.640          42.000
G19  23169960.438 7 121758941.142 7     -2484.531          44.000    23169955.156 6  94877084.819 6     -1936.001          39.000
R14  22850605.516 8 121806591.986 8      3800.723          50.000    22850608.438 7  94738473.068 7      2956.121          42.000
R19  20369210.844 7 108961534.623 7     -2575.484          42.000    20369211.477 7  84747868.386 7     -2003.155          42.000
C20  22755019.242 5 118491387.606 5      1419.156          30.000
C23  24247538.953 5 126263294.982 5      1232.340          30.000
C25  25701659.016 4 133835271.220 4     -1443.727          28.000
C29  23644163.539 5 123121331.659 5      -684.465          32.000
C30  24516109.008 6 127661720.743 6     -3022.309          36.000
E04  24035160.477 8 126305739.759 8      1077.746          48.000    24035161.141 8  96779713.554 8       825.913          48.000
E12  23028824.812 8 121017286.086 8     -2418.781          50.000    23028825.609 8  92727532.041 8     -1853.445          50.000
E19  24761165.758 7 130120807.374 7     -1489.625          45.000    24761166.820 7  99702966.972 7     -1141.473          47.000
> 2020 05 12 23 00 30.0000000  0 12        .000000000000
G03  22027517.602 5 115755368.132 5     -2294.602          33.000    22027540.242 5  90199076.668 5     -1788.035          31.000
G04  20479668.742 8 107621396.799 8     -1086.133          51.000    20479668.688 8  83860838.558 8      -846.334          50.000
G09  20585198.625 8 108176067.720 8      1262.586          51.000    20585200.070 8  84293030.173 8       983.833          51.000
G17  23811896.156 7 125132342.145 7     -2783.566          44.000    23811896.812 7  97505701.630 7     -2169.013          44.000
G19  23184149.508 7 121833505.112 7     -2488.148          45.000    23184143.641 6  94935186.566 6     -1938.820          39.000
R14  22829206.328 8 121692522.441 8      3802.422          48.000    22829208.047 7  94649752.388 7      2957.442          42.000
R19  20383686.359 6 109038970.469 6     -2588.668          41.000    20383687.258 7  84808096.240 7     -2013.408          44.000
C29  23648125.367 5 123141944.015 5      -691.469          34.000
C30  24533507.750 6 127752307.480 6     -3018.215          36.000
E04  24028995.969 8 126273343.194 8      1080.410          48.000    24028996.383 7  96754890.229 7       827.925          47.000
E12  23042630.055 8 121089829.402 8     -2418.906          49.000    23042630.219 8  92783117.172 8     -1853.454          50.000
E19  24769652.211 7 130165402.963 7     -1484.930          44.000    24769653.148 7  99737137.594 7     -1137.770          47.000
> 2020 05 12 23 01  0.0000000  0 13        .000000000000
G04  20485925.477 8 107654275.817 8     -1106.203          51.000    20485925.320 8  83886458.563 8      -861.976          50.000
G09  20578048.414 8 108138490.452 8      1242.062          51.000    20578049.000 8  84263749.197 8       967.844          51.000
G17  23827822.266 7 125216033.668 7     -2796.391          46.000    23827823.969 7  97570915.777 7     -2179.006          46.000
G19  23198406.750 7 121908427.977 7     -2507.500          44.000    23198401.367 6  94993568.008 6     -1953.896          40.000
G22  24259088.680 5 127482370.631 5     -2838.617          31.000
R14  22807845.891 8 121578659.894 8      3787.777          48.000    22807847.539 7  94561192.687 7      2946.052          43.000
R19  20398284.297 6 109117062.402 6     -2617.453          40.000    20398285.961 7  84868834.386 7     -2035.797          45.000
C23  24233448.469 5 126189939.846 5      1205.227          31.000
C29  23652174.883 5 123163021.152 5      -714.414          34.000
C30  24550931.195 6 127843028.558 6     -3030.121          36.000
E04  24022865.273 7 126241125.095 7      1067.012          47.000    24022865.055 8  96730203.650 8       817.580          48.000
E12  23056483.477 7 121162628.366 7     -2434.750          47.000    23056483.375 8  92838898.190 8     -1865.686          50.000
E19  24778159.797 7 130210109.425 7     -1496.164          43.000    24778160.711 8  99771393.177 8     -1146.274          48.000
> 2020 05 12 23 01 30.0000000  0 15        .000000000000
G04  20492259.211 8 107687559.762 8     -1114.801          51.000    20492259.000 8  83912394.105 8      -868.676          51.000
G09  20570978.508 8 108101336.205 8      1232.766          51.000    20570978.352 8  84234797.823 8       960.597          51.000
G17  23843783.773 8 125299909.995 8     -2797.316          48.000    23843786.062 7  97636273.932 7     -2179.727          47.000
G19  23212736.844 7 121983735.661 7     -2515.316          43.000    23212732.688 6  95052249.309 6     -1959.987          41.000
R03  21387664.672 5 114489808.255 5     -2573.098          34.000
R05  22035316.336 5 117791362.671 5      2667.895          35.000
R14  22786529.914 7 121465038.452 7      3784.797          46.000    22786532.875 7  94472820.487 7      2943.731          43.000
R19  20413009.773 6 109195836.658 6     -2635.707          40.000    20413012.391 7  84930103.246 7     -2049.994          45.000
C20  22730556.758 5 118363965.704 5      1407.332          30.000
C23  24226525.930 5 126153905.834 5      1194.660          31.000
C29  23656317.516 5 123184591.237 5      -726.164          33.000
C30  24568384.219 5 127933910.414 5     -3030.332          34.000
E04  24016773.156 7 126209114.383 7      1065.039          45.000    24016773.352 8  96705675.983 8       816.048          48.000
E12  23070389.805 7 121235710.639 7     -2439.434          45.000    23070390.398 8  92894896.300 8     -1869.179          50.000
E19  24786693.680 7 130254955.097 7     -1495.805          43.000    24786694.820 8  99805755.457 8     -1146.208          48.000
> 2020 05 12 23 02  0.0000000  0 15        .000000000000
G04  20498656.141 8 107721175.987 8     -1133.828          51.000    20498655.977 8  83938588.569 8      -883.502          51.000
G09  20563975.500 8 108064533.911 8      1213.039          51.000    20563974.875 8  84206120.711 8       945.225          51.000
G17  23859766.539 8 125383897.547 8     -2809.148          48.000    23859769.031 8  97701718.766 8     -2188.947          48.000
G19  23227125.805 7 122059354.084 7     -2533.438          44.000    23227123.070 7  95111172.766 7     -1974.107          42.000
R03  21402092.836 5 114567052.281 5     -2583.945          33.000    21402090.367 4  89107744.535 4     -2009.732          28.000
R04  19650606.602 5 105228089.834 5        90.445          33.000
R05  22020358.047 5 117711387.035 5      2656.395          33.000    22020352.250 4  91553314.862 4      2066.091          25.000
R14  22765246.242 7 121351590.457 7      3770.770          46.000    22765250.750 7  94384583.180 7      2932.821          43.000
R18  23357778.938 5 124685421.658 5     -4589.621          32.000
R19  20427848.969 6 109275217.525 6     -2664.066          40.000    20427851.953 7  84991843.873 7     -2072.052          44.000
C23  24219675.914 5 126118207.060 5      1174.977          30.000
C30  24585852.781 4 128024986.344 4     -3040.027          28.000
E04  24010706.367 7 126177239.742 7      1052.387          46.000    24010707.891 8  96681252.535 8       806.479          49.000
E12  23084335.523 7 121309003.553 7     -2454.316          43.000    23084337.453 8  92951055.826 8     -1880.589          49.000
E19  24795240.070 7 130299867.915 7     -1505.965          42.000    24795241.562 7  99840169.181 7     -1153.906          47.000
> 2020 05 12 23 02 30.0000000  0 13        .000000000000
G03  22080323.789 5 116032870.464 5     -2326.566          32.000    22080323.000 5  90415231.634 5     -1812.909          32.000
G04  20505155.430 8 107755329.925 8     -1142.387          51.000    20505155.203 8  83965202.029 8      -890.171          50.000
G09  20557078.781 8 108028290.652 8      1203.676          51.000    20557078.125 8  84177879.237 8       937.932          51.000
G17  23875809.180 8 125468200.320 8     -2810.230          49.000    23875811.688 8  97767409.232 8     -2189.790          48.000
G19  23241613.016 7 122135487.060 7     -2541.242          44.000    23241610.844 6  95170497.139 6     -1980.192          40.000
R04  19650119.539 5 105225482.220 5        83.895          32.000    19650112.336 4  81842032.664 4        65.254          27.000
R14  22744036.094 7 121238530.372 7      3767.238          46.000    22744041.156 7  94296647.569 7      2930.077          43.000
R19  20442840.711 6 109355411.529 6     -2681.469          41.000    20442843.133 7  85054216.991 7     -2085.587          44.000
C23  24212947.344 5 126083128.825 5      1164.695          35.000
C29  23664867.023 4 123229176.136 4      -759.855          27.000
E04  24004705.773 7 126145707.871 7      1050.277          47.000    24004707.914 8  96657091.751 8       804.758          49.000
E12  23098361.484 7 121382712.687 7     -2458.906          45.000    23098363.570 8  93007534.252 8     -1884.094          49.000
E19  24803838.398 7 130345054.297 7     -1505.621          43.000    24803840.086 7  99874792.534 7     -1153.756          47.000
> 2020 05 12 23 03  0.0000000  0 15        .000000000000
G03  22093627.875 5 116102801.851 5     -2335.504          32.000    22093648.188 5  90469723.360 5     -1819.873          31.000
G04  20511718.703 8 107789820.355 8     -1156.992          51.000    20511718.273 8  83992077.694 8      -901.552          50.000
G07  24253366.672 6 127452294.203 6      3429.457          36.000    24253378.102 6  99313498.110 6      2672.304          36.000
G09  20550249.898 8 107992406.894 8      1188.375          51.000    20550249.969 8  84149917.899 8       926.006          51.000
G17  23891873.172 8 125552615.662 8     -2817.281          48.000    23891875.609 8  97833187.425 8     -2195.284          48.000
G19  23256160.016 7 122211931.830 7     -2555.086          45.000    23256157.156 6  95230064.482 6     -1990.979          41.000
R04  19649677.938 5 105223142.455 5        72.039          31.000    19649674.781 4  81840200.930 4        56.033          25.000
R05  21990574.875 5 117552216.979 5      2646.926          31.000
R14  22722862.219 7 121125660.329 7      3757.363          47.000    22722867.164 7  94208859.761 7      2922.394          42.000
R19  20457945.484 6 109436212.367 6     -2705.059          40.000    20457947.461 7  85117062.116 7     -2103.934          44.000
C23  24206291.648 4 126048435.244 4      1149.141          29.000
C30  24620927.234 4 128207624.391 4     -3047.996          29.000
E04  23998733.211 8 126114318.903 8      1042.254          48.000    23998734.930 8  96633040.474 8       798.577          48.000
E12  23112429.406 8 121456636.877 8     -2469.332          48.000    23112430.383 8  93064177.461 8     -1892.083          49.000
E19  24812450.617 7 130390313.798 7     -1511.500          43.000    24812452.352 7  99909471.884 7     -1158.183          47.000
> 2020 05 12 23 03 30.0000000  0 14        .000000000000
G03  22106977.547 4 116172962.012 4     -2342.070          28.000    22107002.148 4  90524393.563 4     -1824.987          26.000
G04  20518359.242 8 107824717.352 8     -1169.508          51.000    20518358.891 8  84019270.166 8      -911.305          50.000
G07  24233791.883 5 127349427.163 5      3427.941          34.000    24233794.328 5  99233341.943 5      2671.123          33.000
G09  20543503.156 8 107956954.344 8      1175.055          51.000    20543503.883 8  84122292.527 8       915.627          51.000
G17  23907971.383 8 125637211.962 8     -2822.508          48.000    23907973.688 8  97899106.610 8     -2199.357          48.000
G19  23270779.367 7 122288756.615 7     -2566.652          44.000    23270775.422 7  95289927.933 7     -1999.989          42.000
R03  21445578.477 5 114799840.980 5     -2593.188          30.000
R04  19649303.469 5 105221143.381 5        61.203          33.000
R14  22701738.688 7 121013057.465 7      3749.496          47.000    22701743.242 7  94121279.794 7      2916.278          42.000
R19  20473176.047 6 109517689.483 6     -2726.484          39.000    20473178.586 7  85180433.190 7     -2120.599          44.000
C30  24638501.266 5 128299144.756 5     -3052.074          30.000
E04  23992801.477 8 126083144.249 8      1036.211          48.000    23992802.430 7  96609153.413 7       793.893          47.000
E12  23126551.961 8 121530846.256 8     -2477.898          48.000    23126551.367 8  93121039.188 8     -1898.664          48.000
E19  24821090.508 7 130435717.066 7     -1515.371          43.000    24821092.055 7  99944261.397 7     -1161.066          47.000
> 2020 05 12 23 04  0.0000000  0 16        .000000000000
G03  22120380.500 5 116243383.177 5     -2350.457          30.000
G04  20525068.445 8 107859975.171 8     -1183.398          51.000    20525068.289 8  84046743.791 8      -922.129          50.000
G07  24214222.086 5 127246586.683 5      3425.734          33.000    24214221.227 5  99153206.612 5      2669.409          33.000
G09  20536830.453 8 107921888.849 8      1160.359          51.000    20536831.594 8  84094968.757 8       904.176          51.000
G17  23924094.945 8 125721941.919 8     -2828.652          48.000    23924096.758 8  97965129.919 8     -2204.148          48.000
G19  23285461.859 7 122365914.109 7     -2579.527          44.000    23285457.609 6  95350050.636 6     -2010.018          41.000
R03  21460122.414 5 114877682.046 5     -2598.742          33.000    21460130.578 4  89349344.233 4     -2021.250          26.000
R04  19648987.766 5 105219435.571 5        49.719          33.000
R14  22680657.547 7 120900681.746 7      3739.883          47.000    22680661.523 6  94033876.474 6      2908.798          41.000
R19  20488524.508 6 109599794.128 6     -2749.137          39.000    20488527.531 7  85244292.314 7     -2138.220          46.000
C20  22690491.188 4 118155335.324 4      1373.402          28.000
C23  24193208.297 5 125980366.830 5      1118.832          33.000
C30  24656096.922 4 128390765.285 4     -3057.742          28.000
E04  23986901.680 8 126052139.530 8      1028.469          48.000    23986902.391 8  96585396.562 8       788.062          48.000
E12  23140719.812 8 121605295.113 8     -2487.793          48.000    23140718.180 8  93178084.395 8     -1906.159          48.000
E19  24829749.438 7 130481219.487 7     -1520.449          43.000    24829750.711 7  99979126.912 7     -1165.032          46.000
> 2020 05 12 23 04 30.0000000  0 17        .000000000000
G04  20531872.266 8 107895730.579 8     -1196.434          51.000    20531872.266 8  84074605.143 8      -932.286          50.000
G07  24194685.672 5 127143933.917 5      3423.363          35.000    24194683.062 5  99073172.917 5      2667.556          34.000
G09  20530257.562 8 107887348.797 8      1146.332          51.000    20530259.070 8  84068054.462 8       893.246          51.000
G17  23940269.672 8 125806940.950 8     -2833.953          48.000    23940270.539 8  98031362.886 8     -2208.278          48.000
G19  23300233.219 7 122443539.079 7     -2591.520          44.000    23300228.945 7  95410537.625 7     -2019.366          42.000
G22  24372956.969 5 128080752.826 5     -2863.879          30.000
R03  21474713.086 5 114955762.828 5     -2602.656          32.000
R04  19648749.109 5 105218195.771 5        38.281          30.000
R05  21946179.008 5 117314865.193 5      2628.332          31.000
R14  22659646.195 8 120788677.948 8      3731.000          48.000    22659649.266 6  93946762.433 6      2901.889          41.000
R19  20504016.492 6 109682663.549 6     -2771.289          38.000    20504019.719 7  85308746.292 7     -2155.447          46.000
C20  22682600.164 4 118114266.174 4      1367.812          29.000
C23  24186820.961 5 125947098.360 5      1103.453          34.000
C30  24673738.680 4 128482628.671 4     -3062.418          28.000
E04  23981060.406 8 126021442.869 8      1021.852          48.000    23981061.375 7  96561875.759 7       782.953          47.000
E12  23154958.555 7 121680120.265 7     -2496.684          47.000    23154956.859 8  93235417.959 8     -1913.004          48.000
E19  24838453.281 7 130526958.320 7     -1524.906          42.000    24838454.430 7 100014173.570 7     -1168.429          46.000
> 2020 05 12 23 05  0.0000000  0 16        .000000000000
G03  22147300.469 5 116384830.275 5     -2363.172          32.000    22147294.141 5  90689488.417 5     -1841.433          30.000
G04  20538732.500 8 107931781.810 8     -1207.734          51.000    20538732.508 8  84102697.006 8      -941.089          51.000
G07  24175142.070 5 127041209.028 5      3423.234          32.000    24175136.703 5  98993150.728 5      2667.458          33.000
G09  20523746.719 8 107853134.108 8      1133.938          51.000    20523747.750 8  84041393.700 8       883.588          51.000
G17  23956456.898 7 125892005.967 7     -2837.594          46.000    23956456.844 7  98097647.269 7     -2211.112          46.000
G19  23315054.867 7 122521428.642 7     -2601.836          43.000    23315051.172 7  95471230.819 7     -2027.402          42.000
R03  21489309.641 5 115033878.381 5     -2606.004          33.000
R04  19648556.102 5 105217157.012 5        29.797          35.000
R14  22638667.609 8 120676847.479 8      3723.602          50.000    22638669.531 6  93859783.220 6      2896.135          41.000
R19  20519612.156 6 109766090.141 6     -2791.254          38.000    20519615.758 7  85373633.631 7     -2170.975          44.000
C20  22674715.641 4 118073195.837 4      1364.930          27.000
C23  24180501.305 5 125914186.176 5      1089.875          34.000
C29  23687956.039 4 123349395.636 4      -839.926          29.000
E04  23975239.883 8 125990853.846 8      1016.820          48.000    23975240.688 7  96538437.435 7       779.116          47.000
E12  23169229.820 7 121755120.008 7     -2504.062          46.000    23169229.203 8  93292885.304 8     -1918.592          48.000
E19  24847164.070 6 130572732.791 6     -1527.309          41.000    24847164.984 7 100049247.523 7     -1170.350          45.000
> 2020 05 12 23 05 30.0000000  0 15        .000000000000
G04  20545685.625 8 107968320.778 8     -1219.012          51.000    20545685.727 8  84131168.931 8      -949.879          51.000
G07  24155629.805 5 126938682.167 5      3421.996          35.000    24155624.430 5  98913246.985 5      2666.487          34.000
G09  20517334.797 8 107819438.284 8      1121.684          51.000    20517334.781 8  84015137.216 8       874.039          51.000
G17  23972692.789 7 125977327.226 7     -2841.086          44.000    23972692.328 7  98164131.331 7     -2213.833          44.000
G19  23329963.172 7 122599772.818 7     -2611.926          43.000    23329959.867 7  95532278.261 7     -2035.264          43.000
R03  21503938.359 5 115112238.040 5     -2608.406          31.000
R04  19648434.266 5 105216479.111 5        20.484          33.000
R05  21916737.211 5 117157498.749 5      2619.602          32.000
R14  22617759.484 8 120565391.248 8      3716.098          49.000    22617760.383 7  93773095.083 7      2890.301          43.000
R19  20535347.953 6 109850267.400 6     -2811.355          39.000    20535351.547 7  85439104.797 7     -2186.613          42.000
C23  24174286.719 5 125881823.365 5      1076.582          32.000
C30  24709064.812 4 128666600.861 4     -3068.508          29.000
E04  23969476.641 8 125960565.728 8      1011.660          48.000    23969477.312 8  96515229.666 8       775.207          48.000
E12  23183570.812 7 121830486.300 7     -2511.180          46.000    23183571.297 8  93350633.525 8     -1924.199          48.000
E19  24855918.289 6 130618735.467 6     -1530.031          41.000    24855919.062 7 100084496.323 7     -1172.427          45.000
> 2020 05 12 23 06  0.0000000  0 13        .000000000000
G04  20552698.922 8 108005175.950 8     -1238.371          51.000    20552699.164 8  84159887.263 8      -964.964          51.000
G07  24136116.969 5 126836143.598 5      3413.137          35.000    24136111.625 5  98833346.849 5      2659.587          35.000
G09  20510989.070 8 107786091.397 8      1101.105          51.000    20510989.062 8  83989152.642 8       858.004          51.000
G17  23988944.367 7 126062731.580 7     -2852.656          43.000    23988944.195 7  98230680.202 7     -2222.849          43.000
G19  23344925.344 7 122678398.294 7     -2630.051          44.000    23344922.133 7  95593544.874 7     -2049.390          44.000
R03  21518596.758 5 115190641.415 5     -2618.836          34.000
R04  19648374.727 5 105216121.019 5         3.246          35.000    19648385.289 4  81834801.997 4         2.525          27.000
R14  22596889.664 8 120454141.449 8      3700.090          48.000    22596890.828 7  93686567.532 7      2877.851          44.000
R19  20551191.930 6 109935018.370 6     -2839.172          40.000    20551193.422 6  85505022.172 6     -2208.245          41.000
C30  24726785.844 5 128758813.560 5     -3079.465          35.000
E04  23963737.820 7 125930408.350 7       998.492          47.000    23963738.945 8  96492122.070 8       765.096          48.000
E12  23197949.664 8 121906047.746 8     -2526.488          48.000    23197950.117 8  93408531.263 8     -1935.875          48.000
E19  24864683.320 7 130664795.834 7     -1540.801          42.000    24864684.273 7 100119789.318 7     -1180.587          44.000
> 2020 05 12 23 06 30.0000000  0 16        .000000000000
G03  22187980.594 4 116598627.729 4     -2388.594          28.000    22187987.031 4  90856096.752 4     -1861.242          25.000
G04  20559797.906 8 108042481.693 8     -1250.648          51.000    20559798.219 8  84188956.691 8      -974.531          51.000
G07  24116628.352 5 126733741.786 5      3411.734          33.000    24116623.891 5  98753553.279 5      2658.491          32.000
G09  20504735.289 8 107753229.474 8      1087.703          50.000    20504736.102 8  83963545.949 8       847.561          50.000
G17  24005237.234 7 126148352.247 7     -2857.621          42.000    24005237.516 7  98297397.623 7     -2226.715          43.000
G19  23359966.359 7 122757437.925 7     -2641.121          46.000    23359963.242 7  95655134.157 7     -2058.016          43.000
R04  19648382.781 4 105216154.399 4        -7.230          29.000
R14  22576084.828 8 120343240.599 8      3691.203          48.000    22576086.969 7  93600311.351 7      2870.939          44.000
R18  23590164.883 5 125925907.201 5     -4603.203          30.000
R19  20567168.336 6 110020477.923 6     -2860.125          40.000    20567168.617 7  85571490.709 7     -2224.542          42.000
C23  24162113.094 4 125818468.614 4      1039.551          28.000
C29  23702925.305 4 123427350.984 4      -891.855          28.000
C30  24744537.508 6 128851222.768 6     -3083.457          36.000
E04  23958049.547 7 125900517.441 7       992.195          47.000    23958051.055 8  96469218.649 8       760.343          49.000
E12  23212391.969 8 121981938.716 8     -2534.777          50.000    23212391.391 8  93466681.481 8     -1942.256          48.000
E19  24873484.914 7 130711048.907 7     -1544.570          42.000    24873486.227 7 100155229.982 7     -1183.481          44.000
> 2020 05 12 23 07  0.0000000  0 14        .000000000000
G04  20566966.844 8 108080155.099 8     -1263.961          50.000    20566967.078 8  84218312.590 8      -984.902          50.000
G09  20498558.797 8 107720771.111 8      1073.238          51.000    20498559.234 8  83938253.686 8       836.287          51.000
G17  24021555.344 7 126234104.434 7     -2862.871          42.000    24021555.734 7  98364217.511 7     -2230.809          42.000
G19  23375070.031 7 122836806.925 7     -2653.141          47.000    23375066.977 7  95716980.100 7     -2067.382          42.000
R03  21547982.391 4 115348035.247 4     -2626.824          29.000
R04  19648446.656 5 105216536.326 5       -18.473          33.000    19648454.070 4  81835116.342 4       -14.368          25.000
R05  21872877.156 5 116923036.439 5      2593.754          34.000
R14  22555331.250 8 120232610.798 8      3681.078          50.000    22555333.609 7  93514265.981 7      2863.064          45.000
R19  20583260.344 6 110106559.309 6     -2881.980          39.000    20583260.922 7  85638442.900 7     -2241.540          43.000
C23  24156156.906 5 125787449.870 5      1024.727          31.000
C30  24762306.539 6 128943745.463 6     -3088.191          38.000
E04  23952396.875 8 125870811.401 8       984.934          48.000    23952398.195 8  96446456.887 8       754.689          49.000
E12  23226881.484 8 122058076.328 8     -2544.141          51.000    23226879.547 8  93525020.651 8     -1949.362          49.000
E19  24882307.594 7 130757412.594 7     -1549.594          42.000    24882309.188 7 100190755.391 7     -1187.219          44.000
> 2020 05 12 23 07 30.0000000  0 16        .000000000000
G04  20574208.766 8 108118212.618 8     -1274.090          49.000    20574209.156 8  84247967.813 8      -992.797          49.000
G07  24077690.484 5 126529100.910 5      3408.484          33.000    24077685.750 5  98594095.190 5      2655.962          32.000
G09  20492462.984 8 107688734.347 8      1061.777          51.000    20492462.492 8  83913289.962 8       827.359          51.000
G17  24037901.648 6 126320003.614 6     -2864.812          41.000    24037901.859 6  98431151.919 6     -2232.321          41.000
G19  23390239.148 7 122916520.370 7     -2661.879          47.000    23390236.328 7  95779094.462 7     -2074.191          43.000
R03  21562715.016 5 115426842.338 5     -2629.414          34.000    21562692.273 4  89776398.400 4     -2045.094          27.000
R04  19648571.664 5 105217203.122 5       -26.621          33.000
R05  21858325.695 5 116845261.477 5      2589.941          34.000
R14  22534632.984 8 120122274.732 8      3673.832          50.000    22534635.242 7  93428449.102 7      2857.428          44.000
R19  20599471.398 6 110193277.614 6     -2900.348          39.000    20599472.586 7  85705890.457 7     -2255.823          44.000
C23  24150283.297 5 125756885.025 5      1012.406          31.000
C29  23713379.055 5 123481855.565 5      -921.895          32.000
C30  24780099.562 6 129036396.915 6     -3089.512          37.000
E04  23946782.914 8 125841308.107 8       980.836          48.000    23946783.977 8  96423850.491 8       751.565          49.000
E12  23241420.891 8 122134477.118 8     -2550.191          51.000    23241418.195 8  93583561.496 8     -1954.067          49.000
E19  24891154.680 6 130803904.354 6     -1551.074          40.000    24891156.266 7 100226378.971 7     -1188.536          43.000
> 2020 05 12 23 08  0.0000000  0 16        .000000000000
G03  22229059.078 4 116814498.104 4     -2409.359          29.000
G04  20581532.789 8 108156701.465 8     -1288.168          50.000    20581533.562 8  84277959.134 8     -1003.767          50.000
G09  20486456.461 8 107657167.959 8      1046.324          51.000    20486455.844 8  83888692.803 8       815.321          51.000
G17  24054284.664 6 126406095.469 6     -2871.043          39.000    24054284.383 6  98498236.447 6     -2237.176          39.000
G19  23405482.492 8 122996623.718 8     -2674.738          48.000    23405480.055 7  95841512.630 7     -2084.212          43.000
R03  21577464.500 5 115505825.769 5     -2634.820          33.000    21577447.703 4  89837825.619 4     -2049.302          26.000
R04  19648765.539 5 105218244.677 5       -38.988          35.000
R05  21843819.234 5 116767725.873 5      2582.578          33.000
R14  22513999.797 8 120012286.733 8      3662.492          48.000    22514001.797 7  93342902.951 7      2848.608          44.000
R19  20615809.523 6 110280678.304 6     -2923.254          38.000    20615812.000 7  85773868.777 7     -2273.642          44.000
C23  24144506.133 6 125726828.121 6       995.332          36.000
C29  23718753.500 5 123509756.125 5      -939.078          31.000
C30  24797926.125 6 129129223.060 6     -3095.059          37.000
E04  23941216.391 7 125812056.101 7       973.008          47.000    23941217.742 8  96401436.648 8       745.498          48.000
E12  23256018.945 8 122211188.350 8     -2560.160          51.000    23256016.359 8  93642340.203 8     -1961.690          50.000
E19  24900035.383 6 130850572.344 6     -1556.613          39.000    24900036.711 7 100262137.544 7     -1192.589          43.000
> 2020 05 12 23 08 30.0000000  0 13        .000000000000
G04  20588913.508 8 108195487.729 8     -1297.500          50.000    20588914.227 8  84308182.182 8     -1011.039          50.000
G09  20480513.930 8 107625939.693 8      1035.625          51.000    20480513.430 8  83864359.095 8       806.981          51.000
G17  24070678.758 6 126492244.483 6     -2872.453          38.000    24070677.297 6  98565365.481 6     -2238.278          38.000
G19  23420774.211 8 123076981.552 8     -2682.434          48.000    23420772.094 7  95904129.113 7     -2090.208          43.000
R03  21592229.977 5 115584881.574 5     -2635.258          30.000    21592214.023 4  89899313.691 4     -2049.639          25.000
R04  19649003.523 5 105219525.641 5       -46.488          33.000    19649008.070 4  81837417.385 4       -36.158          24.000
R14  22493406.805 7 119902517.141 7      3655.586          45.000    22493409.312 7  93257526.668 7      2843.237          44.000
R19  20632248.961 6 110368622.913 6     -2940.410          40.000    20632252.500 7  85842270.122 7     -2286.986          44.000
C25  25854505.078 5 134631187.543 5     -1678.117          31.000
C30  24815760.195 5 129222090.158 5     -3095.363          34.000
E04  23935672.422 8 125782922.846 8       969.535          48.000    23935673.609 7  96379113.780 7       742.864          47.000
E12  23270650.156 8 122288076.111 8     -2565.465          50.000    23270648.500 8  93701254.166 8     -1965.752          51.000
E19  24908924.172 6 130897283.340 6     -1557.402          38.000    24908925.328 7 100297929.107 7     -1193.394          43.000
> 2020 05 12 23 09  0.0000000  0 15        .000000000000
G04  20596382.586 8 108234737.677 8     -1317.840          51.000    20596383.133 8  84338766.544 8     -1026.888          50.000
G07  24019420.633 4 126222900.745 4      3394.449          29.000    24019408.414 5  98355462.255 5      2645.025          30.000
G09  20474667.414 8 107595217.314 8      1014.012          51.000    20474667.250 8  83840419.558 8       790.139          51.000
G17  24087115.141 6 126578615.743 6     -2884.285          37.000    24087112.234 6  98632667.720 6     -2247.498          36.000
G19  23436145.750 8 123157758.254 8     -2701.227          48.000    23436143.688 7  95967071.988 7     -2104.852          44.000
R04  19649317.492 5 105221216.423 5       -65.145          34.000    19649322.734 4  81838751.058 4       -50.671          27.000
R14  22472886.422 7 119793140.813 7      3637.492          44.000    22472890.906 7  93172456.218 7      2829.161          43.000
R19  20648822.500 7 110457278.296 7     -2968.738          42.000    20648825.617 7  85911224.294 7     -2309.019          43.000
C23  24133215.023 5 125667987.769 5       960.426          35.000
C25  25864243.047 5 134681900.691 5     -1699.586          31.000
C29  23729748.211 5 123567032.462 5      -975.695          33.000
C30  24833632.133 5 129315162.346 5     -3107.258          32.000
E04  23930183.250 8 125754076.035 8       955.102          48.000    23930183.156 7  96357010.385 7       731.831          46.000
E12  23285346.367 8 122365306.724 8     -2581.754          49.000    23285345.953 8  93760430.852 8     -1978.215          51.000
E19  24917853.008 6 130944204.410 6     -1569.383          39.000    24917854.180 7 100333881.611 7     -1202.475          43.000
> 2020 05 12 23 09 30.0000000  0 14        .000000000000
G04  20603912.492 8 108274306.857 8     -1323.617          51.000    20603913.133 8  84369599.672 8     -1031.390          51.000
G07  24000023.984 5 126120964.316 5      3397.898          30.000    24000009.641 5  98276034.286 5      2647.716          30.000
G09  20468889.898 8 107564857.965 8      1006.637          51.000    20468890.258 8  83816762.941 8       784.392          51.000
G17  24103565.336 6 126665062.714 6     -2881.895          38.000    24103562.453 6  98700028.973 6     -2245.635          38.000
G19  23451569.250 7 123238807.639 7     -2705.523          47.000    23451567.039 7  96030227.344 7     -2108.200          43.000
R04  19649680.969 4 105223171.120 4       -69.020          28.000    19649682.289 4  81840271.315 4       -53.688          25.000
R14  22452413.891 7 119684017.406 7      3633.992          45.000    22452419.562 7  93087582.487 7      2826.438          42.000
R19  20665501.820 6 110546495.523 6     -2982.473          41.000    20665503.680 7  85980615.461 7     -2319.701          43.000
C20  22605589.008 4 117713250.590 4      1307.492          29.000
C23  24127691.867 5 125639259.778 5       951.984          31.000
C25  25874047.906 5 134732957.207 5     -1706.879          31.000
E04  23924721.227 7 125725372.582 7       955.062          47.000    23924720.266 7  96335016.848 7       731.855          47.000
E12  23300080.062 8 122442735.815 8     -2583.566          48.000    23300080.938 8  93819759.646 8     -1979.571          51.000
E19  24926794.539 6 130991192.171 6     -1566.555          39.000    24926795.938 7 100369885.232 7     -1200.470          43.000
> 2020 05 12 23 10  0.0000000  0 16        .000000000000
G04  20611528.383 8 108314327.421 8     -1338.590          51.000    20611528.945 8  84400784.529 8     -1043.057          51.000
G07  23980654.906 5 126019194.391 5      3391.992          31.000    23980646.250 5  98196733.200 5      2643.117          32.000
G09  20463207.008 8 107534995.390 8       990.137          51.000    20463207.562 8  83793493.426 8       771.535          51.000
G17  24120054.594 6 126751717.025 6     -2889.094          39.000    24120052.602 6  98767551.813 6     -2251.239          39.000
G19  23467069.164 8 123320260.235 8     -2718.742          48.000    23467066.852 7  96093696.905 7     -2118.500          43.000
R03  21636709.094 5 115823028.051 5     -2651.582          34.000    21636715.945 4  90084569.148 4     -2062.339          28.000
R05  21786132.523 5 116459337.094 5      2557.152          32.000
R14  22432016.078 7 119575287.219 7      3620.609          44.000    22432021.641 6  93003014.608 6      2816.030          41.000
R19  20682310.336 6 110636406.854 6     -3005.602          40.000    20682311.555 7  86050546.451 7     -2337.693          42.000
C20  22598072.430 5 117674235.950 5      1298.891          32.000
C23  24122278.312 5 125611071.041 5       933.258          33.000
C25  25883948.227 5 134784506.674 5     -1722.957          32.000
C30  24869448.062 4 129501731.635 4     -3111.500          29.000
E04  23919311.516 7 125696945.984 7       945.793          46.000    23919311.195 8  96313235.476 8       724.764          48.000
E12  23314876.641 8 122520495.522 8     -2594.566          48.000    23314878.602 8  93879341.780 8     -1988.071          51.000
E19  24935774.148 6 131038379.634 6     -1573.363          40.000    24935775.703 7 100406041.834 7     -1205.552          42.000
> 2020 05 12 23 10 30.0000000  0 17        .000000000000
G04  20619202.102 8 108354652.423 8     -1349.863          51.000    20619202.656 8  84432206.617 8     -1051.842          51.000
G07  23961289.461 5 125917426.778 5      3390.695          32.000    23961286.180 5  98117457.330 5      2642.106          33.000
G09  20457590.961 8 107505484.188 8       977.070          51.000    20457591.805 8  83770497.696 8       761.357          51.000
G17  24136554.539 6 126838430.093 6     -2891.996          37.000    24136553.812 6  98835120.410 6     -2253.503          37.000
G19  23482617.500 7 123401967.155 7     -2728.465          47.000    23482615.258 7  96157364.618 7     -2126.077          43.000
R03  21651583.594 5 115902614.023 5     -2653.793          32.000    21651579.062 4  90146469.301 4     -2064.055          26.000
R04  19650605.516 5 105228091.649 5       -91.727          34.000    19650611.547 5  81844074.705 5       -71.343          31.000
R05  21771802.969 5 116382700.976 5      2551.492          34.000
R14  22411665.289 7 119466807.407 7      3611.098          42.000    22411670.906 6  92918641.488 6      2808.635          41.000
R19  20699219.508 6 110726860.344 6     -3024.828          39.000    20699220.477 7  86120899.139 7     -2352.647          42.000
C20  22590598.023 5 117635339.238 5      1294.172          31.000
C25  25893913.695 5 134836398.186 5     -1736.293          32.000
C29  23746932.172 5 123656519.676 5     -1016.898          32.000
C30  24887376.820 5 129595099.740 5     -3113.852          32.000
E04  23913926.523 7 125668650.709 7       940.367          45.000    23913927.406 8  96291554.711 8       720.529          48.000
E12  23329708.758 8 122598438.996 8     -2601.863          49.000    23329711.062 8  93939064.712 8     -1993.644          51.000
E19  24944763.883 6 131085620.766 6     -1576.395          39.000    24944765.305 7 100442239.592 7     -1207.836          42.000
> 2020 05 12 23 11  0.0000000  0 16        .000000000000
G04  20626959.648 8 108395417.981 8     -1365.891          51.000    20626960.109 8  84463971.982 8     -1064.330          51.000
G07  23941958.742 5 125815843.665 5      3383.172          33.000    23941955.148 5  98038301.782 5      2636.244          34.000
G09  20452067.977 8 107476461.903 8       959.602          51.000    20452069.297 8  83747882.950 8       747.741          51.000
G17  24153091.359 6 126925336.309 6     -2899.789          37.000    24153091.219 6  98902839.564 6     -2259.573          37.000
G19  23498239.672 7 123484063.388 7     -2742.664          46.000    23498237.867 7  96221335.700 7     -2137.141          42.000
R03  21666498.352 5 115982451.061 5     -2662.125          31.000
R04  19651166.914 5 105231087.343 5      -106.457          33.000    19651169.836 5  81846404.732 5       -82.794          32.000
R14  22391388.250 6 119358722.203 6      3596.727          41.000    22391394.156 7  92834575.188 7      2797.451          42.000
R19  20716255.188 6 110817992.392 6     -3048.465          38.000    20716256.438 7  86191779.606 7     -2371.028          42.000
C20  22583186.227 5 117596573.780 5      1284.238          31.000
C25  25903970.008 5 134888766.577 5     -1753.934          31.000
C29  23752850.898 4 123687343.754 4     -1037.430          28.000
C30  24905340.930 5 129688646.811 5     -3120.367          31.000
E04  23908592.461 7 125640624.276 7       930.086          45.000    23908594.242 8  96270079.880 8       712.726          48.000
E12  23344602.156 8 122676702.331 8     -2613.715          50.000    23344603.969 8  93999032.724 8     -2002.678          51.000
E19  24953789.641 6 131133052.472 6     -1583.855          38.000    24953791.148 6 100478583.381 6     -1213.795          41.000
> 2020 05 12 23 11 30.0000000  0 17        .000000000000
G03  22326351.820 5 117325782.020 5     -2459.637          31.000    22326355.359 5  91422666.759 5     -1916.594          31.000
G04  20634792.430 8 108436578.596 8     -1376.477          51.000    20634792.617 8  84496045.178 8     -1072.579          51.000
G07  23922649.148 5 125714382.494 5      3382.598          31.000    23922644.812 5  97959241.171 5      2635.790          31.000
G09  20446629.945 8 107447884.678 8       947.332          51.000    20446631.422 8  83725614.999 8       738.181          51.000
G17  24169656.141 5 127012388.933 5     -2902.273          34.000    24169656.234 5  98970672.755 5     -2261.515          34.000
G19  23513926.664 7 123566501.515 7     -2751.484          45.000    23513925.414 7  96285573.228 7     -2144.014          43.000
R03  21681427.086 5 116062338.271 5     -2664.340          33.000    21681409.203 4  90270654.795 4     -2072.261          26.000
R04  19651790.258 5 105234428.482 5      -115.238          35.000    19651790.867 5  81849003.320 5       -89.639          31.000
R14  22371178.453 7 119250991.845 7      3587.184          43.000    22371184.172 7  92750784.887 7      2790.035          43.000
R19  20733407.828 6 110909754.145 6     -3067.164          37.000    20733409.961 7  86263149.879 7     -2385.572          42.000
C20  22575807.680 5 117558142.722 5      1279.168          31.000
C23  24106575.352 5 125529267.883 5       886.582          31.000
C25  25914110.094 4 134941566.893 4     -1764.395          27.000
C30  24923332.836 4 129782326.389 4     -3122.922          27.000
E04  23903301.672 7 125612822.542 7       924.984          46.000    23903303.289 8  96248777.225 8       708.772          48.000
E12  23359547.953 8 122755240.122 8     -2620.449          50.000    23359548.812 8  94059211.035 8     -2007.880          51.000
E19  24962843.250 6 131180630.262 6     -1586.391          39.000    24962845.148 6 100515039.110 6     -1215.606          41.000
> 2020 05 12 23 12  0.0000000  0 17        .000000000000
G03  22340422.719 5 117399724.031 5     -2466.324          31.000    22340427.789 5  91480283.874 5     -1921.811          30.000
G04  20642695.156 8 108478107.186 8     -1388.645          51.000    20642695.328 8  84528405.109 8     -1082.061          51.000
G07  23903359.227 5 125613020.560 5      3378.184          34.000    23903357.156 5  97880257.928 5      2632.351          35.000
G09  20441271.820 8 107419726.954 8       933.383          51.000    20441273.180 8  83703673.923 8       727.311          51.000
G17  24186244.719 6 127099559.523 6     -2905.883          37.000    24186243.602 6  99038597.922 6     -2264.324          37.000
G19  23529673.391 7 123649252.708 7     -2761.781          46.000    23529672.641 7  96350054.657 7     -2152.037          44.000
R04  19652467.812 5 105238084.004 5      -125.086          30.000    19652474.352 4  81851859.990 4       -97.289          28.000
R05  21729053.898 5 116154271.438 5      2530.848          34.000
R14  22351032.023 7 119143594.721 7      3576.102          44.000    22351036.977 7  92667253.847 7      2781.415          45.000
R19  20750673.211 6 111002115.788 6     -3086.988          38.000    20750675.812 7  86334986.709 7     -2400.994          43.000
C20  22568462.734 5 117519898.067 5      1273.691          32.000
C23  24101514.602 5 125502968.268 5       870.574          32.000
C25  25924328.188 5 134994777.680 5     -1779.020          30.000
C29  23764981.297 4 123750495.294 4     -1064.820          29.000
E04  23898049.164 7 125585219.737 7       918.520          47.000    23898050.469 8  96227627.049 8       703.843          49.000
E12  23374540.727 8 122834025.274 8     -2628.520          50.000    23374540.414 8  94119578.869 8     -2014.054          50.000
E19  24971919.820 6 131228327.838 6     -1590.000          38.000    24971921.945 6 100551586.599 6     -1218.285          40.000
> 2020 05 12 23 12 30.0000000  0 16        .000000000000
G03  22354527.188 5 117473845.426 5     -2474.527          33.000    22354531.516 5  91538040.805 5     -1928.203          32.000
G04  20650661.914 8 108519972.526 8     -1402.230          51.000    20650662.195 8  84561027.444 8     -1092.647          51.000
G07  23884083.688 5 125511730.752 5      3373.922          30.000    23884083.578 5  97801330.795 5      2629.033          32.000
G09  20435987.797 8 107391958.987 8       917.992          51.000    20435988.844 8  83682036.551 8       715.319          51.000
G17  24202849.969 6 127186815.335 6     -2910.906          39.000    24202847.664 6  99106589.464 6     -2268.236          39.000
G19  23545473.664 7 123732284.039 7     -2773.398          46.000    23545473.070 7  96414754.389 7     -2161.090          45.000
R05  21714865.742 5 116078394.231 5      2523.156          33.000    21714883.586 5  90283239.241 5      1962.455          30.000
R14  22330943.547 7 119036505.748 7      3563.180          44.000    22330947.812 7  92583962.471 7      2771.362          45.000
R19  20768046.094 6 111095043.530 6     -3108.184          41.000    20768047.375 7  86407263.849 7     -2417.476          42.000
C20  22561149.133 5 117481810.919 5      1265.523          32.000
C23  24096549.109 6 125477108.484 6       853.492          36.000
C25  25934618.148 4 135048359.724 4     -1793.059          29.000
C29  23771166.875 5 123782704.638 5     -1082.480          30.000
E04  23892829.172 8 125557786.114 8       910.434          48.000    23892830.188 8  96206606.493 8       697.623          49.000
E12  23389574.391 8 122913026.578 8     -2638.129          49.000    23389572.773 8  94180112.326 8     -2021.432          49.000
E19  24981013.281 5 131276115.027 5     -1595.430          35.000    24981015.750 6 100588202.753 6     -1222.667          39.000
> 2020 05 12 23 13  0.0000000  0 14        .000000000000
G03  22368676.594 5 117548199.500 5     -2481.590          32.000    22368681.812 5  91595979.005 5     -1933.712          31.000
G04  20658702.625 8 108562226.784 8     -1414.781          51.000    20658703.055 8  84593952.833 8     -1102.427          51.000
G09  20430788.383 8 107364634.494 8       903.535          51.000    20430788.828 8  83660744.758 8       704.053          51.000
G17  24219481.039 6 127274207.330 6     -2915.133          39.000    24219478.227 6  99174687.114 6     -2271.535          39.000
G19  23561336.867 7 123815646.011 7     -2783.879          44.000    23561335.945 7  96479711.742 7     -2169.256          44.000
R14  22310923.406 7 118929783.841 7      3551.359          43.000    22310927.758 7  92500956.565 7      2762.168          44.000
R19  20785534.008 6 111188587.729 6     -3128.375          40.000    20785534.055 7  86480020.442 7     -2433.181          42.000
C20  22553876.195 5 117443934.540 5      1259.148          34.000
C23  24091679.039 6 125451742.480 6       837.324          36.000
C29  23777438.703 5 123815353.171 5     -1098.445          31.000
C30  24977393.609 4 130063841.919 4     -3134.004          29.000
E04  23887651.508 7 125530575.289 7       903.539          47.000    23887652.156 8  96185756.620 8       692.244          48.000
E12  23404658.781 8 122992296.283 8     -2646.633          49.000    23404656.258 8  94240851.433 8     -2027.924          48.000
E19  24990133.602 5 131324044.943 5     -1599.750          35.000    24990136.164 6 100624928.243 6     -1225.977          37.000
> 2020 05 12 23 13 30.0000000  0 17        .000000000000
G03  22382858.586 6 117622724.284 6     -2487.590          37.000    22382864.695 6  91654050.254 6     -1938.385          36.000
G04  20666805.328 8 108604806.845 8     -1425.305          51.000    20666805.844 8  84627132.098 8     -1110.624          51.000
G09  20425661.695 8 107337691.845 8       891.184          51.000    20425661.914 8  83639750.492 8       694.429          51.000
G17  24236125.227 6 127361670.667 6     -2917.281          38.000    24236122.883 6  99242840.308 6     -2273.206          38.000
G19  23577250.773 7 123899273.968 7     -2792.488          45.000    23577249.070 7  96544876.346 7     -2175.965          45.000
R03  21741354.023 5 116383095.285 5     -2680.023          30.000    21741353.609 4  90520253.468 4     -2084.457          29.000
R04  19654866.656 5 105250891.476 5      -157.336          30.000    19654868.859 5  81861826.512 5      -122.382          32.000
R14  22290960.633 7 118823371.348 7      3541.492          43.000    22290965.180 7  92418191.309 7      2754.494          42.000
R19  20803124.375 6 111282681.965 6     -3146.254          41.000    20803123.836 7  86553204.843 7     -2447.086          42.000
C20  22546631.688 6 117406208.557 6      1254.586          36.000
C23  24086889.617 5 125426810.392 5       822.926          32.000
C29  23783804.648 4 123848483.776 4     -1111.566          29.000
C30  24995454.289 5 130157883.738 5     -3136.371          33.000
E04  23882504.203 7 125503525.445 7       898.293          46.000    23882504.633 8  96165030.105 8       688.329          48.000
E09  25674922.219 7 134922632.663 7      2359.066          42.000    25674926.250 6 103382287.814 6      1807.450          39.000
E12  23419781.805 8 123071771.230 8     -2653.078          48.000    23419778.898 7  94301747.827 7     -2032.971          47.000
E19  24999269.500 6 131372055.319 6     -1602.422          37.000    24999271.148 6 100661715.416 6     -1227.635          36.000
> 2020 05 12 23 14  0.0000000  0 16        .000000000000
G03  22397091.352 5 117697515.683 5     -2498.219          34.000    22397091.695 5  91712329.451 5     -1946.664          31.000
G04  20674987.992 8 108647807.415 8     -1441.062          51.000    20674988.414 8  84660639.044 8     -1122.906          51.000
G07  23826389.188 5 125208521.056 5      3360.027          31.000    23826391.148 4  97565076.536 4      2618.203          29.000
G09  20420625.578 8 107311227.283 8       873.430          51.000    20420626.078 8  83619128.728 8       680.592          51.000
G17  24252800.414 5 127449298.794 5     -2924.391          35.000    24252798.758 6  99311122.025 6     -2278.743          36.000
G19  23593233.094 7 123983260.861 7     -2806.133          45.000    23593230.484 7  96610320.648 7     -2186.597          45.000
R04  19655794.562 5 105255838.239 5      -172.344          31.000    19655790.484 5  81865674.004 5      -134.045          32.000
R14  22271074.125 7 118717370.411 7      3525.793          42.000    22271078.695 6  92335746.173 6      2742.283          40.000
R19  20820834.773 6 111377420.271 6     -3169.270          39.000    20820834.734 7  86626890.165 7     -2464.990          42.000
C20  22539433.391 5 117368728.686 5      1243.992          31.000
C23  24082203.852 6 125402408.955 6       803.781          38.000
C30  25013546.203 5 130252078.910 5     -3143.156          33.000
E04  23877405.680 7 125476732.683 7       888.246          46.000    23877406.188 8  96144500.603 8       680.505          48.000
E09  25661472.953 7 134851957.883 7      2352.773          43.000    25661476.727 6 103328134.485 6      1802.783          38.000
E12  23434961.320 7 123151546.184 7     -2664.879          46.000    23434959.078 7  94362874.102 7     -2041.896          47.000
E19  25008439.383 6 131420241.964 6     -1609.641          38.000    25008440.133 6 100698637.677 6     -1233.648          36.000
> 2020 05 12 23 14 30.0000000  0 16        .000000000000
G03  22411365.398 5 117772526.123 5     -2503.441          35.000    22411367.758 5  91770779.153 5     -1950.737          35.000
G04  20683241.445 8 108691179.863 8     -1451.520          51.000    20683241.578 8  84694435.754 8     -1131.054          51.000
G07  23807209.484 6 125107720.041 6      3358.422          36.000    23807208.266 5  97486530.258 5      2616.952          35.000
G09  20415671.422 8 107285193.602 8       861.078          51.000    20415672.039 8  83598842.732 8       670.970          51.000
G19  23609273.977 7 124067556.112 7     -2814.457          46.000    23609270.758 7  96676005.227 7     -2193.083          44.000
R04  19656775.445 5 105261113.313 5      -180.988          35.000    19656775.781 5  81869776.881 5      -140.769          33.000
R14  22251257.438 7 118611738.148 7      3515.453          44.000    22251261.062 6  92253587.731 6      2734.241          39.000
R19  20838655.352 6 111472750.482 6     -3187.172          38.000    20838656.359 6  86701035.897 6     -2478.908          41.000
C20  22532272.297 5 117331448.979 5      1240.262          31.000
C23  24077610.320 5 125378492.583 5       789.664          31.000
C29  23796831.453 5 123916344.616 5     -1144.953          32.000
C30  25031656.766 5 130346378.618 5     -3144.762          35.000
E04  23872347.430 7 125450149.871 7       883.105          47.000    23872347.711 8  96124131.960 8       676.677          48.000
E09  25648041.062 7 134781372.714 7      2351.984          43.000    25648044.344 6 103274049.796 6      1802.185          39.000
E12  23450188.625 7 123231572.499 7     -2671.270          45.000    23450187.781 7  94424192.991 7     -2046.646          47.000
E19  25017633.742 6 131468557.109 6     -1612.316          38.000    25017634.648 6 100735658.345 6     -1235.121          37.000
> 2020 05 12 23 15  0.0000000  0 17        .000000000000
G03  22425649.961 5 117847591.413 5     -2509.660          34.000    22425655.086 5  91829271.360 5     -1955.595          31.000
G04  20691534.250 8 108734758.823 8     -1463.840          51.000    20691534.422 8  84728393.379 8     -1140.654          51.000
G07  23788022.445 6 125006881.394 6      3353.980          37.000    23788018.859 6  97407954.729 6      2613.491          38.000
G09  20410768.156 8 107259426.952 8       846.719          51.000    20410768.609 8  83578764.833 8       659.781          51.000
G19  23625341.766 7 124151992.911 7     -2824.598          46.000    23625338.250 7  96741800.146 7     -2200.985          44.000
R03  21786512.844 5 116624941.789 5     -2694.320          32.000    21786524.172 4  90708296.483 4     -2095.582          26.000
R04  19657790.211 6 105266549.649 6      -191.621          37.000    19657791.234 5  81874005.117 5      -149.042          34.000
R14  22231480.422 7 118506312.949 7      3502.855          44.000    22231482.492 6  92171590.367 6      2724.446          39.000
R19  20856554.289 6 111568502.166 6     -3206.426          41.000    20856556.211 6  86775509.443 6     -2493.887          40.000
C20  22525121.633 5 117294206.328 5      1233.184          30.000
C23  24073079.172 5 125354900.046 5       773.008          34.000
C29  23803432.562 6 123950774.155 6     -1160.340          37.000
C30  25049755.703 5 130440617.986 5     -3147.875          34.000
E04  23867297.773 7 125423612.973 7       876.066          46.000    23867297.977 8  96103798.493 8       671.338          48.000
E09  25634595.094 6 134710713.558 6      2348.730          41.000    25634598.945 6 103219908.422 6      1799.751          39.000
E12  23465433.086 7 123311684.848 7     -2679.605          46.000    23465433.352 7  94485577.813 7     -2053.168          47.000
E19  25026821.531 5 131516836.339 5     -1616.605          35.000    25026822.414 6 100772651.482 6     -1238.437          37.000
> 2020 05 12 23 15 30.0000000  0 16        .000000000000
G03  22440030.953 5 117923163.645 5     -2516.637          34.000    22440035.656 5  91888158.715 5     -1961.022          34.000
G04  20699952.094 8 108778994.916 8     -1475.098          51.000    20699952.391 8  84762863.078 8     -1149.427          51.000
G07  23768913.844 6 124906459.680 6      3350.957          39.000    23768909.031 6  97329704.065 6      2611.132          39.000
G09  20406001.586 8 107234379.438 8       833.344          51.000    20406001.805 8  83559247.298 8       649.359          51.000
G19  23641521.766 7 124237020.414 7     -2833.645          44.000    23641518.422 7  96808055.325 7     -2208.035          44.000
R03  21801643.609 5 116705977.998 5     -2697.723          34.000
R04  19658921.961 5 105272607.237 5      -201.398          33.000    19658923.930 5  81878716.677 5      -156.640          32.000
R14  22211828.805 7 118401557.985 7      3491.195          44.000    22211830.141 6  92090114.399 6      2715.380          39.000
R19  20874618.828 7 111665131.471 7     -3225.059          43.000    20874619.398 6  86850665.514 6     -2508.382          39.000
C23  24068696.320 5 125332080.500 5       757.723          33.000
C29  23810187.906 6 123985958.913 6     -1175.121          36.000
C30  25067927.141 5 130535242.790 5     -3150.531          34.000
E04  23862342.461 7 125397573.967 7       869.941          45.000    23862343.172 8  96083846.557 8       666.680          49.000
E09  25621221.211 6 134640432.868 6      2346.621          40.000    25621226.102 6 103166057.025 6      1798.219          41.000
E12  23480780.328 7 123392333.865 7     -2686.824          46.000    23480781.055 8  94547373.834 8     -2058.700          48.000
E19  25036088.023 5 131565531.153 5     -1619.539          35.000    25036088.812 6 100809963.063 6     -1240.799          38.000
> 2020 05 12 23 16  0.0000000  0 18        .000000000000
G03  22454416.398 6 117998756.930 6     -2524.906          39.000    22454417.391 6  91947062.654 6     -1967.459          38.000
G04  20708402.391 8 108823401.356 8     -1487.906          51.000    20708402.516 8  84797465.519 8     -1159.407          51.000
