     3.02           OBSERVATION DATA    M (MIXED)           RINEX VERSION / TYPE
SAVERINEX           SC600               20200508 195931 LCL PGM / RUN BY / DATE
       G = GPS       R = GLONASS       C = COMPASS          COMMENT
       S = SBAS      J = QZSS          E = GALILEO          COMMENT
BEAN                                                        MARKER NAME
1                                                           MARKER NUMBER
GEODETIC                                                    MARKER TYPE
Unige DICCA         GTER                                    OBSERVER / AGENCY
SC60291900056       SC600               2.12(191226)        REC # / TYPE / VERS
                    HEMA45          NONE                    ANT # / TYPE
  4509407.8091   693652.4678  4442337.6214                  APPROX POSITION XYZ
        0.0000        0.0000        0.0000                  ANTENNA: DELTA H/E/N
G    8 C1C L1C D1C S1C C2Y L2Y D2Y S2Y                      SYS / # / OBS TYPES
R    8 C1C L1C D1C S1C C2P L2P D2P S2P                      SYS / # / OBS TYPES
C    8 C1I L1I D1I S1I C7I L7I D7I S7I                      SYS / # / OBS TYPES
E    8 C1C L1C D1C S1C C7Q L7Q D7Q S7Q                      SYS / # / OBS TYPES
DBHZ                                                        COMMENT
     30.000                                                 INTERVAL
  2020    05    08    17    00    0.0000000     GPS         TIME OF FIRST OBS
  2020    05    08    17    59   30.0000000     GPS         TIME OF LAST OBS
     0                                                      RCV CLOCK OFFS APPL
G L1C  0.00000                                              SYS / PHASE SHIFT
G L2Y  0.00000                                              SYS / PHASE SHIFT
R L1C  0.00000                                              SYS / PHASE SHIFT
R L2P  0.25000                                              SYS / PHASE SHIFT
C L1I  0.00000                                              SYS / PHASE SHIFT
C L7I  0.00000                                              SYS / PHASE SHIFT
E L1C  0.50000                                              SYS / PHASE SHIFT
E L7Q -0.25000                                              SYS / PHASE SHIFT
 13 R02 -4 R03  5 R04  6 R05  1 R06 -4 R09 -2 R10 -7 R15  0 GLONASS SLOT / FRQ #
    R16 -1 R17  4 R18 -3 R19  3 R20  2                      GLONASS SLOT / FRQ #
 C1C   71.950 C2C   71.950 C2P   71.950                     GLONASS COD/PHS/BIS
    18                                                      LEAP SECONDS
*** Above antenna height is from mark to ANTENNA BOTTOM.    COMMENT
    17     4        0.0000        ANT MEASURE TYPE/HEIGT    COMMENT
    0.0000    0.0000    0.0458    0.0405    0.0000          COMMENT
                    BASE STATION                            COMMENT
                                                            END OF HEADER
> 2020 05 08 17 00  0.0000000  0 17        .000000000000
G10  20983290.312 8 110267998.074 8      -641.934          51.000    20983292.211 8  85923122.519 8      -500.208          51.000
G16  22711912.305 8 119351900.951 8     -3348.746          48.000    22711912.727 7  93001462.614 7     -2609.413          44.000
G27  20330579.688 8 106837895.164 8      -518.480          51.000    20330579.805 8  83250321.786 8      -404.014          51.000
G32  24383048.609 7 128133774.821 7      2974.945          47.000    24383046.961 7  99844504.719 7      2318.142          47.000
R04  20522543.891 6 109897248.084 6      -541.848          36.000    20522547.258 5  85475681.810 5      -421.434          33.000
R05  20984586.109 7 112174692.508 7      3359.820          46.000    20984591.688 7  87247004.205 7      2613.194          46.000
R10  22090489.648 6 117754779.626 6     -2939.754          38.000
C05  39623891.906 5 206332002.704 5       -14.754          35.000    39623894.305 6 159549001.866 6       -11.696          36.000
C19  22528994.719 6 117314485.856 6        10.578          38.000
C20  25683501.562 6 133740705.064 6     -2567.770          36.000
C22  23799078.406 8 123928111.852 8      2859.250          51.000
C24  25596430.961 6 133287328.034 6     -1817.875          36.000
C29  25454377.539 4 132547623.860 4     -2669.551          28.000
E12  21743647.023 6 114263639.201 6       367.859          37.000    21743649.477 6  87552656.461 6       281.839          38.000
E19  26419967.836 8 138837886.898 8      2395.090          48.000    26419971.297 7 106382305.746 7      1835.223          42.000
E24  23604185.195 7 124040836.918 7     -1728.996          45.000    23604199.297 7  95044314.025 7     -1324.839          45.000
E31  27360893.578 5 143782465.533 5     -3154.562          32.000    27360899.336 5 110170983.499 5     -2417.644          34.000
> 2020 05 08 17 00 30.0000000  0 17        .000000000000
G10  20987011.656 8 110287554.576 8      -659.965          51.000    20987013.750 8  85938361.355 8      -514.258          51.000
G16  22731058.453 8 119452516.698 8     -3357.059          48.000    22731059.539 7  93079864.461 7     -2615.890          44.000
G27  20333586.781 8 106853698.447 8      -533.215          51.000    20333587.211 8  83262636.006 8      -415.492          51.000
G32  24366079.172 7 128044598.821 7      2972.133          44.000    24366078.336 7  99775017.015 7      2315.951          44.000
R04  20525661.727 5 109913937.802 5      -570.078          34.000    20525663.820 5  85488662.740 5      -443.394          33.000
R05  20965783.320 8 112074183.800 8      3342.562          48.000    20965789.125 7  87168830.772 7      2599.771          46.000
R10  22107085.484 5 117843246.278 5     -2956.125          34.000
C05  39623984.109 5 206332482.428 5       -15.535          35.000    39623986.445 6 159549372.752 6       -11.484          36.000
C19  22528984.297 6 117314443.082 6        -6.012          41.000
C20  25698328.469 5 133817910.444 5     -2577.219          35.000
C22  23782637.820 8 123842497.575 8      2850.172          51.000
C24  25606942.273 5 133342056.726 5     -1828.574          33.000
C29  25469763.484 4 132627741.350 4     -2672.738          28.000
E12  21741565.945 6 114252706.507 6       362.707          36.000    21741568.453 6  87544279.498 6       277.993          39.000
E19  26406323.273 8 138766177.751 8      2387.254          48.000    26406323.625 7 106327359.865 7      1829.230          42.000
E24  23614096.172 7 124092912.859 7     -1740.934          46.000    23614109.070 7  95084216.331 7     -1333.968          45.000
E31                                                                  27378917.125 5 110243537.532 5     -2417.665          32.000
> 2020 05 08 17 01  0.0000000  0 17        .000000000000
G10  20990835.695 8 110307650.383 8      -680.660          51.000    20990837.562 8  85954020.396 8      -530.385          51.000
G16  22750252.148 8 119553381.043 8     -3368.090          49.000    22750253.305 6  93158460.018 6     -2624.486          41.000
G20  22335100.906 5 117371747.241 5     -2681.551          30.000
G27  20336677.695 8 106869941.841 8      -550.707          51.000    20336678.273 8  83275293.185 8      -429.122          51.000
G32  24349125.898 6 127955507.529 6      2966.184          37.000    24349125.977 6  99705595.331 6      2311.315          38.000
R04  20528930.305 6 109931449.463 6      -599.117          37.000    20528933.609 5  85502283.039 5      -465.983          31.000
R05  20947079.000 8 111974194.960 8      3322.262          51.000    20947084.047 7  87091061.735 7      2583.984          45.000
R10  22123770.031 5 117932204.288 5     -2975.141          30.000
C05  39624075.453 5 206332957.977 5       -17.434          35.000    39624077.844 6 159549740.524 6       -13.849          36.000
C19  22529074.023 7 117314910.696 7       -25.906          44.000
C20  25713211.109 5 133895407.857 5     -2589.977          35.000
C22  23766248.930 8 123757156.018 8      2838.277          51.000
C24  25617514.391 4 133397119.740 4     -1842.059          29.000
E12  21739513.977 6 114241924.742 6       354.922          38.000    21739516.258 6  87536018.189 6       272.076          38.000
E19  26392722.258 8 138694699.629 8      2376.805          48.000    26392720.586 7 106272590.996 7      1821.149          43.000
E24  23624074.125 7 124145342.818 7     -1755.594          46.000    23624085.914 7  95124389.898 7     -1345.090          45.000
E31                                                                  27396938.578 5 110316104.798 5     -2420.577          34.000
> 2020 05 08 17 01 30.0000000  0 15        .000000000000
G10  20994760.141 8 110328274.524 8      -696.539          51.000    20994762.203 8  85970091.157 8      -542.758          51.000
G16  22769490.992 8 119654481.824 8     -3374.199          49.000    22769491.445 6  93237239.787 6     -2629.249          40.000
G27  20339850.602 8 106886615.873 8      -563.160          51.000    20339851.375 8  83288285.917 8      -438.829          51.000
R04  20532353.375 6 109949772.285 6      -624.418          36.000    20532353.828 5  85516534.054 5      -485.661          30.000
R05  20928471.172 8 111874719.905 8      3307.012          51.000    20928474.664 7  87013692.298 7      2572.120          44.000
R10  22140545.656 5 118021640.092 5     -2989.383          34.000
C05  39624164.297 5 206333420.785 5       -15.609          35.000    39624166.469 6 159550098.069 6       -11.844          36.000
C19  22529260.148 7 117315878.804 7       -40.660          45.000
C20  25728147.180 5 133973185.405 5     -2597.414          35.000
C22  23749910.141 8 123672079.584 8      2831.176          48.000
C24  25628146.297 5 133452479.296 5     -1850.352          31.000
E12  21737489.133 6 114231284.129 6       351.875          39.000    21737490.945 6  87527864.980 6       269.687          39.000
E19  26379163.203 7 138623444.578 7      2371.148          47.000    26379161.086 7 106217993.010 7      1816.971          44.000
E24  23634116.820 7 124198115.416 7     -1765.102          46.000    23634128.703 7  95164826.032 7     -1352.519          46.000
E31                                                                  27414961.375 5 110388676.157 5     -2419.494          34.000
> 2020 05 08 17 02  0.0000000  0 15        .000000000000
G10  20998797.938 8 110349493.955 8      -700.250          51.000    20998800.234 8  85986625.780 8      -545.649          51.000
G16  22788787.398 8 119755884.171 8     -3368.121          49.000    22788786.266 6  93316254.507 6     -2624.510          38.000
G27  20343118.375 8 106903788.901 8      -563.828          51.000    20343119.430 8  83301667.487 8      -439.347          51.000
G32  24315278.781 5 127777663.021 5      2976.766          32.000    24315277.695 5  99566997.220 5      2319.558          34.000
R04  20535940.992 5 109968974.616 5      -637.852          30.000    20535940.391 5  85531469.216 5      -496.104          31.000
R05  20909972.984 8 111775831.986 8      3303.633          51.000    20909974.586 7  86936779.568 7      2569.495          43.000
R10  22157424.930 6 118111617.721 6     -2991.102          38.000
C05  39624263.336 5 206333936.192 5        -1.523          35.000    39624265.461 5 159550496.142 5        -1.039          35.000
C19  22529555.672 7 117317414.611 7       -43.738          46.000
C20  25743149.508 5 134051308.476 5     -2593.332          32.000
C22  23733634.117 7 123587337.826 7      2835.906          46.000
E12  21735504.453 6 114220852.586 6       361.312          40.000    21735505.391 6  87519871.999 6       276.703          39.000
E19  26365659.203 7 138552482.617 7      2377.578          46.000    26365657.828 7 106163619.606 7      1821.649          44.000
E24  23644236.758 7 124251297.232 7     -1762.586          46.000    23644249.266 7  95205575.741 7     -1350.562          47.000
E31                                                                  27432997.180 5 110461302.321 5     -2408.785          34.000
> 2020 05 08 17 02 30.0000000  0 17        .000000000000
G10  21002936.289 8 110371241.442 8      -733.582          51.000    21002938.461 8  86003571.852 8      -571.622          51.000
G16  22808128.336 8 119857519.472 8     -3391.645          49.000    22808126.156 6  93395450.748 6     -2642.843          38.000
G20  22381289.625 5 117614470.278 5     -2713.387          30.000
G27  20346468.453 8 106921395.186 8      -593.977          51.000    20346469.555 8  83315386.633 8      -462.842          51.000
G32  24298376.156 6 127688884.193 6      2958.027          39.000    24298384.844 6  99497819.052 6      2304.959          39.000
R05  20891572.297 8 111677468.145 8      3270.105          51.000    20891573.305 7  86860274.434 7      2543.415          44.000
R10  22174393.156 6 118202066.085 6     -3022.590          38.000
C05  39624359.945 6 206334439.758 6       -16.758          36.000    39624361.992 6 159550885.457 6       -12.614          36.000
C19  22529948.102 7 117319452.496 7       -76.133          46.000
C20  25758205.328 5 134129709.492 5     -2617.844          31.000
C22  23717410.828 8 123502867.314 8      2811.355          48.000
C29  25531544.359 5 132949427.830 5     -2687.992          32.000
E12  21733547.023 6 114210564.045 6       340.660          40.000    21733546.766 6  87511988.558 6       261.064          39.000
E19  26352198.406 7 138481749.534 7      2353.984          45.000    26352198.297 7 106109421.496 7      1803.771          45.000
E24  23654421.547 7 124304820.679 7     -1789.695          46.000    23654434.992 7  95246587.169 7     -1371.334          47.000
E31                                                                  27451033.961 5 110533938.165 5     -2420.691          34.000
E33  25131453.477 5 132066679.409 5     -1660.863          31.000    25131456.492 6 101193957.309 6     -1273.008          37.000
> 2020 05 08 17 03  0.0000000  0 15        .000000000000
G10  21007170.125 8 110393490.536 8      -751.422          51.000    21007172.570 8  86020908.822 8      -585.524          51.000
G16  22827508.234 8 119959359.332 8     -3399.508          48.000    22827506.422 6  93474806.411 6     -2648.970          41.000
G27  20349896.352 8 106939409.776 8      -608.672          51.000    20349897.477 8  83329423.969 8      -474.290          51.000
G32  24281493.367 7 127600168.935 7      2954.734          43.000    24281503.391 7  99428690.354 7      2302.393          43.000
R05  20873265.477 8 111579606.577 8      3252.266          51.000    20873266.336 7  86784159.890 7      2529.543          46.000
R10  22191445.008 6 118292955.198 6     -3038.082          39.000
C05  39624449.492 5 206334906.325 5       -16.469          35.000    39624451.438 6 159551245.264 6       -12.714          36.000
C19  22530431.875 7 117321967.111 7       -93.066          45.000
C22  23701237.164 8 123418645.130 8      2801.844          50.000
C29  25547035.398 4 133030090.539 4     -2691.562          29.000
E12  21731612.062 6 114200393.253 6       335.695          41.000    21731610.672 6  87504195.355 6       257.293          40.000
E19  26338776.273 7 138411221.662 7      2346.109          44.000    26338777.867 7 106055380.653 7      1797.632          45.000
E24  23664666.227 7 124358658.938 7     -1801.020          46.000    23664679.469 7  95287839.822 7     -1380.143          47.000
E31                                                                  27469066.930 5 110606548.842 5     -2421.119          35.000
E33  25140940.688 5 132116534.536 5     -1664.312          33.000    25140944.828 6 101232161.011 6     -1275.082          39.000
> 2020 05 08 17 03 30.0000000  0 15        .000000000000
G10  21011517.484 8 110416335.648 8      -768.371          51.000    21011519.953 8  86038710.192 8      -598.731          51.000
G16  22846944.617 7 120061496.737 7     -3406.492          47.000    22846943.625 7  93554393.945 7     -2654.413          42.000
G27  20353420.234 8 106957928.547 8      -622.672          51.000    20353421.305 8  83343854.170 8      -485.199          51.000
G32  24264642.539 7 127511615.735 7      2952.199          46.000    24264652.742 7  99359687.912 7      2300.415          46.000
R04  20547611.773 5 110031524.562 5      -734.246          33.000    20547602.680 4  85580042.072 4      -571.086          26.000
R05  20855071.758 8 111482348.940 8      3234.922          51.000    20855072.438 7  86708515.050 7      2516.050          46.000
R10  22208597.227 6 118384377.571 6     -3053.141          38.000
C05  39624550.266 5 206335430.651 5       -15.352          35.000    39624552.086 6 159551650.683 6       -11.874          36.000
C19  22531025.625 7 117325053.001 7      -109.277          44.000
C22  23685130.344 8 123334768.009 8      2793.062          51.000
E12  21729717.523 6 114190435.782 6       331.488          41.000    21729715.664 6  87496565.589 6       254.069          41.000
E19  26325412.109 7 138340996.691 7      2338.914          43.000    26325415.047 7 106001571.911 7      1792.146          46.000
E24  23674988.508 7 124412905.984 7     -1811.941          45.000    23675001.359 7  95329405.687 7     -1388.296          47.000
E31                                                                  27487112.281 5 110679213.066 5     -2420.691          35.000
E33  25150460.250 6 132166553.706 6     -1666.641          36.000    25150461.586 6 101270481.973 6     -1276.967          40.000
> 2020 05 08 17 04  0.0000000  0 17        .000000000000
G01  24152044.484 6 126919857.311 6      3137.016          36.000
G10  21015957.258 8 110439666.491 8      -784.898          51.000    21015959.414 8  86056890.068 8      -611.609          51.000
G16  22866416.109 7 120163820.096 7     -3412.973          47.000    22866415.953 7  93634126.401 7     -2659.459          42.000
G27  20357019.375 8 106976842.726 8      -636.270          51.000    20357020.508 8  83358592.473 8      -495.794          51.000
G32  24247802.492 7 127423118.520 7      2949.766          46.000    24247811.938 7  99290729.098 7      2298.522          46.000
R04  20551806.820 4 110053971.120 4      -760.211          28.000    20551805.617 5  85597532.332 5      -591.275          32.000
R05  20836970.875 8 111385587.891 8      3217.871          49.000    20836971.664 7  86633256.487 7      2502.789          45.000
R10  22225827.133 6 118476217.998 6     -3067.680          36.000
C05  39624641.383 5 206335905.671 5       -14.223          35.000    39624642.945 6 159552017.205 6       -10.850          36.000
C19  22531707.531 6 117328601.771 6      -125.195          39.000
C22  23669069.633 8 123251130.059 8      2784.773          51.000
C29  25578093.297 4 133191832.227 4     -2695.172          29.000
E12  21727842.539 6 114180582.531 6       327.625          39.000    21727840.977 6  87489015.692 6       251.055          41.000
E19  26312085.844 7 138270967.544 7      2331.848          44.000    26312089.109 7 105947913.260 7      1786.737          46.000
E24  23685367.469 7 124467451.159 7     -1822.297          44.000    23685380.227 7  95371200.045 7     -1396.353          47.000
E31                                                                  27505149.914 5 110751845.811 5     -2420.027          34.000
E33  25159986.594 6 132216609.679 6     -1668.562          40.000    25159985.852 6 101308836.522 6     -1278.314          41.000
> 2020 05 08 17 04 30.0000000  0 17        .000000000000
G01  24134142.320 6 126825780.006 6      3129.539          36.000
G10  21020484.227 8 110463455.652 8      -805.855          51.000    21020486.469 8  86075427.083 8      -627.939          51.000
G16  22885917.320 7 120266299.774 7     -3423.832          46.000    22885917.727 7  93713980.654 7     -2667.921          43.000
G27  20360688.906 8 106996126.325 8      -654.172          51.000    20360690.367 8  83373618.630 8      -509.744          51.000
G32  24230968.703 7 127334654.009 7      2943.023          47.000    24230977.297 7  99221795.796 7      2293.268          47.000
R04  20556135.234 5 110077176.951 5      -790.988          32.000    20556140.266 5  85615567.008 5      -615.213          32.000
R05  20818958.398 8 111289300.946 8      3196.238          49.000    20818959.102 7  86558366.669 7      2485.963          45.000
R10  22243128.125 5 118568446.332 5     -3085.523          35.000
C05  39624717.789 5 206336303.305 5       -17.117          35.000    39624719.398 6 159552324.676 6       -13.399          36.000
C19  22532473.195 6 117332587.127 6      -145.281          37.000
C22  23653049.852 8 123167707.345 8      2771.898          51.000
C24  25693225.625 5 133791392.765 5     -1915.535          32.000
E12  21725982.258 6 114170807.259 6       319.172          39.000    21725981.305 6  87481525.554 6       244.608          41.000
E19  26298792.773 7 138201109.525 7      2320.523          46.000    26298795.773 7 105894385.712 7      1778.102          45.000
E24  23695798.672 7 124522266.752 7     -1836.938          46.000    23695811.430 7  95413201.562 7     -1407.464          47.000
E31                                                                  27523175.164 5 110824425.488 5     -2422.804          34.000
E33  25169515.781 6 132266683.116 6     -1674.461          41.000    25169514.758 7 101347204.523 7     -1283.259          42.000
> 2020 05 08 17 05  0.0000000  0 16        .000000000000
G10  21025151.750 8 110487983.771 8      -823.715          51.000    21025153.820 8  86094539.883 8      -641.856          51.000
G16  22905501.297 7 120369215.485 7     -3431.559          44.000    22905502.297 7  93794174.670 7     -2673.942          43.000
G27  20364482.578 8 107016061.484 8      -669.156          51.000    20364484.141 8  83389152.505 8      -521.420          51.000
G32  24214195.492 7 127246507.080 7      2939.090          45.000    24214202.992 7  99153109.950 7      2290.206          45.000
R04  20560651.500 5 110101390.981 5      -817.582          34.000    20560653.930 5  85634400.075 5      -635.900          31.000
R05  20801088.609 8 111193778.721 8      3177.605          50.000    20801089.719 7  86484071.611 7      2471.471          46.000
R10  22260554.148 5 118661343.214 5     -3101.445          33.000
C05  39624833.148 5 206336903.869 5       -17.125          35.000    39624834.797 6 159552789.084 6       -13.605          36.000
C19  22533376.555 6 117337288.212 6      -162.562          37.000
C22  23637125.211 8 123084781.259 8      2762.062          50.000
C24  25704301.688 5 133849095.228 5     -1925.844          32.000
E12  21724190.445 6 114161391.868 6       314.062          38.000    21724190.109 7  87474311.148 7       240.624          42.000
E19  26285586.289 7 138131706.564 7      2312.102          45.000    26285589.086 7 105841206.849 7      1771.616          45.000
E24  23706335.383 8 124577633.020 8     -1848.520          48.000    23706348.070 8  95455625.041 8     -1416.419          48.000
E31                                                                  27541240.164 5 110897166.501 5     -2422.427          34.000
E33  25179101.586 6 132317055.900 6     -1678.168          37.000    25179100.914 7 101385801.810 7     -1285.665          42.000
> 2020 05 08 17 05 30.0000000  0 16        .000000000000
G10  21029867.000 8 110512763.116 8      -830.719          51.000    21029868.859 8  86113848.459 8      -647.313          51.000
G16  22925074.531 6 120472077.408 6     -3428.359          41.000    22925076.312 6  93874326.770 6     -2671.452          40.000
G27  20368307.711 8 107036162.095 8      -673.344          51.000    20368309.234 8  83404815.306 8      -524.683          51.000
G32  24197390.609 7 127158194.308 7      2945.926          45.000    24197396.898 7  99084294.873 7      2295.530          45.000
R04  20565271.016 5 110126134.420 5      -834.180          33.000    20565274.617 5  85653644.955 5      -648.803          32.000
R05  20783269.867 8 111098530.467 8      3169.777          51.000    20783272.141 7  86409989.642 7      2465.382          47.000
R10  22278013.094 4 118754410.964 4     -3105.508          29.000
C05  39624894.898 5 206337225.392 5        -6.562          35.000    39624896.539 6 159553038.149 6        -4.899          36.000
C19  22534324.508 5 117342222.650 5      -169.504          32.000
C20  25849643.898 5 134605877.710 5     -2664.242          30.000
C22  23621202.977 8 123001871.870 8      2762.719          50.000
E12  21722374.406 6 114151849.950 6       319.305          37.000    21722374.680 7  87466999.757 7       244.970          42.000
E19  26272373.469 7 138062274.069 7      2314.410          43.000    26272376.914 7 105788005.343 7      1773.277          44.000
E24  23716883.977 8 124633061.962 8     -1849.188          48.000    23716896.562 7  95498096.528 7     -1416.937          47.000
E31                                                                  27559252.438 5 110969694.769 5     -2414.409          33.000
E33  25188651.148 6 132367241.486 6     -1670.176          40.000    25188650.812 7 101424255.648 7     -1279.679          43.000
> 2020 05 08 17 06  0.0000000  0 16        .000000000000
G10  21034719.102 8 110538261.462 8      -867.637          51.000    21034721.367 8  86133717.286 8      -676.081          51.000
G16  22944725.727 6 120575352.092 6     -3455.098          38.000    22944728.180 6  93954800.566 6     -2692.284          38.000
G27  20372253.516 8 107056897.364 8      -707.465          51.000    20372255.117 8  83420972.641 8      -551.271          51.000
G32  24180643.922 7 127070187.708 7      2922.742          46.000    24180648.906 7  99015718.363 7      2277.464          46.000
R04  20570079.008 6 110151884.166 6      -880.930          36.000    20570080.109 5  85673672.493 5      -685.168          31.000
R05  20765592.086 8 111004037.194 8      3131.328          51.000    20765595.883 8  86336494.925 8      2435.480          48.000
C05  39624992.281 5 206337732.541 5       -25.723          35.000    39624993.914 6 159553429.836 6       -19.933          36.000
C19  22535404.469 5 117347771.669 5      -204.461          30.000
C20  25865081.508 5 134686251.793 5     -2691.898          31.000
C22  23605374.062 8 122919446.026 8      2733.773          51.000
C29  25640415.438 4 133516369.970 4     -2721.523          27.000
E12  21720623.312 6 114142650.436 6       295.270          36.000    21720624.086 7  87459950.778 7       226.335          42.000
E19  26259244.102 6 137993282.938 6      2286.625          40.000    26259248.203 7 105735142.009 7      1752.143          43.000
E24  23727533.062 7 124689020.972 7     -1879.738          47.000    23727545.359 7  95540974.166 7     -1440.328          47.000
E31                                                                  27577300.898 5 111042368.145 5     -2429.218          33.000
E33  25198253.922 6 132417708.740 6     -1692.445          38.000    25198255.336 7 101462925.319 7     -1296.872          44.000
> 2020 05 08 17 06 30.0000000  0 15        .000000000000
G10  21039697.805 8 110564425.231 8      -874.000          51.000    21039700.102 8  86154104.657 8      -681.036          51.000
G16  22964446.070 7 120678984.350 7     -3451.055          42.000    22964446.914 5  94035552.901 5     -2689.137          34.000
G27  20376310.156 8 107078215.211 8      -711.125          51.000    20376311.883 8  83437583.934 8      -554.123          51.000
G32  24163946.125 8 126982437.930 8      2929.957          49.000    24163950.086 8  98947341.991 8      2283.083          49.000
R04  20575065.500 6 110178585.277 6      -896.109          36.000    20575069.891 5  85694440.079 5      -696.968          34.000
R05  20748047.086 8 110910249.605 8      3123.855          51.000    20748051.352 7  86263549.054 7      2429.668          47.000
C05  39625115.414 5 206338373.532 5       -14.348          35.000    39625116.961 6 159553925.456 6       -11.324          36.000
C19  22536609.547 5 117354049.395 5      -210.234          30.000
C20  25880594.453 5 134767032.630 5     -2690.617          33.000
C22  23589628.508 8 122837453.863 8      2734.918          51.000
E12  21718927.062 6 114133741.095 6       301.316          36.000    21718928.258 7  87453124.125 7       230.894          42.000
E19  26246188.844 6 137924682.427 6      2289.484          40.000    26246193.406 7 105682578.024 7      1754.122          43.000
E24  23738272.102 7 124745456.106 7     -1879.738          45.000    23738283.445 7  95584216.632 7     -1440.328          46.000
E31                                                                  27595375.188 5 111115140.080 5     -2420.652          32.000
E33  25207901.242 6 132468405.232 6     -1684.539          39.000    25207904.078 7 101501770.659 7     -1290.766          44.000
> 2020 05 08 17 07  0.0000000  0 16        .000000000000
G10  21044742.711 8 110590936.003 8      -896.699          51.000    21044744.820 8  86174762.385 8      -698.727          51.000
G16  22984174.680 7 120782654.497 7     -3463.578          44.000    22984172.477 5  94116334.695 5     -2698.898          33.000
G27  20380417.359 8 107099798.719 8      -731.176          51.000    20380419.414 8  83454402.244 8      -569.747          51.000
G32  24147237.320 8 126894630.819 8      2920.617          49.000    24147240.797 8  98878920.939 8      2275.809          49.000
R04  20580168.844 6 110205913.344 6      -928.805          38.000    20580174.336 5  85715695.303 5      -722.407          31.000
R05  20730575.172 8 110816849.097 8      3099.504          51.000    20730578.672 7  86190904.246 7      2410.725          45.000
R10  22331021.984 5 119036896.894 5     -3163.508          35.000
C05  39625203.984 5 206338834.993 5       -19.637          35.000    39625205.414 6 159554281.483 6       -15.118          36.000
C19  22537877.422 5 117360641.795 5      -233.066          32.000
C20  25896124.875 5 134847903.853 5     -2704.734          34.000
C22  23573906.352 8 122755583.211 8      2719.676          51.000
E12  21717226.023 6 114124804.707 6       291.223          37.000    21717227.180 7  87446276.757 7       223.196          42.000
E19  26233148.578 6 137856157.401 6      2275.660          40.000    26233152.820 7 105630071.859 7      1743.780          43.000
E24  23749040.508 7 124802048.617 7     -1896.207          45.000    23749050.633 7  95627579.715 7     -1452.971          46.000
E31                                                                  27613415.094 5 111187778.981 5     -2423.768          31.000
E33  25217531.367 6 132519013.705 6     -1692.965          36.000    25217535.008 7 101540548.598 7     -1296.982          43.000
> 2020 05 08 17 07 30.0000000  0 16        .000000000000
G10  21049890.227 8 110617985.790 8      -909.977          51.000    21049892.578 8  86195840.159 8      -709.073          51.000
G16  23003947.172 7 120886552.537 7     -3466.477          45.000    23003943.617 5  94197294.051 5     -2701.154          34.000
G27  20384611.914 8 107121841.458 8      -741.672          51.000    20384614.273 8  83471578.401 8      -577.926          51.000
G32  24130554.742 8 126806962.789 8      2920.512          48.000    24130558.391 8  98810608.263 8      2275.726          48.000
R04  20585426.680 6 110234064.131 6      -951.109          36.000    20585430.453 5  85737590.284 5      -739.755          30.000
R05  20713213.148 8 110724036.336 8      3084.629          51.000    20713215.461 7  86118716.597 7      2399.159          44.000
R10  22348847.406 6 119131901.551 6     -3173.711          40.000
C05  39625294.477 5 206339306.601 5       -15.574          35.000    39625295.930 6 159554646.642 6       -11.735          36.000
C19  22539247.266 6 117367772.421 6      -245.738          39.000
C20  25911708.953 5 134929054.823 5     -2708.770          34.000
C22  23558243.797 8 122674027.731 8      2713.871          48.000
C24  25760472.289 5 134141549.647 5     -1974.219          30.000
E12  21715557.266 6 114116034.792 6       290.266          39.000    21715558.016 7  87439556.940 7       222.384          42.000
E19  26220160.398 7 137787902.889 7      2271.367          42.000    26220163.281 7 105577773.039 7      1740.210          42.000
E24  23759875.562 7 124858990.293 7     -1903.270          45.000    23759885.070 7  95671210.338 7     -1458.376          46.000
E33                                                                  25227183.484 7 101579407.292 7     -1296.234          42.000
> 2020 05 08 17 08  0.0000000  0 17        .000000000000
G10  21055148.773 8 110645618.857 8      -917.496          51.000    21055150.461 8  86217372.433 8      -714.932          51.000
G16  23023771.297 7 120990721.491 7     -3463.438          46.000    23023768.227 5  94278464.547 5     -2698.786          35.000
G20  22555198.750 5 118528380.134 5     -2813.926          33.000
G27  20388902.539 8 107144389.240 8      -746.559          51.000    20388905.016 8  83489148.101 8      -581.731          51.000
G32  24113907.586 7 126719482.419 7      2926.012          47.000    24113911.852 7  98742441.810 7      2280.015          47.000
R04  20590845.297 6 110263082.164 6      -968.414          36.000    20590848.961 5  85760159.953 5      -753.208          30.000
R05  20695969.961 8 110631861.570 8      3075.523          50.000    20695971.398 7  86047025.163 7      2392.077          43.000
R10  22366764.789 7 119227398.533 7     -3177.688          42.000
C05  39625395.812 5 206339834.518 5        -5.184          35.000    39625397.492 6 159555054.371 6        -4.226          36.000
C19  22540725.898 6 117375469.899 6      -252.859          39.000
C20  25927354.742 5 135010528.639 5     -2708.047          33.000
C22  23542650.352 7 122592834.669 7      2713.605          46.000
C29  25703086.031 4 133842705.078 4     -2713.652          28.000
E12  21713929.156 6 114107476.869 6       295.094          40.000    21713929.320 7  87432999.567 7       226.111          42.000
E19  26207233.352 7 137719966.411 7      2272.660          44.000    26207234.125 7 105525717.852 7      1741.398          42.000
E24  23770785.875 7 124916325.080 7     -1904.332          47.000    23770795.555 7  95715142.157 7     -1459.128          47.000
E33                                                                  25236861.914 7 101618381.560 7     -1290.787          42.000
> 2020 05 08 17 08 30.0000000  0 16        .000000000000
G10  21060468.133 8 110673571.530 8      -963.816          51.000    21060469.359 8  86239153.725 8      -751.026          51.000
G16  23043596.375 7 121094896.521 7     -3499.211          45.000    23043593.875 6  94359639.795 6     -2726.658          37.000
G27  20393239.453 8 107167179.900 8      -790.492          51.000    20393241.992 8  83506907.041 8      -615.968          51.000
G32  24097246.602 7 126631930.331 7      2892.734          47.000    24097251.242 7  98674219.460 7      2254.082          47.000
R04  20596377.227 6 110292699.273 6     -1024.539          36.000    20596381.773 4  85783195.433 4      -796.867          26.000
R05  20678796.117 8 110540061.774 8      3026.465          49.000    20678798.750 7  85975625.365 7      2353.917          45.000
R10  22384723.141 6 119323117.079 6     -3221.387          41.000
C05  39625458.133 5 206340157.747 5       -33.785          35.000    39625459.922 6 159555305.069 6       -26.400          36.000
C19  22542262.727 6 117383473.761 6      -298.293          38.000
C20  25943012.133 5 135092063.166 5     -2745.324          32.000
C22  23527075.805 7 122511746.093 7      2674.719          45.000
C24  25783323.258 5 134260506.628 5     -2011.379          31.000
E12  21712291.461 6 114098868.600 6       261.102          41.000    21712291.344 7  87426403.628 7       200.110          42.000
E19  26194317.250 7 137652087.434 7      2235.000          44.000    26194317.000 7 105473706.719 7      1712.544          42.000
E24  23781720.891 8 124973788.993 8     -1944.328          48.000    23781731.422 7  95759172.918 7     -1489.804          47.000
E33                                                                  25246520.758 7 101657270.331 7     -1315.261          42.000
> 2020 05 08 17 09  0.0000000  0 16        .000000000000
G10  21065941.391 8 110702333.699 8      -962.523          51.000    21065943.156 8  86261565.831 8      -750.018          51.000
G16  23063515.102 7 121199565.669 7     -3487.359          44.000    23063513.148 6  94441200.081 6     -2717.423          40.000
G27  20397716.289 8 107190704.908 8      -786.605          51.000    20397718.977 8  83525238.188 8      -612.942          51.000
G32  24080666.031 7 126544800.860 7      2907.145          46.000    24080670.531 7  98606326.438 7      2265.310          46.000
R04  20602113.734 5 110323414.111 5     -1032.207          34.000    20602124.211 4  85807092.746 4      -802.822          27.000
R05  20661786.570 8 110449140.393 8      3025.945          50.000    20661790.242 7  85904908.725 7      2353.513          45.000
R10  22402813.922 6 119419551.487 6     -3216.664          39.000
C05  39625574.805 5 206340766.140 5       -15.168          35.000    39625576.484 6 159555774.711 6       -11.632          36.000
C19  22543953.125 7 117392270.557 7      -296.652          42.000
C20  25958774.344 5 135174143.126 5     -2735.387          33.000
C22  23511616.414 7 122431250.776 7      2682.953          47.000
C24  25794867.336 5 134320631.409 5     -2002.785          34.000
E12  21710737.531 7 114090701.303 7       274.684          42.000    21710737.547 7  87420145.589 7       210.472          43.000
E19  26181505.711 7 137584759.042 7      2244.871          44.000    26181505.188 7 105422117.451 7      1720.174          43.000
E24  23792773.695 8 125031871.656 8     -1936.582          48.000    23792784.953 8  95803677.766 8     -1483.857          48.000
E33                                                                  25256251.406 6 101696449.955 6     -1303.385          41.000
> 2020 05 08 17 09 30.0000000  0 18        .000000000000
G10  21071491.492 8 110731499.475 8      -981.621          51.000    21071493.164 8  86284292.409 8      -764.900          51.000
G16  23083450.008 7 121304322.155 7     -3496.023          42.000    23083448.367 6  94522828.450 6     -2724.177          39.000
G20  22603814.031 4 118783843.659 4     -2854.891          29.000
G27  20402256.062 8 107214559.890 8      -803.215          51.000    20402258.633 8  83543826.481 8      -625.882          51.000
G32  24064089.602 7 126457692.533 7      2900.512          46.000    24064092.781 7  98538449.893 7      2260.142          46.000
R04  20607977.562 5 110354812.931 5     -1060.777          33.000    20607997.656 4  85831514.189 4      -825.043          24.000
R05  20644865.570 8 110358689.762 8      3004.520          51.000    20644869.023 7  85834558.261 7      2336.849          45.000
R10  22420959.188 6 119516286.555 6     -3231.859          39.000
C05  39625668.953 6 206341255.778 6       -17.176          36.000    39625670.617 6 159556154.319 6       -13.070          36.000
C19  22545717.891 6 117401458.954 6      -315.477          40.000
C20  25974564.461 5 135256365.466 5     -2746.098          32.000
C22  23496196.094 8 122350949.938 8      2670.844          49.000
C24  25806443.828 5 134380895.278 5     -2013.828          31.000
C29  25750267.766 4 134088409.008 4     -2735.121          28.000
E12  21709190.609 7 114082570.513 7       267.668          42.000    21709190.438 7  87413915.493 7       205.072          44.000
E19  26168722.453 7 137517578.530 7      2234.008          47.000    26168721.992 7 105370641.523 7      1711.778          44.000
E24  23803866.672 7 125090166.883 7     -1949.434          47.000    23803878.234 8  95848345.500 8     -1493.740          48.000
E33                                                                  25265976.359 6 101735610.474 6     -1307.270          41.000
> 2020 05 08 17 10  0.0000000  0 15        .000000000000
G10  21077161.844 8 110761297.617 8     -1003.098          51.000    21077163.664 8  86307511.745 8      -781.631          51.000
G16  23103443.758 6 121409392.784 6     -3506.785          39.000    23103443.383 6  94604701.634 6     -2732.557          39.000
G27  20406902.383 8 107238975.221 8      -822.426          51.000    20406904.672 8  83562851.381 8      -640.851          51.000
G32  24047561.578 7 126370838.471 7      2891.543          46.000    24047563.172 7  98470771.482 7      2253.153          46.000
R04  20614011.828 5 110387128.545 5     -1091.688          33.000
R05  20628077.695 8 110268948.145 8      2980.246          51.000    20628080.773 7  85764759.262 7      2317.969          45.000
R10  22439203.289 6 119613551.300 6     -3250.320          40.000
C05  39625784.266 5 206341856.754 5       -21.105          35.000    39625785.883 6 159556618.245 6       -16.103          36.000
C19  22547601.141 6 117411266.403 6      -336.449          39.000
C20  25990425.227 4 135338956.246 4     -2758.934          28.000
C22  23480858.141 8 122271073.665 8      2656.219          50.000
E12  21707694.508 7 114074706.432 7       258.473          42.000    21707693.891 7  87407889.735 7       198.146          44.000
E19  26156011.500 8 137450777.856 8      2221.078          48.000    26156011.227 7 105319456.613 7      1701.850          45.000
E24  23815043.727 7 125148903.210 7     -1964.387          47.000    23815055.000 8  95893351.194 8     -1505.150          48.000
E33  25275743.695 6 132824913.866 6     -1713.133          37.000    25275741.109 6 101774928.174 6     -1312.532          40.000
> 2020 05 08 17 10 30.0000000  0 16        .000000000000
G10  21082898.406 8 110791443.318 8     -1013.613          51.000    21082900.547 8  86331001.909 8      -789.829          51.000
G16  23123441.867 6 121514491.413 6     -3506.605          39.000    23123443.734 6  94686596.693 6     -2732.420          39.000
G27  20411601.359 8 107263667.547 8      -830.613          51.000    20411603.281 8  83582092.134 8      -647.231          51.000
G32  24031028.711 7 126283958.284 7      2893.371          46.000    24031029.812 7  98403072.688 7      2254.578          46.000
R04  20620162.797 5 110420070.568 5     -1111.648          32.000
R05  20611369.539 8 110179630.760 8      2967.199          51.000    20611372.422 7  85695290.245 7      2307.825          46.000
R10  22457493.375 7 119711053.942 7     -3256.910          42.000
C05  39625866.836 6 206342286.190 6       -14.230          36.000    39625868.375 6 159556950.326 6       -11.333          36.000
C19  22549549.664 6 117421411.829 6      -346.852          38.000
C22  23465548.148 8 122191343.122 8      2652.441          49.000
C24  25829761.742 5 134502323.718 5     -2031.188          31.000
C29  25781836.031 5 134252793.228 5     -2739.250          30.000
E12  21706195.172 6 114066825.642 6       259.980          41.000    21706194.266 7  87401851.204 7       199.173          43.000
E19  26143318.719 7 137384075.354 7      2218.770          46.000    26143319.094 7 105268346.936 7      1700.009          47.000
E24  23826250.547 7 125207795.528 7     -1968.609          47.000    23826262.000 8  95938476.426 8     -1508.490          48.000
E33  25285489.953 6 132876148.599 6     -1709.680          36.000    25285491.719 6 101814185.878 6     -1310.035          39.000
> 2020 05 08 17 11  0.0000000  0 14        .000000000000
G10  21088748.078 8 110822183.374 8     -1033.441          51.000    21088750.172 8  86354955.202 8      -805.279          51.000
G16  23143492.664 6 121619863.654 6     -3515.590          40.000    23143495.477 6  94768704.913 6     -2739.424          39.000
G27  20416400.297 8 107288885.269 8      -848.195          51.000    20416401.828 8  83601742.307 8      -660.931          51.000
G32  24014538.648 7 126197303.164 7      2885.809          46.000    24014540.477 7  98335549.277 7      2248.685          46.000
R05  20594789.102 8 110090994.113 8      2944.398          51.000    20594791.414 7  85626350.674 7      2290.088          45.000
R10  22475874.906 7 119809041.811 7     -3273.121          43.000
C05  39625963.812 5 206342791.137 5       -17.039          35.000    39625965.383 6 159557340.758 6       -12.964          36.000
C19  22551609.039 5 117432140.432 5      -366.141          34.000
C22  23450312.422 7 122112006.344 7      2639.234          47.000
C24  25841505.242 5 134563452.498 5     -2042.332          30.000
E12  21704739.641 6 114059176.412 6       252.199          41.000    21704738.578 7  87395990.115 7       193.235          43.000
E19  26130691.602 7 137317721.156 7      2207.160          43.000    26130693.195 7 105217504.153 7      1691.171          46.000
E24  23837533.930 8 125267090.353 8     -1981.961          48.000    23837546.008 8  95983910.090 8     -1518.711          48.000
E33  25295271.008 6 132927553.025 6     -1715.070          38.000    25295275.078 6 101853573.673 6     -1314.190          38.000
> 2020 05 08 17 11 30.0000000  0 18        .000000000000
G10  21094695.953 8 110853439.704 8     -1049.832          51.000    21094698.109 8  86379310.813 8      -818.051          51.000
G11  21951470.969 6 115355778.748 6      2776.449          36.000    21951472.203 5  89887608.001 5      2163.467          31.000
G16  23163581.062 6 121725430.368 6     -3521.359          41.000    23163583.867 5  94850964.614 5     -2743.916          35.000
G27  20421284.539 8 107314551.912 8      -862.426          51.000    20421286.156 8  83621742.277 8      -672.020          51.000
G32  23998077.367 7 126110799.602 7      2881.539          45.000    23998080.406 7  98268143.957 7      2245.358          46.000
R04  20632968.727 5 110488544.359 5     -1166.211          34.000
R05  20578321.836 8 110002963.951 8      2924.781          51.000    20578323.539 7  85557882.815 7      2274.827          44.000
R10  22494332.672 7 119907432.672 7     -3285.953          43.000
C05  39626060.836 6 206343295.646 6       -16.496          36.000    39626062.078 6 159557730.843 6       -12.297          36.000
C19  22553766.914 5 117443375.932 5      -382.453          32.000
C20  26038235.727 4 135587927.583 4     -2778.629          28.000
C22  23435136.711 7 122032989.435 7      2629.156          47.000
C24  25853299.094 5 134624859.408 5     -2049.898          31.000
C29  25813474.484 4 134417580.071 4     -2747.691          28.000
E12  21703313.477 7 114051682.246 7       247.812          42.000    21703312.406 7  87390247.825 7       189.963          43.000
E19  26118116.133 7 137251640.291 7      2198.695          43.000    26118118.641 7 105166870.755 7      1684.828          46.000
E24  23848878.961 8 125326709.457 8     -1992.051          49.000    23848892.258 8  96029592.219 8     -1526.326          49.000
E33  25305071.320 6 132979050.759 6     -1717.480          38.000    25305074.211 5 101893032.891 5     -1315.932          35.000
> 2020 05 08 17 12  0.0000000  0 16        .000000000000
G10  21100741.242 8 110885207.717 8     -1067.664          51.000    21100743.758 8  86404065.096 8      -831.946          51.000
G11  21935643.625 5 115272584.411 5      2769.832          32.000
G16  23183705.359 6 121831184.906 6     -3528.512          39.000    23183707.219 5  94933370.624 5     -2749.499          34.000
G27  20426253.461 8 107340664.358 8      -878.180          51.000    20426255.297 8  83642089.615 8      -684.296          51.000
G32  23981644.820 7 126024447.394 7      2875.430          45.000    23981648.812 7  98200856.555 7      2240.595          46.000
R05  20561967.469 8 109915540.734 8      2903.652          51.000    20561968.852 7  85489887.030 7      2258.396          44.000
R10  22512864.406 7 120006218.860 7     -3299.777          42.000
C05  39626157.008 6 206343797.456 6       -16.832          36.000    39626158.156 6 159558118.099 6       -12.756          36.000
C19  22556023.164 5 117455114.627 5      -400.145          30.000
C22  23420023.891 8 121954291.031 8      2617.617          51.000
C24  25865144.055 5 134686539.108 5     -2060.930          32.000
C29  25829320.805 4 134500038.978 4     -2752.883          29.000
E12  21701916.227 7 114044339.915 7       241.953          43.000    21701914.906 7  87384621.898 7       185.426          42.000
E19  26105592.398 7 137185831.423 7      2188.754          44.000    26105595.930 7 105116445.743 7      1677.097          46.000
E24  23860284.734 8 125386647.878 8     -2003.555          48.000    23860299.023 8  96075519.014 8     -1535.128          48.000
E33  25314888.211 6 133030638.310 6     -1721.477          39.000    25314888.180 5 101932561.003 5     -1318.784          33.000
> 2020 05 08 17 12 30.0000000  0 16        .000000000000
G10  21106892.281 8 110917531.997 8     -1086.371          49.000    21106895.047 8  86429252.874 8      -846.520          49.000
G16  23203873.188 5 121937170.992 5     -3536.918          31.000    23203873.734 3  95015983.166 3     -2756.034          23.000
G27  20431316.008 8 107367268.834 8      -894.836          51.000    20431317.867 8  83662820.376 8      -697.275          51.000
G32  23965250.578 7 125938295.673 7      2868.363          46.000    23965254.984 7  98133725.405 7      2235.088          46.000
R04  20646358.125 5 110560297.744 5     -1222.020          32.000    20646328.305 4  85991257.231 4      -950.469          27.000
R05  20545735.891 8 109828774.978 8      2881.352          51.000    20545736.586 7  85422402.575 7      2241.051          44.000
R10  22531478.359 7 120105442.733 7     -3314.535          42.000
C05  39626261.188 6 206344340.374 6       -18.938          36.000    39626262.414 6 159558537.896 6       -14.115          36.000
C19  22558401.156 5 117467516.340 5      -418.648          31.000
C22  23404981.938 8 121875958.894 8      2605.164          51.000
C24  25877052.008 5 134748534.860 5     -2070.441          32.000
C29  25845199.078 4 134582701.693 4     -2757.816          29.000
E12  21700556.875 7 114037195.676 7       234.969          44.000    21700555.141 7  87379147.741 7       180.092          42.000
E19  26093129.836 7 137120342.393 7      2177.844          45.000    26093134.000 7 105066265.823 7      1668.719          45.000
E24  23871759.953 8 125446950.093 8     -2015.949          48.000    23871774.430 7  96121724.577 7     -1544.655          47.000
E33  25324731.961 6 133082361.905 6     -1726.277          38.000    25324730.391 5 101972194.284 5     -1322.334          33.000
> 2020 05 08 17 13  0.0000000  0 15        .000000000000
G10  21113134.812 8 110950337.249 8     -1101.504          49.000    21113137.242 8  86454815.410 8      -858.315          49.000
G11  21904091.922 5 115106764.943 5      2757.418          34.000
G27  20436458.164 8 107394291.553 8      -907.738          51.000    20436460.125 8  83683877.034 8      -707.332          51.000
G32  23948881.422 8 125852273.562 8      2865.102          48.000    23948885.531 8  98066695.249 8      2232.550          48.000
R04  20653237.078 5 110597168.133 5     -1246.297          31.000    20653238.766 5  86020001.199 5      -969.348          30.000
R05  20529613.758 8 109742595.556 8      2862.812          48.000    20529614.133 7  85355374.156 7      2226.632          43.000
R10  22550159.656 7 120205024.662 7     -3325.414          42.000
C05  39626359.430 6 206344852.127 6       -16.484          36.000
C19  22560847.578 5 117480277.927 5      -433.172          33.000
C22  23389996.359 8 121797921.779 8      2596.258          51.000
C24  25889007.391 5 134810771.165 5     -2078.730          31.000
E12  21699221.383 7 114030175.613 7       231.902          43.000    21699219.367 7  87373768.746 7       177.688          43.000
E19  26080714.570 7 137055101.115 7      2170.629          43.000    26080719.016 7 105016275.789 7      1663.045          46.000
E24  23883289.992 8 125507540.498 8     -2024.480          49.000    23883303.609 7  96168150.948 7     -1551.258          46.000
E33  25334587.391 5 133134147.547 5     -1727.852          35.000    25334586.227 5 102011880.044 5     -1323.061          31.000
> 2020 05 08 17 13 30.0000000  0 14        .000000000000
G10  21119468.734 7 110983622.929 7     -1132.934          47.000    21119471.359 7  86480752.281 7      -882.802          47.000
G20  22735910.414 5 119478013.914 5     -2943.461          33.000
G27  20441680.141 8 107421733.620 8      -937.340          51.000    20441682.289 8  83705260.453 8      -730.395          51.000
G32  23932537.922 8 125766385.122 8      2845.062          49.000    23932541.672 8  97999769.257 8      2216.932          49.000
R05  20513601.430 8 109657006.969 8      2827.230          48.000    20513602.156 7  85288805.237 7      2198.957          43.000
R10  22568907.836 7 120304961.003 7     -3352.789          42.000
C05  39626451.930 6 206345333.740 6       -30.715          36.000    39626453.266 6 159559306.036 6       -23.923          36.000
C19  22563380.586 4 117493452.199 4      -464.555          29.000
C22  23375067.617 8 121720182.655 8      2570.961          51.000
C29  25877020.586 5 134748424.175 5     -2776.555          30.000
E12  21697909.641 7 114023280.868 7       212.168          43.000    21697907.656 7  87368485.742 7       162.573          44.000
E19  26068347.008 7 136990110.187 7      2146.664          43.000    26068351.109 7 104966477.640 7      1644.927          44.000
E24  23894874.883 8 125568418.377 8     -2049.531          49.000    23894886.992 7  96214797.602 7     -1570.420          46.000
E33  25344453.234 5 133186001.171 5     -1744.695          32.000
> 2020 05 08 17 14  0.0000000  0 16        .000000000000
G10  21125923.250 7 111017543.015 7     -1125.629          46.000    21125926.531 7  86507183.551 7      -877.113          45.000
G11  21872711.578 5 114941866.248 5      2753.609          32.000
G16  23264588.758 5 122256280.675 5     -3542.844          35.000
G20  22752676.688 5 119566111.010 5     -2927.352          34.000
G27  20447011.609 8 107449750.611 8      -928.035          51.000    20447013.805 8  83727091.844 8      -723.144          51.000
G32  23916250.055 8 125680788.884 8      2863.676          49.000    23916253.734 8  97933070.965 8      2231.439          49.000
R04  20667512.477 6 110673556.066 6     -1288.965          37.000    20667513.102 5  86079464.177 5     -1002.534          32.000
R05  20497731.359 8 109572171.205 8      2830.984          50.000    20497732.664 7  85222821.901 7      2201.880          45.000
R10  22587750.906 7 120405404.952 7     -3340.852          42.000
C05  39626568.164 5 206345938.358 5        -7.152          35.000    39626569.492 6 159559774.312 6        -5.428          36.000
C19  22566041.656 5 117507299.947 5      -457.391          31.000
C22  23360226.031 8 121642897.661 8      2583.922          51.000
E12  21696651.047 7 114016666.982 7       231.266          43.000    21696649.711 7  87363417.945 7       177.192          44.000
E19  26056057.523 7 136925527.236 7      2161.578          45.000    26056059.758 6 104916992.062 6      1656.220          41.000
E24  23906543.758 8 125629737.541 8     -2035.828          50.000    23906554.883 7  96261782.371 7     -1559.914          46.000
E33  25354363.117 5 133238079.329 5     -1723.551          35.000
> 2020 05 08 17 14 30.0000000  0 17        .000000000000
G10  21132450.258 7 111051843.224 7     -1153.797          45.000    21132453.375 7  86533910.971 7      -899.062          45.000
G16  23284875.766 6 122362930.758 6     -3559.773          37.000
G20  22769467.984 5 119654346.750 5     -2947.887          35.000
G27  20452404.453 8 107478089.699 8      -954.105          51.000    20452406.359 8  83749174.224 8      -743.459          51.000
G32  23899970.094 8 125595235.026 8      2846.805          49.000    23899973.789 8  97866405.683 8      2218.289          49.000
R04  20674860.609 5 110712898.737 5     -1326.789          34.000    20674863.070 5  86110064.062 5     -1031.944          33.000
R05  20481955.156 8 109487834.476 8      2798.660          51.000    20481957.000 7  85157226.689 7      2176.739          47.000
R10  22606640.523 7 120506095.825 7     -3364.770          44.000
C05  39626660.336 6 206346418.313 6       -18.000          36.000    39626661.508 6 159560144.644 6       -13.719          36.000
C19  22568778.695 5 117521542.072 5      -485.152          31.000
C22  23345423.773 8 121565818.153 8      2561.781          51.000
C24  25925166.461 5 134999136.883 5     -2106.316          32.000
C29  25908867.789 4 134914272.696 4     -2769.746          27.000
E12  21695397.352 7 114010081.191 7       214.941          42.000    21695397.086 7  87358371.682 7       164.650          44.000
E19  26043797.906 7 136861100.991 7      2140.785          44.000    26043798.297 6 104867626.532 6      1640.348          41.000
E24  23918248.133 8 125691243.410 8     -2057.418          50.000    23918258.820 7  96308910.221 7     -1576.526          47.000
E33  25364262.898 5 133290111.935 5     -1738.094          34.000    25364262.656 5 102131374.759 5     -1331.607          31.000
> 2020 05 08 17 15  0.0000000  0 16        .000000000000
G10  21139084.320 7 111086705.579 7     -1170.160          45.000    21139087.672 7  86561076.466 7      -911.813          45.000
G16  23305214.008 6 122469811.115 6     -3565.266          36.000
G20  22786318.703 5 119742907.687 5     -2956.016          34.000
G27  20457893.547 8 107506934.634 8      -968.570          51.000    20457895.273 8  83771650.762 8      -754.730          51.000
G32  23883733.539 8 125509910.239 8      2841.668          50.000    23883737.141 8  97799918.872 8      2214.290          50.000
R04  20682366.539 5 110753083.543 5     -1352.004          31.000    20682368.477 5  86141318.838 5     -1051.556          33.000
R05  20466307.523 8 109404187.270 8      2778.082          51.000    20466309.984 8  85092167.790 8      2160.734          48.000
R10  22625610.570 7 120607215.385 7     -3376.398          44.000
C05  39626762.977 5 206346952.665 5       -17.316          35.000    39626764.062 6 159560557.844 6       -13.336          36.000
C22  23330695.992 8 121489128.053 8      2551.129          51.000
C24  25937328.180 5 135062458.722 5     -2115.430          34.000
C29  25924829.750 4 134997394.624 4     -2772.188          28.000
E12  21694183.883 7 114003707.205 7       210.273          42.000    21694184.430 7  87353487.725 7       161.119          44.000
E19  26031602.695 7 136797016.757 7      2131.852          42.000    26031602.742 6 104818523.071 6      1633.425          40.000
E24  23930022.578 8 125753117.879 8     -2067.293          50.000    23930033.555 7  96356320.496 7     -1584.030          47.000
E33                                                                  25374201.969 5 102171369.243 5     -1333.549          34.000
> 2020 05 08 17 15 30.0000000  0 15        .000000000000
G10  21145828.586 7 111122146.359 7     -1191.109          44.000    21145832.227 7  86588692.648 7      -928.137          44.000
G16  23325600.312 6 122576937.525 6     -3575.102          38.000    23325603.367 5  95514457.830 5     -2785.803          30.000
G27  20463482.312 8 107536303.183 8      -987.785          51.000    20463483.914 8  83794535.307 8      -769.703          51.000
G32  23867544.180 8 125424835.297 8      2831.516          49.000    23867548.219 8  97733626.765 8      2206.379          49.000
R04  20690028.336 6 110794126.383 6     -1382.402          39.000    20690031.938 5  86173241.067 5     -1075.205          34.000
R05  20450792.852 8 109321251.087 8      2752.551          51.000    20450795.555 8  85027661.889 8      2140.873          48.000
R10  22644663.633 7 120708777.146 7     -3392.766          45.000
C05  39626879.633 6 206347560.084 6       -21.750          36.000    39626880.758 5 159561027.510 5       -16.661          35.000
C19  22574563.359 4 117551686.629 4      -522.234          28.000
