     3.02           OBSERVATION DATA    M (MIXED)           RINEX VERSION / TYPE
SAVERINEX           SC600               20200518 225932 LCL PGM / RUN BY / DATE
       G = GPS       R = GLONASS       C = COMPASS          COMMENT
       S = SBAS      J = QZSS          E = GALILEO          COMMENT
BEAN                                                        MARKER NAME
1                                                           MARKER NUMBER
GEODETIC                                                    MARKER TYPE
Unige DICCA         GTER                                    OBSERVER / AGENCY
SC60291900056       SC600               2.12(191202)        REC # / TYPE / VERS
                    HEMA45          NONE                    ANT # / TYPE
  4509407.8091   693652.4678  4442337.6214                  APPROX POSITION XYZ
        0.0000        0.0000        0.0000                  ANTENNA: DELTA H/E/N
G    8 C1C L1C D1C S1C C2Y L2Y D2Y S2Y                      SYS / # / OBS TYPES
R    8 C1C L1C D1C S1C C2P L2P D2P S2P                      SYS / # / OBS TYPES
C    4 C1I L1I D1I S1I                                      SYS / # / OBS TYPES
E    8 C1C L1C D1C S1C C7Q L7Q D7Q S7Q                      SYS / # / OBS TYPES
DBHZ                                                        COMMENT
     30.000                                                 INTERVAL
  2020    05    18    20    00    0.0000000     GPS         TIME OF FIRST OBS
  2020    05    18    20    59   30.0000000     GPS         TIME OF LAST OBS
     0                                                      RCV CLOCK OFFS APPL
G L1C  0.00000                                              SYS / PHASE SHIFT
G L2Y  0.00000                                              SYS / PHASE SHIFT
R L1C  0.00000                                              SYS / PHASE SHIFT
R L2P  0.25000                                              SYS / PHASE SHIFT
C L1I  0.00000                                              SYS / PHASE SHIFT
E L1C  0.50000                                              SYS / PHASE SHIFT
E L7Q -0.25000                                              SYS / PHASE SHIFT
 13 R01  1 R02 -4 R06 -4 R07  5 R08  6 R09 -2 R10 -5 R11  0 GLONASS SLOT / FRQ #
    R12 -1 R20  2 R21  4 R22 -3 R23  3                      GLONASS SLOT / FRQ #
 C1C   71.950 C2C   71.950 C2P   71.950                     GLONASS COD/PHS/BIS
    18                                                      LEAP SECONDS
*** Above antenna height is from mark to ANTENNA BOTTOM.    COMMENT
    17     4        0.0000        ANT MEASURE TYPE/HEIGT    COMMENT
    0.0000    0.0000    0.0458    0.0405    0.0000          COMMENT
                    BASE STATION                            COMMENT
                                                            END OF HEADER
> 2020 05 18 20 00  0.0000000  0 15        .000000000000
G01  20440290.695 8 107414441.055 8      -918.965          51.000    20440293.773 8  83699577.353 8      -716.077          51.000
G03  20453769.812 7 107485292.297 7       758.012          45.000    20453771.656 7  83754815.078 7       590.658          45.000
G04  22903023.711 6 120356219.184 6      3480.555          41.000    22903027.000 6  93784076.524 6      2712.117          36.000
G11  21615426.898 8 113589800.061 8     -3096.387          51.000    21615426.133 7  88511517.716 7     -2412.769          44.000
G22  20786441.523 8 109233516.446 8      -813.445          51.000    20786438.797 8  85117010.432 8      -633.853          51.000
R01  19292268.742 8 103128218.674 8       757.070          48.000    19292273.406 7  80210872.513 7       588.832          44.000
R08  20169143.172 5 108004835.336 5     -2469.820          35.000    20169144.695 5  84003812.733 5     -1920.971          35.000
R23  19393990.133 8 103744835.236 8     -1664.273          51.000    19393995.695 7  80690392.124 7     -1294.438          42.000
C19  25679063.383 5 133717626.081 5      2928.316          35.000
C20  22323411.547 8 116243944.809 8      1281.230          51.000
C30  22548098.109 8 117413845.035 8     -2263.383          51.000
E04  23562768.578 8 123823205.374 8       -82.324          50.000    23562773.078 8  94877614.548 8       -63.011          51.000
E09  23325887.773 8 122578419.479 8      2438.941          51.000    23325887.492 8  93923719.844 8      1868.808          49.000
E11  22384183.977 8 117629690.295 8      -297.453          51.000    22384182.867 8  90131825.868 8      -227.844          51.000
E12  24232552.352 7 127342889.555 7     -2513.328          47.000    24232550.266 6  97574421.865 6     -1925.782          40.000
> 2020 05 18 20 00 30.0000000  0 15        .000000000000
G01  20445577.477 8 107442224.012 8      -933.273          51.000    20445580.828 8  83721226.394 8      -727.229          51.000
G03  20449477.930 7 107462737.323 7       745.484          44.000    20449479.141 7  83737239.782 7       580.897          44.000
G04  22883175.266 6 120251917.494 6      3472.691          41.000    22883177.445 5  93702802.540 5      2705.990          33.000
G11  21633139.930 8 113682881.047 8     -3109.000          51.000    21633138.680 7  88584048.330 7     -2422.600          44.000
G22  20791114.141 8 109258070.681 8      -823.520          51.000    20791111.047 8  85136143.607 8      -641.704          51.000
R01  19288078.227 8 103105819.044 8       736.250          48.000    19288082.992 7  80193450.617 7       572.642          44.000
R08  20183022.289 5 108079156.482 5     -2484.238          35.000    20183023.477 6  84061618.086 6     -1932.182          36.000
R23  19403389.094 8 103795112.227 8     -1687.539          51.000    19403394.195 7  80729496.467 7     -1312.530          42.000
C19  25662205.352 5 133629850.083 5      2923.930          33.000
C20  22316062.680 8 116205677.919 8      1269.898          51.000
C30  22561176.172 8 117481937.457 8     -2276.059          51.000
E04  23563274.375 8 123825865.253 8       -94.914          50.000    23563279.266 8  94879652.646 8       -72.750          51.000
E09  23311987.930 8 122505374.842 8      2430.777          51.000    23311988.805 8  93867750.615 8      1862.553          49.000
E11  22385914.398 8 117638782.351 8      -308.629          51.000    22385913.023 8  90138792.508 8      -236.551          51.000
E12  24246919.984 7 127418391.008 7     -2519.957          47.000    24246916.352 6  97632273.594 6     -1930.975          41.000
> 2020 05 18 20 01  0.0000000  0 15        .000000000000
G01  20450941.367 8 107470411.925 8      -947.000          51.000    20450944.711 8  83743190.992 8      -737.922          51.000
G03  20445251.500 7 107440526.212 7       734.102          45.000    20445252.969 7  83719932.457 7       572.027          45.000
G04  22863367.367 6 120147832.036 6      3465.508          39.000    22863369.422 5  93621697.096 5      2700.399          33.000
G11  21650918.992 8 113776310.238 8     -3120.660          51.000    21650917.727 7  88656850.295 7     -2431.683          43.000
G22  20795838.773 8 109282898.304 8      -832.816          51.000    20795835.383 8  85155489.804 8      -648.948          50.000
R01  19283999.102 8 103084014.305 8       716.301          48.000    19284003.547 7  80176491.398 7       557.123          43.000
R08  20196973.492 5 108153866.499 5     -2497.215          30.000    20196975.312 5  84119725.933 5     -1942.275          35.000
R23  19412913.469 8 103846060.417 8     -1710.113          51.000    19412918.703 7  80769122.824 7     -1330.091          43.000
C19  25645367.734 5 133542179.151 5      2920.332          35.000
C20  22308774.828 8 116167725.804 8      1259.184          51.000
C30  22574321.289 8 117550382.825 8     -2287.977          51.000
E04  23563846.844 8 123828873.772 8      -106.688          51.000    23563851.695 8  94881957.891 8       -81.769          51.000
E09  23298128.383 8 122432546.527 8      2423.285          51.000    23298130.367 8  93811947.118 8      1856.857          50.000
E11  22387704.430 8 117648188.282 8      -319.523          51.000    22387702.906 8  90145999.636 8      -244.758          51.000
E12  24261319.820 7 127494061.137 7     -2525.766          47.000    24261316.250 7  97690254.565 7     -1935.354          43.000
> 2020 05 18 20 01 30.0000000  0 15        .000000000000
G01  20456386.656 8 107499027.199 8      -960.133          51.000    20456389.789 8  83765488.600 8      -748.155          51.000
G03  20441094.648 7 107418681.104 7       722.879          44.000    20441096.203 7  83702910.297 7       563.282          44.000
G04  22843605.875 6 120043987.588 6      3458.184          41.000    22843607.922 5  93540779.384 5      2694.692          35.000
G11  21668767.938 8 113870108.072 8     -3131.918          50.000    21668766.953 7  88729939.516 7     -2440.456          44.000
G22  20800619.352 8 109308020.704 8      -841.547          51.000    20800615.961 8  85175065.702 8      -655.751          51.000
R01  19280035.109 7 103062826.505 7       696.719          47.000    19280040.023 7  80160012.008 7       541.892          44.000
R08  20211000.078 6 108228984.537 6     -2509.664          36.000    20211002.328 6  84178151.091 6     -1951.964          36.000
R23  19422567.484 8 103897701.519 8     -1732.074          51.000    19422572.656 7  80809288.116 7     -1347.169          42.000
C19  25628555.977 6 133454636.031 6      2916.695          38.000
C20  22301551.422 8 116130110.528 8      1249.035          51.000
C30  22587537.156 8 117619201.769 8     -2299.387          51.000
E04  23564490.219 8 123832252.613 8      -117.949          51.000    23564494.211 8  94884546.876 8       -90.317          51.000
E09  23284313.438 8 122359957.750 8      2416.457          48.000    23284316.984 8  93756327.169 8      1851.577          50.000
E11  22389558.391 8 117657930.886 8      -329.457          50.000    22389556.766 8  90153464.753 8      -252.441          51.000
E12  24275756.039 7 127569921.505 7     -2530.941          47.000    24275753.359 7  97748381.335 7     -1939.287          45.000
> 2020 05 18 20 02  0.0000000  0 16        .000000000000
G01  20461908.188 8 107528042.526 8      -974.930          51.000    20461911.141 8  83788097.950 8      -759.685          51.000
G03  20437002.023 7 107397174.394 7       710.152          43.000    20437003.562 7  83686151.796 7       553.362          43.000
G04  22823886.297 7 119940359.114 7      3449.457          43.000    22823888.617 5  93460030.008 5      2687.892          32.000
G11  21686681.414 8 113964245.032 8     -3144.645          51.000    21686680.422 7  88803292.970 7     -2450.372          43.000
G22  20805450.680 8 109333409.866 8      -851.773          51.000    20805447.336 8  85194849.457 8      -663.720          50.000
R01  19276181.461 8 103042227.183 8       675.742          48.000    19276186.734 7  80143990.331 7       525.577          44.000
R02  23202478.273 6 123812865.303 6      3789.184          37.000    23202486.383 5  96298921.934 5      2947.146          34.000
R08  20225098.734 6 108304479.963 6     -2523.895          36.000    20225102.211 6  84236869.776 6     -1963.029          38.000
R23  19432345.570 8 103950006.717 8     -1755.703          51.000    19432350.344 6  80849969.948 6     -1365.550          40.000
C19  25611764.133 6 133367194.383 6      2911.781          39.000
C20  22294387.266 8 116092804.968 8      1237.320          51.000
C30  22600818.820 8 117688365.737 8     -2312.203          51.000
E04  23565198.797 8 123835973.804 8      -130.746          51.000    23565201.742 8  94887398.200 8      -100.227          51.000
E09  23270539.422 8 122287582.086 8      2407.773          49.000    23270543.977 8  93700870.484 8      1845.001          50.000
E11  22391471.320 8 117667983.346 8      -341.410          50.000    22391469.648 8  90161167.287 8      -261.591          51.000
E12  24290222.734 7 127645944.215 7     -2537.953          46.000    24290221.695 7  97806632.492 7     -1944.582          46.000
> 2020 05 18 20 02 30.0000000  0 16        .000000000000
G01  20467511.062 8 107557485.638 8      -988.809          51.000    20467513.969 8  83811040.626 8      -770.500          51.000
G03  20432979.055 7 107376033.433 7       698.461          44.000    20432980.336 7  83669678.315 7       544.255          44.000
G04  22804213.680 7 119836976.753 7      3441.887          44.000    22804215.953 6  93379472.388 6      2681.993          37.000
G11  21704664.523 8 114058746.548 8     -3156.336          51.000    21704663.039 7  88876930.484 7     -2459.483          44.000
G22  20810337.969 8 109359092.731 8      -861.199          51.000    20810334.641 8  85214862.075 8      -671.064          51.000
R01  19272443.055 8 103022243.943 8       655.676          48.000    19272448.102 7  80128447.809 7       509.970          44.000
R02  23181193.031 6 123699287.688 6      3781.758          38.000    23181202.672 6  96210583.871 6      2941.367          36.000
R08  20239272.812 6 108380377.902 6     -2536.980          36.000    20239276.672 6  84295901.555 6     -1973.207          37.000
R23  19442252.859 8 104003003.706 8     -1778.273          51.000    19442257.469 6  80891189.784 6     -1383.105          40.000
C19  25594997.484 6 133279882.414 6      2908.039          39.000
C20  22287288.117 8 116055836.443 8      1226.379          51.000
C30  22614171.930 8 117757900.712 8     -2324.234          51.000
E04  23565977.531 8 123840064.331 8      -142.754          51.000    23565979.750 8  94890532.527 8      -109.365          51.000
E09  23256812.805 8 122215447.959 8      2400.246          50.000    23256816.977 8  93645598.908 8      1839.153          51.000
E11  22393448.672 8 117678373.896 8      -352.129          50.000    22393446.945 8  90169128.879 8      -269.771          51.000
E12  24304724.906 7 127722156.216 7     -2543.723          45.000    24304725.641 7  97865028.693 7     -1949.068          47.000
> 2020 05 18 20 03  0.0000000  0 17        .000000000000
G01  20473197.148 8 107587365.703 8     -1002.887          51.000    20473199.773 8  83834323.788 8      -781.470          51.000
G03  20429027.445 7 107355267.124 7       686.289          45.000    20429028.602 7  83653496.768 7       534.771          45.000
G04  22784589.688 7 119733852.116 7      3433.629          42.000    22784592.156 6  93299115.602 6      2675.558          40.000
G11  21722718.305 8 114153619.801 8     -3168.230          50.000    21722716.867 7  88950857.655 7     -2468.754          45.000
G22  20815282.781 8 109385077.447 8      -870.738          51.000    20815279.422 8  85235109.916 8      -678.497          51.000
R01  19268821.445 8 103002885.255 8       635.285          49.000    19268826.508 7  80113391.077 7       494.114          43.000
R02  23159950.594 6 123585941.663 6      3774.883          39.000    23159961.031 6  96122425.979 6      2936.026          38.000
R08  20253522.641 6 108456684.339 6     -2549.488          38.000    20253524.609 6  84355250.982 6     -1982.938          36.000
R23  19452290.820 8 104056700.138 8     -1801.078          51.000    19452295.305 6  80932953.640 6     -1400.842          40.000
R24  19504279.125 5 104298149.983 5      1521.613          34.000    19504276.539 4  81120772.394 4      1183.480          28.000
C19  25578256.516 6 133192709.915 6      2904.000          37.000
C20  22280255.414 8 116019213.993 8      1215.348          51.000
C30  22627598.172 8 117827814.251 8     -2336.289          50.000
E04  23566828.305 8 123844532.725 8      -154.785          51.000    23566829.773 8  94893956.389 8      -118.682          51.000
E09  23243134.922 8 122143565.412 8      2392.273          51.000    23243137.883 8  93590520.122 8      1833.080          51.000
E11  22395492.188 8 117689112.106 8      -363.480          50.000    22395490.352 8  90177356.864 8      -278.502          50.000
E12  24319264.648 7 127798565.892 7     -2549.797          45.000    24319266.539 7  97923576.370 7     -1953.764          47.000
> 2020 05 18 20 03 30.0000000  0 17        .000000000000
G01  20478964.578 8 107617672.701 8     -1017.730          51.000    20478966.875 8  83857939.630 8      -793.037          51.000
G03  20425145.031 7 107334865.139 7       673.676          44.000    20425146.336 7  83637599.111 7       524.942          44.000
G04  22765012.516 6 119630977.597 6      3424.688          41.000    22765015.953 6  93218953.695 6      2668.591          37.000
G11  21740840.258 8 114248852.460 8     -3180.738          49.000    21740839.656 7  89025064.889 7     -2478.497          47.000
G22  20820283.008 8 109411353.238 8      -881.074          51.000    20820279.453 8  85255584.572 8      -686.551          51.000
R01  19265315.023 8 102984140.361 8       614.367          50.000    19265319.898 7  80098811.737 7       477.841          43.000
R02  23138749.594 6 123472818.950 6      3767.145          39.000    23138760.273 6  96034441.805 6      2930.007          37.000
R08  20267847.000 5 108533385.762 5     -2563.562          35.000    20267847.820 6  84414907.592 6     -1993.885          38.000
R23  19462457.273 8 104111085.252 8     -1824.625          51.000    19462462.148 6  80975253.107 6     -1419.153          41.000
R24  19495803.977 5 104252825.271 5      1499.812          30.000    19495803.258 4  81085524.933 4      1166.521          27.000
C19  25561539.305 6 133105667.754 6      2898.527          39.000
C20  22273287.008 8 115982927.622 8      1203.609          51.000
C30  22641095.117 8 117898095.022 8     -2349.125          51.000
E04  23567748.969 8 123849368.264 8      -167.594          51.000    23567749.648 8  94897661.552 8      -128.365          51.000
E09  23229503.266 8 122071925.276 8      2383.676          51.000    23229504.859 8  93535627.084 8      1826.447          51.000
E11  22397599.969 8 117700188.510 8      -374.926          49.000    22397598.102 8  90185843.987 8      -287.320          50.000
E12  24333839.945 7 127875162.547 7     -2556.527          44.000    24333842.602 7  97982267.336 7     -1958.978          46.000
> 2020 05 18 20 04  0.0000000  0 16        .000000000000
G01  20484811.797 8 107648399.268 8     -1030.738          51.000    20484813.898 8  83881882.404 8      -803.173          51.000
G03  20421330.281 7 107314819.837 7       662.699          45.000    20421331.984 7  83621979.433 7       516.389          45.000
G04  22745481.859 7 119528348.212 7      3417.441          42.000    22745486.438 6  93138982.766 6      2662.944          41.000
G11  21759028.820 8 114344435.053 8     -3191.371          49.000    21759029.203 7  89099544.828 7     -2486.780          47.000
G22  20825337.062 8 109437911.735 8      -889.426          51.000    20825333.289 8  85276279.507 8      -693.059          51.000
R01  19261921.773 8 102966000.902 8       595.090          49.000    19261926.391 7  80084703.291 7       462.848          43.000
R02  23117590.289 6 123359914.354 6      3760.484          39.000    23117600.219 6  95946627.294 6      2924.827          37.000
R08  20282242.422 6 108610471.667 6     -2575.578          36.000    20282244.359 6  84474863.371 6     -2003.227          38.000
R23  19472750.766 8 104166150.369 8     -1846.281          51.000    19472755.953 6  81018081.512 6     -1436.000          41.000
C19  25544847.109 6 133018749.091 6      2895.664          41.000
C20  22266381.492 8 115946969.886 8      1193.586          51.000
C30  22654661.016 8 117968734.125 8     -2360.086          51.000
E04  23568737.820 8 123854562.841 8      -178.586          51.000    23568737.883 8  94901641.839 8      -136.827          51.000
E09  23215916.203 8 122000521.055 8      2376.738          51.000    23215916.703 8  93480914.820 8      1821.065          51.000
E11  22399770.461 8 117711596.263 8      -385.469          48.000    22399768.867 8  90194584.982 8      -295.332          50.000
E12  24348448.719 7 127951938.182 7     -2561.508          42.000    24348451.977 7  98041095.407 7     -1962.839          45.000
> 2020 05 18 20 04 30.0000000  0 17        .000000000000
G01  20490737.906 8 107679541.098 8     -1044.609          51.000    20490740.055 8  83906148.755 8      -813.981          51.000
G03  20417582.766 7 107295126.658 7       651.070          44.000    20417584.516 7  83606634.119 7       507.331          44.000
G04  22725998.172 7 119425962.077 7      3409.250          43.000    22726002.922 7  93059201.396 7      2656.558          42.000
G11  21777282.430 7 114440361.058 7     -3202.926          47.000    21777283.961 7  89174292.404 7     -2495.786          47.000
G22  20830443.914 8 109464748.001 8      -898.816          51.000    20830440.047 8  85297190.893 8      -700.376          51.000
R01  19258640.953 8 102948461.881 8       575.020          49.000    19258645.547 7  80071061.839 7       447.237          43.000
R02  23096471.984 6 123247225.001 6      3753.098          38.000    23096480.414 6  95858980.224 6      2919.082          37.000
R08  20296708.672 6 108687934.667 6     -2588.340          37.000    20296709.711 6  84535112.316 6     -2013.156          36.000
R23  19483170.758 8 104221889.688 8     -1868.824          51.000    19483175.961 7  81061434.337 7     -1453.530          42.000
R24  19479219.359 5 104164163.747 5      1456.531          30.000    19479221.352 4  81016568.711 4      1132.864          28.000
C19  25528178.750 7 132931950.457 7      2891.828          43.000
C20  22259538.312 8 115911336.470 8      1182.707          51.000
C30  22668294.375 8 118039725.845 8     -2371.906          51.000
E04  23569794.047 8 123860111.501 8      -190.488          51.000    23569793.625 8  94905893.436 8      -145.962          51.000
E09  23202372.891 8 121929349.274 8      2368.836          50.000    23202372.945 8  93426380.649 8      1815.097          51.000
E11  22402003.289 8 117723331.455 8      -396.086          48.000    22402001.820 8  90203576.879 8      -303.566          50.000
E12  24363091.203 7 128028887.674 7     -2567.273          42.000    24363094.383 7  98100056.716 7     -1967.278          45.000
> 2020 05 18 20 05  0.0000000  0 18        .000000000000
G01  20496744.273 8 107711104.966 8     -1058.793          51.000    20496746.586 8  83930743.965 8      -825.033          51.000
G03  20413903.172 7 107275792.064 7       638.840          44.000    20413905.398 7  83591568.217 7       497.797          44.000
G04  22706562.977 7 119323828.295 7      3400.637          44.000    22706567.359 7  92979616.643 7      2649.847          43.000
G11  21795602.258 7 114536635.099 7     -3214.457          47.000    21795604.586 7  89249311.199 7     -2504.769          46.000
G14  22901793.781 5 120349737.621 5     -2315.910          31.000
G22  20835604.625 8 109491867.768 8      -908.336          51.000    20835600.961 8  85318323.185 8      -707.794          51.000
R01  19255473.289 8 102931529.384 8       554.672          48.000    19255478.242 7  80057892.143 7       431.414          42.000
R02  23075396.578 6 123134759.874 6      3745.566          37.000    23075403.734 6  95771507.518 6      2913.221          38.000
R08  20311245.625 6 108765778.463 6     -2600.750          37.000    20311246.359 6  84595657.509 6     -2022.806          37.000
R23  19493717.953 8 104278308.864 8     -1891.598          51.000    19493723.336 7  81105315.908 7     -1471.243          43.000
R24  19471109.484 4 104120790.833 4      1435.176          29.000
C19  25511535.102 7 132845279.319 7      2887.215          44.000
C20  22252758.898 8 115876033.997 8      1171.586          51.000
C30  22681996.344 8 118111075.330 8     -2383.902          51.000
E04  23570918.711 8 123866020.304 8      -202.551          51.000    23570918.070 8  94910420.972 8      -155.198          51.000
E09  23188874.562 8 121858417.552 8      2360.781          48.000    23188875.148 8  93372030.412 8      1808.970          51.000
E11  22404300.086 8 117735401.374 8      -407.668          48.000    22404298.281 8  90212825.258 8      -312.324          50.000
E12  24377768.664 7 128106017.200 7     -2573.504          43.000    24377771.500 7  98159155.914 7     -1971.939          45.000
> 2020 05 18 20 05 30.0000000  0 16        .000000000000
G01  20502831.164 8 107743092.428 8     -1073.227          51.000    20502833.586 8  83955669.258 8      -836.283          51.000
G03  20410292.289 7 107256817.344 7       626.867          45.000    20410294.805 7  83576782.732 7       488.468          45.000
G04  22687176.789 7 119221950.895 7      3391.797          45.000    22687180.586 7  92900231.688 7      2642.959          43.000
G11  21813988.719 8 114633256.790 8     -3226.391          49.000    21813990.961 7  89324600.853 7     -2514.068          45.000
G22  20840819.430 8 109519272.178 8      -918.082          51.000    20840816.070 8  85339677.262 8      -715.389          51.000
R01  19252419.422 8 102915204.320 8       534.102          49.000    19252423.891 7  80045194.881 7       415.412          42.000
R02  23054364.312 6 123022522.172 6      3737.160          37.000    23054370.867 6  95684211.689 6      2906.686          40.000
R08  20325853.875 6 108844001.231 6     -2613.496          36.000    20325854.562 6  84656497.407 6     -2032.719          36.000
R23  19504392.414 8 104335408.695 8     -1914.559          51.000    19504397.648 7  81149726.880 7     -1489.101          42.000
C19  25494915.922 7 132758737.898 7      2882.660          43.000
C20  22246042.844 8 115841063.873 8      1160.250          51.000
C30  22695767.086 8 118182782.684 8     -2396.094          51.000
E04  23572111.875 8 123872290.125 8      -214.910          51.000    23572111.297 8  94915225.150 8      -164.686          51.000
E09  23175421.359 7 121787728.352 7      2352.301          47.000    23175423.805 8  93317865.982 8      1802.481          51.000
E11  22406660.891 8 117747808.045 8      -418.926          48.000    22406659.031 8  90222331.665 8      -320.959          50.000
E12  24392481.180 7 128183327.591 7     -2579.938          45.000    24392483.102 7  98218393.699 7     -1976.835          45.000
> 2020 05 18 20 06  0.0000000  0 16        .000000000000
G01  20508999.953 8 107775510.732 8     -1087.500          51.000    20509002.391 8  83980930.284 8      -847.403          51.000
G03  20406751.438 7 107238209.441 7       614.535          46.000    20406753.867 7  83562283.073 7       478.859          46.000
G04  22667841.281 7 119120339.545 7      3382.891          47.000    22667843.812 7  92821054.056 7      2636.022          42.000
G11  21832442.703 8 114730230.754 8     -3237.965          50.000    21832443.914 7  89400164.967 7     -2523.089          43.000
G22  20846089.539 8 109546967.138 8      -927.637          51.000    20846086.328 8  85361257.747 8      -722.834          51.000
R01  19249480.461 8 102899493.075 8       513.840          49.000    19249484.625 7  80032975.066 7       399.656          43.000
R02  23033375.953 6 122910520.901 6      3730.016          38.000    23033382.641 6  95597099.689 6      2901.129          39.000
R08  20340531.477 6 108922607.444 6     -2626.312          38.000    20340533.500 6  84717635.609 6     -2042.687          37.000
R23  19515195.172 8 104393194.974 8     -1937.258          51.000    19515199.797 7  81194671.778 7     -1506.756          42.000
C19  25478322.078 7 132672334.077 7      2878.199          42.000
C20  22239391.570 8 115806433.211 8      1149.168          51.000
C30  22709607.508 8 118254853.536 8     -2408.000          51.000
E04  23573375.117 8 123878927.492 8      -226.840          51.000    23573374.445 8  94920310.952 8      -173.875          51.000
E09  23162015.617 8 121717289.733 8      2344.109          48.000    23162020.375 8  93263893.518 8      1796.229          51.000
E11  22409087.172 8 117760559.204 8      -430.527          49.000    22409085.625 8  90232102.027 8      -329.894          50.000
E12  24407229.711 7 128260825.315 7     -2585.961          47.000    24407230.141 7  98277775.055 7     -1981.412          45.000
> 2020 05 18 20 06 30.0000000  0 16        .000000000000
G01  20515249.664 8 107808354.491 8     -1101.246          50.000    20515252.328 8  84006522.825 8      -858.114          50.000
G03  20403278.859 7 107219962.731 7       602.785          44.000    20403281.594 7  83548064.853 7       469.703          44.000
G04  22648555.641 7 119018991.262 7      3374.586          47.000    22648557.141 7  92742081.422 7      2629.551          42.000
G11  21850962.406 8 114827549.567 8     -3249.035          51.000    21850961.312 6  89475997.772 6     -2531.716          41.000
G22  20851413.867 8 109574946.607 8      -936.707          51.000    20851410.562 8  85383059.923 8      -729.902          50.000
R01  19246655.133 8 102884389.529 8       494.000          49.000    19246659.477 7  80021227.890 7       384.225          44.000
R02  23012430.812 6 122798752.585 6      3722.500          38.000    23012437.719 6  95510168.884 6      2895.284          40.000
R08  20355281.102 6 109001588.584 6     -2638.477          38.000    20355282.961 6  84779065.288 6     -2052.151          38.000
R23  19526124.047 8 104451661.246 8     -1959.465          49.000    19526129.227 7  81240145.527 7     -1524.028          42.000
C19  25461753.641 7 132586063.317 7      2874.219          42.000
C20  22232805.195 8 115772136.612 8      1138.270          51.000
C30  22723516.336 8 118327281.043 8     -2419.492          51.000
E04  23574707.031 8 123885926.375 8      -238.668          51.000    23574706.523 8  94925673.733 8      -182.872          51.000
E09  23148658.070 8 121647097.139 8      2336.305          50.000    23148663.938 8  93210109.572 8      1790.099          51.000
E11  22411578.250 8 117773649.893 8      -441.199          49.000    22411577.000 8  90242132.545 8      -338.035          50.000
E12  24422012.320 7 128338504.316 7     -2591.703          46.000    24422011.023 7  98337295.334 7     -1985.824          44.000
> 2020 05 18 20 07  0.0000000  0 16        .000000000000
G01  20521579.219 8 107841617.331 8     -1115.629          50.000    20521582.219 8  84032441.933 8      -869.321          51.000
G03  20399873.680 7 107202070.587 7       590.602          44.000    20399876.852 7  83534122.935 7       460.209          44.000
G04  22629318.977 7 118917902.159 7      3365.508          46.000    22629319.742 6  92663310.737 6      2622.474          40.000
G11  21869545.906 8 114925205.033 8     -3260.648          51.000    21869542.914 6  89552092.906 6     -2540.765          41.000
G22  20856791.055 8 109603203.654 8      -946.363          51.000    20856787.438 8  85405078.401 8      -737.426          51.000
R01  19243941.961 8 102869886.363 8       473.668          49.000    19243946.633 7  80009947.660 7       368.408          44.000
R02  22991527.828 6 122687212.600 6      3714.453          38.000    22991534.961 6  95423415.664 6      2889.022          38.000
R08  20370098.250 5 109080934.936 5     -2650.855          35.000    20370100.250 6  84840779.194 6     -2061.776          38.000
R23  19537178.688 8 104510799.896 8     -1982.340          51.000    19537184.781 7  81286142.243 7     -1541.820          42.000
C19  25445210.281 7 132499920.007 7      2869.215          43.000
C20  22226282.156 8 115738167.720 8      1127.012          51.000
C30  22737492.141 8 118400057.418 8     -2431.535          51.000
E04  23576106.180 8 123893279.717 8      -250.965          51.000    23576106.219 8  94931308.126 8      -192.313          51.000
E09  23135347.352 8 121577145.063 8      2327.852          51.000    23135353.062 8  93156509.943 8      1783.634          51.000
E11  22414132.898 8 117787074.389 8      -453.180          49.000    22414131.812 8  90252418.840 8      -347.170          50.000
E12  24436826.984 7 128416357.576 7     -2597.879          44.000    24436825.094 7  98396949.166 7     -1990.732          44.000
> 2020 05 18 20 07 30.0000000  0 16        .000000000000
G01  20527988.773 8 107875299.814 8     -1129.102          51.000    20527991.914 8  84058688.028 8      -879.819          51.000
G03  20396536.531 7 107184533.369 7       579.137          44.000    20396539.430 7  83520457.568 7       451.275          44.000
G04  22610131.477 7 118817075.258 7      3357.113          43.000    22610131.977 6  92584744.375 6      2615.935          41.000
G11  21888192.945 8 115023195.594 8     -3271.258          51.000    21888189.836 6  89628449.158 6     -2549.032          41.000
G22  20862221.062 8 109631738.189 8      -955.027          51.000    20862217.289 8  85427313.119 8      -744.174          50.000
R01  19241340.844 8 102855983.232 8       454.109          48.000    19241345.734 7  79999134.138 7       353.196          44.000
R02  22970667.898 5 122575903.291 5      3707.555          34.000    22970674.375 6  95336841.911 6      2883.660          36.000
R08  20384983.047 6 109160644.361 6     -2662.078          36.000    20384984.766 6  84902775.344 6     -2070.508          39.000
R23  19548359.547 8 104570610.224 8     -2004.133          51.000    19548365.727 7  81332661.395 7     -1558.770          43.000
C19  25428692.211 7 132413905.327 7      2865.863          43.000
C20  22219821.625 8 115704526.964 8      1116.477          51.000
C30  22751534.805 8 118473181.646 8     -2442.598          51.000
E04  23577572.781 8 123900987.369 8      -262.203          51.000    23577573.250 8  94937213.992 8      -200.846          51.000
E09  23122082.883 8 121507434.896 8      2320.305          51.000    23122087.648 8  93103095.667 8      1777.896          51.000
E11  22416751.156 8 117800833.599 8      -463.434          49.000    22416750.227 8  90262961.605 8      -355.092          50.000
E12  24451674.125 7 128494384.948 7     -2603.145          43.000    24451672.703 7  98456736.393 7     -1994.632          42.000
> 2020 05 18 20 08  0.0000000  0 15        .000000000000
G01  20534477.234 8 107909396.021 8     -1143.746          51.000    20534479.875 8  84085256.507 8      -891.231          51.000
G03  20393265.719 7 107167344.823 7       566.934          45.000    20393268.258 7  83507063.906 7       441.766          45.000
G04  22590992.781 7 118716507.056 7      3347.527          42.000    22590993.336 6  92506379.593 6      2608.466          39.000
G11  21906902.320 8 115121513.210 8     -3282.941          51.000    21906899.742 7  89705060.239 7     -2558.139          42.000
G22  20867702.531 8 109660543.468 8      -964.961          51.000    20867698.859 8  85449758.807 8      -751.915          50.000
R01  19238850.773 7 102842673.519 7       433.520          47.000    19238855.852 7  79988782.146 7       337.179          44.000
R08  20399936.242 5 109240707.487 5     -2675.000          33.000    20399936.266 6  84965046.679 6     -2080.553          40.000
R23  19559664.703 8 104631084.672 8     -2027.121          51.000    19559670.633 7  81379697.054 7     -1576.653          43.000
C19  25412198.102 6 132328014.292 6      2860.805          41.000
C20  22213422.938 8 115671208.458 8      1105.039          51.000
C30  22765642.641 8 118546646.431 8     -2454.738          49.000
E04  23579105.492 8 123909042.753 8      -274.617          51.000    23579106.227 8  94943386.296 8      -210.373          51.000
E09  23108863.242 8 121437961.649 8      2311.559          51.000    23108866.812 8  93049862.937 8      1771.182          50.000
E11  22419432.102 8 117814922.192 8      -475.566          49.000    22419431.250 8  90273756.747 8      -364.368          50.000
E12  24466553.820 7 128572579.866 7     -2609.469          44.000    24466551.641 6  98516651.991 6     -1999.493          40.000
> 2020 05 18 20 08 30.0000000  0 17        .000000000000
G01  20541049.023 8 107943929.443 8     -1158.316          51.000    20541051.156 8  84112165.667 8      -902.584          51.000
G03  20390065.883 7 107150528.250 7       554.625          46.000    20390068.031 7  83493960.075 7       432.175          46.000
G04  22571909.227 7 118616223.430 7      3338.188          45.000    22571910.156 7  92428236.547 7      2601.185          43.000
G11  21925678.297 8 115220178.931 8     -3294.398          51.000    21925676.062 7  89781942.553 7     -2567.067          43.000
G22  20873239.773 8 109689642.070 8      -974.605          51.000    20873236.273 8  85472433.047 8      -759.433          50.000
R01  19236475.742 7 102829980.281 7       413.152          46.000    19236481.406 7  79978909.645 7       321.341          43.000
R02  22929082.938 6 122353959.169 6      3690.402          37.000    22929083.039 6  95164188.568 6      2870.319          36.000
R08  20414956.477 5 109321145.217 5     -2687.090          31.000    20414957.195 6  85027609.443 6     -2089.953          38.000
R23  19571098.656 8 104692246.174 8     -2049.926          51.000    19571104.016 7  81427267.093 7     -1594.387          43.000
R24  19417800.352 5 103835678.962 5      1279.789          31.000    19417801.805 5  80761101.968 5       995.388          30.000
C19  25395732.172 6 132242270.914 6      2855.867          40.000
C20  22207091.336 8 115638235.360 8      1093.562          51.000
C30  22779819.812 8 118620473.480 8     -2466.676          49.000
E04  23580708.547 8 123917468.630 8      -286.785          51.000    23580709.781 8  94949842.490 8      -219.724          51.000
E09  23095692.859 8 121368749.624 8      2302.945          51.000    23095695.227 8  92996830.376 8      1764.642          50.000
E11  22422180.414 8 117829364.066 8      -486.816          49.000    22422179.484 8  90284822.597 8      -373.030          50.000
E12  24481470.391 7 128650965.171 7     -2615.730          44.000    24481465.906 6  98576713.419 6     -2004.234          39.000
> 2020 05 18 20 09  0.0000000  0 17        .000000000000
G01  20547699.867 8 107978878.213 8     -1171.414          51.000    20547701.891 8  84139398.459 8      -912.790          51.000
G03  20386932.602 7 107134061.496 7       543.551          46.000    20386934.836 7  83481128.858 7       423.549          46.000
G04  22552876.867 7 118516204.982 7      3329.980          47.000    22552878.195 7  92350300.153 7      2594.790          42.000
G11  21944515.961 8 115319168.683 8     -3304.586          51.000    21944513.781 7  89859077.355 7     -2575.002          42.000
G22  20878828.547 8 109719011.334 8      -983.047          51.000    20878825.047 8  85495318.189 8      -766.011          50.000
R01  19234212.008 8 102817880.164 8       393.863          48.000    19234217.617 7  79969498.431 7       306.338          44.000
R02  22908358.008 7 122243360.608 7      3683.164          42.000    22908358.758 6  95078167.595 6      2864.689          38.000
R08  20430042.102 5 109401932.118 5     -2698.156          35.000    20430043.125 6  85090443.681 6     -2098.566          38.000
R23  19582656.992 8 104754071.058 8     -2071.398          51.000    19582661.641 7  81475353.102 7     -1611.088          43.000
R24  19410684.383 5 103797631.259 5      1257.914          32.000    19410683.500 5  80731509.336 5       978.378          30.000
C19  25379290.859 7 132156654.184 7      2852.074          42.000
C20  22200821.898 8 115605585.939 8      1083.344          51.000
C30  22794061.961 8 118694639.629 8     -2477.320          49.000
E04  23582377.766 8 123926242.515 8      -297.879          51.000    23582379.719 8  94956565.344 8      -228.278          51.000
E09  23082567.875 8 121299777.863 8      2295.496          51.000    23082569.008 8  92943981.922 8      1758.949          49.000
E11  22424992.000 8 117844137.957 8      -497.742          49.000    22424991.078 8  90296142.843 8      -381.390          50.000
E12  24496419.102 7 128729518.303 7     -2620.891          44.000    24496412.969 6  98636903.422 6     -2008.311          39.000
> 2020 05 18 20 09 30.0000000  0 16        .000000000000
G01  20554429.633 8 108014241.992 8     -1185.945          51.000    20554431.461 8  84166954.619 8      -924.113          51.000
G03  20383865.547 7 107117944.036 7       531.113          45.000    20383867.891 7  83468569.818 7       413.855          45.000
G04  22533895.445 8 118416453.863 8      3320.195          48.000    22533896.891 7  92272572.060 7      2587.168          43.000
G11  21963414.547 8 115418480.296 8     -3315.949          51.000    21963412.109 7  89936462.991 7     -2583.857          42.000
G22  20884468.688 8 109748650.260 8      -992.742          51.000    20884465.016 8  85518413.457 8      -773.565          50.000
R01  19232059.484 8 102806372.009 8       373.566          48.000    19232064.914 7  79960547.664 7       290.552          44.000
R02  22887675.656 7 122132995.132 7      3674.672          42.000    22887677.883 6  94992327.918 6      2858.084          40.000
R08  20445193.039 5 109483065.008 5     -2710.289          32.000    20445194.203 6  85153547.048 6     -2108.003          38.000
R23  19594338.914 8 104816557.438 8     -2094.113          51.000    19594342.875 7  81523953.612 7     -1628.755          43.000
C19  25362874.203 7 132071164.540 7      2847.281          44.000
C20  22194613.977 8 115573259.778 8      1071.828          51.000
C30  22808369.203 8 118769143.098 8     -2489.375          51.000
E04  23584113.055 8 123935363.350 8      -309.996          51.000    23584115.492 8  94963554.040 8      -237.562          51.000
E09  23069488.586 8 121231046.911 8      2286.824          51.000    23069488.891 8  92891317.984 8      1752.236          50.000
E11  22427866.828 8 117859243.913 8      -509.129          49.000    22427865.906 8  90307717.532 8      -390.100          50.000
E12  24511398.977 7 128808238.226 7     -2627.055          43.000    24511393.531 6  98697221.237 6     -2012.914          40.000
> 2020 05 18 20 10  0.0000000  0 17        .000000000000
G01  20561240.047 8 108050029.923 8     -1199.891          51.000    20561241.555 8  84194841.284 8      -934.983          51.000
G03  20380866.648 7 107102184.749 7       519.504          46.000    20380868.719 7  83456289.870 7       404.808          45.000
G04  22514966.883 8 118316981.617 8      3311.289          49.000    22514968.344 7  92195061.266 7      2580.228          44.000
G11  21982375.148 8 115518120.380 8     -3326.652          51.000    21982372.805 7  90014104.645 7     -2592.194          43.000
G22  20890161.680 8 109778567.364 8     -1001.648          51.000    20890157.906 8  85541725.490 8      -780.505          50.000
R01  19230019.266 8 102795464.357 8       353.766          48.000    19230024.258 7  79952063.937 7       275.148          43.000
R02  22867038.852 7 122022874.290 7      3666.652          42.000    22867042.070 6  94906678.530 6      2851.847          40.000
R08  20460407.508 5 109564550.126 5     -2721.844          33.000    20460411.633 6  85216924.470 6     -2116.990          37.000
R23  19606145.719 8 104879713.296 8     -2116.070          51.000    19606149.383 7  81573074.840 7     -1645.832          42.000
R24  19396830.320 5 103723542.821 5      1211.895          30.000    19396837.586 5  80673890.870 5       942.588          31.000
C19  25346483.977 7 131985811.783 7      2842.992          45.000
C20  22188469.844 8 115541265.915 8      1061.047          51.000
C30  22822743.000 8 118843991.372 8     -2500.504          51.000
E04  23585916.023 8 123944839.608 8      -321.539          51.000    23585918.594 8  94970815.067 8      -246.404          51.000
E09  23056457.000 8 121162566.752 8      2278.684          51.000    23056457.562 8  92838846.218 8      1746.040          51.000
E11  22430806.555 8 117874691.652 8      -520.609          49.000    22430805.664 8  90319554.106 8      -398.974          50.000
E12  24526411.469 7 128887133.411 7     -2632.352          42.000    24526408.844 7  98757673.395 7     -2017.036          43.000
> 2020 05 18 20 10 30.0000000  0 17        .000000000000
G01  20568130.625 8 108086239.129 8     -1213.676          51.000    20568131.844 8  84223056.226 8      -945.724          51.000
G03  20377935.492 7 107086780.628 7       507.766          45.000    20377937.156 7  83444286.648 7       395.662          45.000
G04  22496091.258 8 118217787.955 8      3302.055          49.000    22496092.609 7  92117767.543 7      2573.033          45.000
G11  22001397.242 8 115618084.282 8     -3337.270          50.000    22001395.758 7  90091998.626 7     -2600.470          44.000
G22  20895906.805 8 109808758.872 8     -1010.773          51.000    20895903.125 8  85565251.342 8      -787.616          50.000
R01  19228090.367 8 102785153.292 8       334.000          48.000    19228095.305 7  79944044.240 7       259.781          44.000
R02  22846447.539 7 121912997.003 7      3658.652          42.000    22846451.203 6  94821218.591 6      2845.625          40.000
R08  20475689.125 5 109646382.011 5     -2733.395          34.000    20475694.297 6  85280571.431 6     -2125.977          37.000
R23  19618076.508 8 104943534.375 8     -2138.219          51.000    19618079.969 6  81622713.465 6     -1663.062          40.000
R24  19390097.594 6 103687526.605 6      1189.227          37.000    19390096.750 5  80645878.203 5       924.957          31.000
C19  25330119.656 7 131900593.952 7      2838.516          45.000
C20  22182389.266 8 115509601.470 8      1050.184          51.000
C30  22837182.398 8 118919180.156 8     -2511.652          51.000
E04  23587786.031 8 123954667.782 8      -333.227          51.000    23587788.820 8  94978345.753 8      -255.305          51.000
E09  23043472.922 8 121094335.452 8      2270.379          51.000    23043474.492 8  92786565.125 8      1739.686          51.000
E11  22433810.828 8 117890478.823 8      -531.590          49.000    22433809.773 8  90331650.761 8      -407.265          50.000
E12  24541455.914 7 128966200.407 7     -2638.109          42.000    24541457.172 7  98818257.203 7     -2021.495          44.000
> 2020 05 18 20 11  0.0000000  0 17        .000000000000
G01  20575102.461 8 108122875.676 8     -1227.941          51.000    20575103.484 8  84251604.172 8      -956.837          51.000
G03  20375072.977 7 107071737.440 7       495.695          45.000    20375074.523 7  83432564.707 7       386.256          45.000
G04  22477270.281 8 118118881.306 8      3292.312          49.000    22477271.484 7  92040697.479 7      2565.441          46.000
G11  22020481.695 8 115718375.831 8     -3348.133          50.000    22020481.070 7  90170147.887 7     -2608.935          46.000
G22  20901705.164 8 109839230.324 8     -1020.035          51.000    20901701.695 8  85588995.318 8      -794.833          50.000
R01  19226274.172 8 102775444.139 8       313.805          48.000    19226279.086 7  79936492.684 7       244.070          44.000
R02  22825903.664 7 121803371.114 7      3650.410          43.000    22825907.250 6  94735954.219 6      2839.214          38.000
R08  20491036.844 5 109728563.333 5     -2744.688          31.000    20491040.766 5  85344490.218 5     -2134.760          33.000
R23  19630132.312 8 105008025.498 8     -2160.637          51.000    19630135.594 6  81672873.193 6     -1680.498          40.000
R24  19383489.008 5 103652200.837 5      1166.359          35.000    19383490.508 5  80618402.580 5       907.168          31.000
C19  25313781.602 7 131815517.785 7      2833.590          44.000
C20  22176372.891 8 115478272.365 8      1039.027          51.000
C30  22851688.242 8 118994713.915 8     -2523.266          51.000
E04  23589724.336 8 123964853.226 8      -345.230          51.000    23589727.273 8  94986150.187 8      -264.458          51.000
E09  23030537.625 8 121026359.910 8      2261.859          51.000    23030540.281 8  92734480.003 8      1733.170          51.000
E11  22436881.062 8 117906612.000 8      -543.402          50.000    22436879.883 8  90344012.542 8      -416.340          51.000
E12  24556534.859 7 129045444.564 7     -2644.023          43.000    24556538.625 7  98878976.780 7     -2025.922          45.000
> 2020 05 18 20 11 30.0000000  0 17        .000000000000
G01  20582156.203 8 108159942.749 8     -1242.648          51.000    20582157.219 8  84280487.600 8      -968.297          51.000
G03  20372279.523 7 107057058.186 7       483.375          46.000    20372281.188 7  83421126.347 7       376.659          46.000
G04  22458504.875 8 118020267.391 8      3282.293          49.000    22458505.969 7  91963855.517 7      2557.634          46.000
G11  22039628.570 8 115818996.404 8     -3359.430          49.000    22039628.812 7  90248553.507 7     -2617.740          46.000
G22  20907557.344 8 109869984.244 8     -1029.750          51.000    20907554.062 8  85612959.414 8      -802.403          50.000
R01  19224571.078 8 102766339.339 8       293.500          49.000    19224575.898 7  79929411.169 7       228.278          44.000
R02  22805408.172 7 121694001.836 7      3641.438          44.000    22805411.969 6  94650889.415 6      2832.235          38.000
R08  20506447.977 5 109811094.482 5     -2755.832          30.000    20506450.812 5  85408681.142 5     -2143.422          34.000
R23  19642313.617 8 105073188.938 8     -2183.191          51.000    19642316.656 6  81723555.824 6     -1698.041          40.000
R24  19377011.555 6 103617570.789 6      1143.043          38.000    19377014.375 5  80591468.069 5       889.030          32.000
C19  25297470.125 7 131730587.244 7      2828.836          43.000
C20  22170420.852 8 115447281.699 8      1027.477          51.000
C30  22866260.648 8 119070594.298 8     -2534.961          51.000
E04  23591731.180 8 123975398.478 8      -357.492          51.000    23591734.031 8  94994230.329 8      -273.923          51.000
E09  23017651.688 8 120958644.247 8      2252.930          51.000    23017655.320 8  92682594.007 8      1726.211          51.000
E11  22440017.805 8 117923094.847 8      -555.066          50.000    22440016.562 8  90356642.248 8      -425.284          51.000
E12  24571649.203 7 129124868.488 7     -2650.332          45.000    24571653.703 7  98939834.070 7     -2030.858          46.000
> 2020 05 18 20 12  0.0000000  0 17        .000000000000
G01  20589289.844 8 108197430.450 8     -1256.254          51.000    20589290.758 8  84309698.792 8      -978.899          51.000
G03  20369553.688 7 107042732.816 7       472.047          46.000    20369554.664 7  83409963.705 7       367.829          46.000
G04  22439793.125 7 117921938.829 7      3273.086          47.000    22439794.633 7  91887235.890 7      2550.460          47.000
G11  22058836.070 8 115919933.647 8     -3369.508          49.000    22058836.961 7  90327205.876 7     -2625.594          45.000
G22  20913461.391 8 109901010.171 8     -1038.367          51.000    20913458.133 8  85637135.461 8      -809.117          50.000
R01  19222978.930 8 102757827.831 8       274.117          49.000    19222983.680 7  79922791.130 7       213.202          44.000
R02  22784958.594 7 121584880.874 7      3633.633          42.000    22784963.898 6  94566017.681 6      2826.162          40.000
R08  20521921.898 6 109893962.425 6     -2767.656          36.000    20521927.336 5  85473134.009 5     -2152.622          35.000
R23  19654618.141 8 105139012.676 8     -2204.703          51.000    19654621.734 7  81774752.038 7     -1714.769          42.000
R24  19370664.305 6 103583629.136 6      1120.336          37.000    19370667.289 5  80565068.985 5       871.369          32.000
C19  25281185.258 7 131645793.342 7      2824.434          44.000
C20  22164532.273 8 115416619.659 8      1016.941          51.000
C30  22880897.492 8 119146810.008 8     -2545.645          51.000
E04  23593804.391 8 123986292.975 8      -368.609          51.000    23593806.969 8  95002578.074 8      -282.477          51.000
E09  23004813.359 8 120891179.447 8      2244.969          51.000    23004817.758 8  92630900.229 8      1720.138          51.000
E11  22443219.086 8 117939918.027 8      -566.301          50.000    22443217.836 8  90369532.733 8      -433.934          51.000
E12  24586796.438 7 129204461.663 7     -2655.609          47.000    24586800.312 7  99000821.024 7     -2034.782          46.000
> 2020 05 18 20 12 30.0000000  0 17        .000000000000
G01  20596502.820 8 108235335.316 8     -1270.410          51.000    20596503.922 8  84339235.059 8      -989.930          51.000
G03  20366894.352 7 107028757.727 7       459.926          46.000    20366895.016 7  83399074.007 7       358.387          46.000
G04  22421135.102 8 117823894.703 8      3263.375          48.000    22421137.188 7  91810837.866 7      2542.890          47.000
G11  22078103.000 8 116021181.954 8     -3380.230          49.000    22078103.828 7  90406100.641 7     -2633.946          44.000
G22  20919416.461 8 109932303.897 8     -1047.613          51.000    20919413.086 8  85661520.182 8      -816.322          50.000
R01  19221496.789 8 102749905.251 8       254.211          49.000    19221501.312 7  79916629.111 7       197.720          44.000
R02  22764552.961 6 121476006.655 6      3625.004          37.000    22764562.109 6  94481337.772 6      2819.447          41.000
R08  20537460.266 4 109977161.097 4     -2778.465          28.000    20537464.680 5  85537843.994 5     -2161.028          34.000
R23  19667045.109 8 105205491.836 8     -2226.930          51.000    19667049.648 7  81826458.023 7     -1732.059          42.000
R24  19364445.867 6 103550374.839 6      1096.621          39.000    19364448.023 5  80539204.524 5       852.928          31.000
C19  25264927.086 7 131561133.367 7      2819.562          45.000
C20  22158706.406 8 115386282.833 8      1005.750          51.000
C30  22895597.805 8 119223356.163 8     -2557.121          51.000
E04  23595943.438 8 123997532.667 8      -380.242          51.000    23595945.695 8  95011190.302 8      -291.345          51.000
E09  22992022.500 8 120823963.038 8      2236.414          51.000    22992026.766 8  92579396.772 8      1713.625          51.000
E11  22446484.531 8 117957078.648 8      -577.379          51.000    22446483.188 8  90382681.776 8      -442.440          51.000
E12  24601975.453 8 129284219.974 8     -2661.324          49.000    24601977.703 7  99061934.508 7     -2039.092          46.000
> 2020 05 18 20 13  0.0000000  0 17        .000000000000
G01  20603797.250 8 108273668.578 8     -1284.309          51.000    20603798.586 8  84369105.133 8     -1000.760          51.000
G03  20364303.516 7 107015143.852 7       448.020          46.000    20364304.539 7  83388465.806 7       349.106          46.000
G04  22402534.594 8 117726148.542 8      3253.699          50.000    22402536.438 7  91734672.052 7      2535.353          47.000
G11  22097430.867 8 116122750.764 8     -3390.508          48.000    22097431.445 7  90485245.162 7     -2641.954          43.000
G22  20925424.508 8 109963876.039 8     -1056.520          51.000    20925420.992 8  85686121.852 8      -823.262          50.000
R01  19220126.727 8 102742581.631 8       234.762          49.000    19220131.094 7  79910932.972 7       182.592          44.000
R02  22744197.898 7 121367392.269 7      3616.770          42.000    22744208.484 7  94396859.889 7      2813.046          43.000
R08  20553058.445 5 110060687.909 5     -2789.758          30.000    20553064.758 5  85602778.091 5     -2169.812          34.000
R23  19679596.867 8 105272636.188 8     -2248.633          50.000    19679602.180 6  81878681.419 6     -1748.937          41.000
R24  19358357.805 6 103517821.891 6      1073.801          39.000    19358359.883 5  80513885.550 5       835.175          34.000
C19  25248697.031 7 131476619.185 7      2815.156          44.000
C20  22152944.625 8 115356282.172 8       994.938          51.000
C30  22910363.469 8 119300242.316 8     -2568.047          51.000
E04  23598150.125 8 124009128.052 8      -391.926          51.000    23598152.422 8  95020075.094 8      -300.358          51.000
E09  22979281.281 8 120757007.009 8      2227.996          51.000    22979284.859 8  92528092.839 8      1707.157          51.000
E11  22449816.461 8 117974588.316 8      -589.168          51.000    22449815.117 8  90396098.275 8      -451.416          51.000
E12  24617187.656 8 129364153.993 8     -2666.820          48.000    24617188.141 7  99123182.650 7     -2043.519          45.000
> 2020 05 18 20 13 30.0000000  0 17        .000000000000
G01  20611168.281 8 108312404.514 8     -1297.785          51.000    20611169.648 8  84399288.991 8     -1011.261          51.000
G03  20361776.836 7 107001865.362 7       436.855          47.000    20361777.734 7  83378118.932 7       340.407          47.000
G04  22383986.906 8 117628677.192 8      3244.430          51.000    22383988.195 7  91658720.407 7      2528.130          46.000
G11  22116814.055 7 116224612.072 7     -3400.129          46.000    22116814.836 6  90564617.558 6     -2649.451          41.000
G22  20931480.461 8 109995700.070 8     -1064.969          51.000    20931476.961 8  85710919.814 8      -829.846          50.000
R01  19218863.906 8 102735830.482 8       215.547          49.000    19218868.109 7  79905682.085 7       167.651          43.000
R02  22723889.359 7 121259013.037 7      3608.641          46.000    22723898.195 7  94312565.053 7      2806.724          43.000
R08  20568720.664 5 110144534.969 5     -2800.254          33.000    20568726.469 5  85667992.264 5     -2177.981          35.000
R23  19692267.578 8 105340418.466 8     -2270.000          49.000    19692272.805 6  81931401.000 6     -1765.556          39.000
R24  19352397.102 6 103485946.635 6      1051.203          40.000    19352399.461 5  80489093.693 5       817.602          35.000
C19  25232490.312 7 131392226.266 7      2811.211          44.000
C20  22147242.875 8 115326592.207 8       984.469          51.000
C30  22925189.094 8 119377441.545 8     -2578.469          51.000
E04  23600419.320 8 124021052.777 8      -402.988          51.000    23600421.656 8  95029212.243 8      -308.807          51.000
E09  22966584.586 8 120690286.633 8      2220.148          50.000    22966587.797 8  92476969.464 8      1701.099          51.000
E11  22453210.094 8 117992421.943 8      -599.688          51.000    22453208.805 8  90409762.997 8      -459.492          51.000
E12  24632427.547 7 129444237.428 7     -2671.863          47.000    24632426.828 7  99184545.243 7     -2047.407          44.000
> 2020 05 18 20 14  0.0000000  0 17        .000000000000
G01  20618619.539 8 108351561.993 8     -1312.449          51.000    20618620.938 8  84429801.304 8     -1022.688          51.000
G03  20359317.578 7 106988940.903 7       424.660          46.000    20359318.078 7  83368047.910 7       330.904          46.000
G04  22365495.680 8 117531502.013 8      3233.992          50.000    22365496.180 7  91582999.540 7      2519.994          46.000
G11  22136256.070 7 116326782.396 7     -3410.969          46.000    22136256.594 6  90644230.775 6     -2657.895          40.000
G22  20937587.695 8 110027794.298 8     -1074.480          51.000    20937584.469 8  85735928.317 8      -837.258          51.000
R01  19217711.352 8 102729669.741 8       195.348          49.000    19217715.398 7  79900890.411 7       151.937          43.000
R02  22703628.844 7 121150890.948 7      3599.523          47.000    22703635.398 7  94228470.242 7      2799.632          43.000
R08  20584445.781 4 110228708.889 4     -2811.723          27.000    20584446.359 5  85733460.830 5     -2186.898          34.000
R23  19705060.875 8 105408856.052 8     -2292.348          51.000    19705065.555 6  81984630.225 6     -1782.937          39.000
R24  19346567.039 6 103454770.765 6      1027.391          40.000    19346570.039 6  80464845.776 6       799.079          36.000
C19  25216311.164 7 131307974.067 7      2805.816          45.000
C20  22141604.930 8 115297231.605 8       972.914          51.000
C30  22940077.672 8 119454971.033 8     -2590.023          51.000
