     3.04           OBSERVATION DATA    M (MIXED)           RINEX VERSION / TYPE
Convert 2.6.2       NovAtel             20200515 160713 UTC PGM / RUN BY / DATE 
Rinex Version 3.04 Observation File                         COMMENT             
                                                            MARKER NAME         
                                                            MARKER NUMBER       
                                                            MARKER TYPE         
                                                            OBSERVER / AGENCY   
                    NovAtel GPSCard                         REC # / TYPE / VERS 
                                                            ANT # / TYPE        
        0.0000        0.0000        0.0000                  APPROX POSITION XYZ 
        0.0000        0.0000        0.0000                  ANTENNA: DELTA H/E/N
G    8 C1C L1C D1C S1C C2W L2W D2W S2W                      SYS / # / OBS TYPES 
R    8 C1C L1C D1C S1C C2P L2P D2P S2P                      SYS / # / OBS TYPES 
E    8 C1C L1C D1C S1C C7Q L7Q D7Q S7Q                      SYS / # / OBS TYPES 
C    8 C2I L2I D2I S2I C7I L7I D7I S7I                      SYS / # / OBS TYPES 
DBHZ                                                        SIGNAL STRENGTH UNIT
    30.000                                                  INTERVAL            
  2020    05    12    01    00    0.0000000     GPS         TIME OF FIRST OBS   
  2020    05    12    01    59   30.0000000     GPS         TIME OF LAST OBS    
G L1C  0.00000  07 G09 G06 G30 G07 G04 G02 G05              SYS / PHASE SHIFT   
G L2W  0.00000  06 G09 G06 G30 G07 G02 G05                  SYS / PHASE SHIFT   
R L1C  0.00000  06 R19 R03 R14 R04 R13 R15                  SYS / PHASE SHIFT   
R L2P  0.25000  06 R19 R03 R14 R04 R13 R15                  SYS / PHASE SHIFT   
E L1C  0.50000  04 E05 E25 E15 E03                          SYS / PHASE SHIFT   
E L7Q -0.25000  04 E05 E03 E25 E15                          SYS / PHASE SHIFT   
C L2I  0.00000  04 C19 C05 C22 C20                          SYS / PHASE SHIFT   
C L7I  0.00000  01 C05                                      SYS / PHASE SHIFT   
  6 R19  3 R03  5 R14 -7 R04  6 R13 -2 R15  0               GLONASS SLOT / FRQ #
 C1C  -71.950 C2C  -71.950 C2P  -71.950                     GLONASS COD/PHS/BIS 
    18    18  1929     7GPS                                 LEAP SECONDS        
                                                            END OF HEADER       
> 2020 05 12 01 00  0.0000000  0 15      -0.000000000000
G09  20933657.312 8 110007109.922 8     -1565.188          49.000    20933658.164 8  85719826.345 8     -1219.624          49.000  
G06  21974035.398 8 115474346.735 8     -2379.137          48.000    21974037.148 8  89980000.442 8     -1853.873          48.000  
G30  22226158.047 8 116799272.978 8      2994.605          49.000    22226159.609 8  91012443.916 8      2333.459          49.000  
G07  20988865.516 8 110297234.315 8      1087.918          51.000    20988864.180 8  85945895.150 8       847.729          51.000  
R19  22627845.055 5 121043325.039 5     -3727.430          34.000    22627848.414 6  94144807.730 6     -2899.115          41.000  
R03  20924880.664 5 112012138.829 5     -2076.367          31.000    20924880.234 5  87120519.643 5     -1614.956          32.000  
R14  20585156.414 8 109730131.255 8      2945.852          51.000    20585157.953 8  85345663.273 8      2291.218          49.000  
R04  19719415.406 4 105596192.269 4       891.762          28.000    19719411.383 4  82130349.11824       693.596          24.000  
R13  20602641.586 5 110016549.408 5     -1227.375          32.000                                                                  
E05  24184941.656 7 127092717.452 7     -1180.398          44.000    24184942.703 7  97382772.718 7      -904.471          47.000  
E03                                                                  23963179.914 5  96489793.159 5       787.117          32.000  
E25  26490879.016 8 139210548.878 8      2922.512          49.000    26490880.906 8 106667825.909 8      2239.391          51.000  
C19  21774816.188 8 113387176.684 8      -814.746          51.000                                                                  
C05  39787559.133 6 207184260.498 6       -16.863          37.000    39787555.789 6 160207996.455 6       -12.747          39.000  
C22  22940278.445 5 119456046.00025      1839.223          30.000                                                                  
> 2020 05 12 01 00 30.0000000  0 16      -0.000000000000
G09  20942602.203 8 110054115.162 8     -1572.859          48.000    20942602.727 8  85756453.763 8     -1225.605          48.000  
G06  21987643.297 8 115545857.904 8     -2392.648          50.000    21987645.781 8  90035723.433 8     -1864.402          50.000  
G30  22209076.742 8 116709508.064 8      2985.461          51.000    22209078.055 8  90942497.245 8      2326.334          51.000  
G07  20982685.422 8 110264757.632 8      1072.930          51.000    20982684.336 8  85920588.663 8       836.049          51.000  
G04  23385297.898 5 122890534.646 5     -2863.914          34.000                                                                  
R19  22648764.680 6 121155227.040 6     -3737.008          36.000    22648766.734 6  94231842.601 6     -2906.562          40.000  
R14  20568618.180 8 109641973.448 8      2926.910          51.000    20568620.219 8  85277096.101 8      2276.486          49.000  
R04  19714430.414 5 105569526.713 5       881.969          35.000    19714430.617 4  82109605.851 4       685.976          27.000  
R13  20609598.500 4 110053689.408 4     -1252.680          29.000    20609600.297 4  85597337.79024      -974.304          27.000  
E05  24191677.797 7 127128116.797 7     -1183.836          45.000    24191678.938 7  97409896.882 7      -907.123          46.000  
E15  25203960.789 5 132447720.966 5     -1325.293          33.000    25203955.539 5 101485887.869 5     -1015.153          30.000  
E03                                                                  23957314.445 5  96466177.848 5       784.280          31.000  
E25  26474191.852 8 139122854.678 8      2919.383          49.000    26474194.023 8 106600631.727 8      2236.907          51.000  
C19  21779521.586 8 113411678.323 8      -823.078          51.000                                                                  
C05  39787639.555 6 207184679.324 6       -15.516          37.000    39787636.242 6 160208320.337 6       -12.115          39.000  
C20  25516571.227 5 132871448.567 5     -2630.000          32.000                                                                  
> 2020 05 12 01 01  0.0000000  0 15      -0.000000000000
G09  20951610.820 7 110101456.352 7     -1596.457          47.000    20951611.266 7  85793342.990 7     -1243.993          47.000  
G06  22001349.188 8 115617881.445 8     -2422.219          51.000    22001351.578 8  90091845.660 8     -1887.447          51.000  
G30  22192068.227 8 116620124.893 8      2960.094          51.000    22192069.195 8  90872848.040 8      2306.567          51.000  
G02  22388355.930 6 117651609.471 6      -140.137          37.000                                                                  
G07  20976610.773 8 110232835.259 8      1041.863          51.000    20976609.789 8  85895714.099 8       811.845          51.000  
R19  22669757.133 5 121267519.111 5     -3762.773          35.000    22669757.961 6  94319180.856 6     -2926.602          41.000  
R14  20552206.570 8 109554490.952 8      2891.641          51.000    20552208.797 8  85209054.167 8      2249.054          48.000  
R13  20616715.898 5 110091721.88825     -1294.312          31.000                                                                  
E05  24198453.430 7 127163724.610 7     -1203.254          45.000    24198455.375 7  97437180.779 7      -921.923          46.000  
E15  25211567.328 6 132487701.663 6     -1353.078          37.000    25211565.805 4 101516530.355 4     -1036.930          29.000  
E03                                                                  23951487.695 5  96442716.811 5       768.551          31.000  
E25  26457544.125 8 139035369.753 8      2899.695          48.000    26457547.539 8 106533597.861 8      2221.882          51.000  
C19  21784294.188 8 113436530.870 8      -847.047          51.000                                                                  
C05  39787732.945 6 207185164.479 6       -30.203          37.000    39787729.609 6 160208696.253 6       -23.249          39.000  
C20  25531742.547 5 132950436.185 5     -2649.062          31.000                                                                  
> 2020 05 12 01 01 30.0000000  0 14      -0.000000000000
G09  20960709.125 7 110149269.344 7     -1592.250          46.000    20960709.688 7  85830599.857 7     -1240.715          46.000  
G06  22015178.266 8 115690551.465 8     -2423.641          51.000    22015180.211 8  90148471.630 8     -1888.552          51.000  
G30  22175158.664 8 116531262.092 8      2962.781          51.000    22175159.320 8  90803604.340 8      2308.661          51.000  
G02  22389160.453 6 117655870.479 6      -145.168          38.000                                                                  
G07  20970667.508 8 110201604.045 8      1038.895          50.000    20970666.742 8  85871378.092 8       809.528          50.000  
R19  22690847.242 6 121380335.411 6     -3759.539          36.000    22690848.094 7  94406926.859 7     -2924.086          42.000  
R14  20535948.617 8 109467826.005 8      2884.652          51.000    20535950.125 7  85141648.097 7      2243.619          47.000  
R13  20624018.609 5 110130732.600 5     -1307.676          30.000    20624018.961 4  85657232.254 4     -1017.081          28.000  
E05  24205294.961 7 127199677.546 7     -1194.828          45.000    24205297.391 7  97464729.128 7      -915.425          44.000  
E15  25219291.312 5 132528288.635 5     -1353.633          33.000                                                                  
E03  23945725.398 5 125835628.479 5      1012.129          34.000                                                                  
E25  26440962.242 7 138948232.752 7      2908.195          47.000    26440967.016 8 106466830.587 8      2228.341          51.000  
C19  21789160.109 8 113461870.076 8      -843.430          51.000                                                                  
C05  39787865.195 6 207185853.327 6       -16.895          37.000    39787861.922 6 160209228.926 6       -13.209          39.000  
> 2020 05 12 01 02  0.0000000  0 15      -0.000000000000
G09  20969815.508 7 110197124.227 7     -1606.730          46.000    20969816.000 7  85867889.368 7     -1252.001          46.000  
G06  22029048.180 8 115763436.351 8     -2443.820          51.000    22029049.594 8  90205265.040 8     -1904.276          51.000  
G30  22158266.484 8 116442492.742 8      2946.602          50.000    22158267.094 8  90734433.445 8      2296.057          50.000  
G07  20964774.086 8 110170635.415 8      1017.035          50.000    20964773.688 8  85847246.708 8       792.495          50.000  
R19  22711952.445 6 121493234.985 6     -3775.500          36.000    22711954.383 7  94494737.629 7     -2936.500          42.000  
R14  20519762.727 8 109381547.073 8      2858.562          51.000    20519763.891 7  85074542.263 7      2223.327          46.000  
R04  19699940.930 5 105491876.410 5       842.316          32.000    19699932.039 5  82049225.229 5       655.135          30.000  
R13  20631429.648 4 110170299.509 4     -1339.000          29.000    20631432.148 5  85688007.563 5     -1041.439          31.000  
E05  24212120.602 7 127235546.588 7     -1205.164          45.000    24212123.055 7  97492213.176 7      -923.357          44.000  
E15  25227052.539 5 132569032.775 5     -1372.680          31.000                                                                  
E03  23939957.641 5 125805320.334 5      1001.734          35.000    23939951.484 5  96396267.549 5       767.375          31.000  
E25  26424365.516 8 138861016.757 8      2897.605          48.000    26424370.961 8 106400002.771 8      2220.295          51.000  
C19  21794037.812 8 113487271.117 8      -858.496          51.000                                                                  
C05  39787954.805 6 207186319.820 6       -22.387          37.000    39787951.461 6 160209589.640 6       -17.305          39.000  
C20  25562175.680 5 133108971.826 5     -2649.527          31.000                                                                  
> 2020 05 12 01 02 30.0000000  0 15      -0.000000000000
G09  20978980.078 7 110245283.622 7     -1610.211          47.000    20978980.461 7  85905416.166 7     -1254.710          47.000  
G06  22043008.445 8 115836797.165 8     -2453.027          51.000    22043010.172 8  90262429.288 8     -1911.450          51.000  
G30  22141441.898 8 116354082.421 8      2941.289          48.000    22141443.188 8  90665542.287 8      2291.914          48.000  
G07  20958980.969 8 110140193.500 8      1006.219          50.000    20958980.773 8  85823525.731 8       784.070          50.000  
R19  22733122.109 6 121606481.242 6     -3780.488          37.000    22733125.383 6  94582818.045 6     -2940.380          41.000  
R03  20983733.727 5 112327187.64225     -2124.082          30.000    20983742.516 5  87365589.699 5     -1652.058          30.000  
R14  20503699.547 8 109295925.170 8      2843.332          50.000    20503701.367 7  85007947.458 7      2211.484          47.000  
R13  20638997.508 5 110210707.571 5     -1360.852          33.000    20639002.875 5  85719436.043 5     -1058.440          31.000  
E05  24218980.508 7 127271595.177 7     -1204.492          46.000    24218982.688 7  97519834.805 7      -923.007          43.000  
E15  25234898.047 4 132610283.189 4     -1380.703          28.000                                                                  
E03  23934220.805 5 125775178.241 5      1002.453          33.000                                                                  
E25  26407804.609 8 138773987.371 8      2898.047          48.000    26407810.109 8 106333317.963 8      2220.502          51.000  
C19  21798977.719 8 113512995.474 8      -862.645          51.000                                                                  
C05  39788051.875 6 207186825.120 6       -17.324          37.000    39788048.438 6 160209980.368 6       -13.481          39.000  
C20  25577421.930 5 133188356.458 5     -2648.688          35.000                                                                  
> 2020 05 12 01 03  0.0000000  0 17      -0.000000000000
G09  20988191.539 7 110293689.373 7     -1616.926          47.000    20988191.836 7  85943134.936 7     -1259.939          47.000  
G06  22057047.758 8 115910573.988 8     -2465.555          51.000    22057050.164 8  90319917.706 8     -1921.212          51.000  
G30  22124675.078 8 116265975.785 8      2932.535          49.000    22124677.109 8  90596887.754 8      2285.090          49.000  
G02  22392080.938 5 117671141.502 5      -196.848          35.000                                                                  
G07  20953277.344 8 110110221.421 8       992.020          50.000    20953277.062 8  85800170.858 8       773.002          50.000  
R19  22754345.117 6 121720011.029 6     -3788.449          39.000    22754348.797 6  94671118.960 6     -2946.572          40.000  
R03  20995650.250 4 112390977.335 4     -2131.418          29.000                                                                  
R14  20487749.250 8 109210905.945 8      2824.418          50.000    20487752.281 8  84941821.408 8      2196.770          48.000  
R04  19690543.336 5 105441590.886 5       828.070          34.000    19690551.477 5  82010150.698 5       644.058          32.000  
R13  20646708.586 5 110251887.601 5     -1384.582          32.000    20646713.219 5  85751464.197 5     -1076.900          31.000  
E05  24225863.570 7 127307765.891 7     -1206.938          46.000    24225865.930 7  97547550.031 7      -924.896          43.000  
E03  23928509.547 6 125745161.286 6       999.293          36.000    23928502.648 5  96350157.147 5       765.947          32.000  
E25  26391269.031 8 138687089.332 8      2895.305          50.000    26391274.086 8 106266733.787 8      2218.419          51.000  
C19  21803969.211 8 113538986.634 8      -870.176          51.000                                                                  
C05  39788145.391 6 207187312.490 6       -15.816          36.000    39788142.031 6 160210357.200 6       -11.656          39.000  
C20  25592690.055 6 133267848.370 6     -2651.031          36.000                                                                  
C22  22877375.781 5 119128534.838 5      1802.832          31.000                                                                  
> 2020 05 12 01 03 30.0000000  0 17      -0.000000000000
G09  20997459.148 7 110342390.876 7     -1627.750          46.000    20997459.469 7  85981084.178 7     -1268.377          46.000  
G06  22071175.102 8 115984814.455 8     -2481.773          51.000    22071178.352 8  90377767.435 8     -1933.850          51.000  
G30  22107976.602 8 116178225.025 8      2919.613          50.000    22107979.008 8  90528510.538 8      2275.024          50.000  
G02  22393264.719 5 117677366.427 5      -216.559          35.000                                                                  
G07  20947673.102 8 110080769.854 8       973.668          51.000    20947672.492 8  85777221.581 8       758.703          51.000  
R19  22775630.547 6 121833870.872 6     -3800.191          39.000    22775633.617 6  94759676.557 6     -2955.705          40.000  
R03  21007634.617 5 112455133.853 5     -2142.840          32.000                                                                  
R14  20471922.039 8 109126543.775 8      2801.645          48.000    20471926.414 8  84876206.401 8      2179.060          49.000  
R04  19685955.789 5 105416980.995 5       814.871          33.000    19685959.289 5  81991009.576 5       633.789          33.000  
R13  20654573.711 5 110293887.451 5     -1413.055          31.000    20654576.523 5  85784130.719 5     -1099.040          32.000  
E05  24232779.688 7 127344109.078 7     -1213.797          45.000    24232782.109 7  97575397.363 7      -930.038          43.000  
E03  23922831.477 6 125715318.850 6       992.523          36.000    23922830.133 6  96327290.871 6       760.299          36.000  
E25  26374768.227 8 138600375.009 8      2887.840          50.000    26374772.586 8 106200290.370 8      2212.822          51.000  
C19  21809021.680 8 113565294.660 8      -881.625          51.000                                                                  
C05  39788245.117 6 207187831.647 6       -17.547          37.000    39788241.719 6 160210758.669 6       -13.197          39.000  
C20  25607987.812 6 133347496.886 6     -2657.238          36.000                                                                  
C22  22867021.766 5 119074600.404 5      1794.211          30.000                                                                  
> 2020 05 12 01 04  0.0000000  0 16      -0.000000000000
G09  21006776.250 7 110391352.822 7     -1635.480          46.000    21006776.719 7  86019236.353 7     -1274.401          46.000  
G06  22085383.531 8 116059481.568 8     -2494.934          50.000    22085387.664 8  90435949.601 8     -1944.105          50.000  
G30  22091339.961 8 116090797.682 8      2909.645          49.000    22091342.516 8  90460385.356 8      2267.256          50.000  
G02  22394550.141 5 117684155.01525      -234.008          33.000                                                                  
G07  20942161.555 8 110051804.981 8       958.277          51.000    20942160.758 8  85754651.541 8       746.710          51.000  
R19  22796970.109 5 121948021.027 5     -3808.559          35.000    22796972.648 6  94848459.988 6     -2962.216          40.000  
R03  21019677.711 5 112519556.935 5     -2151.031          34.000                                                                  
R14  20456212.914 8 109042807.584 8      2781.613          50.000    20456217.961 8  84811078.267 8      2163.478          50.000  
R04  19681423.953 5 105392698.054 5       804.879          33.000    19681424.062 5  81972122.870 5       626.020          33.000  
R13  20662585.055 5 110336666.756 5     -1437.969          32.000    20662586.438 5  85817416.876 5     -1118.423          31.000  
E05  24239721.695 7 127380590.122 7     -1217.461          45.000    24239724.961 7  97603350.370 7      -932.758          43.000  
E03                                                                  23917183.680 6  96304535.815 6       757.189          37.000  
E25  26358295.766 8 138513811.956 8      2883.848          50.000    26358299.461 8 106133962.863 8      2209.709          51.000  
C19  21814128.641 8 113591885.805 8      -890.168          51.000                                                                  
C05  39788344.375 6 207188348.682 6       -16.773          37.000    39788341.008 6 160211158.475 6       -12.629          39.000  
C20  25623308.531 5 133427267.575 5     -2659.691          33.000                                                                  
> 2020 05 12 01 04 30.0000000  0 16      -0.000000000000
G09  21016144.844 7 110440584.994 7     -1646.215          47.000    21016145.500 7  86057599.094 7     -1282.765          47.000  
G06  22099674.969 8 116134583.392 8     -2511.207          50.000    22099678.906 8  90494470.504 8     -1956.785          50.000  
G30  22074767.227 8 116003706.459 8      2896.723          49.000    22074769.773 8  90392522.095 8      2257.187          49.000  
G02  22395939.508 5 117691452.635 5      -252.789          33.000                                                                  
G07  20936744.594 8 110023337.387 8       940.043          51.000    20936743.570 8  85732469.013 8       732.504          51.000  
R19  22818363.359 5 122062467.599 5     -3820.078          34.000    22818367.078 6  94937473.970 6     -2971.176          39.000  
R03  21031759.188 5 112584325.039 5     -2162.594          32.000    21031760.359 4  87565551.708 4     -1682.012          29.000  
R14  20440624.633 8 108959711.813 8      2758.590          51.000    20440629.977 8  84746448.215 8      2145.567          50.000  
R04  19676951.141 4 105368754.219 4       791.371          29.000    19676950.203 5  81953499.940 5       615.517          30.000  
R13  20670745.266 5 110380241.248 5     -1466.832          32.000    20670746.727 5  85851308.150 5     -1140.867          33.000  
E05  24246691.883 7 127417219.748 7     -1224.090          45.000    24246696.672 7  97631417.202 7      -937.981          42.000  
E15  25267025.633 5 132779119.876 5     -1433.996          34.000                                                                  
E03                                                                  23911563.430 5  96281900.307 5       752.298          34.000  
E25  26341854.445 8 138427412.996 8      2876.457          51.000    26341857.477 8 106067761.077 8      2204.034          51.000  
C19  21819291.836 8 113618770.911 8      -901.711          51.000                                                                  
C05  39788445.297 6 207188874.168 6       -18.566          36.000    39788441.930 6 160211564.804 6       -14.121          39.000  
> 2020 05 12 01 05  0.0000000  0 14      -0.000000000000
G09  21025565.281 8 110490089.214 8     -1652.895          48.000    21025566.156 8  86096173.823 8     -1287.970          48.000  
G06  22114049.266 8 116210120.057 8     -2523.461          50.000    22114052.094 8  90553330.219 8     -1966.334          49.000  
G30  22058259.188 8 115916956.051 8      2887.531          48.000    22058261.688 8  90324924.381 8      2250.025          48.000  
G07  20931423.031 8 109995370.688 8       925.523          51.000    20931421.680 8  85710676.783 8       721.187          51.000  
R19  22839811.898 6 122177208.621 6     -3827.727          37.000    22839815.750 6  95026716.955 6     -2977.121          37.000  
R03  21043913.086 5 112649331.100 5     -2170.230          33.000    21043906.555 4  87616111.946 4     -1687.951          29.000  
R14  20425157.539 8 108877262.539 8      2739.152          51.000    20425163.008 8  84682321.026 8      2130.452          50.000  
R04  19672540.820 5 105345153.491 5       782.414          32.000    19672540.898 5  81935143.747 5       608.541          30.000  
E05  24253690.773 7 127454000.599 7     -1226.984          46.000    24253696.539 6  97659599.906 6      -940.074          41.000  
E15  25275244.102 5 132822329.318 5     -1445.055          35.000                                                                  
E03                                                                  23905969.594 5  96259386.712 5       749.643          33.000  
E25  26325445.320 8 138341182.847 8      2873.129          51.000    26325447.523 8 106001688.623 8      2201.493          50.000  
C19  21824512.086 8 113645952.925 8      -909.469          51.000                                                                  
C05  39788548.250 6 207189410.650 6       -16.293          36.000    39788544.922 6 160211979.674 6       -12.828          39.000  
> 2020 05 12 01 05 30.0000000  0 14      -0.000000000000
G09  21035030.727 7 110539829.928 7     -1663.324          46.000    21035031.695 7  86134932.797 7     -1296.097          47.000  
G06  22128499.188 8 116286054.144 8     -2539.074          49.000    22128501.242 8  90612499.598 8     -1978.500          49.000  
G30  22041809.172 7 115830513.710 7      2874.703          46.000    22041811.688 7  90257566.698 7      2240.029          46.000  
G07  20926190.070 8 109967870.610 8       907.621          51.000    20926188.602 8  85689248.171 8       707.237          51.000  
R19  22861308.891 6 122292204.133 6     -3838.973          37.000    22861310.578 5  95116157.846 5     -2985.868          35.000  
R14  20409805.883 8 108795428.222 8      2716.156          51.000    20409810.875 8  84618672.141 8      2112.566          50.000  
R04  19668188.023 5 105321863.88125       770.273          30.000    19668186.836 4  81917007.20324       599.102          28.000  
R13  20687503.391 5 110469742.009 5     -1517.574          31.000    20687504.758 5  85920904.537 5     -1180.339          34.000  
E05  24260711.969 7 127490897.835 7     -1233.117          45.000    24260717.328 6  97687871.804 6      -944.860          39.000  
E15  25283532.812 5 132865860.651 5     -1460.242          33.000                                                                  
E03                                                                  23900397.633 5  96237011.430 5       745.013          34.000  
E25  26309061.945 8 138255088.813 8      2866.301          50.000    26309063.508 8 105935720.470 8      2196.183          48.000  
C19  21829782.852 8 113673397.702 8      -920.508          51.000                                                                  
C05  39788646.836 6 207189923.922 6       -17.715          36.000    39788643.562 6 160212376.576 6       -13.898          39.000  
> 2020 05 12 01 06  0.0000000  0 14      -0.000000000000
G09  21044539.156 7 110589797.248 7     -1669.594          47.000    21044540.203 7  86173868.367 7     -1300.983          46.000  
G06  22143022.219 8 116362373.966 8     -2550.668          49.000    22143024.578 8  90671969.561 8     -1987.534          48.000  
G30  22025416.461 8 115744372.353 8      2865.992          48.000    22025418.156 7  90190443.550 7      2233.241          47.000  
G07  20921044.125 8 109940828.172 8       893.531          51.000    20921042.484 8  85668176.153 8       696.258          51.000  
R19  22882851.438 6 122407439.953 6     -3845.512          37.000    22882851.375 5  95205785.663 5     -2990.954          34.000  
R14  20394568.516 8 108714203.075 8      2697.012          51.000    20394572.727 8  84555497.027 8      2097.676          49.000  
R04  19663894.062 5 105298872.106 5       761.219          33.000    19663892.227 4  81899124.573 4       592.059          26.000  
E05  24267753.875 7 127527902.527 7     -1235.551          47.000    24267757.312 6  97716226.023 6      -946.763          38.000  
E15  25291889.977 5 132909778.517 5     -1470.957          32.000                                                                  
E03                                                                  23894849.672 5  96214681.800 5       742.478          34.000  
E25  26292703.117 8 138169123.995 8      2863.039          50.000    26292703.820 7 105869851.337 7      2193.788          44.000  
C19  21835102.148 8 113701096.626 8      -927.797          51.000                                                                  
C05  39788739.305 6 207190405.085 6       -15.762          36.000    39788736.000 6 160212748.634 6       -12.396          39.000  
C22  22815789.164 5 118807758.999 5      1764.309          30.000                                                                  
> 2020 05 12 01 06 30.0000000  0 13      -0.000000000000
G09  21054105.828 7 110640070.884 7     -1678.348          45.000    21054106.758 7  86213042.615 7     -1307.804          45.000  
G06  22157633.422 8 116439157.491 8     -2564.602          49.000    22157636.094 8  90731800.865 8     -1998.391          48.000  
G30  22009097.352 8 115658614.423 8      2854.816          50.000    22009097.461 8  90123619.215 8      2224.536          50.000  
G07  20916000.570 8 109914324.355 8       877.043          51.000    20915998.898 8  85647523.834 8       683.413          51.000  
R19  22904453.516 6 122522993.595 6     -3854.414          37.000    22904453.812 5  95295660.754 5     -2997.875          35.000  
R14  20379461.352 8 108633672.484 8      2675.355          51.000    20379465.336 8  84492862.149 8      2080.833          49.000  
R04  19659671.508 5 105276265.028 5       749.441          34.000    19659672.562 4  81881541.299 4       582.896          28.000  
E05  24274831.461 7 127565095.148 7     -1240.312          47.000    24274834.445 6  97744724.226 6      -950.331          38.000  
E15  25300334.133 5 132954153.132 5     -1483.445          33.000                                                                  
E03  23889341.930 5 125539334.661 5       964.266          33.000    23889340.516 5  96192502.543 5       739.024          34.000  
E25  26276384.703 8 138083370.979 8      2857.441          49.000    26276383.023 6 105804144.530 6      2189.505          41.000  
C19  21840485.461 8 113729129.799 8      -937.395          51.000                                                                  
C05  39788840.836 6 207190933.963 6       -16.199          36.000    39788837.617 6 160213157.584 6       -12.242          39.000  
> 2020 05 12 01 07  0.0000000  0 15      -0.000000000000
G09  21063709.344 7 110690538.179 7     -1685.797          46.000    21063710.617 7  86252367.786 7     -1313.608          46.000  
G06  22172311.227 8 116516290.219 8     -2577.031          49.000    22172313.336 8  90791904.295 8     -2008.077          50.000  
G30  21992830.695 8 115573130.135 8      2844.699          51.000    21992830.047 8  90057008.102 8      2216.652          51.000  
G02  22404377.672 6 117735800.651 6      -338.141          36.000                                                                  
G07  20911038.109 8 109888247.714 8       861.723          51.000    20911036.555 8  85627204.391 8       671.472          51.000  
R19  22926093.391 6 122638746.645 6     -3861.781          38.000    22926094.117 5  95385690.915 5     -3003.608          35.000  
R14  20364464.086 8 108553726.638 8      2654.836          51.000    20364467.648 8  84430682.077 8      2064.873          49.000  
R04  19655505.039 5 105253929.269 5       739.648          35.000    19655502.039 4  81864168.981 4       575.279          29.000  
R13  20713710.773 5 110609690.774 5     -1591.773          30.000    20713711.773 5  86029761.662 5     -1238.046          32.000  
E05  24281923.695 7 127602363.937 7     -1243.820          46.000    24281926.016 6  97773280.773 6      -953.174          38.000  
E15  25308842.391 5 132998862.535 5     -1495.699          32.000                                                                  
E03  23883845.227 5 125510450.672 5       960.195          31.000    23883847.688 5  96170388.277 5       735.965          32.000  
E25  26260085.836 7 137997720.100 7      2852.867          47.000    26260078.930 6 105738516.015 6      2186.117          39.000  
C19  21845911.688 8 113757386.784 8      -945.855          51.000                                                                  
C05  39788930.180 6 207191399.802 6       -14.871          36.000    39788927.078 6 160213517.804 6       -11.490          39.000  
> 2020 05 12 01 07 30.0000000  0 14      -0.000000000000
G09  21073364.031 7 110741274.621 7     -1697.945          46.000    21073365.672 7  86291902.682 7     -1323.075          46.000  
G06  22187069.609 8 116593845.921 8     -2594.551          50.000    22187071.031 8  90852337.294 8     -2021.729          50.000  
G30  21976631.062 8 115487997.778 8      2829.648          51.000    21976630.875 8  89990671.214 8      2204.922          51.000  
G07  20906171.633 8 109862675.069 8       841.641          51.000    20906169.789 8  85607277.663 8       655.824          51.000  
R19  22947784.406 6 122754772.198 6     -3874.422          37.000    22947784.875 6  95475932.989 6     -3013.440          36.000  
R14  20349591.867 8 108474446.251 8      2629.199          51.000    20349594.805 8  84369019.576 8      2044.933          49.000  
R04  19651402.141 6 105231943.535 6       724.895          37.000    19651398.805 5  81847068.968 5       563.807          31.000  
E05  24289045.023 7 127639785.188 7     -1252.281          46.000    24289045.359 6  97801954.174 6      -959.634          39.000  
E03                                                                  23878386.000 5  96148365.732 5       728.659          31.000  
E25  26243820.742 7 137912249.748 7      2843.609          45.000    26243812.555 6 105673025.808 6      2179.026          41.000  
C19  21851395.633 8 113785943.478 8      -959.172          51.000                                                                  
C05  39789022.109 6 207191878.331 6       -18.688          37.000    39789019.008 6 160213887.819 6       -14.046          39.000  
C20  25731195.336 5 133989058.552 5     -2691.793          30.000                                                                  
C22  22785503.484 5 118650047.644 5      1742.188          32.000                                                                  
> 2020 05 12 01 08  0.0000000  0 12      -0.000000000000
G09  21083084.805 7 110792357.389 7     -1705.664          46.000    21083086.031 7  86331707.414 7     -1329.092          45.000  
G06  22201922.859 8 116671899.774 8     -2607.309          51.000    22201923.961 8  90913158.454 8     -2031.673          51.000  
G30  21960513.312 8 115403297.252 8      2818.930          50.000    21960514.039 8  89924670.793 8      2196.569          50.000  
G07  20901415.938 8 109837684.640 8       826.098          51.000    20901414.148 8  85587804.608 8       643.713          51.000  
R19  22969539.617 5 122871144.765 5     -3881.699          33.000    22969539.547 6  95566444.949 6     -3019.100          36.000  
R14  20334859.930 8 108395913.941 8      2608.102          51.000    20334862.039 8  84307938.919 8      2028.524          48.000  
R04  19647377.664 5 105210388.724 5       714.031          35.000    19647375.156 5  81830304.088 5       555.355          32.000  
E05  24296209.891 7 127677436.811 7     -1255.973          45.000    24296209.930 6  97830804.084 6      -962.459          40.000  
E03                                                                  23872970.180 4  96126557.727 4       726.136          29.000  
E25  26227604.539 7 137827039.894 7      2838.680          43.000    26227599.102 7 105607735.156 7      2175.099          43.000  
C19  21856952.031 8 113814877.367 8      -967.980          51.000                                                                  
C05  39789131.312 6 207192446.784 6       -17.703          37.000    39789128.227 6 160214327.403 6       -13.596          39.000  
> 2020 05 12 01 08 30.0000000  0 13      -0.000000000000
G09  21092829.609 7 110843565.759 7     -1716.711          46.000    21092830.125 7  86371610.024 7     -1337.697          45.000  
G06  22216828.547 8 116750229.303 8     -2623.219          51.000    22216829.672 8  90974194.456 8     -2044.064          51.000  
G30  21944435.914 8 115318810.584 8      2804.820          49.000    21944437.289 8  89858837.029 8      2185.575          49.000  
G07  20896729.359 8 109813056.817 8       807.180          51.000    20896727.898 8  85568614.106 8       628.971          51.000  
R19  22991314.719 4 122987635.913 4     -3892.730          29.000    22991315.172 6  95657049.157 6     -3027.680          37.000  
R14  20320226.906 8 108317910.133 8      2583.402          51.000    20320228.398 7  84247269.301 7      2009.313          47.000  
R04  19643391.336 5 105189042.194 5       700.527          35.000    19643390.047 5  81813701.260 5       544.855          32.000  
E05  24303376.547 7 127715099.012 7     -1263.207          45.000    24303377.047 7  97859662.104 7      -967.978          42.000  
E03  23867560.859 5 125424878.185 5       939.906          34.000    23867557.930 5  96104764.151 5       719.988          30.000  
E25  26211397.031 7 137741872.738 7      2830.547          45.000    26211395.156 7 105542477.215 7      2168.847          46.000  
C19  21862539.141 8 113843970.927 8      -980.125          51.000                                                                  
C05  39789215.867 6 207192887.474 6       -20.410          37.000    39789212.906 6 160214668.173 6       -15.637          39.000  
C22  22765455.250 4 118545698.79324      1726.652          28.000                                                                  
> 2020 05 12 01 09  0.0000000  0 14      -0.000000000000
G09  21102629.055 7 110895061.440 7     -1716.418          46.000    21102629.188 7  86411736.491 7     -1337.472          45.000  
G06  22231817.016 8 116828994.356 8     -2628.059          50.000    22231818.805 8  91035569.834 8     -2047.839          50.000  
G30  21928430.297 8 115234702.261 8      2802.008          49.000    21928432.125 8  89793298.056 8      2183.383          49.000  
G02  22412936.750 6 117780750.326 6      -405.043          37.000                                                                  
G07  20892142.758 8 109788954.140 8       799.324          51.000    20892141.320 8  85549832.813 8       622.850          51.000  
R19  23013141.883 5 123104406.563 5     -3891.996          32.000    23013143.461 6  95747870.731 6     -3027.109          38.000  
R14  20305723.953 8 108240603.028 8      2569.930          50.000    20305726.094 8  84187141.540 8      1998.835          48.000  
R04  19639473.961 6 105168070.591 6       697.648          36.000    19639473.148 5  81797390.003 5       542.613          30.000  
E05  24310576.383 7 127752934.274 7     -1259.480          44.000    24310577.383 7  97888652.726 7      -964.931          44.000  
E03  23862184.234 5 125396620.899 5       943.430          33.000    23862182.555 5  96083119.474 5       722.843          32.000  
E25  26195229.898 7 137656912.935 7      2833.164          46.000    26195231.133 8 105477378.151 8      2170.876          49.000  
C19  21868187.703 8 113873385.481 8      -981.121          51.000                                                                  
C05  39789306.828 6 207193361.457 6       -11.887          36.000    39789303.945 6 160215034.681 6        -8.944          39.000  
C20  25777770.000 5 134231626.978 5     -2696.402          31.000                                                                  
> 2020 05 12 01 09 30.0000000  0 15      -0.000000000000
G09  21112478.766 7 110946821.415 7     -1730.668          45.000    21112478.602 7  86452068.905 7     -1348.573          45.000  
G06  22246883.531 8 116908170.004 8     -2647.016          50.000    22246886.164 8  91097265.149 8     -2062.610          50.000  
G30  21912492.891 8 115150951.999 8      2784.688          48.000    21912495.094 8  89728038.086 8      2169.884          48.000  
G02  22415327.531 6 117793308.837 6      -428.414          38.000                                                                  
G07  20887652.109 8 109765355.092 8       777.156          51.000    20887650.492 8  85531443.948 8       605.576          51.000  
R19  23035018.227 5 123221429.185 5     -3905.824          33.000    23035020.383 6  95838888.287 6     -3037.864          39.000  
R14  20291347.656 8 108163973.409 8      2542.020          50.000    20291350.656 8  84127540.695 8      1977.127          49.000  
R04  19635623.445 5 105147452.445 5       680.496          33.000    19635621.352 4  81781353.645 4       529.272          27.000  
R13  20760262.031 4 110858255.53824     -1721.445          29.000                                                                  
E05  24317804.625 7 127790920.419 7     -1269.777          44.000    24317806.703 7  97917758.951 7      -972.965          45.000  
E03                                                                  23856837.531 5  96061590.946 5       715.016          32.000  
E25  26179098.430 7 137572140.280 7      2821.590          45.000    26179101.938 8 105412422.509 8      2162.005          49.000  
C19  21873893.688 8 113903099.315 8      -996.492          51.000                                                                  
C05  39789399.969 6 207193845.712 6       -17.137          37.000    39789397.094 6 160215409.937 6       -13.435          39.000  
C22  22745574.391 4 118442165.709 4      1716.973          29.000                                                                  
> 2020 05 12 01 10  0.0000000  0 14      -0.000000000000
G09  21122373.516 7 110998818.205 7     -1743.199          45.000    21122373.031 7  86492585.882 7     -1358.338          45.000  
G06  22262022.836 8 116987726.923 8     -2664.281          50.000    22262025.625 8  91159257.565 8     -2076.064          50.000  
G30  21896619.297 8 115067535.097 8      2768.984          49.000    21896621.336 8  89663037.891 8      2157.651          49.000  
G02  22417815.094 6 117806379.357 6      -450.672          38.000    22417808.914 4  91797178.178 4      -351.173          26.000  
G07  20883252.297 8 109742233.344 8       756.742          51.000    20883250.688 8  85513427.012 8       589.669          51.000  
R19  23056936.664 5 123338672.326 5     -3917.746          34.000    23056939.312 6  95930077.393 6     -3047.136          40.000  
R14  20277094.602 8 108087997.747 8      2515.465          51.000    20277097.680 8  84068448.501 8      1956.473          48.000  
R04  19631834.625 5 105127162.192 5       664.484          34.000    19631823.641 4  81765567.78224       516.821          26.000  
R13  20769999.758 5 110910267.749 5     -1751.031          31.000    20770000.031 5  86263553.369 5     -1361.920          32.000  
E05  24325056.430 7 127829030.808 7     -1278.535          44.000    24325059.336 7  97946960.383 7      -979.624          46.000  
E15  25361425.508 5 133275189.879 5     -1578.176          32.000                                                                  
E25  26162997.805 7 137487530.230 7      2811.684          46.000    26163002.344 8 105347591.433 8      2154.306          50.000  
C19  21879652.438 8 113933086.305 8     -1010.090          51.000                                                                  
C05  39789490.242 6 207194316.062 6       -21.539          36.000    39789487.391 6 160215773.636 6       -16.713          40.000  
> 2020 05 12 01 10 30.0000000  0 16      -0.000000000000
G09  21132327.633 7 111051127.854 7     -1744.453          45.000    21132327.500 7  86533346.648 7     -1359.315          45.000  
G06  22277249.047 8 117067739.216 8     -2670.320          50.000    22277251.398 8  91221604.822 8     -2080.770          50.000  
G30  21880824.383 8 114984530.265 8      2764.152          51.000    21880825.594 8  89598358.813 8      2153.889          51.000  
G02  22420414.438 6 117820038.334 6      -460.770          36.000                                                                  
G07  20878957.828 8 109719665.778 8       747.285          51.000    20878956.125 8  85495841.914 8       582.300          51.000  
R19  23078909.258 5 123456209.170 5     -3918.004          33.000    23078912.820 6  96021494.969 6     -3047.337          40.000  
R03  21180865.320 5 113382457.510 5     -2271.086          34.000    21180864.688 4  88186334.45224     -1766.404          27.000  
R14  20262980.078 8 108012757.005 8      2500.086          51.000    20262982.781 8  84009927.926 8      1944.512          48.000  
R04  19628123.406 6 105107278.762 6       660.383          37.000    19628113.344 4  81750095.434 4       513.637          25.000  
E05  24332346.992 7 127867342.262 7     -1276.082          44.000    24332349.680 7  97976315.919 7      -977.912          47.000  
E15  25370453.844 6 133322623.236 6     -1584.027          36.000    25370450.812 6 102156294.771 6     -1213.757          37.000  
E03  23846238.234 6 125312826.223 6       925.391          36.000                                                                  
E25  26146943.344 7 137403161.777 7      2812.379          45.000    26146948.500 8 105282945.477 8      2154.923          50.000  
C19  21885478.141 8 113963422.895 8     -1012.777          51.000                                                                  
C05  39789592.289 6 207194847.640 6       -14.477          36.000    39789589.500 6 160216184.684 6       -11.288          39.000  
C22  22725899.836 5 118339765.320 5      1705.855          31.000                                                                  
> 2020 05 12 01 11  0.0000000  0 15      -0.000000000000
G09  21142317.969 7 111103628.068 7     -1755.059          43.000    21142318.531 7  86574255.871 7     -1367.582          43.000  
G06  22292538.328 8 117148082.619 8     -2685.430          49.000    22292540.070 8  91284210.095 8     -2092.543          49.000  
G30  21865085.188 8 114901817.875 8      2750.449          51.000    21865084.922 8  89533907.637 8      2143.211          51.000  
G02  22423102.688 5 117834163.207 5      -480.488          34.000                                                                  
G07  20874745.805 8 109697530.709 8       728.906          51.000    20874743.734 8  85478593.804 8       567.979          51.000  
R19  23100912.594 5 123573911.883 5     -3927.668          33.000    23100916.383 6  96113041.517 6     -3054.854          39.000  
R14  20248981.211 8 107938131.605 8      2475.449          51.000    20248983.547 8  83951885.971 8      1925.350          48.000  
R04  19624464.836 5 105087679.861 5       646.965          33.000    19624454.367 4  81734851.905 4       503.195          28.000  
R13  20789909.781 4 111016539.95024     -1796.777          29.000    20789904.039 5  86346201.84725     -1397.494          30.000  
E05  24339653.047 6 127905733.337 6     -1282.824          41.000    24339655.109 7  98005732.429 7      -982.959          47.000  
E15  25379539.617 5 133370372.900 5     -1598.645          34.000    25379539.898 6 102192882.079 6     -1225.071          36.000  
E03  23840970.766 5 125285165.561 5       918.535          34.000                                                                  
E25  26130911.766 7 137318915.278 7      2804.504          45.000    26130917.539 8 105218393.014 8      2148.862          49.000  
C19  21891347.836 8 113993988.902 8     -1024.469          51.000                                                                  
C05  39789683.031 6 207195320.057 6       -16.422          36.000    39789680.273 6 160216550.002 6       -12.753          39.000  
> 2020 05 12 01 11 30.0000000  0 16      -0.000000000000
G09  21152356.984 7 111156384.003 7     -1762.391          44.000    21152357.758 7  86615364.380 7     -1373.292          43.000  
G06  22307901.969 7 117228820.491 7     -2697.418          47.000    22307903.922 7  91347122.739 7     -2101.885          47.000  
G30  21849414.391 8 114819465.847 8      2739.504          51.000    21849413.289 8  89469737.258 8      2134.679          51.000  
G02  22425891.930 5 117848855.819 5      -496.770          34.000                                                                  
G07  20870628.625 8 109675894.869 8       713.262          51.000    20870626.500 8  85461734.720 8       555.789          51.000  
R19  23122958.289 5 123691842.519 5     -3934.301          33.000    23122961.508 6  96204765.300 6     -3060.015          39.000  
R03  21206439.133 5 113519345.652 5     -2290.719          30.000    21206434.023 4  88292818.138 4     -1781.674          24.000  
R14  20235110.711 8 107864191.559 8      2453.633          51.000    20235111.992 7  83894377.095 7      1908.381          46.000  
R04  19620871.688 6 105068434.034 6       636.246          36.000    19620863.477 5  81719889.904 5       494.861          30.000  
R13  20800056.672 4 111070787.95624     -1819.922          29.000    20800062.758 4  86388397.18824     -1415.498          29.000  
E05  24346986.188 6 127944270.054 6     -1286.414          40.000    24346988.492 8  98035260.537 8      -985.805          48.000  
E15                                                                  25388695.562 5 102229761.259 5     -1233.571          32.000  
E03  23835732.938 5 125257621.411 5       915.078          31.000                                                                  
E25  26114916.781 8 137234859.005 8      2799.133          48.000    26114922.406 8 105153986.293 8      2144.809          48.000  
C19  21897274.219 8 114024850.036 8     -1033.199          51.000                                                                  
C05  39789775.109 6 207195798.878 6       -15.699          37.000    39789772.203 6 160216920.241 6       -12.010          39.000  
> 2020 05 12 01 12  0.0000000  0 14      -0.000000000000
G09  21162445.008 7 111209396.193 7     -1771.539          46.000    21162445.461 7  86656672.574 7     -1380.420          46.000  
G06  22323339.789 7 117309951.352 7     -2711.020          46.000    22323342.586 7  91410341.612 7     -2112.483          46.000  
G30  21833812.562 8 114737477.399 8      2726.742          51.000    21833811.906 8  89405850.164 8      2124.735          51.000  
G02  22428782.164 5 117864044.883 5      -515.332          31.000                                                                  
G07  20866606.727 8 109654759.968 8       696.129          51.000    20866604.648 8  85445265.984 8       542.438          51.000  
R19  23145046.445 5 123809998.156 5     -3942.559          31.000    23145049.125 6  96296664.099 6     -3066.435          39.000  
R03  21219303.281 5 113588226.055 5     -2300.234          33.000    21219302.141 4  88346372.830 4     -1789.072          25.000  
R14  20221369.430 8 107790941.523 8      2430.008          51.000    20221369.445 7  83837404.895 7      1890.010          45.000  
R04  19617343.141 5 105049543.830 5       623.695          30.000    19617336.609 5  81705197.491 5       485.096          30.000  
E05  24354346.812 6 127982953.802 6     -1292.266          39.000    24354349.758 8  98064901.288 8      -990.073          48.000  
E15  25397938.906 5 133467072.142 5     -1623.426          35.000                                                                  
E25  26098958.633 8 137150996.239 8      2792.066          49.000    26098963.242 7 105089727.857 7      2139.410          46.000  
C19  21903257.797 8 114056007.856 8     -1043.680          51.000                                                                  
C05  39789868.492 6 207196285.381 6       -16.656          36.000    39789865.656 6 160217296.446 6       -12.765          39.000  
> 2020 05 12 01 12 30.0000000  0 14      -0.000000000000
G09  21172579.102 7 111262650.440 7     -1778.809          46.000    21172579.859 7  86698169.402 7     -1386.082          46.000  
G06  22338849.570 7 117391459.053 7     -2722.930          46.000    22338852.391 7  91473854.138 7     -2121.764          46.000  
G30  21818277.453 8 114655841.003 8      2715.566          51.000    21818277.695 8  89342237.366 8      2116.026          51.000  
G02  22431771.031 6 117879752.161 6      -532.020          37.000                                                                  
G07  20862677.531 8 109634112.595 8       680.344          50.000    20862675.492 8  85429177.116 8       530.138          50.000  
G04  23782078.773 5 124975667.28125     -2922.934          31.000                                                                  
R19  23167172.938 5 123928360.431 5     -3948.945          35.000    23167176.039 6  96388723.622 6     -3071.403          40.000  
R03  21232219.773 5 113657380.069 5     -2309.090          30.000    21232222.070 3  88400159.291 3     -1795.956          23.000  
R14  20207755.258 8 107718370.867 8      2407.859          51.000    20207754.938 7  83780961.094 7      1872.780          47.000  
R04  19613877.516 5 105030996.563 5       612.582          32.000    19613872.055 4  81690771.935 4       476.456          29.000  
E05  24361733.773 6 128021771.091 6     -1295.906          38.000    24361736.211 8  98094644.384 8      -993.013          48.000  
E25  26083035.320 8 137067315.668 8      2786.488          51.000    26083038.641 7 105025609.025 7      2135.240          46.000  
C19  21909296.125 8 114087449.334 8     -1052.547          51.000                                                                  
C05  39789960.789 6 207196766.402 6       -15.848          36.000    39789957.914 6 160217668.406 6       -12.155          39.000  
> 2020 05 12 01 13  0.0000000  0 16      -0.000000000000
G09  21182738.961 7 111316040.363 7     -1785.516          46.000    21182740.172 7  86739771.930 7     -1391.311          46.000  
G06  22354411.117 8 117473235.262 8     -2733.852          48.000    22354412.789 8  91537575.845 8     -2130.278          48.000  
G30  21802789.531 8 114574452.820 8      2705.227          51.000    21802790.586 8  89278817.967 8      2107.969          51.000  
G02  22434838.703 6 117895871.190 6      -547.441          37.000                                                                  
G07  20858820.852 8 109613846.705 8       665.598          50.000    20858819.094 8  85413385.521 8       518.648          50.000  
R19  23189317.875 6 124046817.156 6     -3953.984          36.000    23189320.609 6  96480856.610 6     -3075.322          39.000  
R03  21245179.914 5 113726716.192 5     -2316.820          34.000                                                                  
R14  20194249.102 8 107646375.855 8      2386.602          51.000    20194249.414 8  83724965.020 8      1856.246          49.000  
R04  19610456.172 5 105012686.214 5       602.422          31.000    19610452.781 4  81676530.576 4       468.550          29.000  
E05  24369126.320 5 128060616.390 5     -1299.223          34.000    24369127.789 8  98124408.919 8      -995.227          48.000  
E03  23820187.648 5 125175926.275 5       901.453          35.000                                                                  
E25  26067127.125 8 136983713.716 8      2781.941          51.000    26067128.562 7 104961550.434 7      2131.613          45.000  
C19  21915368.461 8 114119070.132 8     -1060.547          51.000                                                                  
C05  39790032.078 6 207197137.315 6       -13.918          36.000    39790029.094 6 160217955.233 6       -10.826          39.000  
C20  25902952.945 4 134883469.176 4     -2730.523          28.000                                                                  
C22  22677277.844 5 118086501.384 5      1671.711          30.000                                                                  
> 2020 05 12 01 13 30.0000000  0 15      -0.000000000000
G09  21192980.875 7 111369861.505 7     -1784.992          45.000    21192981.844 7  86781710.458 7     -1390.903          45.000  
G06  22370079.977 8 117555573.549 8     -2737.719          49.000    22370080.688 8  91601735.508 8     -2133.291          49.000  
G30  21787405.867 8 114493611.105 8      2701.891          51.000    21787406.656 8  89215824.408 8      2105.370          51.000  
G02  22438041.461 6 117912697.893 6      -556.621          36.000                                                                  
G07  20855093.352 8 109594259.581 8       657.840          51.000    20855091.805 8  85398122.851 8       512.603          51.000  
G04  23815484.836 5 125151212.46925     -2918.094          30.000                                                                  
R19  23211536.062 5 124165665.277 5     -3951.637          33.000    23211538.023 6  96573294.027 6     -3073.496          38.000  
R03  21258202.992 4 113796503.575 4     -2317.141          27.000                                                                  
R14  20180907.461 8 107575260.354 8      2372.242          50.000    20180908.844 8  83669652.948 8      1845.078          50.000  
R04  19607137.641 5 104994915.802 5       599.918          35.000    19607134.367 5  81662709.153 5       466.600          30.000  
E05                                                                  24376581.273 8  98154422.026 8      -992.136          49.000  
E03  23815083.016 6 125149100.803 6       905.078          36.000    23815083.602 5  95893473.661 5       693.140          33.000  
E25  26051290.492 8 136900488.850 8      2784.051          51.000    26051290.516 7 104897780.753 7      2133.202          46.000  
C19  21921531.828 8 114151164.123 8     -1061.555          51.000                                                                  
C05  39790138.555 6 207197691.911 6        -5.633          36.000    39790135.555 6 160218384.068 6        -4.208          39.000  
> 2020 05 12 01 14  0.0000000  0 13      -0.000000000000
G09  21203254.930 7 111423851.570 7     -1814.594          45.000    21203255.180 7  86823780.652 7     -1413.970          45.000  
G06  22385805.562 8 117638209.647 8     -2771.645          50.000    22385806.352 8  91666127.238 8     -2159.727          50.000  
G30  21772077.039 8 114413056.209 8      2668.191          51.000    21772076.133 8  89153054.400 8      2079.111          51.000  
G07  20851445.383 8 109575089.363 8       619.922          51.000    20851443.766 8  85383185.005 8       483.056          51.000  
R19  23233775.609 5 124284634.075 5     -3979.977          31.000    23233777.625 6  96665825.320 6     -3095.538          37.000  
