     3.02           OBSERVATION DATA    M (MIXED)           RINEX VERSION / TYPE
SAVERINEX           SC600               20200512 065931 LCL PGM / RUN BY / DATE
       G = GPS       R = GLONASS       C = COMPASS          COMMENT
       S = SBAS      J = QZSS          E = GALILEO          COMMENT
BEAN                                                        MARKER NAME
1                                                           MARKER NUMBER
GEODETIC                                                    MARKER TYPE
Unige DICCA         GTER                                    OBSERVER / AGENCY
SC60291900056       SC600               2.12(191226)        REC # / TYPE / VERS
                    HEMA45          NONE                    ANT # / TYPE
  4509407.8091   693652.4678  4442337.6214                  APPROX POSITION XYZ
        0.0000        0.0000        0.0000                  ANTENNA: DELTA H/E/N
G    8 C1C L1C D1C S1C C2Y L2Y D2Y S2Y                      SYS / # / OBS TYPES
R    8 C1C L1C D1C S1C C2P L2P D2P S2P                      SYS / # / OBS TYPES
C    8 C1I L1I D1I S1I C7I L7I D7I S7I                      SYS / # / OBS TYPES
E    8 C1C L1C D1C S1C C7Q L7Q D7Q S7Q                      SYS / # / OBS TYPES
DBHZ                                                        COMMENT
     30.000                                                 INTERVAL
  2020    05    12    04    00    0.0000000     GPS         TIME OF FIRST OBS
  2020    05    12    04    59   30.0000000     GPS         TIME OF LAST OBS
     0                                                      RCV CLOCK OFFS APPL
G L1C  0.00000                                              SYS / PHASE SHIFT
G L2Y  0.00000                                              SYS / PHASE SHIFT
R L1C  0.00000                                              SYS / PHASE SHIFT
R L2P  0.25000                                              SYS / PHASE SHIFT
C L1I  0.00000                                              SYS / PHASE SHIFT
C L7I  0.00000                                              SYS / PHASE SHIFT
E L1C  0.50000                                              SYS / PHASE SHIFT
E L7Q -0.25000                                              SYS / PHASE SHIFT
 14 R02 -4 R03  5 R04  6 R05  1 R06 -4 R09 -2 R10 -5 R13 -2 GLONASS SLOT / FRQ #
    R14 -7 R15  0 R16 -1 R17  4 R18 -3 R19  3               GLONASS SLOT / FRQ #
 C1C   71.950 C2C   71.950 C2P   71.950                     GLONASS COD/PHS/BIS
    18                                                      LEAP SECONDS
*** Above antenna height is from mark to ANTENNA BOTTOM.    COMMENT
    17     4        0.0000        ANT MEASURE TYPE/HEIGT    COMMENT
    0.0000    0.0000    0.0458    0.0405    0.0000          COMMENT
                    BASE STATION                            COMMENT
                                                            END OF HEADER
> 2020 05 12 04 00  0.0000000  0 14        .000000000000
G05  21435422.844 8 112643879.359 8     -2327.617          49.000    21435419.969 8  87774437.253 8     -1813.728          49.000
G28  21008542.062 8 110400656.685 8       920.992          50.000    21008541.812 7  86026554.521 7       717.656          47.000
G30  21271245.172 6 111781175.328 6     -1914.441          39.000    21271246.523 6  87102239.088 6     -1491.773          38.000
R04  22916692.477 7 122717862.508 7     -3980.188          46.000    22916693.859 6  95447225.032 6     -3095.701          36.000
R05  19430258.828 8 103865871.737 8     -1409.969          50.000    19430261.211 8  80784565.142 8     -1096.645          48.000
R15  19452922.289 8 103950525.647 8     -1556.363          49.000    19452924.367 7  80850432.570 7     -1210.505          47.000
R16  20249455.031 7 108168983.874 7      2620.461          46.000    20249457.539 7  84131421.972 7      2038.136          42.000
C05  39796659.781 6 207231649.349 6         9.574          36.000    39796656.875 6 160244638.370 6         7.521          40.000
C21  22201821.344 6 115610732.199 6       844.367          41.000
C22  22916919.750 8 119334399.928 8     -2256.672          51.000
C26  25288950.492 7 131686223.339 7      3010.273          42.000
E02  23782294.656 8 124976802.728 8      1566.273          51.000    23782296.422 8  95761508.202 8      1200.176          51.000
E03  24117128.492 8 126736369.306 8     -1461.527          51.000    24117129.914 8  97109657.374 8     -1119.860          51.000
E25  24392085.883 5 128181321.447 5     -1313.512          35.000    24392086.859 7  98216862.010 7     -1006.514          45.000
> 2020 05 12 04 00 30.0000000  0 15        .000000000000
G05  21448754.688 8 112713943.225 8     -2342.777          48.000    21448752.258 8  87829032.469 8     -1825.541          48.000
G07  23723710.039 6 124668892.921 6     -2793.055          36.000    23723704.555 6  97144616.187 6     -2176.406          36.000
G28  21003337.969 8 110373307.474 8       902.797          51.000    21003337.289 8  86005243.449 8       703.478          48.000
G30  21282201.242 6 111838751.249 6     -1923.508          38.000    21282203.070 6  87147103.466 6     -1498.837          38.000
R04  22939019.875 7 122837411.950 7     -3988.352          47.000    22939018.242 6  95540201.463 6     -3102.051          36.000
R05  19438234.938 8 103908509.871 8     -1431.910          49.000    19438237.656 7  80817728.111 7     -1113.708          47.000
R15  19461715.570 8 103997514.062 8     -1575.621          49.000    19461717.773 7  80886979.101 7     -1225.483          46.000
R16  20234791.570 8 108090649.734 8      2602.395          48.000    20234792.531 6  84070495.456 6      2024.085          41.000
C05  39796606.125 6 207231369.637 6         9.781          36.000    39796603.148 6 160244422.081 6         7.346          39.000
C21  22197001.000 6 115585630.807 6       829.602          40.000
C22  22929956.867 8 119402282.767 8     -2268.391          51.000
C26  25271622.133 7 131595985.427 7      3005.887          42.000
E02  23773388.391 8 124930000.248 8      1554.395          51.000    23773390.375 8  95725646.563 8      1191.030          51.000
E03  24125499.156 8 126780356.914 8     -1470.340          51.000    24125500.312 8  97143362.125 8     -1126.627          51.000
E25  24399618.242 5 128220861.409 5     -1324.762          35.000    24399620.039 7  98247194.195 7     -1015.146          45.000
> 2020 05 12 04 01  0.0000000  0 15        .000000000000
G05  21462171.023 8 112784448.286 8     -2357.641          49.000    21462168.961 8  87883971.472 8     -1837.123          49.000
G07  23739663.305 5 124752722.522 5     -2795.348          34.000    23739653.398 5  97209937.888 5     -2178.196          34.000
G28  20998236.062 8 110346494.833 8       884.723          51.000    20998235.180 7  85984350.507 7       689.394          47.000
G30  21293205.672 6 111896580.184 6     -1931.770          41.000    21293207.977 6  87192164.996 6     -1505.278          41.000
R04  22961386.055 7 122957178.067 7     -3996.125          46.000    22961384.375 6  95633352.749 6     -3108.097          37.000
R05  19446331.453 8 103951791.235 8     -1453.656          49.000    19446334.367 7  80851391.376 7     -1130.622          47.000
R15  19470614.875 8 104045069.720 8     -1594.816          49.000    19470617.109 7  80923966.833 7     -1240.413          46.000
R16  20220226.758 7 108012844.782 7      2584.441          45.000    20220226.617 6  84009980.509 6      2010.121          41.000
C05  39796549.328 6 207231073.995 6         9.973          36.000    39796546.484 6 160244193.430 6         7.748          40.000
C21  22192262.938 6 115560958.828 6       815.145          38.000
C22  22943059.094 8 119470505.380 8     -2279.910          51.000
C26  25254316.742 7 131505870.646 7      3001.637          42.000
E02  23764547.625 8 124883540.767 8      1542.770          51.000    23764549.492 8  95690047.742 8      1182.131          51.000
E03  24133917.430 8 126824595.263 8     -1478.949          51.000    24133918.008 8  97177259.022 8     -1133.251          51.000
E25  24407211.836 6 128260769.547 6     -1335.668          37.000    24407214.164 7  98277773.110 7     -1023.509          45.000
> 2020 05 12 04 01 30.0000000  0 14        .000000000000
G05  21475676.258 8 112855417.237 8     -2372.816          50.000    21475674.633 8  87939271.951 8     -1848.951          50.000
G28  20993241.094 8 110320244.445 8       866.277          51.000    20993240.008 7  85963895.653 7       675.018          47.000
G30  21304262.859 7 111954685.742 7     -1940.883          42.000    21304265.242 7  87237442.059 7     -1512.373          42.000
R04  22983797.422 7 123077196.491 7     -4004.094          43.000    22983796.594 6  95726700.361 6     -3114.298          37.000
R05  19454553.336 8 103995741.331 8     -1475.531          50.000    19454556.453 8  80885574.754 8     -1147.638          48.000
R15  19479624.883 8 104093215.082 8     -1613.992          49.000    19479627.188 7  80961413.212 7     -1255.327          46.000
R16  20205764.555 7 107935595.876 7      2566.320          44.000    20205765.570 7  83949897.971 7      1996.024          42.000
C05  39796494.203 6 207230787.108 6        10.203          36.000    39796491.406 6 160243971.585 6         7.645          40.000
C21  22187611.930 6 115536742.243 6       800.129          40.000
C22  22956230.711 8 119539091.314 8     -2291.652          51.000
C26  25237039.641 7 131415904.646 7      2996.828          43.000
E02  23755777.172 8 124837449.787 8      1530.773          51.000    23755778.602 8  95654731.258 8      1172.933          51.000
E03  24142387.969 8 126869109.249 8     -1487.816          51.000    24142388.445 8  97211367.110 8     -1139.964          51.000
E25  24414872.344 5 128301023.255 5     -1347.223          35.000    24414874.039 7  98308616.831 7     -1031.958          45.000
> 2020 05 12 04 02  0.0000000  0 14        .000000000000
G05  21489266.562 8 112926832.261 8     -2388.031          51.000    21489265.555 8  87994919.998 8     -1860.804          51.000
G28  20988350.188 8 110294541.079 8       847.547          51.000    20988348.859 8  85943867.050 8       660.426          48.000
G30  21315369.516 6 112013050.483 6     -1949.977          39.000    21315371.148 6  87282921.074 6     -1519.459          39.000
R04  23006250.406 6 123197447.908 6     -4012.352          38.000    23006252.336 5  95820229.213 5     -3120.721          35.000
R05  19462897.391 8 104040343.058 8     -1497.699          51.000    19462900.227 8  80920264.967 8     -1164.877          49.000
R15  19488741.328 8 104141930.977 8     -1633.445          49.000    19488743.570 7  80999303.357 7     -1270.461          44.000
R16  20191404.562 7 107858888.197 7      2547.730          47.000    20191406.484 7  83890236.407 7      1981.568          43.000
C05                                                                  39796434.930 6 160243744.291 6         7.730          40.000
C21  22183046.500 6 115512966.254 6       785.020          40.000
C22  22969468.531 8 119608023.437 8     -2303.598          51.000
C26  25219789.039 7 131326072.400 7      2992.145          45.000
E02  23747073.969 8 124791711.806 8      1518.566          51.000    23747074.758 8  95619685.262 8      1163.577          51.000
E03  24150907.695 8 126913882.777 8     -1496.918          51.000    24150908.719 8  97245674.088 8     -1146.950          51.000
E25  24422594.711 6 128341602.164 6     -1358.211          39.000    24422596.688 7  98339712.107 7     -1040.887          46.000
> 2020 05 12 04 02 30.0000000  0 15        .000000000000
G05  21502941.656 8 112998692.598 8     -2402.852          51.000    21502941.133 8  88050915.051 8     -1872.352          51.000
G13  20514830.992 5 107806181.172 5      1248.188          35.000
G28  20983563.594 8 110269387.146 8       829.270          51.000    20983562.281 8  85924266.597 8       646.187          48.000
G30  21326525.445 6 112071674.705 6     -1958.504          41.000    21326526.211 7  87328602.313 7     -1526.104          42.000
R04  23028746.281 5 123317931.568 5     -4020.324          33.000    23028751.383 5  95913938.720 5     -3126.919          34.000
R05  19471363.742 8 104085597.683 8     -1519.477          51.000    19471366.078 8  80955463.009 8     -1181.812          50.000
R15  19497964.547 8 104191216.261 8     -1652.328          48.000    19497966.484 7  81037636.330 7     -1285.144          44.000
R16  20177146.828 7 107782724.836 7      2529.633          46.000    20177149.094 7  83830998.245 7      1967.495          44.000
C05  39796380.234 6 207230193.945 6        10.090          36.000    39796377.523 6 160243512.882 6         7.473          40.000
C21  22178566.547 7 115489633.801 7       770.367          42.000
C22  22982772.891 8 119677302.252 8     -2315.156          51.000
C26  25202564.742 7 131236376.619 7      2987.527          46.000
E02  23738438.320 8 124746329.114 8      1506.738          51.000    23738438.508 8  95584911.494 8      1154.520          51.000
E03  24159476.766 8 126958917.546 8     -1505.652          50.000    24159478.641 8  97280181.252 8     -1153.673          51.000
E25  24430379.484 6 128382512.823 6     -1368.934          40.000    24430381.812 7  98371059.162 7     -1049.055          45.000
> 2020 05 12 04 03  0.0000000  0 15        .000000000000
G05  21516692.016 8 113070948.576 8     -2416.184          51.000    21516691.656 8  88107218.411 8     -1882.740          51.000
G28  20978872.594 8 110244736.088 8       812.289          51.000    20978870.984 7  85905057.998 7       632.953          47.000
G30  21337721.633 6 112130510.030 6     -1965.426          41.000    21337722.086 7  87374447.995 7     -1531.501          42.000
R04  23051276.945 5 123438597.367 5     -4026.492          35.000    23051285.375 5  96007789.850 5     -3131.719          34.000
R05  19479942.742 8 104131457.044 8     -1539.883          51.000    19479945.133 8  80991131.403 8     -1197.687          51.000
R14  23148694.312 5 123395554.156 5     -4006.004          32.000    23148692.023 4  95974320.173 4     -3115.784          27.000
R15  19507284.477 8 104241020.269 8     -1669.848          49.000    19507286.508 7  81076372.800 7     -1298.770          44.000
R16  20162981.984 7 107707059.508 7      2512.664          46.000    20162984.773 7  83772147.471 7      1954.294          43.000
C05  39796312.805 6 207229842.747 6        11.363          36.000    39796310.109 6 160243241.267 6         8.890          40.000
C21  22174162.406 6 115466699.473 6       756.551          39.000
C22  22996134.758 8 119746879.854 8     -2325.344          51.000
C26  25185357.305 7 131146771.618 7      2984.105          46.000
E02  23729861.414 8 124701255.205 8      1496.270          51.000    23729861.273 8  95550374.342 8      1146.495          51.000
E03  24168086.688 8 127004166.416 8     -1512.922          49.000    24168089.500 8  97314852.480 8     -1159.228          51.000
E25  24438218.461 6 128423703.721 6     -1378.805          37.000    24438220.070 7  98402620.968 7     -1056.433          45.000
> 2020 05 12 04 03 30.0000000  0 15        .000000000000
G05  21530537.797 8 113143707.480 8     -2432.555          51.000    21530537.305 8  88163913.671 8     -1895.497          51.000
G28  20974298.227 8 110220697.790 8       792.145          50.000    20974296.586 8  85886326.845 8       617.255          48.000
G30  21348978.484 7 112189664.325 7     -1976.086          42.000    21348978.875 7  87420542.217 7     -1539.810          42.000
R04  23073864.469 5 123559554.082 5     -4035.660          35.000    23073874.242 5  96101867.236 5     -3138.850          33.000
R05  19488655.242 8 104178031.657 8     -1563.227          51.000    19488657.984 8  81027356.108 8     -1215.843          50.000
R14  23171252.219 4 123515806.162 4     -4009.281          29.000    23171251.391 4  96067849.423 4     -3118.333          27.000
R15  19516722.062 8 104291451.293 8     -1690.230          48.000    19516723.742 7  81115596.905 7     -1314.627          44.000
R16  20148931.562 7 107632004.768 7      2492.750          46.000    20148934.422 7  83713771.588 7      1938.806          42.000
C05  39796256.156 6 207229547.876 6        10.227          36.000    39796253.492 6 160243013.246 6         7.715          40.000
C21  22169854.219 6 115444272.702 6       740.293          38.000
C22  23009574.148 8 119816863.335 8     -2338.395          51.000
C26  25168187.562 7 131057366.574 7      2977.816          46.000
E02  23721364.148 8 124656599.856 8      1482.582          51.000    23721363.781 8  95516157.904 8      1136.013          51.000
E03  24176758.414 8 127049738.590 8     -1523.340          50.000    24176761.891 8  97349771.414 8     -1167.288          51.000
E25  24446130.891 6 128465282.626 6     -1391.168          38.000    24446132.242 7  98434480.190 7     -1066.080          45.000
> 2020 05 12 04 04  0.0000000  0 15        .000000000000
G05  21544466.266 8 113216902.408 8     -2446.367          51.000    21544465.594 8  88220948.686 8     -1906.260          51.000
G28  20969828.016 8 110197208.315 8       774.488          50.000    20969826.875 8  85868023.374 8       603.497          48.000
G30  21360283.367 7 112249071.454 7     -1983.949          43.000    21360283.719 7  87466833.476 7     -1545.934          44.000
R04  23096494.531 5 123680733.604 5     -4041.957          35.000    23096504.039 5  96196117.928 5     -3143.747          32.000
R05  19497489.250 8 104225255.241 8     -1584.176          51.000    19497492.078 8  81064085.570 8     -1232.137          50.000
R14  23193821.070 4 123636117.246 4     -4011.180          28.000    23193822.281 4  96161428.991 4     -3119.806          26.000
R15  19526264.016 7 104342440.757 7     -1708.191          47.000    19526265.586 7  81155255.391 7     -1328.593          43.000
R16  20134983.438 7 107557496.427 7      2475.324          46.000    20134985.875 6  83655820.636 6      1925.249          41.000
C05  39796198.023 6 207229245.338 6        10.680          36.000    39796195.375 6 160242779.255 6         8.527          40.000
C21  22165631.141 6 115422290.536 6       725.926          38.000
C22  23023079.109 8 119887187.414 8     -2349.105          51.000
C26  25151043.883 7 130968098.357 7      2973.895          46.000
E02  23712934.188 8 124612298.929 8      1471.469          51.000    23712933.789 8  95482213.022 8      1127.495          51.000
E03  24185479.570 8 127095569.378 8     -1531.332          51.000    24185483.367 8  97384888.494 8     -1173.382          51.000
E25  24454104.203 7 128507183.872 7     -1401.402          42.000    24454106.195 7  98466586.265 7     -1073.811          45.000
> 2020 05 12 04 04 30.0000000  0 14        .000000000000
G05  21558488.500 8 113290590.933 8     -2461.461          50.000    21558487.633 8  88278368.315 8     -1918.022          50.000
G28  20965473.852 8 110174328.671 8       755.418          50.000    20965472.898 7  85850195.053 7       588.637          47.000
G30  21371647.547 7 112308790.352 7     -1992.520          43.000    21371647.656 7  87513367.640 7     -1552.613          43.000
R04  23119176.945 6 123802195.008 6     -4050.164          37.000    23119185.820 5  96290587.767 5     -3150.131          30.000
R05  19506456.195 8 104273188.431 8     -1606.547          51.000    19506459.109 8  81101366.934 8     -1249.536          49.000
R15  19535921.383 8 104394046.932 8     -1727.379          48.000    19535923.031 7  81195393.509 7     -1343.517          44.000
R16  20121149.570 7 107483597.095 7      2456.168          47.000    20121151.578 7  83598343.360 7      1910.353          42.000
C05  39796149.969 6 207228994.772 6        10.316          36.000    39796147.242 6 160242585.476 6         8.246          40.000
C21  22161506.117 6 115400813.752 6       710.551          40.000
C22  23036660.508 8 119957910.507 8     -2361.066          51.000
C26  25133938.461 8 130879027.551 8      2968.629          48.000
E02  23704583.039 8 124568413.173 8      1458.973          51.000    23704582.891 8  95448586.267 8      1117.878          51.000
E03  24194261.656 8 127141718.917 8     -1540.699          51.000    24194265.438 8  97420249.808 8     -1180.506          51.000
E25  24462150.258 6 128549466.121 6     -1412.648          41.000    24462152.781 7  98498984.297 7     -1082.512          46.000
> 2020 05 12 04 05  0.0000000  0 14        .000000000000
G05  21572581.016 8 113364649.699 8     -2476.027          49.000    21572580.141 8  88336076.442 8     -1929.369          49.000
G28  20961212.891 8 110151937.850 8       737.012          50.000    20961212.266 8  85832747.627 8       574.295          49.000
G30  21383047.578 7 112368698.234 7     -2001.164          42.000    21383047.930 6  87560049.075 6     -1559.349          41.000
R04  23141888.625 6 123923811.886 6     -4057.828          37.000    23141898.211 4  96385178.557 4     -3156.092          25.000
R05  19515532.625 8 104321707.060 8     -1628.293          51.000    19515535.547 7  81139103.595 7     -1266.453          47.000
R15  19545670.555 8 104446143.623 8     -1745.926          48.000    19545672.875 7  81235913.180 7     -1357.942          43.000
R16  20107406.977 8 107410184.383 8      2437.711          48.000    20107408.359 7  83541244.565 7      1895.997          42.000
C05  39796088.742 6 207228675.952 6        10.453          36.000    39796086.102 6 160242338.934 6         8.122          39.000
C21  22157456.414 6 115379723.210 6       695.238          40.000
C22  23050295.102 8 120028911.047 8     -2372.492          51.000
C26  25116848.445 8 130790034.697 8      2964.059          48.000
E02  23696287.742 8 124524821.646 8      1446.941          51.000    23696287.727 8  95415184.958 8      1108.692          51.000
E03  24203081.555 8 127188065.708 8     -1549.352          51.000    24203085.086 8  97455762.254 8     -1187.145          51.000
E25  24470245.578 6 128592006.554 6     -1423.402          41.000    24470248.219 7  98531580.192 7     -1090.728          45.000
> 2020 05 12 04 05 30.0000000  0 15        .000000000000
G05  21586757.477 8 113439151.368 8     -2489.984          48.000    21586756.914 8  88394129.689 8     -1940.248          48.000
G07  23883884.031 5 125510657.239 5     -2816.902          31.000
G28  20957059.367 8 110130111.127 8       718.992          51.000    20957059.266 8  85815739.802 8       560.254          48.000
G30  21394497.414 7 112428868.297 7     -2009.051          42.000    21394498.625 7  87606934.803 7     -1565.494          42.000
R04  23164645.461 5 124045657.911 5     -4064.469          34.000    23164653.898 4  96479947.724 4     -3161.253          28.000
R05  19524732.820 8 104370886.675 8     -1649.473          51.000    19524735.328 7  81177354.352 7     -1282.926          47.000
R15  19555525.055 7 104498803.548 7     -1763.969          47.000    19555526.875 7  81276870.863 7     -1371.979          43.000
R16  20093769.633 7 107337335.744 7      2419.707          47.000    20093771.031 7  83484584.533 7      1881.994          43.000
C05  39796028.562 6 207228362.819 6        10.984          36.000    39796026.023 6 160242096.767 6         8.569          39.000
C21  22153495.039 6 115359093.925 6       680.859          40.000
C22  23063996.789 8 120100261.644 8     -2383.355          51.000
C26  25099788.227 8 130701194.711 8      2959.645          49.000
E02  23688062.633 8 124481599.433 8      1435.418          51.000    23688062.625 8  95382066.644 8      1099.899          51.000
E03  24211953.227 8 127234684.251 8     -1557.574          51.000    24211956.578 8  97491482.927 8     -1193.484          51.000
E25  24478403.883 7 128634878.530 7     -1433.750          44.000    24478406.734 7  98564430.107 7     -1098.513          46.000
> 2020 05 12 04 06  0.0000000  0 14        .000000000000
G05  21601015.180 8 113514078.708 8     -2505.195          49.000    21601014.797 8  88452514.629 8     -1952.100          49.000
G28  20953010.836 8 110108834.666 8       699.496          51.000    20953010.539 8  85799160.730 8       545.062          48.000
G30  21405994.352 6 112489285.132 6     -2018.738          41.000    21405995.453 6  87654012.856 6     -1573.043          41.000
R04  23187443.312 6 124167716.639 6     -4072.426          36.000    23187448.547 5  96574882.261 5     -3167.445          30.000
R05  19534053.961 8 104420712.235 8     -1672.195          51.000    19534056.516 8  81216107.514 8     -1300.596          48.000
R15  19565482.047 7 104552009.853 7     -1783.098          47.000    19565484.094 7  81318253.526 7     -1386.857          43.000
R16  20080235.336 7 107265038.243 7      2400.152          47.000    20080236.992 7  83428353.172 7      1866.788          42.000
C05  39795966.914 6 207228041.441 6        10.848          36.000    39795964.281 6 160241848.261 6         7.814          39.000
C21  22149619.672 6 115338913.091 6       664.734          40.000
C22  23077762.742 8 120171947.117 8     -2395.645          51.000
C26  25082754.914 8 130612494.557 8      2953.840          49.000
E02  23679905.219 8 124438733.031 8      1422.398          51.000    23679905.234 8  95349220.965 8      1089.887          51.000
E03  24220873.883 8 127281560.435 8     -1567.414          51.000    24220877.078 8  97527401.010 8     -1200.994          51.000
E25  24486622.297 7 128678066.618 7     -1445.340          45.000    24486625.188 7  98597522.222 7     -1107.387          46.000
> 2020 05 12 04 06 30.0000000  0 14        .000000000000
G05  21615353.633 8 113589427.223 8     -2524.414          50.000    21615353.094 8  88511227.750 8     -1967.076          50.000
G28  20949066.727 8 110088106.433 8       675.980          51.000    20949065.984 8  85783008.868 8       526.741          48.000
G30  21417537.430 6 112549944.653 6     -2031.918          39.000    21417538.266 6  87701279.987 6     -1583.316          39.000
R04  23210278.859 6 124289982.845 6     -4084.855          37.000    23210280.938 5  96669978.140 5     -3177.110          31.000
R05  19543494.992 8 104471180.056 8     -1698.820          50.000    19543497.930 8  81255360.214 8     -1321.305          49.000
R15  19575540.055 7 104605756.312 7     -1806.418          46.000    19575542.320 7  81360056.305 7     -1404.992          42.000
R16  20066804.047 7 107193290.523 7      2376.445          47.000    20066805.102 6  83372549.402 6      1848.349          41.000
C05  39795903.211 6 207227709.168 6         5.477          36.000    39795900.484 6 160241591.273 6         4.011          39.000
C21  22145830.203 6 115319179.069 6       644.449          41.000
C22  23091592.555 8 120243963.411 8     -2411.793          51.000
C26  25065747.758 8 130523932.374 8      2944.109          48.000
E02  23671814.875 8 124396220.097 8      1405.383          51.000    23671815.156 8  95316646.129 8      1076.879          51.000
E03  24229843.109 8 127328691.350 8     -1581.070          51.000    24229845.945 8  97563514.297 8     -1211.490          51.000
E25  24494899.898 7 128721566.634 7     -1461.082          45.000    24494902.719 7  98630853.373 7     -1119.533          46.000
> 2020 05 12 04 07  0.0000000  0 14        .000000000000
G05  21629781.055 8 113665241.592 8     -2533.656          51.000    21629780.375 8  88570303.879 8     -1974.278          51.000
G28  20945235.828 8 110067973.768 8       662.414          51.000    20945234.922 8  85767321.107 8       516.167          48.000
G30  21429135.305 6 112610892.555 6     -2034.965          38.000    21429136.125 6  87748771.838 6     -1585.687          39.000
R04  23233159.625 5 124412501.871 5     -4086.344          34.000    23233159.805 5  96765270.604 5     -3178.270          32.000
R05  19553064.914 8 104522337.465 8     -1715.422          50.000    19553067.875 8  81295149.324 8     -1334.217          50.000
R15  19585707.500 7 104660088.111 7     -1819.496          47.000    19585710.273 7  81402314.363 7     -1415.164          42.000
R16  20053484.875 7 107122141.668 7      2363.020          47.000    20053485.719 7  83317211.424 7      1837.904          42.000
C05  39795846.359 6 207227412.596 6        10.754          36.000    39795843.500 6 160241361.917 6         8.316          39.000
C21  22142135.711 7 115299939.557 7       634.090          42.000
C22  23105494.805 8 120316355.912 8     -2418.113          51.000
C26  25048776.016 8 130435555.764 8      2944.121          48.000
E02  23663800.438 8 124354108.162 8      1398.363          51.000    23663801.242 8  95284378.568 8      1071.455          51.000
E03  24238869.680 8 127376124.013 8     -1584.727          51.000    24238872.000 8  97599858.793 8     -1214.253          51.000
E25  24503245.586 7 128765424.254 7     -1466.543          45.000    24503248.523 7  98664458.557 7     -1123.664          46.000
> 2020 05 12 04 07 30.0000000  0 14        .000000000000
G05  21644284.781 8 113741456.921 8     -2544.656          50.000    21644284.031 8  88629692.424 8     -1982.849          50.000
G15  21935274.430 5 115270627.372 5      2662.117          35.000
G28  20941506.570 8 110048375.193 8       646.820          51.000    20941505.281 8  85752049.496 8       504.016          49.000
G30  21440776.047 6 112672065.273 6     -2040.316          41.000    21440776.742 6  87796438.917 6     -1589.857          41.000
R05  19562751.969 8 104574120.355 8     -1733.977          50.000    19562754.906 8  81335424.962 8     -1348.648          50.000
R15  19595972.383 7 104714939.001 7     -1834.352          47.000    19595974.328 6  81444976.142 6     -1426.721          41.000
R16  20040265.867 7 107051529.465 7      2347.262          46.000    20040267.367 7  83262290.805 7      1825.648          42.000
C05  39795784.391 6 207227091.228 6        14.027          36.000    39795781.523 6 160241112.619 6        10.575          40.000
C21  22138525.047 7 115281134.060 7       622.086          43.000
C22  23119457.125 8 120389061.706 8     -2426.293          50.000
C26  25031827.906 7 130347304.052 7      2942.125          47.000
E02  23655850.523 8 124312335.511 8      1389.242          51.000    23655851.414 8  95252370.987 8      1064.469          51.000
E03  24247941.602 8 127423796.153 8     -1590.605          51.000    24247943.641 8  97636386.792 8     -1218.806          51.000
E25  24511647.562 7 128809576.031 7     -1474.273          47.000    24511650.188 7  98698289.117 7     -1129.608          46.000
> 2020 05 12 04 08  0.0000000  0 14        .000000000000
G05  21658874.086 8 113818122.561 8     -2561.656          50.000    21658873.383 8  88689431.866 8     -1996.096          50.000
G28  20937888.672 8 110029362.526 8       625.270          51.000    20937887.305 8  85737234.445 8       487.220          49.000
G30  21452469.086 7 112733512.867 7     -2051.387          42.000    21452470.391 7  87844320.130 7     -1598.483          42.000
R04  23279025.734 6 124658093.254 6     -4100.742          38.000    23279032.281 6  96956327.700 6     -3189.469          36.000
R05  19572565.375 8 104626580.077 8     -1758.652          51.000    19572568.414 8  81376226.979 8     -1367.841          50.000
R15  19606343.500 7 104770358.290 7     -1855.312          45.000    19606345.078 6  81488080.040 6     -1443.021          41.000
R16  20027157.250 7 106981507.690 7      2325.363          46.000    20027159.531 7  83207829.378 7      1808.616          43.000
C05  39795727.289 6 207226793.908 6        10.570          36.000    39795724.391 6 160240882.684 6         8.152          39.000
C21  22135007.898 7 115262814.397 7       603.758          44.000
C22  23133488.633 8 120462130.310 8     -2440.375          49.000
C26  25014913.031 7 130259228.962 7      2934.070          46.000
E02  23647975.789 8 124270953.923 8      1374.109          51.000    23647975.984 8  95220663.012 8      1052.886          51.000
E03  24257068.633 8 127471758.926 8     -1602.324          51.000    24257070.562 8  97673137.475 8     -1227.749          51.000
E25  24520114.844 7 128854071.812 7     -1487.672          47.000    24520116.953 7  98732383.252 7     -1139.877          46.000
> 2020 05 12 04 08 30.0000000  0 14        .000000000000
G05  21673535.852 8 113895169.490 8     -2575.156          50.000    21673535.312 8  88749468.415 8     -2006.615          50.000
G28  20934369.531 8 110010869.481 8       607.258          51.000    20934367.977 8  85722824.282 8       473.188          49.000
G30  21464201.633 7 112795167.227 7     -2059.215          42.000    21464203.797 7  87892362.474 7     -1604.583          42.000
R04  23302026.508 6 124781202.604 6     -4107.090          38.000    23302021.930 6  97052079.327 6     -3194.406          37.000
R05  19582492.828 8 104679648.410 8     -1779.672          51.000    19582495.594 8  81417502.332 8     -1384.189          50.000
R15  19616807.938 7 104826275.271 7     -1872.680          45.000    19616809.461 6  81531570.997 6     -1456.532          40.000
R16  20014147.008 7 106912009.583 7      2307.301          47.000    20014149.250 7  83153775.272 7      1794.567          42.000
C05  39795662.211 6 207226455.598 6        11.516          36.000    39795659.438 6 160240621.060 6         8.883          39.000
C21  22131571.227 7 115244915.597 7       589.133          44.000
C22  23147577.125 8 120535494.329 8     -2450.969          49.000
C26  24998019.719 7 130171265.248 7      2929.680          47.000
E02  23640163.391 8 124229897.129 8      1362.598          51.000    23640163.141 8  95189203.890 8      1044.092          51.000
E03  24266238.195 8 127519945.543 8     -1610.453          51.000    24266239.945 8  97710059.668 8     -1233.981          51.000
E25  24528634.375 7 128898843.541 7     -1497.566          47.000    24528636.562 7  98766688.835 7     -1147.435          47.000
> 2020 05 12 04 09  0.0000000  0 15        .000000000000
G05  21688278.883 8 113972644.288 8     -2589.223          50.000    21688278.500 8  88809838.384 8     -2017.576          50.000
G13  20427507.070 5 107347276.065 5      1104.457          33.000
G28  20930958.609 8 109992945.472 8       588.484          51.000    20930956.742 8  85708857.497 8       458.556          50.000
G30  21475982.953 6 112857076.289 6     -2067.172          39.000    21475985.633 6  87940603.286 6     -1610.780          39.000
R04  23325058.477 7 124904526.468 7     -4113.938          42.000    23325052.070 5  97147997.803 5     -3199.732          35.000
R05  19592543.305 8 104733374.255 8     -1801.375          51.000    19592545.945 8  81459289.067 8     -1401.069          49.000
R15  19627373.891 7 104882736.886 7     -1890.645          44.000    19627375.203 6  81575485.604 6     -1470.498          40.000
R16  20001244.531 7 106843086.026 7      2288.133          47.000    20001245.734 6  83100168.098 6      1779.662          41.000
C05  39795598.836 6 207226125.161 6        10.805          36.000    39795596.008 6 160240365.526 6         8.618          39.000
C21  22128224.125 7 115227487.558 7       573.527          43.000
C22  23161732.391 8 120609201.242 8     -2462.133          50.000
C26  24981158.430 7 130083462.619 7      2924.410          47.000
E02  23632422.344 8 124189214.802 8      1350.215          51.000    23632422.281 8  95158031.714 8      1034.628          51.000
E03  24275459.789 8 127568405.148 8     -1619.457          51.000    24275461.102 8  97747191.038 8     -1240.928          51.000
E25  24537215.789 8 128943939.146 8     -1508.125          48.000    24537218.180 7  98801242.579 7     -1155.621          47.000
> 2020 05 12 04 09 30.0000000  0 15        .000000000000
G05  21703100.570 8 114050534.955 8     -2603.375          49.000    21703100.680 8  88870532.424 8     -2028.604          48.000
G13  20421237.062 5 107314325.984 5      1092.289          35.000    20421230.133 5  83621522.199 5       851.134          34.000
G28  20927654.062 8 109975581.800 8       569.207          50.000    20927652.578 8  85695327.354 8       443.538          50.000
G30  21487810.695 6 112919229.405 6     -2075.766          40.000    21487813.438 6  87989034.263 6     -1617.483          41.000
R04  23348126.195 7 125028052.563 7     -4120.953          42.000    23348119.852 5  97244073.594 5     -3205.189          33.000
R05  19602715.008 8 104787747.819 8     -1823.484          51.000    19602717.453 8  81501579.595 8     -1418.266          49.000
R15  19638039.547 7 104939730.807 7     -1908.898          43.000    19638040.219 6  81619814.193 6     -1484.699          39.000
R16  19988448.070 7 106774729.344 7      2268.805          47.000    19988448.508 7  83047001.843 7      1764.629          42.000
C05  39795535.039 6 207225793.297 6        11.113          36.000    39795532.258 6 160240108.890 6         8.666          39.000
C21  22124965.805 7 115210522.002 7       557.543          44.000
C22  23175951.578 8 120683240.540 8     -2473.758          51.000
C26  24964327.195 7 129995812.676 7      2918.844          47.000
E02  23624750.805 8 124148897.993 8      1337.672          51.000    23624751.297 8  95127139.623 8      1024.909          51.000
E03  24284731.438 8 127617128.274 8     -1628.746          51.000    24284732.211 8  97784524.319 8     -1247.946          51.000
E25  24545856.844 8 128989347.828 8     -1518.980          49.000    24545859.195 7  98836036.217 7     -1163.828          46.000
> 2020 05 12 04 10  0.0000000  0 16        .000000000000
G05  21718000.891 8 114128840.682 8     -2617.039          48.000    21718001.719 8  88931549.896 8     -2039.248          48.000
G13  20415032.008 5 107281719.779 5      1081.551          34.000
G15  21859969.430 5 114874894.447 5      2616.969          31.000
G28  20924456.383 8 109958779.694 8       550.719          50.000    20924455.094 8  85682234.780 8       429.131          49.000
G30  21499684.805 6 112981626.318 6     -2083.688          40.000    21499687.039 6  88037655.199 6     -1623.653          40.000
R04  23371230.500 6 125151779.756 6     -4127.348          40.000    23371224.719 5  97340305.725 5     -3210.162          31.000
R05  19613007.672 8 104842768.699 8     -1844.707          51.000    19613010.594 8  81544373.586 8     -1434.772          49.000
R15  19648804.078 7 104997255.182 7     -1926.207          46.000    19648805.797 6  81664555.361 6     -1498.161          40.000
R16  19975757.930 7 106706941.679 7      2250.184          47.000    19975759.383 7  82994278.101 7      1750.143          43.000
C05  39795471.258 6 207225460.218 6        10.742          36.000    39795468.500 6 160239852.071 6         8.772          39.000
C21  22121797.086 7 115194020.943 7       542.414          46.000
C22  23190234.070 8 120757611.890 8     -2484.465          51.000
C26  24947525.719 7 129908317.400 7      2914.113          46.000
E02  23617149.148 8 124108948.233 8      1325.680          51.000    23617150.008 8  95096528.770 8      1015.763          51.000
E03  24294053.266 8 127666115.856 8     -1637.203          51.000    24294053.555 8  97822060.245 8     -1254.426          50.000
E25  24554557.125 8 129035069.325 8     -1529.141          49.000    24554559.508 7  98871069.550 7     -1171.676          47.000
> 2020 05 12 04 10 30.0000000  0 16        .000000000000
G05  21732967.625 7 114207495.346 7     -2629.562          46.000    21732968.914 7  88992839.268 7     -2049.010          47.000
G13  20408879.867 5 107249382.375 5      1070.461          32.000
G15  21845059.117 5 114796513.935 5      2608.984          32.000    21845048.906 5  89451834.717 5      2032.972          31.000
G28  20921353.523 8 109942475.893 8       533.246          49.000    20921352.414 8  85669530.483 8       415.516          48.000
G30  21511592.344 6 113044202.170 6     -2090.629          37.000    21511594.164 6  88086415.540 6     -1629.061          38.000
R04  23394359.352 6 125275640.768 6     -4133.004          37.000    23394353.789 4  97436641.887 4     -3214.562          29.000
R05  19623409.344 8 104898371.630 8     -1865.082          51.000    19623412.555 8  81587620.288 8     -1450.619          49.000
R15  19659656.109 7 105055242.167 7     -1942.637          46.000    19659658.195 6  81709656.356 6     -1510.940          39.000
R16  19963162.312 7 106639659.566 7      2232.344          47.000    19963165.047 7  82941947.530 7      1736.267          45.000
C05  39795395.305 6 207225064.949 6        12.156          36.000    39795392.648 6 160239546.430 6         9.596          39.000
C21  22118705.883 7 115177922.412 7       528.145          47.000
C22  23204568.109 8 120832250.941 8     -2494.344          51.000
C26  24930741.453 7 129820914.749 7      2909.805          44.000
E02  23609605.188 8 124069302.354 8      1314.562          51.000    23609606.062 8  95066150.755 8      1007.271          51.000
E03  24303413.016 8 127715304.217 8     -1644.895          49.000    24303413.328 8  97859750.026 8     -1260.350          50.000
E25  24563304.680 8 129081038.659 8     -1538.266          49.000    24563307.109 7  98906292.788 7     -1178.677          47.000
> 2020 05 12 04 11  0.0000000  0 15        .000000000000
G05  21748038.266 7 114286692.551 7     -2647.883          47.000    21748039.383 7  89054551.404 7     -2063.285          47.000
G13  20402819.953 5 107217536.950 5      1054.383          34.000
G15  21830212.938 4 114718543.499 4      2595.324          29.000    21830199.875 5  89391038.182 5      2022.352          30.000
G28  20918382.891 8 109926866.998 8       509.801          49.000    20918382.242 8  85657367.718 8       397.247          48.000
G30  21523570.391 5 113107151.534 5     -2104.023          32.000    21523571.820 5  88135466.999 5     -1639.499          30.000
R05  19633957.406 8 104954754.840 8     -1891.320          51.000    19633960.281 8  81631473.894 8     -1471.024          50.000
R15  19670630.953 7 105113888.321 7     -1964.809          45.000    19670632.883 6  81755270.029 6     -1528.181          38.000
R16  19950699.227 7 106573083.216 7      2208.539          47.000    19950702.570 7  82890165.926 7      1717.753          44.000
C05  39795344.570 6 207224800.721 6         7.371          36.000    39795341.914 6 160239342.063 6         5.833          40.000
C21  22115729.398 7 115162421.673 7       507.773          47.000
C22  23218990.711 8 120907350.568 8     -2509.930          51.000
C26  24914010.484 6 129733799.830 6      2900.074          41.000
E02  23602156.266 8 124030156.725 8      1297.422          51.000    23602157.094 8  95036156.062 8       994.149          51.000
E03  24312847.992 8 127764889.200 8     -1658.492          49.000    24312848.703 8  97897743.702 8     -1270.880          50.000
E25  24572136.758 8 129127450.483 8     -1553.531          49.000    24572139.195 8  98941855.072 8     -1190.467          48.000
> 2020 05 12 04 11 30.0000000  0 14        .000000000000
G05  21763174.234 8 114366230.320 8     -2646.023          49.000    21763174.773 8  89116528.873 8     -2061.836          49.000
G07  24077860.672 5 126530026.610 5     -2832.281          32.000    24077856.867 5  98594800.971 5     -2206.972          34.000
G13  20396813.359 5 107185971.899 5      1059.043          31.000
G28  20915506.742 8 109911753.608 8       506.379          48.000    20915505.977 7  85645591.035 7       394.581          46.000
R05  19644613.398 8 105011714.819 8     -1897.203          51.000    19644616.047 8  81675776.097 8     -1475.602          50.000
R15  19681690.531 7 105172987.473 7     -1966.391          47.000    19681692.445 6  81801236.024 6     -1529.415          38.000
R16  19938330.242 7 106507011.057 7      2204.863          46.000    19938333.484 7  82838776.496 7      1714.897          42.000
C05  39795281.062 6 207224469.841 6        23.082          36.000    39795278.414 6 160239086.224 6        17.749          39.000
C21  22112829.805 7 115147321.939 7       507.453          47.000
C22  23233463.312 8 120982711.707 8     -2505.602          51.000
C26  24897296.023 6 129646775.824 6      2910.047          41.000
E02  23594764.484 8 123991312.217 8      1300.703          51.000    23594765.242 8  95006392.094 8       996.652          51.000
E03  24322320.812 8 127814671.131 8     -1651.742          50.000    24322321.539 8  97935888.295 8     -1265.639          50.000
E25  24581014.664 8 129174103.818 8     -1548.164          49.000    24581017.195 8  98977602.409 8     -1186.244          48.000
> 2020 05 12 04 12  0.0000000  0 15        .000000000000
G05  21778393.125 8 114446203.197 8     -2671.539          51.000    21778392.539 8  89178845.362 8     -2081.722          51.000
G07  24094111.891 5 126615410.978 5     -2845.867          31.000    24094104.773 4  98661334.143 4     -2217.565          28.000
G13  20390879.039 5 107154785.894 5      1034.984          35.000    20390875.406 4  83497210.299 4       806.500          29.000
G15  21800618.898 5 114563017.376 5      2581.000          30.000
G28  20912743.297 8 109897233.340 8       475.590          48.000    20912742.445 7  85634276.522 7       370.589          46.000
R05  19655395.297 8 105069349.199 8     -1930.941          51.000    19655397.797 8  81720602.821 8     -1501.843          50.000
R15  19692852.625 7 105232635.458 7     -1995.918          45.000    19692855.008 6  81847628.895 6     -1552.381          39.000
R16  19926074.133 7 106441542.837 7      2173.617          46.000    19926076.703 7  82787856.799 7      1690.591          42.000
C05  39795223.172 6 207224168.733 6        10.895          36.000    39795220.617 6 160238853.383 6         8.388          40.000
C21  22110026.070 8 115132720.498 8       479.859          48.000
C22  23248004.055 8 121058429.264 8     -2528.379          51.000
C26  24880619.883 7 129559939.762 7      2892.641          43.000
E02  23587448.453 8 123952866.369 8      1276.375          51.000    23587449.281 8  94976933.597 8       978.032          51.000
E03  24331850.023 8 127864747.118 8     -1672.559          51.000    24331851.047 8  97974258.158 8     -1281.508          51.000
E25  24589956.734 8 129221094.458 8     -1570.520          50.000    24589959.023 8  99013608.208 8     -1203.367          48.000
> 2020 05 12 04 12 30.0000000  0 15        .000000000000
G05  21793676.367 8 114526513.713 8     -2684.727          51.000    21793674.258 8  89241424.915 8     -2091.998          51.000
G07  24110359.523 5 126700795.154 5     -2847.352          30.000    24110353.344 5  98727863.374 5     -2218.719          30.000
G13  20384998.578 6 107123884.358 6      1023.516          36.000    20384997.680 5  83473131.182 5       797.557          31.000
G28  20910074.992 8 109883210.793 8       456.938          49.000    20910074.219 7  85623349.858 7       356.055          46.000
R04  23487298.906 5 125773390.578 5     -4159.559          35.000    23487306.297 4  97823796.684 4     -3235.215          28.000
R05  19666284.914 8 105127559.791 8     -1952.191          51.000    19666287.148 8  81765877.718 8     -1518.371          48.000
R15  19704098.664 7 105292732.167 7     -2012.848          46.000    19704100.961 6  81894370.760 6     -1565.551          38.000
R16  19913913.320 7 106376582.765 7      2154.699          46.000    19913915.820 7  82737332.318 7      1675.877          42.000
C05  39795152.859 6 207223802.755 6        10.672          36.000    39795150.289 6 160238570.361 6         8.473          39.000
C21  22107300.039 8 115118523.594 8       464.332          48.000
C22  23262594.492 8 121134407.169 8     -2539.023          51.000
C26  24863963.109 7 129473197.884 7      2887.539          44.000
E02  23580189.922 8 123914724.016 8      1264.227          51.000    23580190.898 8  94947707.638 8       968.693          51.000
E03  24341417.344 8 127915021.453 8     -1681.266          51.000    24341418.938 8  98012780.009 8     -1288.275          51.000
E25  24598944.742 8 129268325.496 8     -1580.504          51.000    24598946.609 8  99049798.204 8     -1211.047          49.000
> 2020 05 12 04 13  0.0000000  0 15        .000000000000
G05  21809038.156 8 114607236.885 8     -2696.973          51.000    21809034.781 8  89304326.034 8     -2101.540          51.000
G07  24126619.281 5 126786241.948 5     -2848.059          31.000    24126613.164 5  98794448.369 5     -2219.269          32.000
G28  20907516.414 8 109869763.599 8       439.266          50.000    20907515.203 7  85612871.531 7       342.285          45.000
G30  21571883.789 5 113361011.423 5     -2130.934          34.000    21571882.578 6  88333259.225 6     -1660.468          36.000
R04  23510616.602 5 125898250.574 5     -4164.656          34.000    23510620.977 5  97920909.953 5     -3239.180          30.000
R05  19677296.500 8 105186424.407 8     -1972.453          51.000    19677298.672 7  81811661.292 7     -1534.133          47.000
R15  19715443.086 7 105353353.686 7     -2028.762          44.000    19715445.156 6  81941520.786 6     -1577.926          38.000
R16  19901862.773 7 106312210.249 7      2136.566          46.000    19901865.422 7  82687264.785 7      1661.774          43.000
C05  39795084.906 6 207223448.824 6        11.945          36.000    39795082.273 6 160238296.682 6         9.361          39.000
C21  22104666.258 8 115104809.116 8       449.617          48.000
C22  23277249.453 8 121210720.952 8     -2548.812          51.000
C26  24847339.836 7 129386627.968 7      2883.262          43.000
E02  23573003.820 8 123876963.119 8      1252.930          51.000    23573004.828 8  94918773.960 8       960.058          51.000
E03  24351037.320 8 127965571.540 8     -1689.039          51.000    24351039.492 8  98051513.154 8     -1294.157          51.000
E25  24607992.891 8 129315873.110 8     -1589.586          50.000    24607994.625 8  99086230.770 8     -1217.976          49.000
> 2020 05 12 04 13 30.0000000  0 14        .000000000000
G05  21824473.414 8 114688346.546 8     -2710.840          51.000    21824469.445 8  89367528.307 8     -2112.346          51.000
G28  20905063.062 8 109856869.364 8       419.895          51.000    20905061.055 7  85602824.073 7       327.191          45.000
G30  21584070.039 5 113425045.967 5     -2139.078          34.000    21584068.055 5  88383156.231 5     -1666.811          33.000
R04  23533966.539 6 126023283.621 6     -4171.410          36.000    23533970.477 5  98018157.766 5     -3244.430          32.000
R05  19688425.664 8 105245918.834 8     -1994.367          51.000    19688427.477 7  81857934.666 7     -1551.178          45.000
R15  19726880.531 7 105414473.560 7     -2046.359          46.000    19726883.273 6  81989058.442 6     -1591.616          39.000
R16  19889918.148 7 106248403.604 7      2116.699          47.000    19889920.922 7  82637637.386 7      1646.325          44.000
C05  39795015.008 6 207223084.336 6        11.578          36.000    39795012.289 6 160238014.816 6         9.131          39.000
C21  22102120.648 7 115091555.286 7       433.398          47.000
C22  23291964.430 8 121287346.546 8     -2560.105          51.000
C26  24830745.344 7 129300208.284 7      2877.586          43.000
E02  23565886.086 8 123839561.131 8      1240.105          51.000    23565887.258 8  94890115.296 8       950.238          51.000
E03  24360705.211 8 128016374.357 8     -1698.242          51.000    24360707.789 8  98090439.972 8     -1301.245          51.000
E25  24617096.430 8 129363713.019 8     -1600.207          49.000    24617098.203 8  99122887.317 8     -1226.082          49.000
> 2020 05 12 04 14  0.0000000  0 15        .000000000000
G05  21839986.148 8 114769865.027 8     -2723.879          51.000    21839982.359 8  89431049.158 8     -2122.506          51.000
G13  20367765.914 5 107033324.555 5       988.160          35.000    20367762.375 5  83402578.756 5       769.977          30.000
G28  20902719.266 8 109844551.473 8       401.152          51.000    20902717.258 7  85593225.746 7       312.589          47.000
G30  21596302.461 5 113489326.680 5     -2146.473          32.000    21596301.664 5  88433245.110 5     -1672.576          33.000
R04  23557351.242 5 126148510.973 5     -4177.250          35.000    23557356.328 5  98115556.777 5     -3248.975          32.000
R05  19699677.375 8 105306066.090 8     -2015.594          51.000    19699679.016 7  81904715.804 7     -1567.687          46.000
R15  19738415.594 7 105476112.721 7     -2063.012          42.000    19738418.414 6  82037000.005 6     -1604.565          39.000
R16  19878083.883 7 106185187.603 7      2097.629          46.000    19878087.188 7  82588469.389 7      1631.492          44.000
C05  39794947.500 6 207222732.708 6        12.238          36.000    39794944.758 6 160237742.946 6         8.998          40.000
C21  22099667.883 7 115078786.392 7       417.777          47.000
C22  23306743.594 8 121364305.915 8     -2570.609          51.000
C26  24814183.352 6 129213963.025 6      2872.207          41.000
E02  23558841.109 8 123802541.997 8      1227.754          51.000    23558842.758 8  94861750.005 8       940.761          51.000
E03  24370425.406 8 128067453.348 8     -1707.043          51.000    24370428.398 8  98129578.388 8     -1308.021          51.000
E25  24626259.805 8 129411867.372 8     -1610.094          49.000    24626261.734 8  99159784.809 8     -1233.690          50.000
> 2020 05 12 04 14 30.0000000  0 16        .000000000000
G05  21855573.992 8 114851780.610 8     -2737.195          51.000    21855571.078 8  89494879.450 8     -2132.879          51.000
G13  20362159.070 6 107003854.126 6       975.973          38.000    20362153.297 5  83379614.873 5       760.507          32.000
G28  20900483.562 8 109832802.091 8       382.062          51.000    20900481.805 7  85584070.414 7       297.711          47.000
G30  21608579.812 5 113553852.973 5     -2155.227          35.000    21608580.203 5  88483518.284 5     -1679.400          35.000
R04  23580770.906 5 126273921.899 5     -4183.418          33.000    23580775.141 4  98213098.641 4     -3253.763          29.000
R05  19711049.445 8 105366856.435 8     -2037.152          51.000    19711051.227 8  81951997.166 8     -1584.452          48.000
R15  19750045.203 7 105538259.404 7     -2080.035          43.000    19750048.227 6  82085336.337 6     -1617.805          38.000
R16  19866358.609 7 106122554.765 7      2077.996          46.000    19866361.875 7  82539754.958 7      1616.216          43.000
C05  39794880.750 6 207222385.663 6        11.203          36.000    39794878.172 6 160237474.543 6         8.781          40.000
C21  22097307.297 8 115066494.992 8       401.594          48.000
C22  23321585.320 8 121441589.289 8     -2581.527          51.000
C26  24797652.383 7 129127884.740 7      2866.008          42.000
E02  23551867.562 8 123765897.573 8      1215.172          51.000    23551869.469 8  94833671.814 8       931.079          51.000
E03  24380196.078 8 128118799.861 8     -1716.113          51.000    24380199.750 8  98168921.790 8     -1314.935          51.000
E08  21683665.727 6 113948433.552 6       895.730          40.000    21683664.906 6  87311127.075 6       686.186          38.000
E25  24635481.141 8 129460326.361 8     -1620.500          50.000    24635483.586 8  99196915.720 8     -1241.679          50.000
> 2020 05 12 04 15  0.0000000  0 15        .000000000000
G05  21871236.859 8 114934093.099 8     -2751.004          50.000    21871235.570 8  89559019.064 8     -2143.639          50.000
G13  20356620.445 6 106974747.219 6       963.430          39.000    20356614.328 5  83356934.100 5       750.724          32.000
G28  20898356.656 8 109821624.385 8       362.469          51.000    20898354.672 7  85575360.523 7       282.443          47.000
G30  21620902.211 5 113618608.268 5     -2163.465          35.000    21620903.758 5  88533976.996 5     -1685.814          35.000
R05  19722542.320 8 105428291.640 8     -2059.273          50.000    19722544.188 8  81999780.127 8     -1601.657          49.000
R15  19761770.102 7 105600913.771 7     -2097.465          43.000    19761773.086 6  82134067.494 6     -1631.362          40.000
R16  19854743.609 7 106060508.965 7      2057.746          47.000    19854746.367 7  82491497.137 7      1600.469          43.000
C05  39794815.430 6 207222045.073 6        10.512          36.000    39794812.953 6 160237211.936 6         8.346          39.000
C21  22095039.523 8 115054684.809 8       384.961          49.000
C22  23336489.570 8 121519198.168 8     -2593.043          51.000
C26  24781153.727 7 129041977.077 7      2859.938          44.000
E02  23544966.219 8 123729631.092 8      1202.043          51.000    23544967.945 8  94805883.192 8       921.040          51.000
E03  24390017.930 8 128170416.615 8     -1725.621          51.000    24390022.414 8  98208472.281 8     -1322.154          51.000
E08  21678580.102 6 113921705.823 6       885.797          40.000    21678580.102 6  87290647.392 6       678.707          39.000
E25  24644760.672 8 129509091.450 8     -1631.082          50.000    24644763.703 8  99234281.173 8     -1249.793          50.000
> 2020 05 12 04 15 30.0000000  0 15        .000000000000
G05  21886972.508 8 115016788.664 8     -2762.426          50.000    21886973.047 8  89623457.203 8     -2152.540          50.000
G13  20351148.469 6 106945992.298 6       953.285          39.000    20351143.094 5  83334527.723 5       742.820          33.000
G28  20896336.086 8 109811005.341 8       345.043          51.000    20896334.016 7  85567085.955 7       268.865          47.000
G30  21633267.461 5 113683587.688 5     -2169.375          35.000    21633269.320 5  88584610.412 5     -1690.422          34.000
R05  19734153.078 8 105490357.469 8     -2078.875          50.000    19734155.094 8  82048053.624 8     -1616.900          50.000
R15  19773586.750 7 105664059.780 7     -2112.453          43.000    19773591.023 6  82183181.083 6     -1643.019          39.000
R16  19843236.602 7 105999038.140 7      2039.883          47.000    19843239.188 7  82443686.522 7      1586.579          45.000
C05  39794749.273 6 207221700.437 6        12.035          36.000    39794746.797 6 160236945.452 6         9.309          39.000
C21  22092861.695 8 115043344.142 8       370.629          48.000
C22  23351453.547 8 121597118.489 8     -2602.109          51.000
C26  24764685.602 7 128956228.308 7      2856.023          44.000
E02  23538134.562 8 123693730.176 8      1190.996          51.000    23538136.258 8  94778374.690 8       912.599          51.000
E03  24399888.648 8 128222290.764 8     -1733.023          51.000    24399893.812 8  98248220.005 8     -1327.913          51.000
E08  21673546.039 6 113895250.691 6       877.836          41.000    21673547.000 6  87270376.567 6       672.622          40.000
E25  24654095.914 8 129558148.566 8     -1639.715          49.000    24654098.945 8  99271870.395 8     -1256.489          50.000
> 2020 05 12 04 16  0.0000000  0 15        .000000000000
G05  21902780.469 8 115099861.168 8     -2775.273          51.000    21902782.070 8  89688189.048 8     -2162.551          51.000
G13  20345742.836 6 106917587.590 6       941.086          39.000    20345738.859 5  83312394.175 5       733.314          33.000
G28  20894421.156 8 109800942.110 8       326.215          51.000    20894419.391 8  85559244.500 8       254.193          48.000
G30  21645674.719 5 113748787.282 5     -2177.715          30.000    21645676.211 5  88635415.506 5     -1696.912          30.000
R05  19745881.227 8 105553049.904 8     -2100.066          51.000    19745883.234 8  82096814.446 8     -1633.385          49.000
R15  19785494.539 7 105727691.183 7     -2129.148          43.000    19785497.695 6  82232672.123 6     -1656.004          37.000
R16  19831836.383 7 105938140.079 7      2020.512          46.000    19831839.492 7  82396321.374 7      1571.509          45.000
