     3.02           OBSERVATION DATA    M (MIXED)           RINEX VERSION / TYPE
SAVERINEX           SC600               20200506 225931 LCL PGM / RUN BY / DATE
       G = GPS       R = GLONASS       C = COMPASS          COMMENT
       S = SBAS      J = QZSS          E = GALILEO          COMMENT
BEAN                                                        MARKER NAME
1                                                           MARKER NUMBER
GEODETIC                                                    MARKER TYPE
Unige DICCA         GTER                                    OBSERVER / AGENCY
SC60291900056       SC600               2.12(191226)        REC # / TYPE / VERS
                    HEMA45          NONE                    ANT # / TYPE
  4509407.8091   693652.4678  4442337.6214                  APPROX POSITION XYZ
        0.0000        0.0000        0.0000                  ANTENNA: DELTA H/E/N
G    8 C1C L1C D1C S1C C2Y L2Y D2Y S2Y                      SYS / # / OBS TYPES
R    8 C1C L1C D1C S1C C2P L2P D2P S2P                      SYS / # / OBS TYPES
C    8 C1I L1I D1I S1I C7I L7I D7I S7I                      SYS / # / OBS TYPES
E    8 C1C L1C D1C S1C C7Q L7Q D7Q S7Q                      SYS / # / OBS TYPES
DBHZ                                                        COMMENT
     30.000                                                 INTERVAL
  2020    05    06    20    00    0.0000000     GPS         TIME OF FIRST OBS
  2020    05    06    20    59   30.0000000     GPS         TIME OF LAST OBS
     0                                                      RCV CLOCK OFFS APPL
G L1C  0.00000                                              SYS / PHASE SHIFT
G L2Y  0.00000                                              SYS / PHASE SHIFT
R L1C  0.00000                                              SYS / PHASE SHIFT
R L2P  0.25000                                              SYS / PHASE SHIFT
C L1I  0.00000                                              SYS / PHASE SHIFT
C L7I  0.00000                                              SYS / PHASE SHIFT
E L1C  0.50000                                              SYS / PHASE SHIFT
E L7Q -0.25000                                              SYS / PHASE SHIFT
 13 R02 -4 R03  5 R04  6 R05  1 R06 -4 R10 -5 R13 -2 R14 -7 GLONASS SLOT / FRQ #
    R15  0 R16 -1 R17  4 R18 -3 R19  3                      GLONASS SLOT / FRQ #
 C1C   71.950 C2C   71.950 C2P   71.950                     GLONASS COD/PHS/BIS
    18                                                      LEAP SECONDS
*** Above antenna height is from mark to ANTENNA BOTTOM.    COMMENT
    17     4        0.0000        ANT MEASURE TYPE/HEIGT    COMMENT
    0.0000    0.0000    0.0458    0.0405    0.0000          COMMENT
                    BASE STATION                            COMMENT
                                                            END OF HEADER
> 2020 05 06 20 00  0.0000000  0 16        .000000000000
G01  20306813.125 8 106713017.655 8       421.691          50.000    20306815.219 8  83153007.422 8       328.591          50.000
G03  21250762.883 7 111673510.738 7      1983.910          43.000    21250764.008 7  87018339.032 7      1545.904          43.000
G08  22753332.695 7 119569563.930 7     -3359.328          47.000    22753337.320 7  93171083.632 7     -2617.658          47.000
G11  20286358.594 8 106605555.017 8     -1628.191          51.000    20286358.625 8  83069234.464 8     -1268.721          50.000
G22  20636834.258 8 108447392.779 8       334.395          51.000    20636831.164 8  84504407.417 8       260.567          51.000
R04  19214574.109 8 102893223.314 8      -662.871          51.000    19214577.359 7  80028112.313 7      -515.563          45.000
R05  20785394.102 8 111109896.855 8      3163.031          51.000    20785397.344 7  86418794.379 7      2460.138          45.000
R18  22448354.062 8 119830840.388 8     -3668.828          49.000    22448360.578 7  93201742.009 7     -2853.530          46.000
R19  19437552.047 6 103977785.219 6     -1053.129          39.000    19437553.961 7  80871620.254 7      -819.097          44.000
C05                                                                  39670254.484 6 159735676.754 6       -24.503          36.000
C11  25638516.742 5 133506427.157 5     -3285.113          34.000    25638516.734 6 103235640.653 6     -2540.327          41.000
C14  21952413.930 8 114312030.746 8     -1338.340          49.000    21952412.352 8  88393340.661 8     -1034.889          51.000
C28  21556563.812 8 112250718.328 8        76.340          51.000
E07  24112406.602 8 126711535.361 8      1703.902          51.000    24112409.141 8  97090673.734 8      1305.593          51.000
E08  22463531.242 7 118046656.486 7     -1140.457          43.000    22463532.422 6  90451340.081 6      -873.830          41.000
E13  23965811.398 8 125941177.470 8     -1401.094          51.000    23965813.211 8  96500404.456 8     -1073.550          51.000
> 2020 05 06 20 00 30.0000000  0 17        .000000000000
G01  20304433.586 8 106700513.462 8       409.648          50.000    20304435.703 8  83143263.887 8       319.204          49.000
G03  21239461.578 7 111614125.209 7      1972.797          43.000    21239463.047 7  86972064.602 7      1537.244          43.000
G08  22772525.914 8 119670423.751 8     -3366.941          48.000    22772530.297 8  93249675.712 8     -2623.588          48.000
G11  20295695.039 8 106654617.373 8     -1644.848          51.000    20295694.609 8  83107464.879 8     -1281.699          49.000
G22  20634951.688 8 108437499.302 8       322.879          51.000    20634948.531 8  84496698.200 8       251.594          51.000
R03  22110422.008 5 118358773.210 5     -3759.426          30.000
R04  19218343.703 8 102913408.993 8      -685.160          51.000    19218346.305 7  80043812.282 7      -532.902          45.000
R05  20767680.445 8 111015203.775 8      3147.551          51.000    20767682.133 7  86345144.295 7      2448.098          45.000
R18  22468994.719 8 119941011.521 8     -3678.172          49.000    22468999.320 7  93287430.712 7     -2860.800          46.000
R19  19443509.305 6 104009652.453 6     -1073.414          39.000    19443511.273 7  80896405.866 7      -834.878          44.000
C05                                                                  39670429.203 6 159736380.495 6       -24.180          37.000
C11  25657447.391 6 133605009.094 6     -3289.160          36.000    25657447.539 6 103311870.370 6     -2543.372          40.000
C14  21960149.188 8 114352309.679 8     -1349.098          49.000    21960147.453 8  88424486.877 8     -1043.208          51.000
C28  21556159.391 8 112248612.707 8        61.859          51.000
E07  24102703.305 8 126660547.602 8      1693.109          51.000    24102706.234 8  97051605.220 8      1297.294          51.000
E08  22470068.180 6 118081009.173 6     -1151.559          38.000    22470068.898 6  90477662.319 6      -882.620          41.000
E13  23973826.102 8 125983296.007 8     -1409.008          51.000    23973827.938 8  96532677.101 8     -1079.626          51.000
> 2020 05 06 20 01  0.0000000  0 16        .000000000000
G01  20302146.703 8 106688496.405 8       396.293          50.000    20302148.805 8  83133899.934 8       308.800          50.000
G03  21228248.789 7 111555202.868 7      1960.191          44.000    21228250.555 7  86926151.107 7      1527.425          44.000
G08  22791787.102 8 119771640.466 8     -3375.848          48.000    22791791.391 8  93328545.886 8     -2630.531          48.000
G11  20305150.633 8 106704306.338 8     -1662.820          51.000    20305149.711 8  83146183.537 8     -1295.704          48.000
G22  20633159.891 8 108428082.874 8       309.840          51.000    20633156.688 8  84489360.728 8       241.434          51.000
R04  19222262.383 8 102934392.890 8      -708.789          51.000    19222265.258 7  80060133.141 7      -551.280          45.000
R05  20750078.336 8 110921109.776 8      3130.391          50.000    20750079.289 7  86271960.139 7      2434.751          45.000
R18  22489711.516 8 120051593.043 8     -3688.918          49.000    22489714.734 7  93373438.583 7     -2869.158          46.000
R19  19449605.062 6 104042261.822 6     -1095.246          39.000    19449607.672 7  80921768.674 7      -851.861          44.000
C05                                                                  39670625.219 6 159737168.292 6       -24.642          37.000
C11  25676424.203 6 133703832.660 6     -3293.738          38.000    25676425.242 6 103388287.000 6     -2547.148          40.000
C14  21967970.562 8 114393038.170 8     -1361.293          48.000    21967969.016 8  88455980.710 8     -1052.490          51.000
C28  21555863.133 8 112247069.514 8        45.953          51.000
E07  24093086.570 8 126610014.064 8      1680.832          51.000    24093089.773 8  97012884.736 8      1287.904          51.000
E08  22476694.539 6 118115829.562 6     -1164.613          36.000    22476694.938 6  90504342.991 6      -892.168          41.000
E13  23981910.625 8 126025781.465 8     -1418.328          51.000    23981912.453 8  96565230.890 8     -1086.747          51.000
> 2020 05 06 20 01 30.0000000  0 17        .000000000000
G01  20299902.586 8 106676703.607 8       383.773          50.000    20299904.375 8  83124710.742 8       299.044          50.000
G03  21217074.023 7 111496480.569 7      1948.707          42.000    21217076.414 6  86880393.536 6      1518.476          41.000
G08  22811065.320 7 119872947.748 7     -3383.980          46.000    22811069.898 7  93407486.625 7     -2636.868          46.000
G11  20314675.102 8 106754356.935 8     -1679.938          51.000    20314673.867 7  83185183.959 7     -1309.045          47.000
G22  20631408.688 8 108418879.872 8       297.617          51.000    20631405.477 8  84482189.570 8       231.909          51.000
R03  22152650.250 5 118584828.489 5     -3774.840          35.000
R04  19226279.555 8 102955904.496 8      -731.516          51.000    19226282.047 7  80076864.404 7      -568.957          44.000
R05  20732537.359 8 110827348.891 8      3113.965          48.000    20732538.812 7  86199035.014 7      2421.973          45.000
R18  22510453.562 8 120162315.264 8     -3698.820          48.000    22510456.641 7  93459555.855 7     -2876.860          46.000
R19  19455789.734 6 104075345.560 6     -1116.480          39.000    19455792.430 7  80947500.448 7      -868.374          43.000
C05                                                                  39670792.570 6 159737842.222 6       -24.923          37.000
C11  25695397.312 6 133802635.494 6     -3298.629          38.000    25695399.508 6 103464687.587 6     -2550.682          41.000
C14  21975827.586 7 114433953.416 7     -1372.602          47.000    21975826.547 8  88487618.994 8     -1061.295          51.000
C28  21555624.953 8 112245828.243 8        30.758          51.000
E07  24083506.711 8 126559671.905 8      1669.234          51.000    24083509.781 8  96974310.889 8      1279.060          51.000
E08  22483359.602 6 118150853.034 6     -1176.457          38.000    22483359.789 6  90531179.207 6      -901.381          40.000
E13  23990014.945 8 126068370.333 8     -1426.938          51.000    23990016.430 8  96597863.925 8     -1093.380          51.000
> 2020 05 06 20 02  0.0000000  0 18        .000000000000
G01  20297750.039 8 106665391.353 8       372.832          50.000    20297751.305 8  83115895.990 8       290.518          50.000
G03  21205985.797 6 111438214.242 6      1938.477          41.000    21205988.906 6  86834991.271 6      1510.504          41.000
G08  22830408.359 7 119974598.447 7     -3390.188          45.000    22830413.633 7  93486694.986 7     -2641.702          46.000
G11  20324316.648 8 106805023.711 8     -1695.477          51.000    20324314.969 7  83224664.497 7     -1321.154          46.000
G22  20629746.500 8 108410145.020 8       287.105          51.000    20629743.281 8  84475383.196 8       223.719          51.000
G32  22770636.547 5 119660520.652 5     -2144.160          30.000
R03  22173826.211 5 118698193.334 5     -3780.367          35.000    22173835.203 4  92320871.403 4     -2940.289          29.000
R04  19230443.758 8 102978202.048 8      -752.566          50.000    19230445.602 7  80094206.949 7      -585.329          45.000
R05  20715107.188 8 110734183.019 8      3099.391          48.000    20715109.625 7  86126572.680 7      2410.637          46.000
R18  22531269.477 8 120273435.686 8     -3706.812          48.000    22531272.852 7  93545982.840 7     -2883.073          45.000
R19  19462111.773 6 104109163.984 6     -1135.809          39.000    19462114.727 7  80973803.636 7      -883.410          44.000
C05                                                                  39670979.820 6 159738595.915 6       -23.563          36.000
C11  25714415.500 6 133901669.001 6     -3301.156          39.000    25714418.352 6 103541266.630 6     -2552.703          40.000
C14  21983769.227 8 114475307.071 8     -1382.055          49.000    21983768.156 8  88519596.253 8     -1068.656          51.000
C28  21555493.281 8 112245142.662 8        17.367          51.000
E07  24074012.344 8 126509777.309 8      1659.473          51.000    24074015.203 8  96936079.974 8      1271.535          51.000
E08  22490111.562 6 118186333.732 6     -1186.449          37.000    22490111.055 6  90558365.765 6      -909.136          39.000
E13  23998187.719 8 126111318.124 8     -1433.844          51.000    23998188.922 8  96630771.962 8     -1098.624          51.000
> 2020 05 06 20 02 30.0000000  0 18        .000000000000
G01  20295657.867 8 106654396.056 8       351.562          51.000    20295658.734 8  83107328.208 8       273.945          51.000
G03  21194953.625 7 111380239.995 7      1918.016          42.000    21194956.812 7  86789816.565 7      1494.558          42.000
G08  22849785.062 7 120076426.067 7     -3406.711          45.000    22849790.531 7  93566041.218 7     -2654.580          45.000
G11  20334043.727 8 106856141.630 8     -1720.906          49.000    20334041.914 7  83264496.566 7     -1340.969          46.000
G22  20628141.906 8 108401713.480 8       266.316          51.000    20628138.820 8  84468813.165 8       207.519          51.000
G32  22782926.906 5 119725088.111 5     -2169.086          33.000    22782931.906 5  93292295.978 5     -1690.194          32.000
R03  22195029.414 6 118811707.382 6     -3795.844          36.000    22195039.062 5  92409160.018 5     -2952.326          32.000
R04  19234722.789 8 103001115.948 8      -783.793          50.000    19234724.578 7  80112028.904 7      -609.617          44.000
R05  20697758.453 8 110641447.482 8      3074.121          50.000    20697761.961 7  86054445.060 7      2390.983          47.000
R18  22552128.273 8 120384785.301 8     -3725.188          48.000    22552131.836 7  93632588.149 7     -2897.365          43.000
R19  19468539.789 6 104143549.685 6     -1165.383          39.000    19468543.047 7  81000548.030 7      -906.409          44.000
C05                                                                  39671155.531 6 159739303.467 6       -30.100          37.000
C11  25733447.320 6 134000769.103 6     -3314.102          40.000    25733450.250 6 103617897.178 6     -2562.465          38.000
C14  21991763.484 8 114516934.781 8     -1401.715          48.000    21991762.328 8  88551785.427 8     -1083.919          51.000
C28  21555437.094 8 112244850.628 8        -6.426          51.000
E07  24064572.008 8 126460166.679 8      1639.324          51.000    24064575.031 8  96898066.651 8      1256.061          51.000
E08  22496919.641 6 118222106.147 6     -1206.609          39.000    22496918.430 6  90585775.828 6      -924.787          39.000
E13  24006397.680 8 126154460.559 8     -1450.977          51.000    24006398.883 8  96663829.139 8     -1111.790          51.000
> 2020 05 06 20 03  0.0000000  0 17        .000000000000
G01  20293652.023 8 106643854.427 8       346.191          51.000    20293652.625 8  83099113.964 8       269.760          51.000
G03  21184003.297 7 111322694.231 7      1913.363          43.000    21184006.367 7  86744975.726 7      1490.935          43.000
G08  22869221.438 7 120178564.099 7     -3407.414          47.000    22869226.195 7  93645629.288 7     -2655.128          46.000
G11  20343882.211 8 106907845.688 8     -1730.895          48.000    20343880.703 7  83304785.432 7     -1348.746          47.000
G22  20626620.875 8 108393720.743 8       261.508          51.000    20626617.859 8  84462585.060 8       203.772          51.000
R03  22216287.320 6 118925505.635 6     -3795.648          36.000    22216295.992 5  92497669.733 5     -2952.174          31.000
R04  19239142.430 8 103024782.855 8      -799.059          49.000    19239143.656 7  80130436.494 7      -621.490          44.000
R05  20680517.586 8 110549282.355 8      3065.055          50.000    20680521.641 8  85982761.092 8      2383.931          49.000
R18  22573055.734 8 120496500.465 8     -3727.621          48.000    22573060.023 7  93719477.788 7     -2899.258          42.000
R19  19475099.938 6 104178641.416 6     -1178.984          39.000    19475102.859 7  81027841.580 7      -916.991          44.000
C05                                                                  39671345.648 6 159740069.171 6       -24.660          37.000
C11  25752517.578 6 134100069.035 6     -3311.039          41.000    25752521.266 6 103694682.294 6     -2560.194          37.000
C14  21999836.062 8 114558969.761 8     -1405.684          49.000    21999834.852 8  88584289.544 8     -1086.918          51.000
C28  21555482.781 8 112245087.500 8       -14.352          51.000
E07  24055211.695 8 126410976.766 8      1634.992          51.000    24055214.984 8  96860375.696 8      1252.786          51.000
E08  22503808.250 6 118258305.141 6     -1211.477          38.000    22503808.031 6  90613512.726 6      -928.268          39.000
E13  24014670.484 8 126197933.761 8     -1452.281          51.000    24014671.680 8  96697139.794 8     -1112.760          51.000
> 2020 05 06 20 03 30.0000000  0 17        .000000000000
G01  20291707.688 8 106633636.380 8       333.301          51.000    20291708.234 8  83091151.857 8       259.718          51.000
G03  21173109.430 7 111265446.483 7      1901.508          42.000    21173112.742 7  86700367.087 7      1481.694          42.000
G08  22888692.023 8 120280879.403 8     -3415.371          48.000    22888695.164 8  93725355.458 8     -2661.331          48.000
G11  20353807.461 8 106960004.445 8     -1748.211          49.000    20353806.641 8  83345428.640 8     -1362.239          48.000
G22  20625158.453 8 108386035.292 8       249.168          51.000    20625155.219 8  84456596.403 8       194.157          51.000
R03  22237573.164 5 119039451.429 5     -3802.574          35.000    22237580.594 4  92586294.203 4     -2957.558          28.000
R04  19243677.484 8 103049067.323 8      -821.652          49.000    19243678.727 7  80149324.436 7      -639.063          44.000
R05  20663359.000 8 110457556.643 8      3048.285          51.000    20663363.484 8  85911418.900 8      2370.888          49.000
R18  22594026.531 8 120608446.007 8     -3737.156          48.000    22594031.117 6  93806546.632 6     -2906.674          39.000
R19  19481767.148 6 104214306.081 6     -1200.180          39.000    19481769.500 7  81055580.768 7      -933.473          44.000
C05                                                                  39671525.234 6 159740792.651 6       -24.769          37.000
C11  25771601.039 6 134199437.609 6     -3315.152          41.000    25771606.070 6 103771520.481 6     -2563.658          37.000
C14  22007961.727 8 114601280.848 8     -1416.812          49.000    22007960.406 8  88617007.155 8     -1095.542          51.000
C28  21555605.141 8 112245724.245 8       -29.812          51.000
E07  24045906.750 8 126362077.406 8      1623.258          51.000    24045909.961 8  96822907.365 8      1243.843          51.000
E08  22510750.195 5 118294798.326 5     -1223.039          34.000    22510752.500 6  90641475.210 6      -937.511          37.000
E13  24022981.000 8 126241606.806 8     -1460.961          51.000    24022982.234 8  96730603.550 8     -1119.474          51.000
> 2020 05 06 20 04  0.0000000  0 18        .000000000000
G01  20289844.359 8 106623844.596 8       321.094          51.000    20289845.203 8  83083521.912 8       250.203          51.000
G03  21162291.633 7 111208599.059 7      1890.145          44.000    21162295.289 7  86656070.367 7      1472.840          44.000
G08  22908215.039 7 120383471.154 7     -3422.516          47.000    22908216.875 7  93805297.037 7     -2666.898          47.000
G11  20363838.641 8 107012718.758 8     -1764.461          50.000    20363838.328 8  83386504.743 8     -1374.905          49.000
G22  20623773.672 8 108378758.261 8       237.551          51.000    20623770.258 8  84450925.993 8       185.105          51.000
G32  22820339.281 6 119921666.940 6     -2206.137          36.000    22820329.672 5  93445445.977 5     -1719.080          33.000
R03  22258906.102 5 119153645.180 5     -3808.891          34.000    22258910.328 4  92675111.573 4     -2962.467          25.000
R04  19248346.742 8 103074071.013 8      -843.520          49.000    19248347.945 7  80168771.771 7      -656.071          44.000
R05  20646302.148 8 110366376.370 8      3032.117          51.000    20646306.844 8  85840500.924 8      2358.313          48.000
R18  22615059.820 8 120720723.502 8     -3746.270          48.000    22615063.102 5  93893873.593 5     -2913.765          34.000
R19  19488560.773 6 104250647.709 6     -1220.852          39.000    19488562.984 7  81083846.479 7      -949.551          45.000
C05                                                                  39671713.953 6 159741552.044 6       -24.397          36.000
C11  25790716.602 6 134298974.453 6     -3318.715          38.000    25790723.617 6 103848488.758 6     -2566.304          36.000
C14  22016159.203 8 114643967.455 8     -1427.344          49.000    22016157.820 8  88650015.155 8     -1103.761          51.000
C28  21555823.695 8 112246862.467 8       -44.473          51.000
E07  24036676.578 8 126313571.206 8      1612.129          51.000    24036679.227 8  96785740.293 8      1235.211          51.000
E08  22517769.266 7 118331686.736 7     -1234.438          42.000    22517769.766 5  90669740.337 5      -945.784          35.000
E13  24031348.773 8 126285581.648 8     -1469.074          51.000    24031350.188 8  96764298.549 8     -1125.627          51.000
> 2020 05 06 20 04 30.0000000  0 19        .000000000000
G01  20288045.992 8 106614394.695 8       308.359          51.000    20288047.391 8  83076158.339 8       240.280          51.000
G03  21151534.219 7 111152067.202 7      1878.203          44.000    21151537.523 7  86612019.583 7      1463.535          44.000
G08  22927773.695 7 120486251.996 7     -3430.156          45.000    22927775.664 7  93885385.971 7     -2672.849          45.000
G11  20373959.367 8 107065902.598 8     -1781.461          50.000    20373959.164 8  83427946.693 8     -1388.151          49.000
G14  21992564.547 5 115571705.953 5      -758.758          32.000
G22  20622450.406 8 108371804.176 8       225.465          51.000    20622446.961 8  84445507.233 8       175.687          51.000
G32  22832957.938 5 119988003.411 5     -2220.062          32.000
R03  22280268.492 5 119267996.815 5     -3815.516          34.000
R04  19253133.734 8 103099705.108 8      -865.941          48.000    19253134.719 7  80188709.398 7      -673.510          45.000
R05  20629331.227 8 110275656.824 8      3015.316          51.000    20629335.508 7  85769941.306 7      2345.249          46.000
R18  22636139.484 8 120833244.417 8     -3755.703          49.000    22636135.664 5  93981389.769 5     -2921.102          32.000
R19  19495464.836 6 104287579.449 6     -1241.824          40.000    19495466.859 7  81112571.153 7      -965.863          45.000
C05                                                                  39671895.344 6 159742282.103 6       -24.630          36.000
C11  25809847.242 6 134398593.581 6     -3322.621          36.000    25809856.914 6 103925520.687 6     -2569.331          36.000
C14  22024412.320 8 114686943.701 8     -1438.352          50.000    22024410.797 8  88683247.111 8     -1112.210          51.000
C28  21556122.234 8 112248418.427 8       -59.754          51.000
E07  24027504.906 8 126265373.774 8      1600.445          51.000    24027506.859 8  96748809.788 8      1226.291          51.000
E08  22524847.172 7 118368883.914 7     -1246.027          42.000    22524847.266 5  90698242.051 5      -954.934          35.000
E13  24039757.703 8 126329773.233 8     -1477.707          51.000    24039759.539 8  96798159.641 8     -1132.206          51.000
> 2020 05 06 20 05  0.0000000  0 18        .000000000000
G01  20286324.992 8 106605351.369 8       294.953          51.000    20286326.852 8  83069111.583 8       229.834          51.000
G03  21140849.094 7 111095915.346 7      1865.750          44.000    21140850.984 7  86568264.921 7      1453.831          44.000
G08  22947379.500 7 120589283.494 7     -3438.406          43.000    22947382.453 7  93965670.262 7     -2679.275          43.000
G11  20384181.594 8 107119618.868 8     -1799.363          51.000    20384181.430 8  83469803.516 8     -1402.101          50.000
G14  21996952.453 5 115594765.470 5      -778.699          34.000
G22  20621200.664 8 108365236.401 8       212.828          51.000    20621197.258 8  84440389.494 8       165.843          51.000
R03  22301672.172 5 119382568.515 5     -3822.582          34.000    22301686.469 4  92853177.165 4     -2973.119          26.000
R04  19258049.984 8 103126032.548 8      -888.902          48.000    19258051.484 7  80209186.325 7      -691.365          46.000
R05  20612458.578 8 110185465.333 8      2997.816          50.000    20612461.656 7  85699792.393 7      2331.635          44.000
R18  22657276.852 8 120946071.647 8     -3765.738          50.000    22657272.945 6  94069144.276 6     -2928.908          40.000
R19  19502491.484 6 104325166.580 6     -1263.406          41.000    19502493.375 7  81141805.562 7      -982.649          46.000
C05                                                                  39672081.578 6 159743032.913 6       -25.333          36.000
C11  25829004.891 5 134498357.007 5     -3327.180          30.000    25829017.305 5 104002664.209 5     -2572.974          35.000
C14  22032733.000 8 114730271.443 8     -1449.945          50.000    22032731.391 8  88716750.879 8     -1121.190          51.000
C28  21556513.266 8 112250456.121 8       -75.664          51.000
E07  24018404.039 8 126217549.761 8      1588.047          51.000    24018405.477 8  96712165.421 8      1216.782          51.000
E08  22531996.609 7 118406452.499 7     -1258.309          42.000    22531997.602 5  90727028.464 5      -964.335          34.000
E13  24048220.273 8 126374245.595 8     -1487.016          51.000    24048222.219 8  96832235.863 8     -1139.339          51.000
> 2020 05 06 20 05 30.0000000  0 18        .000000000000
G01  20284669.281 8 106596650.542 8       283.398          51.000    20284671.312 8  83062331.720 8       220.830          51.000
G03  21130223.922 7 111040079.073 7      1854.789          44.000    21130223.945 7  86524756.170 7      1445.293          43.000
G08  22967020.125 7 120692498.195 7     -3444.520          43.000    22967023.945 7  94046097.339 7     -2684.038          43.000
G11  20394492.539 8 107173801.860 8     -1814.832          51.000    20394492.398 8  83512024.026 8     -1414.155          48.000
G14  22001437.352 5 115618330.899 5      -793.363          33.000
G22  20620011.898 8 108358989.295 8       201.914          51.000    20620008.305 8  84435521.634 8       157.336          51.000
R03  22323104.047 5 119497290.613 5     -3827.254          35.000    22323121.172 4  92942405.457 4     -2976.756          25.000
R04  19263083.312 7 103152985.130 7      -909.730          47.000    19263084.547 7  80230149.412 7      -707.568          45.000
R05  20595672.570 8 110095737.706 8      2982.199          49.000    20595674.734 7  85630004.273 7      2319.491          44.000
R18  22678458.414 8 121059137.371 8     -3773.664          50.000    22678456.484 7  94157084.285 7     -2935.072          44.000
R19  19509628.523 7 104363343.247 7     -1283.309          43.000    19509630.258 7  81171498.486 7      -998.129          46.000
C05                                                                  39672260.352 6 159743752.681 6       -24.107          36.000
C11                                                                  25848190.055 6 104079868.532 6     -2575.230          36.000
C14  22041108.562 8 114773884.907 8     -1459.480          50.000    22041106.938 8  88750475.588 8     -1128.605          51.000
C28  21556984.844 8 112252911.890 8       -89.762          51.000
E07  24009362.016 8 126170035.024 8      1577.656          51.000    24009363.219 8  96675758.039 8      1208.859          51.000
E08  22539204.141 7 118444326.558 7     -1268.590          45.000
E13  24056724.219 8 126418933.975 8     -1494.215          51.000    24056726.086 8  96866477.609 8     -1144.912          51.000
> 2020 05 06 20 06  0.0000000  0 17        .000000000000
G01  20283092.352 8 106588363.954 8       269.402          51.000    20283094.461 8  83055874.632 8       209.924          51.000
G03  21119672.594 7 110984629.607 7      1842.090          45.000    21119671.773 7  86481548.822 7      1435.395          45.000
G08  22986709.312 7 120795965.035 7     -3452.852          43.000    22986712.906 7  94126720.873 7     -2690.534          43.000
G11  20404905.148 8 107228521.275 8     -1832.766          49.000    20404905.102 7  83554662.525 7     -1428.129          47.000
G22  20618897.617 8 108353133.446 8       188.887          51.000    20618893.797 8  84430958.640 8       147.184          51.000
R03  22344576.414 5 119612232.313 5     -3834.973          30.000
R04  19268246.336 7 103180633.051 7      -933.043          47.000    19268247.523 7  80251653.356 7      -725.700          46.000
R05  20578988.172 8 110006548.531 8      2964.156          51.000    20578990.227 7  85560634.968 7      2305.455          46.000
R18  22699697.164 8 121172511.771 8     -3784.109          49.000    22699697.711 7  94245264.352 7     -2943.196          46.000
R19  19516889.203 7 104402181.564 7     -1305.473          42.000    19516890.680 7  81201706.062 7     -1015.368          45.000
C05                                                                  39672445.164 6 159744496.904 6       -25.234          36.000
C11                                                                  25867388.562 6 104157186.726 6     -2578.855          36.000
C14  22049552.227 8 114817852.961 8     -1471.199          50.000    22049550.602 8  88784474.492 8     -1137.745          51.000
C28  21557550.453 8 112255856.602 8      -106.141          51.000
E07  24000392.664 8 126122901.205 8      1564.922          51.000    24000393.930 8  96639642.554 8      1199.045          51.000
E08  22546482.938 7 118482575.737 7     -1280.988          43.000
E13  24065282.641 8 126463909.360 8     -1503.750          51.000    24065284.555 8  96900939.258 8     -1152.284          51.000
> 2020 05 06 20 06 30.0000000  0 16        .000000000000
G01  20281600.961 8 106580527.157 8       257.863          51.000    20281603.023 8  83049768.045 8       200.932          51.000
G03  21109201.500 7 110929602.257 7      1831.270          45.000    21109201.070 7  86438670.360 7      1426.963          45.000
G08  23006452.914 7 120899715.523 7     -3458.848          44.000    23006455.305 7  94207565.411 7     -2695.206          44.000
G11  20415425.938 8 107283811.243 8     -1848.184          49.000    20415426.031 7  83597745.601 7     -1440.143          47.000
G22  20617864.219 8 108347703.214 8       178.070          51.000    20617860.570 8  84426727.294 8       138.756          51.000
R04  19273545.352 8 103209009.311 8      -953.812          48.000    19273546.938 7  80273723.807 7      -741.851          45.000
R05  20562412.055 8 109917934.796 8      2948.402          51.000    20562414.445 7  85491713.243 7      2293.205          47.000
R18  22720999.594 8 121286227.793 8     -3792.086          48.000    22721002.156 7  94333710.150 7     -2949.400          47.000
R19  19524279.758 6 104441716.834 6     -1325.020          40.000    19524281.242 7  81232455.705 7     -1030.571          43.000
C05                                                                  39672642.625 6 159745292.190 6       -24.322          36.000
C11                                                                  25886621.695 6 104234644.514 6     -2581.005          36.000
C14  22058070.258 8 114862208.468 8     -1480.844          51.000    22058068.602 8  88818772.992 8     -1145.064          51.000
C28  21558216.742 8 112259325.338 8      -120.242          51.000
E07  23991502.977 8 126076183.803 8      1554.441          51.000    23991504.312 8  96603846.120 8      1191.083          51.000
E08  22553839.797 7 118521233.607 7     -1291.160          43.000
E13  24073902.453 8 126509206.542 8     -1511.086          50.000    24073904.430 8  96935647.458 8     -1157.854          51.000
> 2020 05 06 20 07  0.0000000  0 16        .000000000000
G01  20280167.680 8 106572995.826 8       244.012          51.000    20280169.758 8  83043899.464 8       190.139          51.000
G03  21098782.641 7 110874852.247 7      1818.547          43.000    21098783.531 7  86396008.018 7      1417.050          43.000
G08  23026222.609 7 121003602.481 7     -3467.051          44.000    23026223.000 7  94288516.257 7     -2701.601          44.000
G11  20426027.992 8 107339525.839 8     -1866.016          49.000    20426027.938 8  83641159.576 8     -1454.038          48.000
G22  20616884.062 8 108342552.655 8       165.125          51.000    20616880.562 8  84422713.874 8       128.669          51.000
R04  19278952.625 8 103237964.045 8      -976.621          48.000    19278953.664 7  80296244.157 7      -759.594          46.000
R05  20545916.461 8 109829751.291 8      2930.387          51.000    20545919.125 8  85423126.095 8      2279.190          49.000
R18  22742337.844 7 121400136.277 7     -3802.223          45.000    22742342.078 7  94422305.644 7     -2957.284          47.000
R19  19531772.852 6 104481801.285 6     -1347.230          38.000    19531774.805 7  81263632.463 7     -1047.846          44.000
C05                                                                  39672825.227 6 159746026.438 6       -24.974          36.000
C11                                                                  25905862.930 5 104312129.578 5     -2584.349          33.000
C14  22066634.766 8 114906806.151 8     -1492.453          50.000    22066633.125 8  88853258.743 8     -1154.068          51.000
C28  21558956.148 8 112263174.901 8      -136.535          51.000
E07  23982665.062 8 126029738.468 8      1541.695          51.000    23982666.562 8  96568258.149 8      1181.308          51.000
E08  22561246.477 7 118560153.914 7     -1303.641          44.000
E13  24082556.125 8 126554680.537 8     -1520.668          51.000    24082558.203 8  96970491.139 8     -1165.208          51.000
> 2020 05 06 20 07 30.0000000  0 16        .000000000000
G01  20278811.500 8 106565869.567 8       231.453          51.000    20278813.656 8  83038346.516 8       180.353          51.000
G03  21088434.984 7 110820478.854 7      1806.898          43.000    21088437.508 7  86353639.153 7      1407.973          43.000
G08  23046036.570 7 121107722.808 7     -3473.809          44.000    23046034.750 7  94369648.930 7     -2706.864          44.000
G11  20436729.750 8 107395762.681 8     -1882.531          50.000    20436729.742 8  83684980.498 8     -1466.907          49.000
G22  20615975.859 8 108337779.780 8       153.496          51.000    20615972.344 8  84418994.746 8       119.607          51.000
R04  19284486.320 8 103267595.668 8      -998.184          49.000    19284487.398 7  80319291.002 7      -776.365          47.000
R05  20529519.438 8 109742100.190 8      2913.512          50.000    20529523.039 8  85354953.026 8      2266.065          50.000
R18  22763730.156 7 121514335.456 7     -3810.645          46.000    22763735.531 7  94511127.280 7     -2963.832          46.000
R19  19539387.484 6 104522535.583 6     -1367.969          37.000    19539389.578 7  81295314.687 7     -1063.976          43.000
C05                                                                  39673011.703 6 159746778.421 6       -24.772          36.000
C11                                                                  25925130.281 5 104389716.493 5     -2587.421          35.000
C14  22075264.328 8 114951742.533 8     -1502.723          50.000    22075262.820 8  88888006.410 8     -1162.040          51.000
C28  21559787.414 8 112267503.865 8      -151.605          51.000
E07  23973897.477 8 125983664.701 8      1530.285          51.000    23973899.508 8  96532954.887 8      1172.619          51.000
E08  22568721.227 7 118599434.229 7     -1314.500          45.000
E13  24091262.453 8 126600430.199 8     -1528.855          51.000    24091264.289 8  97005546.043 8     -1171.491          51.000
> 2020 05 06 20 08  0.0000000  0 17        .000000000000
G01  20277529.383 8 106559131.965 8       218.418          51.000    20277531.578 8  83033096.431 8       170.196          51.000
G03  21078156.180 7 110766465.349 7      1794.730          42.000    21078159.453 7  86311550.679 7      1398.491          42.000
G08  23065891.117 7 121212056.716 7     -3480.969          44.000    23065889.242 7  94450948.041 7     -2712.446          44.000
G11  20447527.508 8 107452503.719 8     -1899.383          51.000    20447527.500 8  83729194.293 8     -1480.039          50.000
G22  20615136.195 8 108333367.207 8       141.418          51.000    20615132.688 8  84415556.387 8       110.196          51.000
G32  22923717.188 4 120464946.630 4     -2320.906          29.000
R04  19290142.453 8 103297884.475 8     -1020.199          49.000    19290143.562 7  80342848.955 7      -793.488          47.000
R05  20513217.633 8 109654966.438 8      2896.230          48.000    20513223.367 8  85287182.291 8      2252.621          49.000
R18  22785173.750 7 121628806.061 7     -3819.801          47.000    22785179.406 7  94600160.007 7     -2970.956          45.000
R19  19547120.383 6 104563902.295 6     -1389.188          39.000    19547122.562 7  81327488.757 7     -1080.479          44.000
C05                                                                  39673198.859 6 159747531.003 6       -24.744          37.000
C11                                                                  25944419.883 6 104467390.997 6     -2590.417          38.000
C14  22083955.469 8 114996999.038 8     -1513.566          49.000    22083953.961 8  88923001.613 8     -1170.370          51.000
C28  21560707.555 8 112272295.672 8      -167.039          51.000
E07  23965197.297 8 125937945.998 8      1518.344          51.000    23965199.883 8  96497923.700 8      1163.400          51.000
E08  22576260.875 7 118639056.159 7     -1325.855          44.000    22576271.711 5  90905287.818 5     -1016.553          33.000
E13  24100017.953 8 126646438.422 8     -1537.559          51.000    24100019.914 8  97040799.058 8     -1178.102          51.000
> 2020 05 06 20 08 30.0000000  0 17        .000000000000
G01  20276316.906 8 106552759.980 8       205.570          51.000    20276319.000 8  83028131.252 8       160.185          51.000
G03  21067941.570 6 110712788.274 6      1782.922          41.000    21067944.961 7  86269724.381 7      1389.290          42.000
G08  23085781.406 7 121316577.681 7     -3487.941          44.000    23085780.945 7  94532392.924 7     -2717.876          44.000
G11  20458416.461 8 107509723.978 8     -1916.176          51.000    20458416.375 8  83773781.520 8     -1493.124          51.000
G14  22030538.461 5 115771257.791 5      -903.402          35.000
G22  20614360.367 8 108329290.516 8       129.523          51.000    20614356.945 8  84412379.748 8       100.927          51.000
R04  19295916.375 8 103328803.905 8     -1041.992          49.000    19295917.750 8  80366897.394 8      -810.438          48.000
R05  20497008.930 8 109568327.816 8      2878.863          50.000    20497015.383 7  85219796.666 7      2239.116          46.000
R18  22806663.320 7 121743521.646 7     -3828.605          45.000    22806668.992 7  94689383.246 7     -2977.804          44.000
R19  19554967.578 6 104605877.270 6     -1410.113          41.000    19554969.109 7  81360135.946 7     -1096.755          45.000
C05                                                                  39673382.172 6 159748269.032 6       -24.892          36.000
C11                                                                  25963727.242 6 104545133.703 6     -2593.266          40.000
C14  22092703.016 8 115042550.561 8     -1524.141          48.000    22092701.547 8  88958224.933 8     -1178.529          51.000
C28  21561712.102 8 112277527.329 8      -182.473          51.000
E07  23956560.391 8 125892559.254 8      1506.535          51.000    23956563.188 8  96463146.851 8      1154.343          51.000
E08  22583860.961 7 118678994.685 7     -1337.254          44.000    22583864.336 5  90935890.049 5     -1024.419          33.000
E13  24108818.211 8 126692681.487 8     -1546.172          51.000    24108820.477 8  97076232.013 8     -1184.771          51.000
> 2020 05 06 20 09  0.0000000  0 17        .000000000000
G01  20275179.562 8 106546782.829 8       192.094          51.000    20275181.469 8  83023473.740 8       149.683          51.000
G03  21057796.797 6 110659476.471 6      1770.289          41.000    21057799.219 6  86228182.766 6      1379.449          40.000
G08  23105712.195 7 121421312.072 7     -3495.121          42.000    23105713.273 7  94614004.120 7     -2723.471          43.000
G11  20469401.719 8 107567450.899 8     -1933.391          51.000    20469401.719 8  83818763.553 8     -1506.538          50.000
G14  22035739.117 6 115798594.111 6      -920.496          36.000
G22  20613653.812 8 108325577.657 8       117.066          51.000    20613650.391 8  84409486.603 8        91.221          51.000
R04  19301812.914 8 103360380.702 8     -1064.043          50.000    19301814.781 8  80391457.133 8      -827.589          48.000
R05  20480900.742 8 109482214.752 8      2861.020          51.000    20480904.891 7  85152819.924 7      2225.240          44.000
R18  22828203.922 7 121858509.125 7     -3838.133          44.000    22828209.711 7  94778817.932 7     -2985.217          46.000
R19  19562933.656 6 104648489.137 6     -1431.598          41.000    19562935.078 7  81393278.475 7     -1113.468          46.000
C05                                                                  39673566.875 6 159749013.286 6       -25.321          36.000
C11                                                                  25983057.156 6 104622965.382 6     -2596.150          39.000
C14  22101512.445 8 115088423.863 8     -1535.031          49.000    22101510.922 8  88993697.071 8     -1186.923          51.000
C28  21562806.211 8 112283227.588 8      -198.375          51.000
E07  23947992.227 8 125847533.569 8      1494.277          51.000    23947995.180 8  96428646.664 8      1144.993          51.000
E08  22591526.305 7 118719277.024 7     -1349.094          44.000    22591525.625 5  90966755.708 5     -1033.625          34.000
E13  24117668.492 8 126739187.881 8     -1555.172          51.000    24117670.758 8  97111866.749 8     -1191.598          51.000
> 2020 05 06 20 09 30.0000000  0 18        .000000000000
G01  20274112.891 8 106541177.166 8       184.426          51.000    20274114.680 8  83019105.693 8       143.708          51.000
G03  21047716.984 6 110606506.139 6      1763.957          41.000    21047718.930 6  86186907.239 6      1374.512          41.000
G08  23125678.469 6 121526233.061 6     -3496.871          40.000    23125680.133 6  94695760.713 6     -2724.835          41.000
G11  20480478.375 8 107625659.357 8     -1944.441          51.000    20480478.727 8  83864120.826 8     -1515.149          50.000
G14  22041038.227 6 115826443.013 6      -933.383          40.000    22041036.789 5  90254375.621 5      -727.314          33.000
G22  20613011.750 8 108322203.562 8       110.566          51.000    20613008.367 8  84406857.442 8        86.156          51.000
R03  22495819.430 5 120421842.149 5     -3869.648          33.000
R04  19307827.359 8 103392587.692 8     -1080.164          51.000    19307829.086 7  80416507.008 7      -840.128          47.000
R05  20464886.719 8 109396604.799 8      2849.047          51.000    20464888.969 7  85086234.522 7      2215.928          44.000
R18  22849789.523 7 121973742.117 7     -3841.371          42.000    22849796.867 7  94868443.564 7     -2987.733          46.000
R19  19571014.000 7 104691713.204 7     -1447.000          42.000    19571015.297 7  81426897.183 7     -1125.444          47.000
C05                                                                  39673748.672 6 159749745.328 6       -21.316          36.000
C11                                                                  26002404.391 6 104700866.361 6     -2594.994          38.000
C14  22110379.016 8 115134593.467 8     -1540.125          50.000    22110377.352 8  89029398.332 8     -1190.986          51.000
C28  21563986.000 8 112289373.014 8      -208.574          51.000
E07  23939488.211 8 125802845.494 8      1487.684          51.000    23939491.258 8  96394405.166 8      1139.949          51.000
E08  22599252.539 7 118759877.795 7     -1354.926          44.000    22599252.305 6  90997865.452 6     -1038.181          36.000
E13  24126563.852 8 126785933.533 8     -1558.398          51.000    24126566.031 8  97147684.813 8     -1194.118          51.000
> 2020 05 06 20 10  0.0000000  0 18        .000000000000
G01  20273115.281 8 106535934.406 8       166.133          51.000    20273117.000 8  83015020.413 8       129.451          51.000
G03  21037700.109 6 110553868.432 6      1746.555          38.000    21037702.836 6  86145890.810 6      1360.949          38.000
G08  23145678.406 6 121631328.795 6     -3508.855          38.000    23145679.883 6  94777653.469 6     -2734.176          37.000
G11  20491644.469 8 107684338.912 8     -1966.398          50.000    20491645.070 8  83909845.134 8     -1532.262          49.000
G14  22046433.438 6 115854795.114 6      -955.852          37.000    22046430.430 5  90276468.126 5      -744.819          35.000
G22  20612432.297 8 108319158.626 8        93.430          51.000    20612429.023 8  84404484.768 8        72.802          51.000
R03  22517541.828 5 120538120.756 5     -3880.141          34.000
R04  19313957.289 8 103425413.373 8     -1107.086          51.000    19313959.133 7  80442038.110 7      -861.067          47.000
R05  20448964.594 8 109311490.639 8      2826.324          51.000    20448966.945 7  85020034.681 7      2198.255          45.000
R18  22871417.750 6 122089208.626 6     -3855.559          37.000    22871427.836 7  94958250.930 7     -2998.765          45.000
R19  19579207.039 6 104735539.821 6     -1473.660          41.000    19579208.430 7  81460984.546 7     -1146.180          47.000
C05                                                                  39673925.609 6 159750458.089 6       -25.593          37.000
C11                                                                  26021766.250 5 104778828.314 5     -2601.636          34.000
C14  22119300.250 8 115181048.638 8     -1555.781          49.000    22119298.633 8  89065320.409 8     -1203.053          51.000
C28  21565249.773 8 112295954.864 8      -229.238          51.000
E07  23931046.758 8 125758486.329 8      1470.625          51.000    23931049.492 8  96360415.683 8      1126.831          51.000
E08  22607037.227 7 118800786.440 7     -1371.246          44.000    22607037.961 6  91029211.051 6     -1050.776          37.000
E13  24135502.883 8 126832909.096 8     -1572.277          51.000    24135505.062 8  97183679.045 8     -1204.708          51.000
> 2020 05 06 20 10 30.0000000  0 18        .000000000000
G01  20272200.867 8 106531128.910 8       153.980          51.000    20272202.469 8  83011275.868 8       119.985          51.000
G03  21027760.820 6 110501637.231 6      1735.645          40.000    21027763.914 6  86105191.171 6      1352.450          40.000
G08  23165725.797 6 121736671.056 6     -3514.098          39.000    23165726.680 6  94859738.278 6     -2738.258          39.000
G11  20502914.266 8 107743562.192 8     -1982.078          51.000    20502914.297 7  83955993.118 7     -1544.480          45.000
G14  22051937.961 6 115883723.282 6      -973.441          36.000    22051937.414 6  90299009.607 6      -758.523          37.000
G22  20611929.328 8 108316515.951 8        82.480          51.000    20611926.148 8  84402425.543 8        64.270          51.000
R03  22539301.836 5 120654606.707 5     -3884.945          35.000
R04  19320216.586 8 103458930.319 8     -1127.672          51.000    19320218.297 7  80468106.861 7      -877.078          47.000
R05  20433148.742 8 109226948.975 8      2809.637          49.000    20433151.844 7  84954280.038 7      2185.273          47.000
R18  22893105.195 7 122204981.475 7     -3863.012          42.000    22893116.180 7  95048296.540 7     -3004.562          45.000
R19  19587526.477 6 104780043.646 6     -1493.965          41.000    19587527.875 7  81495598.632 7     -1161.973          46.000
C05                                                                  39674111.695 6 159751208.009 6       -24.880          36.000
C11                                                                  26041157.633 5 104856906.644 5     -2604.161          30.000
C14  22128289.828 8 115227860.813 8     -1565.348          49.000    22128288.430 8  89101518.562 8     -1210.438          51.000
C28  21566611.555 8 112303046.652 8      -243.809          51.000
E07  23922681.844 8 125714530.366 8      1459.453          51.000    23922684.109 8  96326735.152 8      1118.294          50.000
E08  22614894.070 7 118842075.346 7     -1381.660          44.000    22614894.695 6  91060848.032 6     -1058.791          37.000
E13  24144499.594 8 126880188.319 8     -1580.023          51.000    24144501.844 8  97219905.998 8     -1210.664          51.000
> 2020 05 06 20 11  0.0000000  0 18        .000000000000
G01  20271356.242 8 106526690.288 8       140.871          51.000    20271357.852 8  83007817.190 8       109.770          51.000
G03  21017885.992 6 110449741.801 6      1723.387          40.000    21017888.336 6  86064753.193 6      1342.899          40.000
G08  23185806.680 6 121842185.748 6     -3520.977          37.000    23185805.844 6  94941957.530 6     -2743.618          37.000
G11  20514273.984 8 107803257.199 8     -1998.559          51.000    20514272.633 7  84002508.645 7     -1557.321          44.000
G14  22057537.930 6 115913154.836 6      -990.234          38.000    22057540.008 5  90321943.362 5      -771.611          35.000
G22  20611489.289 8 108314203.509 8        70.672          51.000    20611486.156 8  84400623.639 8        55.069          51.000
R03  22561085.898 6 120771224.228 6     -3890.449          36.000
R04  19326590.625 8 103493063.576 8     -1148.988          51.000    19326592.289 8  80494654.961 8      -893.658          48.000
R05  20417426.250 8 109142909.206 8      2792.082          50.000    20417430.742 8  84888915.736 8      2171.619          48.000
R18  22914838.672 7 122320986.623 7     -3871.676          43.000    22914848.227 7  95138522.774 7     -3011.306          45.000
R19  19595958.898 6 104825152.298 6     -1514.516          41.000    19595960.164 7  81530683.119 7     -1177.960          45.000
C05                                                                  39674293.617 6 159751940.668 6       -24.989          36.000
C11  26060567.031 5 135704202.826 5     -3370.230          32.000
C14  22137334.359 8 115274958.023 8     -1575.605          49.000    22137333.031 8  89137937.116 8     -1218.346          51.000
C28  21568058.375 8 112310578.321 8      -259.285          51.000
E07  23914380.016 8 125670907.057 8      1447.574          51.000    23914381.789 8  96293309.537 8      1109.162          50.000
E08  22622809.852 7 118883672.113 7     -1392.500          45.000    22622809.367 6  91092720.880 6     -1067.157          38.000
E13  24153540.164 8 126927700.021 8     -1588.551          51.000    24153542.836 8  97256311.063 8     -1217.183          51.000
> 2020 05 06 20 11 30.0000000  0 18        .000000000000
G01  20270589.141 8 106522658.819 8       127.367          51.000    20270590.758 8  83004675.786 8        99.250          51.000
G03  21008082.000 6 110398221.933 6      1710.699          36.000    21008084.602 6  86024607.900 6      1333.015          36.000
G08  23205927.492 5 121947910.375 5     -3527.715          34.000    23205925.125 5  95024340.276 5     -2748.872          35.000
G11  20525730.680 8 107863461.897 8     -2015.438          51.000    20525728.727 7  84049421.320 7     -1570.474          45.000
G14  22063241.664 6 115943128.802 6     -1008.312          40.000    22063242.492 5  90345299.683 5      -785.701          31.000
G22  20611119.367 8 108312260.160 8        58.336          51.000    20611116.398 8  84399109.360 8        45.457          51.000
R03  22582901.930 5 120888010.678 5     -3896.105          34.000
R04  19333087.195 8 103527851.050 8     -1170.645          51.000    19333088.828 8  80521711.885 8      -910.501          48.000
R05  20401806.602 8 109059413.632 8      2773.922          51.000    20401811.586 8  84823974.726 8      2157.495          48.000
R18  22936622.438 7 122437261.927 7     -3880.594          44.000    22936630.883 7  95228959.089 7     -3018.243          44.000
R19  19604512.086 6 104870905.569 6     -1536.113          40.000    19604512.805 7  81566268.974 7     -1194.758          43.000
C05                                                                  39674478.836 6 159752686.302 6       -25.457          36.000
C11  26079994.945 5 135805370.110 5     -3374.336          32.000    26079990.961 4 105013305.920 4     -2609.365          29.000
C14  22146440.844 8 115322377.915 8     -1586.250          48.000    22146439.594 8  89174605.200 8     -1226.616          51.000
C28  21569597.391 8 112318589.522 8      -275.293          51.000
E07  23906149.375 8 125627656.568 8      1435.172          51.000    23906150.625 8  96260169.597 8      1099.704          50.000
E08  22630791.625 7 118925615.040 7     -1404.113          44.000    22630790.984 6  91124858.929 6     -1075.933          39.000
E13  24162632.688 8 126975483.740 8     -1597.535          51.000    24162635.492 8  97292924.552 8     -1224.136          51.000
> 2020 05 06 20 12  0.0000000  0 19        .000000000000
G01  20269899.961 8 106519036.886 8       114.145          51.000    20269901.602 8  83001853.506 8        88.944          51.000
G03  20998350.062 6 110347079.759 6      1698.570          41.000    20998352.930 6  85984756.845 6      1323.561          40.000
G08  23226087.141 5 122053843.371 5     -3534.406          32.000    23226083.695 5  95106885.378 5     -2754.089          32.000
G11  20537284.508 8 107924177.158 8     -2032.090          50.000    20537283.023 7  84096731.874 7     -1583.447          47.000
G14  22069048.641 6 115973645.421 6     -1026.168          37.000    22069048.148 5  90369078.903 5      -799.608          34.000
G22  20610819.898 8 108310687.254 8        46.504          51.000    20610816.938 8  84397883.726 8        36.237          51.000
G32  23032275.523 6 121035408.052 6     -2432.227          36.000    23032272.070 5  94313327.335 5     -1895.220          31.000
R03  22604748.031 4 121004964.612 4     -3900.879          29.000    22604761.695 4  94115036.482 4     -3034.017          26.000
R04  19339705.359 8 103563292.069 8     -1191.977          51.000    19339706.766 7  80549277.136 7      -927.096          47.000
R05  20386290.125 8 108976465.693 8      2756.113          51.000    20386294.047 7  84759459.721 7      2143.647          46.000
R18  22958455.711 7 122553806.999 7     -3889.008          46.000    22958463.656 6  95319605.214 6     -3024.787          41.000
R19  19613185.836 6 104917304.996 6     -1557.332          40.000    19613185.406 6  81602357.382 6     -1211.261          40.000
C05                                                                  39674667.578 6 159753446.285 6       -25.472          36.000
C11  26099443.227 5 135906649.277 5     -3377.328          30.000    26099444.930 5 105091624.902 5     -2612.084          35.000
C14  22155608.992 8 115370120.540 8     -1596.617          48.000    22155608.039 8  89211522.836 8     -1234.585          51.000
C28  21571228.852 8 112327082.318 8      -290.887          51.000
E07  23897990.578 8 125584781.190 8      1423.059          51.000    23897991.594 8  96227317.074 8      1090.419          50.000
E08  22638839.148 6 118967904.450 6     -1415.125          41.000    22638838.953 6  91157262.533 6     -1084.481          39.000
E13  24171777.586 8 127023541.106 8     -1606.293          51.000    24171780.078 8  97329747.709 8     -1230.772          51.000
> 2020 05 06 20 12 30.0000000  0 18        .000000000000
G01  20269281.477 8 106515786.716 8       102.125          51.000    20269283.203 8  82999320.904 8        79.578          51.000
G03  20988683.219 7 110296276.996 7      1687.809          42.000    20988685.562 7  85945170.304 7      1315.179          42.000
G08  23246277.766 6 122159944.475 6     -3539.695          36.000    23246272.773 5  95189561.477 5     -2758.207          35.000
G11  20548927.906 8 107985363.135 8     -2047.434          50.000    20548926.938 8  84144409.291 8     -1595.400          49.000
G14  22074951.609 6 116004665.406 6     -1042.781          36.000    22074951.523 5  90393250.349 5      -812.548          34.000
G22  20610583.586 8 108309445.650 8        35.781          51.000    20610580.578 8  84396916.230 8        27.881          51.000
G32  23046191.656 6 121108549.886 6     -2444.453          37.000    23046183.781 5  94370293.974 5     -1904.775          33.000
R04  19346438.070 8 103599344.808 8     -1212.016          51.000    19346439.414 7  80577318.147 7      -942.676          47.000
R05  20370869.492 8 108894027.870 8      2739.332          51.000    20370871.492 7  84695341.490 7      2130.595          45.000
R18  22980331.844 7 122670580.524 7     -3896.312          47.000    22980338.602 6  95410429.081 6     -3030.465          41.000
R19  19621972.938 6 104964311.182 6     -1577.078          40.000    19621971.719 6  81638917.705 6     -1226.616          39.000
C05                                                                  39674852.570 6 159754191.148 6       -24.569          36.000
C11  26118907.586 4 136008005.245 4     -3380.270          29.000    26118912.250 6 105170003.250 6     -2613.781          39.000
C14  22164831.648 8 115418146.331 8     -1605.742          48.000    22164830.734 8  89248659.418 8     -1241.595          51.000
C28  21572945.680 8 112336019.015 8      -305.285          51.000
E07  23889896.008 8 125542242.971 8      1412.215          51.000    23889897.266 8  96194722.890 8      1082.120          51.000
E08  22646945.258 6 119010500.574 6     -1424.938          40.000    22646944.859 6  91189901.139 6     -1091.934          39.000
E13  24180967.273 8 127071833.686 8     -1613.656          51.000    24180969.273 8  97366751.087 8     -1236.531          51.000
