     3.04           OBSERVATION DATA    M (MIXED)           RINEX VERSION / TYPE
Convert 2.6.2       NovAtel             20200515 160444 UTC PGM / RUN BY / DATE 
Rinex Version 3.04 Observation File                         COMMENT             
                                                            MARKER NAME         
                                                            MARKER NUMBER       
                                                            MARKER TYPE         
                                                            OBSERVER / AGENCY   
                    NovAtel GPSCard                         REC # / TYPE / VERS 
                                                            ANT # / TYPE        
        0.0000        0.0000        0.0000                  APPROX POSITION XYZ 
        0.0000        0.0000        0.0000                  ANTENNA: DELTA H/E/N
G    8 C1C L1C D1C S1C C2W L2W D2W S2W                      SYS / # / OBS TYPES 
R    8 C1C L1C D1C S1C C2P L2P D2P S2P                      SYS / # / OBS TYPES 
E    8 C1C L1C D1C S1C C7Q L7Q D7Q S7Q                      SYS / # / OBS TYPES 
C    8 C2I L2I D2I S2I C7I L7I D7I S7I                      SYS / # / OBS TYPES 
DBHZ                                                        SIGNAL STRENGTH UNIT
    30.000                                                  INTERVAL            
  2020    05    11    11    00    0.0000000     GPS         TIME OF FIRST OBS   
  2020    05    11    11    59   30.0000000     GPS         TIME OF LAST OBS    
G L1C  0.00000  09 G02 G32 G25 G29 G21 G14 G12 G18 G31      SYS / PHASE SHIFT   
G L2W  0.00000  09 G32 G25 G29 G12 G21 G18 G14 G02 G31      SYS / PHASE SHIFT   
R L1C  0.00000  04 R21 R10 R20 R09                          SYS / PHASE SHIFT   
R L2P  0.25000  03 R20 R09 R21                              SYS / PHASE SHIFT   
E L1C  0.50000  05 E01 E33 E26 E21 E31                      SYS / PHASE SHIFT   
E L7Q -0.25000  04 E01 E33 E26 E31                          SYS / PHASE SHIFT   
C L2I  0.00000  06 C25 C11 C23 C28 C12 C05                  SYS / PHASE SHIFT   
C L7I  0.00000  03 C05 C11 C12                              SYS / PHASE SHIFT   
  4 R21  4 R10 -7 R20  2 R09 -2                             GLONASS SLOT / FRQ #
 C1C  -71.950 C2C  -71.950 C2P  -71.950                     GLONASS COD/PHS/BIS 
     0     0     0     0GPS                                 LEAP SECONDS        
                                                            END OF HEADER       
> 2020 05 11 11 00  0.0000000  0 15      -0.000000000000
G02  23630485.977 5 124179045.416 5     -1960.277          32.000                                                                  
G32  23767972.273 8 124901529.115 8     -2744.902          49.000    23767974.836 8  97325873.683 8     -2138.889          49.000  
G25  20460285.672 8 107519536.566 8     -1110.863          51.000    20460287.938 8  83781446.324 8      -865.608          51.000  
G29  20295583.039 8 106654000.822 8       701.148          51.000    20295582.742 8  83107033.306 8       546.350          51.000  
R21  22707485.320 5 121511971.124 5      4270.055          35.000                                                                  
R10  19395179.148 6 103386859.972 6      1114.793          39.000                                                                  
R20  19406544.055 6 103775131.256 6      1100.215          41.000    19406547.289 7  80714010.592 7       855.723          47.000  
R09  19845339.570 8 105972605.891 8     -1757.664          51.000    19845342.367 8  82423179.534 8     -1367.072          51.000  
E01  24069166.516 8 126484307.009 8     -1013.617          51.000    24069167.891 8  96916546.347 8      -776.686          51.000  
E33  24674010.336 8 129662834.169 8      2272.031          51.000    24674011.688 8  99352016.938 8      1740.950          51.000  
E26                                                                  23212795.375 7  93468311.525 7      -364.659          46.000  
C25  22526940.828 8 117303649.223 8     -1825.559          51.000                                                                  
C05                                                                  39657128.656 6 159682822.909 6        23.379          37.000  
C11  21800021.648 8 113518491.048 8      -137.758          50.000    21800022.828 8  87779645.525 8      -106.484          51.000  
C23  22243482.930 5 115827654.512 5      1188.266          35.000                                                                  
> 2020 05 11 11 00 30.0000000  0 16      -0.000000000000
G02  23641704.945 5 124237998.67425     -1956.070          30.000                                                                  
G32  23783647.484 8 124983902.276 8     -2734.781          49.000    23783648.414 8  97390060.519 8     -2130.999          49.000  
G25  20466643.102 8 107552944.125 8     -1104.703          51.000    20466645.352 8  83807478.186 8      -860.808          51.000  
G29  20291609.695 8 106633122.307 8       702.426          51.000    20291609.562 8  83090764.348 8       547.348          51.000  
R21  22683552.055 6 121383910.752 6      4279.426          36.000                                                                  
R10  19388936.289 6 103353581.154 6      1115.520          41.000                                                                  
R20  19400428.672 6 103742426.477 6      1091.879          41.000    19400431.062 7  80688573.565 7       849.239          47.000  
R09  19855247.359 8 106025511.881 8     -1757.551          51.000    19855250.156 8  82464328.624 8     -1366.984          51.000  
E01  24074959.117 8 126514746.594 8     -1003.852          51.000    24074960.312 8  96939870.173 8      -769.149          51.000  
E33  24661053.391 8 129594747.413 8      2278.887          51.000    24661055.625 8  99299846.586 8      1746.158          51.000  
E26  23215532.977 6 121998447.700 6      -472.773          38.000    23215537.320 7  93479350.330 7      -362.195          47.000  
C25  22537476.234 8 117358508.111 8     -1820.109          51.000                                                                  
C12                                                                  24301644.828 5  97852624.060 5     -2151.965          31.000  
C05                                                                  39656941.023 6 159682067.525 6        36.325          38.000  
C11  21800842.023 8 113522765.028 8      -135.512          50.000    21800843.789 8  87782950.441 8      -104.835          51.000  
C23  22236659.156 6 115792117.659 6      1192.961          36.000                                                                  
> 2020 05 11 11 01  0.0000000  0 17      -0.000000000000
G02  23652970.312 5 124297198.078 5     -1989.520          32.000                                                                  
G32  23799335.320 8 125066342.276 8     -2759.863          49.000    23799335.703 8  97454299.447 8     -2150.543          49.000  
G25  20473035.773 8 107586537.232 8     -1133.746          51.000    20473037.828 8  83833654.608 8      -883.439          51.000  
G29  20287699.891 8 106612576.935 8       668.508          51.000    20287699.438 8  83074754.973 8       520.915          51.000  
R21  22659637.031 6 121255948.315 6      4252.906          38.000                                                                  
R10  19382762.047 6 103320668.113 6      1080.215          40.000                                                                  
R20  19394430.203 6 103710349.056 6      1047.953          40.000    19394432.117 7  80663624.483 7       815.078          47.000  
R09  19865225.539 8 106078793.369 8     -1793.281          51.000    19865227.922 8  82505769.763 8     -1394.775          50.000  
E01  24080766.320 8 126545262.480 8     -1029.211          51.000    24080767.602 8  96963252.463 8      -788.632          51.000  
E33  24648127.820 8 129526825.255 8      2250.516          51.000    24648130.688 8  99247802.349 8      1724.425          51.000  
E26  23218327.625 7 122013129.864 7      -504.902          42.000    23218331.578 7  93490600.243 7      -386.718          45.000  
C25  22548050.914 8 117413573.508 8     -1849.633          51.000                                                                  
C12                                                                  24317758.172 5  97917479.833 5     -2170.261          33.000  
C05                                                                  39656725.328 6 159681198.811 6        22.724          37.000  
C28  25387177.570 5 132197718.653 5      3269.367          35.000                                                                  
C11  21801720.750 8 113527341.505 8      -168.379          50.000    21801722.789 8  87786489.250 8      -130.129          51.000  
C23  22229873.250 4 115756793.218 4      1163.477          29.000                                                                  
> 2020 05 11 11 01 30.0000000  0 16      -0.000000000000
G02  23664416.406 5 124357349.752 5     -2010.250          34.000                                                                  
G32  23815168.719 8 125149546.959 8     -2775.590          48.000    23815169.430 8  97519134.227 8     -2162.801          48.000  
G25  20479597.102 8 107621016.654 8     -1153.422          51.000    20479598.906 8  83860521.674 8      -898.771          51.000  
G29  20283986.953 8 106593065.232 8       643.773          51.000    20283985.883 8  83059551.048 8       501.642          51.000  
R21  22635874.906 6 121128800.892 6      4235.348          39.000                                                                  
R10  19376789.945 6 103288833.573 6      1053.859          41.000                                                                  
R20  19388682.312 6 103679613.480 6      1012.824          40.000    19388684.492 8  80639719.034 8       787.752          48.000  
R09  19875407.297 8 106133162.131 8     -1819.617          51.000    19875409.508 8  82548056.554 8     -1415.258          50.000  
E01  24086721.336 8 126576555.972 8     -1045.500          51.000    24086722.883 8  96987230.572 8      -801.101          51.000  
E33  24635367.578 8 129459769.997 8      2231.285          51.000    24635370.484 8  99196422.346 8      1709.681          51.000  
E26  23221307.820 6 122028787.709 6      -527.473          41.000    23221310.719 7  93502597.830 7      -404.284          45.000  
C25  22558798.281 8 117469539.458 8     -1870.035          49.000                                                                  
C05                                                                  39656614.930 6 159680753.979 6        15.897          38.000  
C28  25368408.500 5 132099988.518 5      3257.227          35.000                                                                  
C11  21802790.812 8 113532914.280 8      -191.828          49.000    21802793.148 8  87790798.473 8      -148.397          51.000  
C23  22223260.953 5 115722377.152 5      1142.652          32.000                                                                  
> 2020 05 11 11 02  0.0000000  0 15      -0.000000000000
G32  23830979.547 8 125232632.957 8     -2771.824          48.000    23830981.133 8  97583876.521 8     -2159.867          48.000  
G25  20486159.531 8 107655501.892 8     -1154.016          51.000    20486161.172 8  83887393.277 8      -899.236          51.000  
G29  20280303.156 8 106573706.695 8       638.289          51.000    20280302.109 8  83044466.466 8       497.368          51.000  
R21  22612098.852 6 121001575.142 6      4237.879          37.000                                                                  
R10  19370853.031 6 103257186.902 6      1047.277          41.000                                                                  
R20  19383017.461 6 103649323.825 6       997.680          39.000    19383020.172 8  80616160.427 8       775.973          48.000  
R09  19885624.828 8 106187723.238 8     -1826.375          51.000    19885627.047 8  82590492.915 8     -1420.517          50.000  
E01  24092656.727 8 126607747.022 8     -1042.445          51.000    24092658.336 8  97011130.198 8      -798.787          51.000  
E33  24622605.289 8 129392702.581 8      2231.320          51.000    24622607.867 8  99145033.029 8      1709.729          51.000  
E26  23224304.984 7 122044540.286 7      -531.125          45.000    23224308.570 7  93514668.010 7      -406.945          45.000  
C25  22569550.812 8 117525532.965 8     -1871.344          48.000                                                                  
C05                                                                  39656442.289 6 159680058.500 6        23.923          38.000  
C28  25349603.938 5 132002060.202 5      3263.207          35.000                                                                  
C11  21803884.539 8 113538610.237 8      -196.344          49.000    21803887.102 8  87795202.932 8      -151.832          51.000  
C23  22216658.484 5 115687998.609 5      1140.734          34.000                                                                  
> 2020 05 11 11 02 30.0000000  0 16      -0.000000000000
G32  23846830.797 7 125315931.382 7     -2779.918          47.000    23846833.336 8  97648784.330 8     -2166.170          48.000  
G25  20492786.586 8 107690326.997 8     -1166.340          51.000    20492788.031 8  83914529.718 8      -908.837          51.000  
G29  20276712.047 8 106554835.255 8       621.020          51.000    20276711.109 8  83029761.441 8       483.911          51.000  
R21  22588372.719 6 120874614.499 6      4227.699          38.000    22588385.586 4  94013574.284 4      3288.217          27.000  
R10  19365015.438 7 103226069.815 7      1028.516          42.000                                                                  
R20  19377499.578 6 103619821.129 6       970.684          39.000    19377503.234 8  80593213.894 8       754.976          48.000  
R09  19895941.828 8 106242816.131 8     -1845.191          51.000    19895943.906 8  82633342.917 8     -1435.149          49.000  
E01  24098636.312 8 126639170.161 8     -1051.062          51.000    24098637.836 8  97035207.657 8      -805.381          51.000  
E21  27809444.609 5 146139616.527 5     -2451.121          32.000                                                                  
E33  24609904.484 8 129325958.576 8      2219.590          51.000    24609906.867 8  99093891.531 8      1700.744          51.000  
E26  23227384.438 7 122060721.164 7      -546.184          46.000    23227388.562 7  93527066.347 7      -418.576          44.000  
C25  22580371.633 8 117581884.762 8     -1884.238          49.000                                                                  
C05                                                                  39656270.891 6 159679368.474 6        23.119          38.000  
C28  25330823.586 5 131904266.280 5      3257.477          31.000                                                                  
C11  21805065.289 8 113544759.719 8      -212.367          48.000    21805068.039 8  87799958.096 8      -164.140          51.000  
C23  22210127.711 5 115653990.243 5      1127.770          35.000                                                                  
> 2020 05 11 11 03  0.0000000  0 15      -0.000000000000
G32  23862722.008 7 125399440.598 7     -2787.449          47.000    23862725.438 7  97713856.392 7     -2172.039          47.000  
G25  20499478.492 8 107725493.304 8     -1178.105          51.000    20499480.055 8  83941932.026 8      -918.005          51.000  
G29  20273214.039 8 106536452.002 8       604.445          51.000    20273212.891 8  83015436.816 8       470.996          51.000  
R21  22564697.766 6 120747923.903 6      4218.457          38.000    22564708.234 5  93915037.209 5      3281.029          30.000  
R10  19359278.102 7 103195485.761 7      1010.434          43.000                                                                  
R20  19372129.367 6 103591106.879 6       943.645          39.000    19372133.539 8  80570880.601 8       733.946          48.000  
R09  19906358.375 8 106298441.954 8     -1863.285          50.000    19906360.945 8  82676607.438 8     -1449.225          50.000  
E01  24104660.312 8 126670827.231 8     -1059.273          51.000    24104661.953 8  97059464.379 8      -811.655          51.000  
E33  24597265.461 8 129259540.773 8      2208.355          51.000    24597267.938 8  99042999.991 8      1692.162          51.000  
E26  23230545.508 7 122077331.084 7      -560.871          45.000    23230549.500 7  93539793.441 7      -429.783          43.000  
C25  22591261.805 8 117638595.707 8     -1896.500          51.000                                                                  
C05                                                                  39656101.148 6 159678685.165 6        22.422          38.000  
C28  25312069.734 5 131806609.688 5      3252.906          34.000                                                                  
C11  21806333.195 7 113551363.399 7      -227.844          47.000    21806336.266 8  87805064.477 8      -176.177          51.000  
C23  22203668.852 6 115620354.928 6      1114.535          36.000                                                                  
> 2020 05 11 11 03 30.0000000  0 18      -0.000000000000
G21  23921869.164 6 125710265.628 6      3511.801          36.000                                                                  
G32  23878651.195 7 125483149.287 7     -2792.480          46.000    23878655.242 7  97779083.900 7     -2175.959          46.000  
G14  23235201.219 5 122101809.736 5     -1608.059          35.000                                                                  
G25  20506233.719 8 107760992.329 8     -1187.625          51.000    20506235.352 8  83969593.589 8      -925.422          51.000  
G29  20269807.109 8 106518548.293 8       590.055          51.000    20269805.898 8  83001485.879 8       459.783          51.000  
R21  22541073.469 6 120621497.839 6      4210.852          36.000    22541081.891 5  93816705.895 5      3275.110          32.000  
R10  19353639.953 7 103165428.626 7       994.453          44.000                                                                  
R20  19366905.578 6 103563173.527 6       919.594          40.000    19366910.172 8  80549154.660 8       715.243          48.000  
R09  19916873.250 8 106354591.668 8     -1879.086          51.000    19916876.250 8  82720279.407 8     -1461.512          50.000  
E01  24110727.219 8 126702710.265 8     -1065.340          51.000    24110729.219 8  97083894.214 8      -816.324          51.000  
E21  27837471.656 5 146286912.733 5     -2457.152          33.000                                                                  
E33  24584686.727 8 129193442.257 8      2199.109          50.000    24584689.625 8  98992353.107 8      1685.048          51.000  
E26  23233786.375 7 122094361.017 7      -573.516          46.000    23233789.461 6  93552842.350 6      -439.310          41.000  
C25  22602219.875 8 117695657.000 8     -1906.598          51.000                                                                  
C05                                                                  39655931.406 6 159678002.052 6        23.654          37.000  
C28  25293341.172 5 131709083.696 5      3250.047          32.000                                                                  
C11  21807686.797 8 113558412.347 8      -241.184          48.000    21807689.914 8  87810515.168 8      -186.498          51.000  
C23  22197280.266 6 115587085.856 6      1103.797          37.000                                                                  
> 2020 05 11 11 04  0.0000000  0 18      -0.000000000000
G21  23901836.039 5 125604987.874 5      3506.605          35.000                                                                  
G32  23894615.398 7 125567041.638 7     -2800.562          45.000    23894619.617 7  97844454.525 7     -2182.257          45.000  
G14  23244423.406 5 122150272.869 5     -1623.125          34.000                                                                  
G25  20513049.844 8 107796811.195 8     -1200.375          51.000    20513051.414 8  83997504.384 8      -935.357          51.000  
G29  20266489.062 8 106501110.987 8       572.387          51.000    20266487.703 8  82987898.378 8       446.016          51.000  
R21  22517498.086 5 120495326.728 5      4199.984          35.000    22517503.680 5  93718572.868 5      3266.658          33.000  
R10  19348098.508 7 103135887.808 7       974.867          44.000                                                                  
R20  19361825.633 6 103536007.904 6       891.480          40.000    19361830.555 8  80528025.867 8       693.377          48.000  
R09  19927484.227 8 106411252.398 8     -1898.336          51.000    19927486.820 8  82764348.872 8     -1476.484          49.000  
E01  24116834.695 8 126734806.778 8     -1074.500          51.000    24116837.047 8  97108487.640 8      -823.349          51.000  
E21  27851515.305 5 146360698.406 5     -2461.852          31.000                                                                  
E33  24572166.695 8 129127651.568 8      2186.793          51.000    24572169.672 8  98941942.078 8      1675.620          51.000  
E26  23237104.492 7 122111797.578 7      -589.070          47.000    23237107.836 6  93566202.823 6      -451.363          41.000  
C25  22613242.930 8 117753055.476 8     -1920.020          51.000                                                                  
C05                                                                  39655759.422 6 159677309.630 6        22.443          38.000  
C28  25274634.836 5 131611677.228 5      3243.969          30.000                                                                  
C11  21809123.602 7 113565893.086 7      -257.602          47.000    21809126.211 8  87816299.734 8      -199.215          51.000  
C23  22190959.867 6 115554171.891 6      1090.039          37.000                                                                  
> 2020 05 11 11 04 30.0000000  0 18      -0.000000000000
G21  23881824.008 5 125499822.362 5      3503.410          32.000                                                                  
G32  23910617.312 7 125651130.732 7     -2806.164          45.000    23910621.047 7  97909978.449 7     -2186.625          45.000  
G14  23253728.070 5 122199181.197 5     -1637.500          31.000                                                                  
G12  22321905.133 5 117302390.554 5     -2596.047          32.000    22321906.320 5  91404470.997 5     -2022.906          32.000  
G25  20519929.867 8 107832965.926 8     -1210.742          51.000    20519931.531 8  84025676.901 8      -943.436          51.000  
G29  20263262.844 8 106484156.005 8       557.117          51.000    20263261.414 8  82974686.694 8       434.117          51.000  
R21  22493975.031 5 120369429.989 5      4191.637          32.000    22493976.406 5  93620653.164 5      3260.163          34.000  
R10  19342657.250 7 103106882.155 7       957.863          45.000                                                                  
R20  19356892.484 6 103509627.009 6       866.438          40.000    19356897.391 8  80507507.407 8       673.896          48.000  
R09  19938193.984 8 106468440.014 8     -1914.941          51.000    19938196.242 8  82808828.101 8     -1489.399          50.000  
E01  24122986.172 8 126767133.369 8     -1081.363          51.000    24122988.562 8  97133257.360 8      -828.607          51.000  
E33  24559708.945 8 129062186.166 8      2176.766          51.000    24559711.461 8  98891780.302 8      1667.936          51.000  
E26  23240502.727 7 122129656.113 7      -602.312          47.000    23240507.656 6  93579886.667 6      -461.447          39.000  
C25  22624333.703 8 117810806.519 8     -1930.965          51.000                                                                  
C12  24431827.742 5 127222941.403 5     -2846.898          31.000    24431826.547 5  98376850.497 5     -2201.781          30.000  
C05                                                                  39655588.219 6 159676620.333 6        22.959          37.000  
C11  21810645.969 7 113573820.827 7      -271.551          46.000    21810648.375 8  87822429.981 8      -210.074          51.000  
C23  22184711.477 6 115521630.572 6      1078.277          38.000                                                                  
> 2020 05 11 11 05  0.0000000  0 16      -0.000000000000
G21  23861840.281 5 125394808.984 5      3500.301          34.000                                                                  
G32  23926663.469 7 125735450.724 7     -2811.836          46.000    23926666.250 7  97975682.295 7     -2191.045          46.000  
G12  22336750.156 5 117380413.74625     -2601.844          32.000                                                                  
G25  20526880.836 8 107869493.500 8     -1220.996          51.000    20526882.516 8  84054139.929 8      -951.426          51.000  
G29  20260135.164 8 106467720.130 8       541.961          51.000    20260134.023 8  82961879.504 8       422.307          51.000  
R10  19337323.789 7 103078451.099 7       940.914          45.000                                                                  
R20  19352113.109 6 103484068.912 6       841.129          40.000    19352118.086 8  80487628.875 8       654.211          48.000  
R09  19949009.219 8 106526191.790 8     -1931.684          51.000    19949011.195 8  82853746.110 8     -1502.424          48.000  
E01  24129188.445 8 126799727.481 8     -1088.227          51.000    24129190.758 8  97158232.055 8      -833.854          51.000  
E33  24547320.641 8 128997084.580 8      2166.715          51.000    24547322.594 8  98841897.284 8      1660.154          51.000  
E26  23243988.570 8 122147973.132 8      -615.402          48.000    23243993.586 6  93593921.809 6      -471.713          36.000  
C25  22635498.961 8 117868946.361 8     -1941.672          50.000                                                                  
C12  24448253.805 5 127308482.323 5     -2852.648          30.000    24448253.039 4  98442986.010 4     -2205.037          28.000  
C05                                                                  39655424.883 6 159675962.631 6        23.542          38.000  
C11  21812261.445 8 113582231.548 8      -285.629          48.000    21812263.469 8  87828933.689 8      -220.903          51.000  
C23  22178541.562 6 115489500.097 6      1066.566          38.000                                                                  
> 2020 05 11 11 05 30.0000000  0 16      -0.000000000000
G21  23841871.625 5 125289879.664 5      3507.461          34.000                                                                  
G02  23758205.039 4 124850205.97524     -2094.352          28.000                                                                  
G32  23942737.969 7 125819920.398 7     -2807.531          47.000    23942740.102 7  98041502.758 7     -2187.687          47.000  
G25  20533887.844 8 107906315.554 8     -1221.648          51.000    20533889.562 8  84082832.430 8      -951.934          51.000  
G29  20257091.406 8 106451724.865 8       536.430          51.000    20257090.594 8  82949415.663 8       418.000          51.000  
R10  19332083.648 7 103050518.213 7       933.680          46.000                                                                  
R20  19347472.695 6 103459254.310 6       825.570          40.000    19347478.062 8  80468328.662 8       642.110          48.000  
R09  19959915.094 8 106584428.056 8     -1938.473          51.000    19959916.578 8  82899040.955 8     -1507.701          48.000  
E01  24135426.953 8 126832511.314 8     -1085.137          51.000    24135428.969 8  97183352.110 8      -831.457          51.000  
E33  24534986.922 8 128932269.881 8      2166.492          51.000    24534988.406 8  98792234.081 8      1660.037          51.000  
E26  23247546.531 8 122166669.707 8      -618.742          48.000    23247550.641 5  93608253.693 5      -473.853          32.000  
C25  22646723.578 8 117927396.908 8     -1942.879          48.000                                                                  
C12  24464704.555 4 127394152.322 4     -2847.707          29.000                                                                  
C05                                                                  39655254.555 6 159675276.684 6        31.535          38.000  
C11  21813954.500 7 113591047.016 7      -290.078          47.000    21813956.141 8  87835750.347 8      -224.135          51.000  
C23  22172435.586 6 115457704.510 6      1064.828          37.000                                                                  
> 2020 05 11 11 06  0.0000000  0 16      -0.000000000000
G21  23821882.938 5 125184841.030 5      3488.867          32.000                                                                  
G02  23770220.492 5 124913349.137 5     -2121.488          31.000                                                                  
G32  23958805.844 7 125904356.111 7     -2827.730          47.000    23958807.742 7  98107296.766 7     -2203.427          47.000  
G25  20540916.461 8 107943251.426 8     -1247.012          51.000    20540918.188 8  84111613.621 8      -971.698          51.000  
G29  20254097.117 8 106435989.328 8       506.207          51.000    20254096.461 8  82937154.210 8       394.447          51.000  
R10  19326902.906 7 103022902.072 7       901.137          47.000                                                                  
R20  19342937.094 6 103434999.658 6       784.918          40.000    19342942.227 8  80449463.926 8       610.492          48.000  
R09  19970877.094 8 106642964.798 8     -1970.289          51.000    19970878.641 8  82944569.492 8     -1532.447          49.000  
E01  24141667.391 8 126865304.650 8     -1107.203          51.000    24141669.242 8  97208479.447 8      -848.350          51.000  
E33  24522673.445 8 128867562.812 8      2141.242          51.000    24522674.797 8  98742653.360 8      1640.678          51.000  
E26  23251142.031 8 122185564.507 8      -647.031          48.000                                                                  
C25  22657973.398 8 117985978.648 8     -1968.625          50.000                                                                  
C12  24481146.156 5 127479751.727 5     -2866.113          30.000    24481144.484 5  98575421.172 5     -2216.808          31.000  
C05                                                                  39655042.797 6 159674424.186 6        20.449          38.000  
C11  21815690.531 8 113600087.314 8      -318.832          48.000    21815691.648 8  87842740.889 8      -246.626          51.000  
C23  22166359.945 6 115426066.279 6      1038.219          38.000                                                                  
> 2020 05 11 11 06 30.0000000  0 19      -0.000000000000
G21  23801969.188 5 125080192.066 5      3489.430          34.000                                                                  
G02  23782360.227 5 124977138.457 5     -2129.371          33.000                                                                  
G32  23974960.172 7 125989247.293 7     -2829.934          47.000    23974962.234 7  98173445.674 7     -2205.147          47.000  
G12  22381457.688 5 117615362.146 5     -2620.383          35.000    22381456.289 5  91648352.834 5     -2041.860          35.000  
G25  20548060.383 8 107980793.412 8     -1254.141          51.000    20548062.148 8  84140867.104 8      -977.253          51.000  
G29  20251245.727 8 106421005.657 8       494.207          51.000    20251245.414 8  82925478.632 8       385.096          51.000  
R21  22400370.969 4 119868474.583 4      4155.422          29.000    22400362.359 5  93231035.704 5      3231.995          34.000  
R10  19321875.836 7 102996104.529 7       886.887          47.000                                                                  
R20  19338599.445 6 103411806.272 6       762.719          38.000    19338604.945 8  80431424.654 8       593.229          48.000  
R09  19981989.133 8 106702302.044 8     -1983.840          51.000    19981990.945 8  82990720.638 8     -1542.987          49.000  
E01  24148003.438 8 126898600.201 8     -1110.801          51.000    24148005.305 8  97233991.587 8      -851.196          51.000  
E33  24510474.312 8 128803457.130 8      2134.059          50.000    24510475.547 8  98693533.451 8      1635.252          51.000  
E26  23254868.930 8 122205149.232 8      -656.988          48.000                                                                  
C25  22669342.352 8 118045179.026 8     -1976.379          51.000                                                                  
C12  24497671.547 5 127565803.612 5     -2867.477          31.000    24497674.445 5  98641962.639 5     -2218.001          34.000  
C05                                                                  39654883.430 6 159673782.518 6        23.563          38.000  
C28  25181481.914 5 131126589.800 5      3221.633          30.000                                                                  
C11  21817563.633 8 113609839.703 8      -329.727          49.000    21817564.195 8  87850282.039 8      -254.890          51.000  
C23  22160408.172 6 115395074.794 6      1029.730          38.000                                                                  
> 2020 05 11 11 07  0.0000000  0 18      -0.000000000000
G21  23782068.898 5 124975614.784 5      3482.867          34.000                                                                  
G02  23794561.039 5 125041254.088 5     -2144.109          34.000                                                                  
G32  23991138.000 7 126074263.185 7     -2837.410          46.000    23991140.594 7  98239691.763 7     -2210.973          46.000  
G25  20555257.273 8 108018613.612 8     -1266.789          51.000    20555259.117 8  84170337.368 8      -987.112          51.000  
G29  20248474.938 8 106406445.485 8       476.812          51.000    20248474.945 8  82914133.057 8       371.545          51.000  
R21  22377099.812 4 119744001.732 4      4143.613          27.000    22377097.914 5  93134216.082 5      3222.811          35.000  
R10  19316940.062 7 102969795.331 7       867.215          47.000                                                                  
R20  19334398.000 6 103389340.900 6       735.152          39.000    19334403.484 8  80413951.583 8       571.785          48.000  
R09  19993188.586 8 106762106.236 8     -2002.793          51.000    19993190.508 8  83037234.987 8     -1557.728          50.000  
E01  24154372.867 8 126932070.689 8     -1120.129          51.000    24154374.539 8  97259637.772 8      -858.257          51.000  
E33  24498327.758 8 128739626.415 8      2121.645          51.000    24498328.445 8  98644624.257 8      1625.599          51.000  
E26  23258664.508 7 122225095.448 7      -672.398          46.000                                                                  
C25  22680767.914 8 118104672.645 8     -1989.496          51.000                                                                  
C12  24514218.148 5 127651964.474 5     -2875.074          30.000    24514224.016 5  98708587.596 5     -2223.408          35.000  
C05                                                                  39654714.156 6 159673100.730 6        21.978          38.000  
C28  25162937.172 5 131030015.700 5      3215.625          32.000                                                                  
C11  21819510.750 8 113619978.464 8      -345.809          49.000    21819511.062 8  87858122.011 8      -267.453          51.000  
C23  22154518.664 6 115364406.859 6      1015.312          38.000                                                                  
> 2020 05 11 11 07 30.0000000  0 19      -0.000000000000
G21  23762190.883 5 124871155.23025      3479.973          31.000                                                                  
G02  23806833.344 5 125105746.493 5     -2156.109          32.000                                                                  
G32  24007348.688 7 126159452.891 7     -2841.785          45.000    24007351.805 7  98306073.320 7     -2214.379          45.000  
G12  22411454.594 5 117773039.108 5     -2632.727          31.000    22411461.797 5  91771187.998 5     -2051.476          31.000  
G25  20562517.039 8 108056764.056 8     -1276.566          51.000    20562518.930 8  84200064.967 8      -994.730          51.000  
G29  20245794.531 8 106392360.884 8       462.207          51.000    20245794.727 8  82903158.072 8       360.161          51.000  
R21  22353890.102 5 119619811.725 5      4135.570          32.000    22353887.766 5  93037608.063 5      3216.555          35.000  
R10  19312106.492 8 102944030.312 8       850.410          48.000                                                                  
R20  19330342.547 6 103367656.518 6       710.590          39.000    19330348.266 8  80397085.965 8       552.681          49.000  
R09  20004484.930 8 106822430.146 8     -2018.805          51.000    20004487.570 8  83084153.536 8     -1570.182          51.000  
E01  24160785.602 8 126965768.553 8     -1126.355          51.000    24160787.070 8  97285458.189 8      -863.061          51.000  
E33  24486243.680 8 128676124.143 8      2112.043          51.000    24486244.312 8  98595966.686 8      1618.311          51.000  
E26  23262538.633 7 122245454.492 7      -684.801          45.000    23262550.078 5  93668648.881 5      -524.787          33.000  
C25  22692259.391 8 118164510.609 8     -1999.684          51.000                                                                  
C12                                                                  24530802.156 5  98775334.644 5     -2226.045          34.000  
C05                                                                  39654544.742 6 159672418.811 6        23.204          38.000  
C28  25144416.656 5 130933582.720 5      3212.887          34.000                                                                  
C11  21821541.953 8 113630554.579 8      -359.250          50.000    21821541.656 8  87866300.142 8      -277.683          51.000  
C23  22148701.039 6 115334115.519 6      1003.789          37.000                                                                  
> 2020 05 11 11 08  0.0000000  0 19      -0.000000000000
G21  23742340.469 5 124766840.64725      3474.707          30.000                                                                  
G02  23819180.672 5 125170630.816 5     -2168.980          34.000                                                                  
G32  24023595.156 7 126244830.526 7     -2848.574          45.000    24023598.219 7  98372601.304 7     -2219.669          45.000  
G12  22426510.664 5 117852158.268 5     -2640.359          35.000    22426514.977 5  91832845.026 5     -2057.433          35.000  
G25  20569842.938 8 108095261.733 8     -1288.637          51.000    20569844.750 8  84230063.126 8     -1004.133          51.000  
G29  20243207.859 8 106378768.263 8       445.402          51.000    20243207.930 8  82892566.433 8       347.070          51.000  
R21  22330733.438 5 119495920.767 5      4125.117          34.000    22330737.148 6  92941248.619 6      3208.428          37.000  
R10  19307378.648 8 102918828.356 8       831.023          48.000                                                                  
R20  19326436.734 6 103346770.801 6       683.539          39.000    19326442.219 8  80380841.518 8       531.642          49.000  
R09  20015882.312 8 106883290.619 8     -2037.176          51.000    20015884.945 8  83131489.455 8     -1584.470          51.000  
E01  24167244.820 8 126999711.309 8     -1135.051          51.000    24167246.406 8  97311466.236 8      -869.712          51.000  
E33  24474225.422 8 128612968.747 8      2099.816          50.000    24474226.820 8  98547574.905 8      1608.960          51.000  
E26  23266494.711 7 122266242.768 7      -699.512          45.000    23266493.297 5  93684536.502 5      -536.259          33.000  
C25  22703820.180 8 118224709.202 8     -2012.199          51.000                                                                  
C12                                                                  24547412.641 5  98842215.590 5     -2231.485          30.000  
C05                                                                  39654378.617 6 159671750.019 6        22.811          38.000  
C28  25125926.703 5 130837309.441 5      3206.246          34.000                                                                  
C11  21823660.266 8 113641584.146 8      -374.664          50.000    21823659.531 8  87874828.897 8      -289.726          51.000  
C23  22142959.789 6 115304219.212 6       990.227          40.000                                                                  
> 2020 05 11 11 08 30.0000000  0 16      -0.000000000000
G02  23831599.086 5 125235887.762 5     -2181.027          35.000                                                                  
G32  24039873.680 7 126330375.404 7     -2853.707          46.000    24039876.031 7  98439259.598 7     -2223.672          46.000  
G25  20577231.523 8 108134088.816 8     -1299.137          51.000    20577233.344 8  84260317.979 8     -1012.315          51.000  
G29  20240711.383 8 106365649.698 8       429.879          51.000    20240711.539 8  82882344.194 8       334.971          51.000  
R21  22307634.953 6 119372324.308 6      4115.613          36.000    22307640.102 6  92845118.115 6      3201.039          37.000  
R10  19302753.492 8 102894173.918 8       813.320          49.000                                                                  
R20  19322677.062 6 103326665.950 6       657.465          40.000    19322682.430 8  80365204.406 8       511.362          49.000  
R09  20027376.438 8 106944669.205 8     -2054.094          51.000    20027379.188 8  83179228.339 8     -1597.629          51.000  
E01  24173747.430 8 127033881.582 8     -1142.270          51.000    24173749.016 8  97337648.623 8      -875.237          51.000  
E33  24462269.836 8 128550143.754 8      2089.250          49.000    24462272.414 8  98499436.289 8      1600.816          51.000  
E26  23270528.391 7 122287441.804 7      -712.957          44.000    23270528.148 6  93700779.916 6      -546.454          36.000  
C25  22715446.891 8 118285250.287 8     -2023.141          51.000                                                                  
C05                                                                  39654212.375 6 159671080.911 6        22.609          38.000  
C28  25107464.562 5 130741179.639 5      3202.527          35.000                                                                  
C11  21825861.945 8 113653048.697 8      -388.891          50.000    21825861.375 8  87883694.037 8      -300.673          51.000  
C23  22137291.609 6 115274701.835 6       978.242          40.000                                                                  
> 2020 05 11 11 09  0.0000000  0 18      -0.000000000000
G02  23844130.922 5 125301739.786 5     -2191.012          33.000                                                                  
G32  24056226.414 7 126416308.961 7     -2856.887          47.000    24056227.867 7  98506220.731 7     -2226.149          47.000  
G14  23341106.453 5 122658342.11525     -1759.367          35.000                                                                  
G12  22456766.539 5 118011097.949 5     -2650.105          35.000                                                                  
G25  20584725.477 8 108173469.662 8     -1307.793          51.000    20584727.336 8  84291004.326 8     -1019.060          51.000  
G29  20238347.531 8 106353229.404 8       416.480          51.000    20238348.227 8  82872666.063 8       324.530          51.000  
R21  22284635.805 6 119249253.984 6      4107.941          38.000    22284641.984 6  92749396.833 6      3195.069          36.000  
R10  19298274.219 8 102870296.760 8       797.195          49.000                                                                  
R20  19319106.180 6 103307570.007 6       634.230          40.000    19319111.398 8  80350352.008 8       493.290          48.000  
R09  20039010.219 8 107006793.326 8     -2068.918          51.000    20039013.266 8  83227547.094 8     -1609.159          51.000  
E01  24180335.820 8 127068504.170 8     -1147.469          51.000    24180337.711 8  97364177.588 8      -879.227          51.000  
E33  24450419.938 8 128487874.953 8      2080.473          48.000    24450423.906 8  98451723.817 8      1594.183          51.000  
E26  23274683.148 7 122309275.289 7      -724.242          42.000    23274688.031 6  93717509.433 6      -554.724          39.000  
C25  22727181.742 8 118346355.655 8     -2032.266          51.000                                                                  
C05                                                                  39654088.797 6 159670583.364 6        24.726          38.000  
C28  25089072.992 6 130645417.313 6      3200.121          37.000                                                                  
C11  21828189.812 8 113665169.757 8      -400.996          51.000    21828189.320 8  87893066.827 8      -310.115          51.000  
C23  22131739.016 6 115245787.330 6       967.590          41.000                                                                  
> 2020 05 11 11 09 30.0000000  0 17      -0.000000000000
G02  23856649.992 5 125367524.471 5     -2198.820          31.000                                                                  
G32  24072526.953 8 126501967.856 8     -2857.094          48.000    24072528.117 8  98572967.848 8     -2226.311          48.000  
G14  23351170.914 5 122711190.221 5     -1767.992          35.000                                                                  
G25  20592199.094 8 108212743.667 8     -1313.781          51.000    20592201.188 8  84321607.427 8     -1023.726          51.000  
G29  20235991.078 8 106340846.462 8       405.688          51.000    20235991.812 8  82863017.009 8       316.120          51.000  
R21  22261610.258 6 119126040.360 6      4102.887          37.000    22261617.047 6  92653564.100 6      3191.138          36.000  
R10  19293815.531 8 102846529.353 8       783.863          49.000                                                                  
R20  19315598.586 6 103288811.141 6       613.191          41.000    19315603.055 8  80335761.775 8       476.927          48.000  
R09  20050657.672 8 107068991.521 8     -2081.043          50.000    20050660.750 8  83275923.457 8     -1618.589          51.000  
E01  24186884.461 8 127102919.105 8     -1150.125          51.000    24186886.758 8  97390547.442 8      -881.295          51.000  
E33  24438550.625 8 128425503.247 8      2074.254          48.000    24438555.484 8  98403932.505 8      1589.385          51.000  
E26  23278833.195 6 122331082.049 6      -732.664          39.000    23278838.039 6  93734218.521 6      -561.323          38.000  
C25  22738899.070 8 118407370.306 8     -2038.656          51.000                                                                  
C05                                                                  39653882.195 6 159669751.650 6        28.436          37.000  
C28  25070626.602 6 130549369.543 6      3200.074          39.000                                                                  
C11  21830517.953 8 113677292.150 8      -410.516          50.000    21830517.359 8  87902440.614 8      -317.443          51.000  
C23  22126177.258 7 115216822.615 7       959.973          42.000                                                                  
> 2020 05 11 11 10  0.0000000  0 19      -0.000000000000
G21  23663196.586 5 124350977.81925      3453.730          30.000                                                                  
G32  24088902.344 7 126588020.681 7     -2873.094          47.000    24088904.078 7  98640021.924 7     -2238.778          47.000  
G14  23361351.477 5 122764682.340 5     -1791.137          33.000                                                                  
G12  22487088.070 5 118170503.390 5     -2667.445          35.000    22487100.711 5  92080895.197 5     -2078.520          30.000  
G25  20599780.156 8 108252582.484 8     -1335.445          51.000    20599782.398 8  84352650.633 8     -1040.607          51.000  
G29  20233769.547 8 106329172.069 8       379.281          51.000    20233769.992 8  82853920.074 8       295.544          51.000  
R21  22238686.156 6 119003370.751 6      4081.941          36.000    22238693.227 6  92558154.451 6      3174.844          36.000  
R10  19289505.641 8 102823554.766 8       754.484          50.000                                                                  
R20  19312281.844 6 103271072.871 6       576.215          40.000    19312285.688 7  80321965.361 7       448.167          47.000  
R09  20062446.547 8 107131945.779 8     -2109.062          50.000    20062450.055 8  83324887.862 8     -1640.382          51.000  
E01  24193521.578 8 127137798.325 8     -1168.316          51.000    24193524.062 8  97417273.076 8      -895.204          51.000  
E33  24426790.055 8 128363701.495 8      2052.496          49.000    24426795.188 8  98356577.927 8      1572.794          51.000  
E26  23283104.961 6 122353532.989 6      -757.129          39.000    23283108.938 6  93751421.186 6      -580.183          40.000  
C25  22750726.562 8 118468959.176 8     -2060.562          51.000                                                                  
C12  24614143.664 4 128172322.185 4     -2908.484          28.000                                                                  
C05                                                                  39653720.570 6 159669100.537 6        20.117          38.000  
C28  25052254.383 6 130453703.401 6      3184.199          40.000                                                                  
C11  21832973.742 8 113690080.482 8      -435.410          50.000    21832973.484 8  87912329.376 8      -336.651          51.000  
C23  22120733.617 6 115188474.799 6       936.312          41.000                                                                  
> 2020 05 11 11 10 30.0000000  0 15      -0.000000000000
G32  24105340.188 7 126674402.220 7     -2877.852          46.000    24105342.922 7  98707332.132 7     -2242.482          46.000  
G25  20607456.891 8 108292923.638 8     -1346.227          51.000    20607459.031 8  84384085.297 8     -1049.011          51.000  
G29  20231670.867 8 106318143.210 8       363.855          51.000    20231670.922 8  82845326.164 8       283.527          51.000  
R21  22215851.102 5 118881184.817 5      4071.594          31.000    22215859.586 5  92463121.026 5      3166.799          34.000  
R10  19285333.078 8 102801312.540 8       736.219          50.000                                                                  
R20  19309143.758 6 103254291.658 6       550.500          39.000    19309147.461 7  80308913.314 7       428.167          47.000  
R09  20074365.688 8 107195592.584 8     -2126.062          50.000    20074368.789 8  83374390.931 8     -1653.604          50.000  
E01  24200235.180 8 127173079.966 8     -1175.746          51.000    24200237.875 8  97444307.074 8      -900.945          51.000  
E33  24415126.781 8 128302408.717 8      2041.605          50.000    24415130.914 8  98309613.354 8      1564.327          51.000  
E26  23287488.359 6 122376565.112 6      -770.621          37.000    23287492.375 6  93769069.123 6      -590.327          41.000  
C25  22762652.367 8 118531059.885 8     -2071.723          51.000                                                                  
C05                                                                  39653591.938 6 159668582.311 6        20.537          38.000  
C28  25033944.477 6 130358358.533 6      3179.648          41.000                                                                  
C11  21835545.586 8 113703472.175 8      -449.531          50.000    21835545.562 8  87922684.700 8      -347.606          51.000  
C23  22115395.500 6 115160683.632 6       923.742          39.000                                                                  
> 2020 05 11 11 11  0.0000000  0 16      -0.000000000000
G32  24121763.641 7 126760708.826 7     -2879.203          43.000    24121767.250 7  98774583.981 7     -2243.536          43.000  
G12  22517610.031 5 118330838.437 5     -2675.637          32.000    22517614.641 5  92205870.371 5     -2084.912          31.000  
G25  20615152.961 8 108333366.415 8     -1353.430          51.000    20615155.234 8  84415599.136 8     -1054.621          51.000  
G29  20229618.883 8 106307359.028 8       351.789          51.000    20229618.367 8  82836922.905 8       274.121          51.000  
R21  22193032.328 5 118759077.853 5      4065.418          30.000    22193039.945 4  92368148.955 4      3161.992          29.000  
R10  19281222.078 8 102779398.482 8       721.402          50.000                                                                  
R20  19306108.031 6 103238059.617 6       528.414          37.000    19306111.914 7  80296288.389 7       410.989          47.000  
R09  20086338.125 8 107259523.700 8     -2139.355          50.000    20086341.055 8  83424115.105 8     -1663.947          49.000  
E01  24206949.250 8 127208363.786 8     -1179.750          51.000    24206952.422 8  97471342.730 8      -903.995          51.000  
E33  24403484.484 8 128241225.629 8      2033.930          51.000    24403486.836 8  98262732.807 8      1558.484          51.000  
E26                                                                  23291909.102 6  93786854.687 6      -597.743          41.000  
C25  22774600.273 8 118593274.819 8     -2079.254          51.000                                                                  
C05                                                                  39653420.055 6 159667890.180 6        22.932          37.000  
C28  25015620.641 6 130262939.566 6      3178.145          40.000                                                                  
C11  21838156.844 8 113717069.296 8      -460.195          50.000    21838156.812 8  87933198.846 8      -355.886          51.000  
C23  22110088.000 6 115133053.478 6       914.672          40.000                                                                  
> 2020 05 11 11 11 30.0000000  0 17      -0.000000000000
G32  24138217.297 6 126847173.633 6     -2872.656          40.000    24138221.375 6  98841959.151 6     -2238.434          40.000  
G14  23392354.367 5 122927633.26425     -1816.344          34.000                                                                  
G12  22532905.664 5 118411212.58625     -2671.008          34.000    22532923.328 5  92268547.36025     -2081.305          33.000  
G25  20622913.312 8 108374146.855 8     -1353.219          51.000    20622915.648 8  84447376.085 8     -1054.457          51.000  
G29  20227658.297 8 106297055.343 8       347.387          51.000    20227657.328 8  82828894.072 8       270.694          51.000  
R21  22170277.055 5 118637250.488 5      4066.434          32.000    22170290.422 4  92273457.041 4      3162.776          24.000  
R10  19277217.969 8 102758053.675 8       713.988          51.000                                                                  
R20  19303219.617 6 103222616.783 6       513.516          37.000    19303223.672 7  80284277.282 7       399.398          47.000  
R09  20098408.914 8 107323979.103 8     -2145.195          50.000    20098411.414 8  83474247.047 8     -1668.489          48.000  
E01  24213709.008 8 127243886.288 8     -1176.094          51.000    24213712.469 8  97498561.250 8      -901.139          51.000  
E33  24391908.383 8 128180389.618 8      2034.137          51.000    24391909.281 8  98216118.214 8      1558.592          51.000  
E26                                                                  23296404.242 6  93804958.267 6      -599.593          41.000  
C25  22786614.562 8 118655837.357 8     -2079.465          51.000                                                                  
C05                                                                  39653249.969 6 159667205.146 6        32.060          38.000  
C28  24997327.570 6 130167682.036 6      3184.285          38.000                                                                  
C11  21840852.172 8 113731105.014 8      -463.359          49.000    21840852.227 8  87944052.156 8      -358.187          51.000  
C23  22104857.438 6 115105819.780 6       913.027          40.000                                                                  
> 2020 05 11 11 12  0.0000000  0 16      -0.000000000000
G32  24154696.898 6 126933774.749 6     -2901.039          40.000    24154701.508 6  98909440.538 6     -2260.551          40.000  
G12  22548235.852 6 118491767.330 6     -2700.152          36.000    22548248.438 5  92331306.691 5     -2104.009          35.000  
G25  20630734.250 8 108415245.836 8     -1387.184          51.000    20630736.523 8  84479401.249 8     -1080.923          51.000  
G29  20225785.562 8 106287212.990 8       308.473          51.000    20225784.086 8  82821224.712 8       240.368          51.000  
R21  22147577.461 5 118515772.183 5      4031.891          30.000    22147587.523 4  92178964.209 4      3135.925          28.000  
R10  19273317.602 8 102737261.776 8       671.711          51.000                                                                  
R20  19300475.680 6 103207943.923 6       464.199          36.000    19300479.828 7  80272865.039 7       361.044          47.000  
R09  20110573.828 8 107388938.525 8     -2185.871          50.000    20110575.969 8  83524771.012 8     -1700.122          48.000  
E01  24220510.773 8 127279628.912 8     -1206.957          51.000    24220514.125 8  97525948.453 8      -924.842          51.000  
E33  24380394.961 8 128119882.996 8      1999.488          51.000    24380395.109 8  98169756.013 8      1532.040          51.000  
E26                                                                  23300975.438 7  93823364.752 7      -627.710          42.000  
C25  22798691.836 8 118718728.094 8     -2113.625          51.000                                                                  
C05                                                                  39653077.977 6 159666512.876 6        14.160          38.000  
C28  24979061.125 6 130072568.625 6      3156.641          36.000                                                                  
C11  21843628.094 8 113745559.627 8      -500.609          50.000    21843628.266 8  87955229.368 8      -387.124          51.000  
C23  22099700.023 6 115078965.221 6       877.176          41.000                                                                  
