     3.02           OBSERVATION DATA    M (MIXED)           RINEX VERSION / TYPE
SAVERINEX           SC600               20200509 155931 LCL PGM / RUN BY / DATE
       G = GPS       R = GLONASS       C = COMPASS          COMMENT
       S = SBAS      J = QZSS          E = GALILEO          COMMENT
BEAN                                                        MARKER NAME
1                                                           MARKER NUMBER
GEODETIC                                                    MARKER TYPE
Unige DICCA         GTER                                    OBSERVER / AGENCY
SC60291900056       SC600               2.12(191226)        REC # / TYPE / VERS
                    HEMA45          NONE                    ANT # / TYPE
  4509407.8091   693652.4678  4442337.6214                  APPROX POSITION XYZ
        0.0000        0.0000        0.0000                  ANTENNA: DELTA H/E/N
G    8 C1C L1C D1C S1C C2Y L2Y D2Y S2Y                      SYS / # / OBS TYPES
R    8 C1C L1C D1C S1C C2P L2P D2P S2P                      SYS / # / OBS TYPES
C    8 C1I L1I D1I S1I C7I L7I D7I S7I                      SYS / # / OBS TYPES
E    8 C1C L1C D1C S1C C7Q L7Q D7Q S7Q                      SYS / # / OBS TYPES
DBHZ                                                        COMMENT
     30.000                                                 INTERVAL
  2020    05    09    13    00    0.0000000     GPS         TIME OF FIRST OBS
  2020    05    09    13    59   30.0000000     GPS         TIME OF LAST OBS
     0                                                      RCV CLOCK OFFS APPL
G L1C  0.00000                                              SYS / PHASE SHIFT
G L2Y  0.00000                                              SYS / PHASE SHIFT
R L1C  0.00000                                              SYS / PHASE SHIFT
R L2P  0.25000                                              SYS / PHASE SHIFT
C L1I  0.00000                                              SYS / PHASE SHIFT
C L7I  0.00000                                              SYS / PHASE SHIFT
E L1C  0.50000                                              SYS / PHASE SHIFT
E L7Q -0.25000                                              SYS / PHASE SHIFT
 14 R02 -4 R03  5 R04  6 R05  1 R09 -2 R10 -5 R13 -2 R14 -7 GLONASS SLOT / FRQ #
    R15  0 R16 -1 R17  4 R18 -3 R19  3 R20  2               GLONASS SLOT / FRQ #
 C1C   71.950 C2C   71.950 C2P   71.950                     GLONASS COD/PHS/BIS
    18                                                      LEAP SECONDS
*** Above antenna height is from mark to ANTENNA BOTTOM.    COMMENT
    17     4        0.0000        ANT MEASURE TYPE/HEIGT    COMMENT
    0.0000    0.0000    0.0458    0.0405    0.0000          COMMENT
                    BASE STATION                            COMMENT
                                                            END OF HEADER
> 2020 05 09 13 00  0.0000000  0 16        .000000000000
G18  20597732.555 8 108241888.764 8      1341.051          51.000    20597732.766 8  84344305.867 8      1044.975          48.000
G21  20807691.891 8 109345211.822 8       903.270          48.000    20807691.680 8  85204004.896 8       703.846          48.000
G25  23321078.273 7 122553098.768 7     -3207.066          42.000    23321082.695 7  95495933.362 7     -2499.013          42.000
G29  21375320.477 7 112328071.844 7     -2052.859          43.000    21375319.242 7  87528363.198 7     -1599.631          43.000
G31  21703363.609 8 114051948.172 8     -1881.957          51.000    21703364.734 8  88871634.022 8     -1466.460          51.000
R16  20659429.844 7 110358960.826 7     -3245.730          46.000    20659432.938 6  85834745.576 6     -2524.457          41.000
R19  19258936.914 6 103022323.130 6      -176.008          38.000    19258937.531 6  80128486.026 6      -136.895          41.000
R20  22147887.336 6 118434721.423 6      3379.965          38.000    22147892.008 7  92115895.742 7      2628.862          45.000
C05  39624952.594 6 206337526.956 6        16.684          36.000    39624952.562 6 159553261.573 6        12.659          37.000
C27  22744459.547 7 118436357.279 7     -2064.426          47.000
C29  25097725.383 7 130690456.993 7      2752.992          44.000
C30  21653627.219 8 112756220.256 8       725.238          51.000
E13  25321766.672 8 133066784.048 8      2478.133          50.000    25321769.078 8 101960334.625 8      1898.838          50.000
E15  23005009.852 8 120892172.079 8        83.207          51.000    23005014.250 8  92631680.745 8        63.738          51.000
E27  23197251.094 8 121902376.596 8        11.160          51.000    23197252.398 8  93405718.677 8         8.599          51.000
E30  24229232.273 7 127325456.365 7     -2429.746          47.000    24229236.727 8  97561059.051 8     -1861.774          51.000
> 2020 05 09 13 00 30.0000000  0 16        .000000000000
G18  20590130.086 8 108201937.752 8      1322.430          51.000    20590130.094 8  84313175.255 8      1030.468          48.000
G21  20802584.312 8 109318372.780 8       886.172          49.000    20802584.602 8  85183091.359 8       690.520          49.000
G25  23339405.797 7 122649409.070 7     -3213.492          42.000    23339410.367 7  95570980.321 7     -2504.020          42.000
G29  21387062.688 6 112389778.300 6     -2060.406          41.000    21387061.789 6  87576446.153 6     -1605.508          41.000
G31  21714154.047 8 114108650.084 8     -1898.020          51.000    21714154.711 8  88915817.292 8     -1478.976          51.000
R16  20677705.711 7 110456589.583 7     -3262.613          44.000    20677708.508 6  85910679.004 6     -2537.591          39.000
R19  19259979.414 6 103027899.019 6      -195.688          38.000    19259980.180 7  80132822.840 7      -152.201          42.000
R20  22128958.469 6 118333503.107 6      3368.469          38.000    22128963.727 7  92037170.421 7      2619.923          45.000
C05                                                                  39624858.148 6 159552880.341 6        12.547          38.000
C27  22756372.500 7 118498390.565 7     -2071.062          46.000
C29  25081879.688 7 130607942.883 7      2747.898          44.000
C30  21649481.258 8 112734629.865 8       714.281          51.000
E13  25307641.195 8 132992555.122 8      2470.617          50.000    25307641.656 8 101903457.968 8      1893.025          49.000
E15  23004569.695 8 120889859.763 8        71.188          51.000    23004574.375 8  92629908.990 8        54.561          51.000
E27  23197221.086 8 121902218.807 8         -.555          51.000    23197222.336 8  93405597.766 8         -.392          51.000
E30  24243124.781 8 127398462.774 8     -2437.207          48.000    24243130.461 8  97616998.966 8     -1867.467          51.000
> 2020 05 09 13 01  0.0000000  0 16        .000000000000
G18  20582633.422 8 108162540.784 8      1304.141          51.000    20582632.625 7  84282476.373 7      1016.217          47.000
G21  20797573.117 8 109292037.827 8       869.602          49.000    20797573.258 8  85162570.604 8       677.612          49.000
G25  23357769.844 7 122745912.208 7     -3219.922          42.000    23357774.789 7  95646177.502 7     -2509.033          42.000
G29  21398847.734 6 112451709.535 6     -2068.293          39.000    21398846.945 6  87624704.280 6     -1611.657          39.000
G31  21725035.594 8 114165830.210 8     -1913.789          51.000    21725035.641 8  88960373.196 8     -1491.267          51.000
R16  20696075.031 6 110554720.372 6     -3279.062          41.000    20696077.922 6  85987002.923 6     -2550.382          39.000
R19  19261132.141 6 103034066.663 6      -215.145          37.000    19261133.070 6  80137619.919 6      -167.335          41.000
R20  22110094.461 6 118232629.286 6      3356.859          39.000    22110099.602 7  91958713.054 7      2610.894          45.000
C05  39624763.695 6 206336542.371 6        15.980          36.000    39624764.258 6 159552501.757 6        12.810          37.000
C27  22768322.953 7 118560619.718 7     -2077.242          45.000
C29  25066062.656 7 130525575.461 7      2743.301          44.000
C30  21645397.641 8 112713365.724 8       703.547          51.000
E13  25293558.266 8 132918549.915 8      2463.363          50.000    25293557.156 8 101846752.735 8      1887.503          49.000
E15  23004197.805 8 120887906.012 8        59.410          51.000    23004202.352 8  92628411.960 8        45.492          51.000
E27  23197257.523 8 121902410.733 8       -12.047          51.000    23197258.820 8  93405744.817 8        -9.207          51.000
E30  24257059.312 8 127471688.178 8     -2444.316          49.000    24257065.445 8  97673106.691 8     -1872.870          51.000
> 2020 05 09 13 01 30.0000000  0 17        .000000000000
G18  20575237.125 8 108123671.932 8      1286.625          51.000    20575235.961 7  84252189.012 7      1002.565          47.000
G21  20792652.680 8 109266180.158 8       853.777          50.000    20792652.695 8  85142421.783 8       665.284          50.000
G25  23376165.477 7 122842580.120 7     -3225.234          44.000    23376170.594 7  95721503.069 7     -2513.170          43.000
G29  21410670.422 6 112513837.695 6     -2074.262          39.000    21410669.531 6  87673115.841 6     -1616.305          39.000
G31  21736002.602 8 114223459.710 8     -1928.699          51.000    21736001.992 8  89005279.259 8     -1502.883          51.000
R16  20714530.992 5 110653322.938 5     -3294.684          35.000    20714536.195 6  86063693.768 6     -2562.532          38.000
R18  21207938.156 4 113209379.409 4     -3268.945          28.000    21207944.234 4  88051775.921 4     -2542.516          29.000
R19  19262390.172 6 103040796.993 6      -234.234          37.000    19262391.164 6  80142854.587 6      -182.185          41.000
R20  22091289.727 6 118132073.863 6      3346.551          38.000    22091294.508 7  91880503.341 7      2602.876          43.000
C05  39624665.062 6 206336028.596 6        17.035          36.000    39624665.695 6 159552109.268 6        13.300          37.000
C27  22780305.516 7 118623016.806 7     -2082.863          43.000
C29  25050268.711 7 130443328.788 7      2739.316          44.000
C30  21641371.367 8 112692400.882 8       693.609          51.000
E13  25279513.016 8 132844742.342 8      2456.750          50.000    25279511.820 8 101790198.917 8      1882.472          49.000
E15  23003888.914 8 120886283.353 8        48.426          51.000    23003893.312 8  92627168.620 8        37.093          51.000
E27  23197355.375 8 121902926.225 8       -22.746          51.000    23197356.898 8  93406139.794 8       -17.396          51.000
E30  24271030.758 8 127545105.021 8     -2450.570          51.000    24271036.406 8  97729361.113 8     -1877.704          50.000
> 2020 05 09 13 02  0.0000000  0 17        .000000000000
G18  20567949.406 8 108085374.925 8      1267.078          51.000    20567948.578 8  84222347.228 8       987.334          49.000
G21  20787831.320 8 109240842.817 8       836.055          51.000    20787831.289 8  85122678.413 8       651.471          51.000
G25  23394600.672 7 122939454.502 7     -3232.539          45.000    23394605.445 7  95796989.549 7     -2518.862          45.000
G29  21422538.359 6 112576204.158 6     -2082.992          39.000    21422537.711 6  87721713.063 6     -1623.111          39.000
G31  21747062.555 8 114281579.199 8     -1945.352          51.000    21747061.273 8  89050567.150 8     -1515.858          51.000
R16  20733084.328 6 110752438.174 6     -3312.023          41.000    20733089.734 6  86140783.410 6     -2576.018          36.000
R18  21226334.648 5 113307628.290 5     -3277.133          34.000    21226347.562 5  88128162.835 5     -2548.881          31.000
R19  19263761.289 6 103048131.953 6      -254.367          37.000    19263762.461 6  80148559.588 6      -197.841          40.000
R20  22072552.172 6 118031882.489 6      3333.684          38.000    22072556.562 7  91802576.762 7      2592.868          42.000
C05  39624570.258 5 206335535.124 5        16.574          35.000    39624570.758 6 159551727.697 6        12.553          37.000
C27  22792327.859 7 118685622.860 7     -2090.395          42.000
C29  25034505.672 7 130361245.803 7      2733.426          44.000
C30  21637410.695 8 112671777.442 8       681.875          51.000
E13  25265513.727 8 132771176.056 8      2448.234          49.000    25265513.727 8 101733830.022 8      1875.938          50.000
E15  23003651.086 8 120885033.929 8        35.602          51.000    23003655.578 8  92626211.287 8        27.234          51.000
E27  23197523.234 8 121903808.788 8       -35.445          51.000    23197524.938 8  93406816.038 8       -27.132          51.000
E30  24285046.898 8 127618755.398 8     -2458.852          51.000    24285051.578 8  97785794.506 8     -1884.043          48.000
> 2020 05 09 13 02 30.0000000  0 17        .000000000000
G18  20560769.352 8 108047643.498 8      1248.680          51.000    20560769.266 8  84192946.130 8       973.000          51.000
G21  20783107.633 8 109216018.496 8       819.270          51.000    20783107.281 8  85103334.820 8       638.392          51.000
G25  23413073.469 7 123036527.150 7     -3238.621          44.000    23413077.914 7  95872630.497 7     -2523.604          44.000
G29  21434450.273 6 112638800.649 6     -2089.559          36.000    21434449.664 5  87770489.566 5     -1628.227          35.000
G31  21758213.727 8 114340179.834 8     -1961.012          51.000    21758212.602 8  89096229.961 8     -1528.064          51.000
R16  20751734.461 7 110852056.170 7     -3328.602          46.000    20751736.977 6  86218263.975 6     -2588.915          36.000
R18  21244775.328 5 113406066.779 5     -3285.746          32.000    21244787.461 4  88204760.114 4     -2555.583          29.000
R19  19265243.641 5 103056062.370 5      -274.238          35.000    19265244.477 6  80154727.681 6      -213.296          40.000
R20  22053882.500 6 117932049.176 6      3322.105          39.000    22053886.086 6  91724928.662 6      2583.860          41.000
C05  39624477.555 6 206335052.898 6        16.148          36.000    39624478.422 6 159551355.573 6        12.363          37.000
C27  22804388.859 6 118748429.434 6     -2096.590          41.000
C29  25018772.555 7 130279319.999 7      2728.691          44.000
C30  21633514.266 8 112651487.924 8       671.148          51.000
E13  25251559.234 8 132697844.650 8      2440.879          49.000    25251560.539 8 101677641.042 8      1870.266          51.000
E15  23003482.953 8 120884150.037 8        23.766          51.000    23003487.234 8  92625534.011 8        18.252          51.000
E27  23197759.805 8 121905051.956 8       -47.004          51.000    23197761.453 8  93407768.593 8       -36.067          51.000
E30  24299105.617 8 127692631.413 8     -2465.871          51.000    24299108.383 7  97842400.770 7     -1889.338          47.000
> 2020 05 09 13 03  0.0000000  0 16        .000000000000
G18  20553686.688 8 108010424.648 8      1233.145          50.000    20553687.188 8  84163944.423 8       960.892          51.000
G21  20778471.273 8 109191653.545 8       805.488          51.000    20778470.492 8  85084349.160 8       627.656          51.000
G25  23431573.391 7 123133743.012 7     -3241.902          44.000    23431577.695 7  95948383.085 7     -2526.158          44.000
G31  21769445.648 8 114399205.768 8     -1973.625          51.000    21769444.984 8  89142224.165 8     -1537.890          51.000
R16  20770468.086 7 110952119.564 7     -3341.922          46.000    20770469.289 6  86296090.990 6     -2599.273          40.000
R18  21263250.359 5 113504674.293 5     -3288.102          33.000    21263260.758 4  88281454.766 4     -2557.415          28.000
R19  19266826.641 6 103064532.102 6      -290.391          36.000    19266828.023 6  80161315.261 6      -225.859          41.000
R20  22035270.539 6 117832520.612 6      3313.723          41.000    22035274.469 7  91647517.636 7      2577.343          43.000
C05  39624377.164 6 206334529.607 6        19.184          37.000    39624378.164 6 159550951.705 6        14.925          37.000
C27  22816478.438 7 118811381.916 7     -2100.070          42.000
C29  25003059.891 7 130197498.587 7      2726.574          46.000
C30  21629671.648 8 112631478.673 8       663.281          51.000
E13  25237639.227 8 132624695.121 8      2436.293          48.000    25237641.695 8 101621591.423 8      1866.767          51.000
E15  23003374.062 8 120883577.145 8        14.969          51.000    23003377.906 8  92625095.046 8        11.470          51.000
E27  23198054.781 8 121906602.599 8       -55.793          51.000    23198056.359 8  93408956.738 8       -42.715          51.000
E30  24313196.508 8 127766678.573 8     -2470.137          51.000    24313196.438 7  97899138.161 7     -1892.603          45.000
> 2020 05 09 13 03 30.0000000  0 16        .000000000000
G18  20546715.367 8 107973792.188 8      1211.035          50.000    20546716.320 8  84135399.661 8       943.664          50.000
G21  20773936.156 8 109167820.987 8       785.363          51.000    20773935.320 8  85065778.367 8       611.974          51.000
G25  23450113.453 7 123231173.935 7     -3251.324          42.000    23450117.781 7  96024303.213 7     -2533.499          42.000
G31  21780772.039 8 114458727.543 8     -1992.527          51.000    21780771.766 8  89188604.737 8     -1552.619          51.000
R16  20789297.906 7 111052699.351 7     -3361.531          47.000    20789299.938 7  86374319.662 7     -2614.524          44.000
R18  21281770.133 5 113603521.794 5     -3299.254          34.000
R19  19268524.188 6 103073613.549 6      -313.035          36.000    19268525.734 6  80168378.606 6      -243.472          41.000
R20  22016729.750 6 117733372.608 6      3298.344          40.000    22016734.711 7  91570402.570 7      2565.378          43.000
C05  39624283.008 6 206334038.540 6        15.582          36.000    39624283.711 6 159550572.034 6        11.832          36.000
C27  22828610.102 7 118874551.222 7     -2109.484          44.000
C29  24987381.562 7 130115854.464 7      2718.340          46.000
C30  21625896.398 8 112611821.638 8       649.133          51.000
E13  25223768.172 8 132551801.216 8      2425.219          49.000    25223771.375 8 101565737.708 8      1858.219          51.000
E15  23003338.031 8 120883387.569 8         -.398          51.000    23003341.680 8  92624949.784 8         -.284          51.000
E27  23198422.117 8 121908534.323 8       -71.012          51.000    23198423.836 8  93410436.890 8       -54.453          51.000
E30  24327333.180 8 127840969.094 8     -2480.660          49.000    24327330.320 7  97956062.004 7     -1900.757          45.000
> 2020 05 09 13 04  0.0000000  0 15        .000000000000
G18  20539853.266 8 107937731.878 8      1189.496          51.000    20539854.273 8  84107300.700 8       926.880          50.000
G21  20769499.352 8 109144505.949 8       765.465          51.000    20769498.523 8  85047610.825 8       596.466          51.000
G25  23468691.133 6 123328803.757 6     -3260.871          41.000    23468695.273 6  96100378.361 6     -2540.939          41.000
G31  21792189.781 8 114518728.237 8     -2011.000          51.000    21792189.828 8  89235358.484 8     -1567.013          51.000
R16  20808220.875 7 111153777.688 7     -3380.633          46.000    20808223.734 7  86452936.129 7     -2629.381          45.000
R19  19270333.164 6 103083289.928 6      -335.539          36.000    19270334.906 7  80175904.660 7      -260.975          42.000
R20  21998257.203 6 117634591.608 6      3283.746          39.000    21998262.664 7  91493572.914 7      2554.028          43.000
C05  39624191.852 6 206333563.924 6        12.293          36.000    39624192.344 6 159550204.993 6         9.738          37.000
C27  22840780.461 7 118937921.149 7     -2118.789          43.000
C29  24971734.445 7 130034373.294 7      2710.285          46.000
C30  21622185.867 8 112592501.543 8       635.449          51.000
E13  25209943.914 8 132479148.641 8      2414.730          50.000    25209946.727 8 101510068.876 8      1850.290          51.000
E15  23003371.992 8 120883565.609 8       -15.090          51.000    23003375.539 8  92625086.199 8       -11.514          51.000
E27  23198859.312 8 121910832.769 8       -85.738          51.000    23198861.258 8  93412198.024 8       -65.672          51.000
E30  24341512.453 7 127915487.216 7     -2490.773          46.000    24341509.039 7  98013160.221 7     -1908.461          46.000
> 2020 05 09 13 04 30.0000000  0 16        .000000000000
G18  20533106.406 8 107902276.800 8      1175.254          51.000    20533107.586 8  84079673.367 8       915.785          51.000
G21  20765167.250 8 109121740.597 8       753.195          51.000    20765166.133 8  85029871.576 8       586.905          50.000
G25  23487312.867 7 123426663.467 7     -3262.297          42.000    23487316.719 7  96176632.656 7     -2542.053          42.000
G29  21482520.125 5 112891404.718 5     -2118.699          32.000
G31  21803704.367 8 114579237.882 8     -2021.926          51.000    21803704.836 8  89282508.865 8     -1575.527          51.000
R16  20827242.453 7 111255384.487 7     -3392.148          47.000    20827245.898 7  86531963.619 7     -2638.338          45.000
R19  19272258.883 6 103093592.066 6      -350.391          37.000    19272261.039 6  80183917.450 6      -272.526          41.000
R20  21979859.820 6 117536211.835 6      3276.023          38.000    21979865.383 7  91417055.351 7      2548.021          44.000
C05  39624109.992 6 206333137.678 6        16.816          37.000    39624110.141 6 159549871.430 6        12.726          36.000
C27  22852995.203 7 119001522.385 7     -2120.441          44.000
C29  24956124.320 7 129953087.587 7      2709.672          45.000
C30  21618546.508 8 112573549.958 8       629.066          51.000
E13  25196171.750 8 132406770.435 8      2411.520          49.000    25196173.852 8 101454610.282 8      1847.785          51.000
E15  23003482.031 8 120884142.865 8       -22.465          51.000    23003485.312 8  92625528.512 8       -17.192          51.000
E27  23199372.758 8 121913530.825 8       -93.098          51.000    23199374.758 8  93414265.363 8       -71.362          51.000
E30  24355740.977 7 127990264.469 7     -2493.391          46.000    24355739.094 7  98070457.020 7     -1910.505          47.000
> 2020 05 09 13 05  0.0000000  0 16        .000000000000
G18  20526454.375 8 107867320.204 8      1154.512          51.000    20526455.570 8  84052434.477 8       899.620          51.000
G21  20760919.195 8 109099417.327 8       734.250          51.000    20760918.156 8  85012476.820 8       572.143          50.000
G25  23505958.312 7 123524644.591 7     -3270.352          43.000    23505961.484 7  96252981.484 7     -2548.329          42.000
G29  21494656.906 6 112955142.613 6     -2127.418          38.000    21494622.891 6  88016960.579 6     -1657.728          38.000
G31  21815294.992 8 114640146.963 8     -2039.324          51.000    21815295.477 8  89329970.488 8     -1589.084          51.000
R16  20846341.859 7 111357407.962 7     -3410.164          46.000    20846345.117 7  86611315.206 7     -2652.350          44.000
R19  19274281.180 6 103104408.920 6      -371.105          36.000    19274283.031 6  80192330.551 6      -288.638          41.000
R20  21961518.062 6 117438125.255 6      3262.188          40.000    21961522.586 7  91340765.856 7      2537.260          43.000
C05  39624017.031 5 206332653.245 5        14.699          35.000    39624016.781 6 159549496.829 6        11.433          37.000
C27  22865233.008 7 119065246.961 7     -2128.570          44.000
C29  24940530.711 7 129871891.323 7      2702.590          44.000
C30  21614957.641 8 112554860.013 8       616.230          51.000
E13  25182430.805 7 132334559.863 7      2401.836          47.000    25182432.891 8 101399280.123 8      1840.212          51.000
E15  23003647.461 8 120885011.126 8       -36.227          51.000    23003650.281 8  92626193.795 8       -27.710          51.000
E27  23199941.938 8 121916521.612 8      -107.035          51.000    23199943.781 8  93416557.001 8       -82.011          51.000
E30  24369998.820 8 128065192.512 8     -2502.559          48.000    24369998.898 8  98127869.375 8     -1917.473          49.000
> 2020 05 09 13 05 30.0000000  0 17        .000000000000
G18  20519906.750 8 107832911.697 8      1134.660          51.000    20519907.727 8  84025622.661 8       884.151          51.000
G21  20756764.422 8 109077585.156 8       716.457          50.000    20756763.664 8  84995464.743 8       558.278          50.000
G25  23524635.914 6 123622794.725 6     -3277.465          41.000    23524638.359 7  96329462.008 7     -2553.872          42.000
G29  21506777.992 6 113018895.956 6     -2135.020          36.000    21506775.891 6  88066651.000 6     -1663.652          37.000
G31  21826970.688 8 114701502.058 8     -2055.668          51.000    21826970.648 8  89377779.645 8     -1601.819          51.000
R16  20865527.328 7 111459894.497 7     -3427.102          46.000    20865530.578 7  86691026.941 7     -2665.523          42.000
R18  21356243.133 4 114001023.231 4     -3328.605          29.000    21356248.133 5  88667505.217 5     -2588.918          31.000
R19  19276409.055 6 103115788.672 6      -391.656          37.000    19276410.523 6  80201181.468 6      -304.622          41.000
R20  21943240.023 6 117340383.287 6      3249.102          39.000    21943244.039 7  91264744.376 7      2527.079          43.000
C05  39623922.141 6 206332160.104 6        13.672          36.000    39623921.992 6 159549114.723 6        10.699          37.000
C27  22877502.695 7 119129141.957 7     -2135.699          42.000
C29  24924963.797 7 129790833.477 7      2696.426          44.000
C30  21611427.758 8 112536479.703 8       604.449          51.000
E13  25168729.273 7 132262566.545 7      2393.062          45.000    25168733.383 8 101344116.392 8      1833.624          51.000
E15  23003877.383 8 120886218.581 8       -49.035          51.000    23003879.648 8  92627118.993 8       -37.530          51.000
E27  23200576.156 8 121919854.662 8      -119.969          51.000    23200577.867 8  93419110.887 8       -91.870          51.000
E30  24384295.219 8 128140319.472 8     -2510.566          48.000    24384296.641 8  98185434.185 8     -1923.741          49.000
> 2020 05 09 13 06  0.0000000  0 17        .000000000000
G18  20513474.789 8 107799110.811 8      1119.230          51.000    20513475.516 8  83999284.336 8       872.128          51.000
G21  20752714.500 8 109056302.806 8       702.867          51.000    20752713.492 8  84978881.106 8       547.689          49.000
G25  23543356.680 7 123721171.589 7     -3279.707          42.000    23543358.695 6  96406119.214 6     -2555.619          41.000
G29  21518979.648 6 113083018.931 6     -2139.133          36.000    21518977.281 5  88116616.902 5     -1666.857          35.000
G31  21838742.242 8 114763360.168 8     -2067.602          51.000    21838741.539 8  89425980.752 8     -1611.118          51.000
R16  20884809.938 7 111562901.244 7     -3439.266          44.000    20884813.156 6  86771143.292 6     -2674.984          41.000
R18  21374950.719 5 114100882.778 5     -3330.430          32.000    21374955.781 4  88745185.564 4     -2590.325          27.000
R19  19278652.414 6 103127789.117 6      -407.480          37.000    19278654.062 6  80210515.157 6      -316.929          41.000
R20  21925037.406 6 117243047.201 6      3240.312          37.000    21925041.492 7  91189038.558 7      2520.243          43.000
C05  39623836.703 6 206331714.641 6        16.523          36.000    39623836.570 6 159548770.273 6        12.994          37.000
C27  22889815.961 6 119193264.400 6     -2138.406          41.000
C29  24909435.031 7 129709972.948 7      2694.840          44.000
C30  21607968.555 8 112518467.012 8       596.965          51.000
E13  25155079.773 7 132190850.047 7      2388.516          46.000    25155085.914 8 101289164.770 8      1830.206          51.000
E15  23004183.086 8 120887823.396 8       -57.465          51.000    23004184.898 8  92628348.677 8       -44.034          51.000
E27  23201287.094 8 121923589.412 8      -128.504          51.000    23201288.742 8  93421972.578 8       -98.491          51.000
E30  24398640.766 8 128215703.502 8     -2514.398          48.000    24398643.391 8  98243195.935 8     -1926.647          50.000
> 2020 05 09 13 06 30.0000000  0 17        .000000000000
G18  20507144.211 8 107765843.368 8      1099.570          50.000    20507144.562 8  83973361.679 8       856.811          50.000
G21  20748755.000 8 109035495.350 8       685.203          50.000    20748753.766 8  84962667.525 8       533.925          50.000
G25  23562105.914 7 123819699.054 7     -3286.766          42.000    23562108.188 7  96482893.769 7     -2561.119          42.000
G29  21531215.562 5 113147324.061 5     -2146.762          34.000    21531213.945 5  88166724.859 5     -1672.795          34.000
G31  21850594.711 8 114825643.936 8     -2083.664          51.000    21850593.258 8  89474513.557 8     -1623.634          51.000
R16  20904175.195 7 111666349.206 7     -3456.000          45.000    20904177.875 6  86851602.781 6     -2688.003          40.000
R18  21393696.070 5 114200938.999 5     -3338.582          34.000    21393702.203 4  88823026.093 4     -2596.675          28.000
R19  19280997.672 6 103140332.136 6      -427.398          36.000    19280998.969 6  80220270.826 6      -332.421          41.000
R20  21906897.133 6 117146042.205 6      3227.656          38.000    21906900.945 7  91113590.250 7      2510.402          44.000
C05  39623746.258 6 206331244.539 6        15.891          36.000    39623746.086 6 159548405.994 6        12.230          37.000
C27  22902158.734 7 119257538.769 7     -2145.371          44.000
C29  24893929.922 7 129629235.946 7      2688.641          44.000
C30  21604566.070 8 112500747.265 8       585.383          51.000
E13  25141470.273 7 132119336.104 7      2380.012          47.000    25141475.891 8 101234368.380 8      1823.633          49.000
E15  23004549.836 8 120889749.885 8       -70.008          51.000    23004551.703 8  92629824.839 8       -53.645          51.000
E27  23202060.422 8 121927651.541 8      -141.328          51.000    23202061.984 8  93425085.117 8      -108.299          51.000
E30  24413020.820 8 128291268.788 8     -2522.273          48.000    24413024.352 8  98301096.577 8     -1932.696          50.000
> 2020 05 09 13 07  0.0000000  0 17        .000000000000
G18  20500921.523 8 107733143.610 8      1080.578          49.000    20500921.570 8  83947881.360 8       842.009          49.000
G21  20744892.039 8 109015196.148 8       668.195          51.000    20744890.961 8  84946850.002 8       520.672          49.000
G25  23580889.820 6 123918409.479 6     -3293.074          41.000    23580892.758 7  96559810.913 7     -2566.032          42.000
G29  21543492.805 6 113211843.993 6     -2153.902          36.000    21543491.938 6  88217000.079 6     -1678.365          36.000
G31  21862533.922 8 114888384.949 8     -2098.887          49.000    21862532.047 8  89523402.676 8     -1635.496          49.000
R16  20923629.555 7 111770269.313 7     -3471.738          46.000    20923631.406 6  86932429.436 6     -2700.247          39.000
R18  21412477.211 5 114301190.940 5     -3345.277          33.000
R19  19283449.875 6 103153450.459 6      -446.633          38.000    19283451.336 6  80230473.976 6      -347.381          41.000
R20  21888825.477 6 117049403.656 6      3215.312          38.000    21888829.109 7  91038427.019 7      2500.802          45.000
C05  39623657.195 6 206330781.163 6        15.418          36.000    39623657.164 6 159548047.689 6        11.771          37.000
C27  22914537.375 7 119321996.959 7     -2151.621          44.000
C29  24878455.008 7 129548656.334 7      2683.145          43.000
C30  21601225.711 8 112483353.285 8       574.418          51.000
E13  25127906.805 8 132048059.066 8      2372.023          50.000    25127910.906 8 101179753.530 8      1817.536          49.000
E15  23004984.039 8 120892030.937 8       -81.773          51.000    23004985.789 8  92631572.668 8       -62.708          51.000
E27  23202902.391 8 121932075.239 8      -153.375          51.000    23202903.820 8  93428474.686 8      -117.506          51.000
E30  24427441.141 7 128367048.198 7     -2529.414          47.000    24427445.383 8  98359161.294 8     -1938.045          50.000
> 2020 05 09 13 07 30.0000000  0 16        .000000000000
G18  20494810.289 8 107701029.888 8      1061.492          48.000    20494810.492 8  83922857.688 8       827.134          48.000
G21  20741129.234 8 108995422.966 8       651.105          51.000    20741128.219 8  84931442.351 8       507.355          50.000
G25  23599711.570 7 124017319.377 7     -3299.570          43.000    23599714.625 7  96636883.522 7     -2571.094          43.000
G29  21555814.680 5 113276595.193 5     -2161.535          31.000    21555814.625 5  88267455.622 5     -1684.313          30.000
G31  21874562.734 8 114951598.769 8     -2114.258          49.000    21874561.023 8  89572660.176 8     -1647.474          49.000
R16  20943175.414 7 111874677.209 7     -3487.562          47.000    20943177.109 7  87013635.478 7     -2712.552          42.000
R19  19286012.984 6 103167160.136 6      -466.066          36.000    19286013.820 6  80241137.062 6      -362.496          41.000
R20  21870824.328 5 116953151.313 5      3202.148          33.000    21870829.492 7  90963564.133 7      2490.560          45.000
C05  39623573.047 5 206330342.045 5        14.191          35.000    39623573.109 6 159547708.915 6        11.182          37.000
C27  22926954.578 7 119386655.150 7     -2157.949          43.000
C29  24863013.930 7 129468252.081 7      2677.754          43.000
C30  21597951.117 8 112466302.203 8       563.316          51.000
E13  25114392.336 8 131977037.343 8      2363.805          51.000    25114395.188 8 101125334.328 8      1811.299          49.000
E15  23005488.914 8 120894683.511 8       -93.891          51.000    23005490.281 8  92633605.162 8       -71.948          51.000
E27  23203816.547 8 121936878.796 8      -165.723          51.000    23203817.867 8  93432155.333 8      -126.985          51.000
E30  24441905.125 7 128443058.627 7     -2536.855          46.000    24441909.812 8  98417403.024 8     -1943.797          49.000
> 2020 05 09 13 08  0.0000000  0 16        .000000000000
G18  20488793.891 7 107669416.321 7      1046.812          47.000    20488794.742 7  83898223.726 7       815.698          47.000
G21  20737450.070 8 108976089.003 8       638.559          51.000    20737448.977 8  84916376.950 8       497.581          50.000
G25  23618554.812 7 124116341.108 7     -3301.086          43.000    23618557.367 7  96714043.253 7     -2572.278          43.000
G31  21886664.742 8 115015196.525 8     -2124.910          49.000    21886663.234 8  89622216.830 8     -1655.777          50.000
R16  20962795.336 7 111979481.612 7     -3498.379          47.000    20962797.898 7  87095149.936 7     -2720.961          44.000
R18  21450135.398 5 114502244.290 5     -3353.082          33.000
R19  19288669.781 6 103181371.157 6      -480.273          36.000    19288670.242 6  80252190.075 6      -373.546          41.000
R20  21852878.414 5 116857198.441 5      3194.730          34.000    21852885.695 7  90888934.081 7      2484.787          46.000
C05  39623477.070 6 206329842.392 6        19.074          36.000    39623477.367 6 159547323.317 6        14.937          36.000
C27  22939393.414 6 119451426.365 6     -2159.402          41.000
C29  24847590.844 7 129387938.019 7      2677.051          44.000
C30  21594726.195 8 112449507.933 8       557.020          51.000
E13  25100910.312 8 131906185.083 8      2360.352          51.000    25100911.914 8 101071044.967 8      1808.521          48.000
E15  23006047.773 8 120897620.347 8      -101.195          51.000    23006049.180 8  92635855.479 8       -77.560          51.000
E27  23204786.734 8 121941976.275 8      -173.441          51.000    23204788.133 8  93436061.184 8      -132.885          51.000
E30  24456396.602 7 128519212.751 7     -2539.336          47.000    24456401.469 8  98475754.848 8     -1945.973          50.000
> 2020 05 09 13 08 30.0000000  0 17        .000000000000
G18  20482894.273 8 107638415.206 8      1025.629          48.000    20482895.539 8  83874067.001 8       799.191          48.000
G21  20733875.727 8 108957305.780 8       619.375          51.000    20733874.414 8  84901740.695 8       482.630          50.000
G25  23637440.570 7 124215585.160 7     -3309.484          46.000    23637442.258 7  96791376.227 7     -2578.822          45.000
G29  21580562.508 5 113406616.058 5     -2172.672          32.000    21580562.078 5  88368791.541 5     -1692.994          31.000
G31  21898861.023 8 115079287.946 8     -2142.105          51.000    21898859.633 8  89672158.161 8     -1669.173          51.000
R16  20982509.938 7 112084793.368 7     -3516.324          46.000    20982513.438 7  87177059.080 7     -2734.919          44.000
R18  21469024.484 5 114603059.072 5     -3361.371          32.000
R19  19291441.086 5 103196195.542 5      -501.688          35.000    19291441.883 6  80263720.146 6      -390.201          41.000
R20  21835013.203 6 116761660.166 6      3180.434          37.000    21835019.953 7  90814626.541 7      2473.671          46.000
C05  39623390.852 5 206329394.041 5        16.594          35.000    39623391.578 6 159546977.667 6        12.538          37.000
C27  22951874.695 6 119516420.030 6     -2167.977          38.000
C29  24832206.094 6 129307825.453 6      2669.469          41.000
C30  21591571.633 8 112433080.746 8       543.855          51.000
E13  25087482.078 8 131835614.789 8      2350.027          51.000    25087482.438 8 101016971.658 8      1800.631          49.000
E15  23006681.789 8 120900952.476 8      -115.266          51.000    23006683.578 8  92638408.678 8       -88.338          51.000
E27  23205834.148 8 121947479.970 8      -187.801          51.000    23205835.867 8  93440278.288 8      -143.932          51.000
E30  24470937.195 8 128595621.526 8     -2548.797          49.000    24470941.953 8  98534301.766 8     -1952.977          51.000
> 2020 05 09 13 09  0.0000000  0 16        .000000000000
G18  20477104.188 8 107607986.860 8      1004.551          50.000    20477105.359 8  83850356.598 8       782.764          50.000
G21  20730398.492 8 108939032.895 8       600.367          51.000    20730397.234 8  84887502.098 8       467.819          49.000
G25  23656360.883 7 124315010.080 7     -3317.309          46.000    23656362.555 7  96868850.094 7     -2584.916          46.000
G29  21593000.195 6 113471983.018 6     -2182.125          36.000    21593000.297 6  88419722.964 6     -1700.354          36.000
G31  21911142.930 8 115143829.847 8     -2159.125          51.000    21911141.695 8  89722450.528 8     -1682.435          51.000
R16  21002310.602 7 112190568.560 7     -3533.812          46.000    21002315.102 7  87259328.703 7     -2748.518          44.000
R19  19294318.922 6 103211590.167 6      -522.691          36.000    19294319.594 7  80275693.733 7      -406.538          42.000
R20  21817218.711 6 116666496.721 6      3165.531          40.000    21817224.141 7  90740610.553 7      2462.080          47.000
C05  39623306.539 6 206328954.942 6        14.496          36.000    39623307.703 6 159546638.893 6        11.049          37.000
C27  22964390.641 6 119581594.866 6     -2175.527          38.000
C29  24816851.859 6 129227874.868 6      2662.219          41.000
C30  21588479.703 8 112416980.244 8       531.039          51.000
E13  25074100.070 8 131765286.813 8      2339.996          51.000    25074099.797 8 100963084.018 8      1793.023          50.000
E15  23007383.188 8 120904638.807 8      -128.969          51.000    23007385.227 8  92641233.271 8       -98.826          51.000
E27  23206951.344 8 121953350.148 8      -201.949          51.000    23206953.234 8  93444776.202 8      -154.791          51.000
E30  24485518.539 8 128672243.843 8     -2557.871          49.000    24485523.172 8  98593012.351 8     -1959.900          51.000
> 2020 05 09 13 09 30.0000000  0 16        .000000000000
G18  20471417.680 8 107578102.641 8       987.254          50.000    20471418.625 8  83827070.195 8       769.289          50.000
G21  20727012.938 8 108921241.241 8       585.188          51.000    20727011.469 8  84873638.463 8       455.990          49.000
G25  23675309.867 7 124414585.473 7     -3321.605          46.000    23675311.570 7  96946441.230 7     -2588.267          45.000
G29  21605472.664 6 113537527.236 6     -2187.828          36.000    21605472.977 6  88470796.376 6     -1704.801          36.000
G31  21923504.594 8 115208791.344 8     -2172.219          51.000    21923503.641 8  89773069.850 8     -1692.638          51.000
R16  21022192.656 7 112296774.351 7     -3547.184          46.000    21022196.703 7  87341933.176 7     -2758.924          42.000
R19  19297297.281 6 103227523.175 6      -539.840          36.000    19297298.344 6  80288086.085 6      -419.875          41.000
R20  21799488.367 6 116571679.796 6      3154.977          38.000    21799492.750 7  90666864.145 7      2453.874          46.000
C05  39623218.922 6 206328498.364 6        15.539          37.000    39623219.938 6 159546285.816 6        12.384          36.000
C27  22976935.180 5 119646920.589 5     -2179.562          34.000
C29  24801524.039 7 129148057.926 7      2658.492          43.000
C30  21585444.938 8 112401177.133 8       521.992          51.000
E13  25060758.578 8 131695172.696 8      2333.711          51.000    25060758.289 8 100909360.255 8      1788.171          50.000
E15  23008146.453 8 120908649.456 8      -138.957          51.000    23008148.430 8  92644306.364 8      -106.483          51.000
E27  23208132.883 8 121959558.225 8      -212.430          51.000    23208134.773 8  93449533.021 8      -162.807          51.000
E30  24500134.656 8 128749049.725 8     -2563.129          50.000    24500139.594 8  98651863.590 8     -1963.953          51.000
> 2020 05 09 13 10  0.0000000  0 16        .000000000000
G18  20465838.609 8 107548783.238 8       968.055          51.000    20465839.422 8  83804223.915 8       754.328          51.000
G21  20723722.773 8 108903950.619 8       568.242          51.000    20723720.883 8  84860165.262 8       442.786          49.000
G25  23694290.828 7 124514330.242 7     -3327.387          46.000    23694292.859 7  97024164.364 7     -2592.772          46.000
G29  21617983.273 6 113603273.002 6     -2195.242          38.000    21617984.094 6  88522026.752 6     -1710.575          38.000
G31  21935949.492 8 115274190.329 8     -2187.156          51.000    21935948.867 8  89824030.083 8     -1704.278          50.000
R16  21042158.477 7 112403428.443 7     -3562.469          46.000    21042161.812 7  87424886.255 7     -2770.812          42.000
R19  19300379.703 5 103244013.838 5      -558.664          35.000    19300381.109 6  80300912.140 6      -434.520          41.000
R20  21781825.336 5 116477231.353 5      3142.133          34.000    21781828.875 7  90593404.286 7      2443.881          44.000
C05  39623131.602 6 206328043.188 6        15.477          36.000    39623132.461 6 159545934.864 6        11.653          36.000
C27  22989511.688 5 119712415.921 5     -2185.883          31.000
C29  24786226.266 7 129068394.917 7      2653.199          44.000
C30  21582470.930 8 112385690.918 8       511.016          51.000
E13  25047461.172 8 131625293.225 8      2325.480          51.000    25047461.148 8 100855816.282 8      1781.838          50.000
E15  23008974.891 8 120913003.717 8      -150.770          51.000    23008977.234 8  92647642.756 8      -115.540          51.000
E27  23209382.523 8 121966124.852 8      -224.762          51.000    23209384.445 8  93454564.580 8      -172.256          51.000
E30  24514789.188 8 128826058.498 8     -2570.188          49.000    24514794.250 8  98710870.265 8     -1969.394          51.000
> 2020 05 09 13 10 30.0000000  0 17        .000000000000
G18  20460367.961 8 107520033.229 8       949.078          51.000    20460368.742 8  83781821.335 8       739.541          51.000
G21  20720528.656 8 108887164.799 8       551.332          51.000    20720526.336 8  84847085.422 8       429.609          49.000
G25  23713304.344 7 124614247.200 7     -3333.215          45.000    23713306.828 7  97102021.680 7     -2597.313          45.000
G29  21630532.891 6 113669223.048 6     -2201.855          37.000    21630533.656 5  88573416.262 5     -1715.744          35.000
G31  21948478.055 8 115340028.336 8     -2201.641          50.000    21948477.844 8  89875332.408 8     -1715.564          51.000
R09  19472925.281 5 103984329.099 5      1208.258          35.000    19472914.094 5  80876666.028 5       939.756          32.000
R16  21062208.297 7 112510532.070 7     -3577.270          45.000    21062211.688 7  87508188.976 7     -2782.324          42.000
R19  19303566.914 6 103261063.959 6      -577.871          36.000    19303568.500 6  80314173.351 6      -449.455          41.000
R20  21764230.266 5 116383157.029 5      3130.129          33.000    21764234.742 7  90520235.340 7      2434.542          44.000
C05  39623045.242 6 206327593.520 6        15.180          36.000    39623046.031 6 159545587.141 6        11.687          36.000
C27  23002122.141 6 119778083.497 6     -2191.117          36.000
C29  24770959.242 7 128988890.521 7      2647.832          45.000
C30  21579558.375 8 112370525.138 8       500.473          51.000
E13  25034208.789 8 131555653.126 8      2317.637          50.000    25034209.547 8 100802455.698 8      1775.843          51.000
E15  23009869.516 8 120917704.901 8      -162.133          51.000    23009872.133 8  92651244.963 8      -124.220          51.000
E27  23210701.273 8 121973054.604 8      -236.758          51.000    23210703.141 8  93459874.371 8      -181.367          51.000
E30  24529482.734 8 128903273.318 8     -2576.902          50.000    24529487.938 8  98770034.816 8     -1974.516          51.000
> 2020 05 09 13 11  0.0000000  0 18        .000000000000
G18  20454997.797 8 107491811.910 8       931.152          51.000    20454998.398 8  83759830.733 8       725.573          50.000
G21  20717422.828 8 108870842.351 8       535.684          51.000    20717420.117 8  84834366.619 8       417.416          49.000
G25  23732342.141 7 124714293.951 7     -3337.703          44.000    23732345.375 7  97179980.111 7     -2600.811          44.000
G29  21643113.570 6 113735334.989 6     -2206.961          37.000    21643113.711 6  88624932.240 6     -1719.710          37.000
G31  21961081.930 8 115406261.964 8     -2215.055          51.000    21961081.672 8  89926943.031 8     -1726.017          51.000
R09  19466206.820 5 103948419.482 5      1185.324          33.000    19466191.344 5  80848736.346 5       921.910          33.000
R16  21082333.930 7 112618039.762 7     -3590.801          42.000    21082337.500 7  87591806.069 7     -2792.845          44.000
R18  21563938.547 5 115109699.192 5     -3390.488          35.000
R19  19306850.961 5 103278629.601 5      -594.695          35.000    19306852.164 6  80327835.531 6      -462.538          41.000
R20  21746701.000 6 116289415.867 6      3118.703          37.000    21746704.656 7  90447325.613 7      2425.661          45.000
C05  39622951.938 6 206327108.403 6        16.031          36.000    39622952.680 6 159545211.034 6        12.427          37.000
C27  23014758.508 6 119843881.417 6     -2196.473          36.000
C29  24755714.836 7 128909504.333 7      2643.605          45.000
C30  21576699.625 8 112355638.546 8       490.855          51.000
E13  25020993.945 8 131486211.930 8      2310.648          49.000    25020996.727 8 100749247.521 8      1770.500          51.000
E15  23010822.047 8 120922711.092 8      -172.578          51.000    23010824.812 8  92655080.866 8      -132.274          51.000
E27  23212081.445 8 121980306.845 8      -247.797          51.000    23212083.227 8  93465431.289 8      -189.906          51.000
E30  24544207.602 8 128980652.201 8     -2582.715          50.000    24544212.523 8  98829325.102 8     -1979.029          51.000
> 2020 05 09 13 11 30.0000000  0 19        .000000000000
G18  20449742.789 8 107464196.375 8       912.688          51.000    20449743.086 8  83738312.164 8       711.185          50.000
G20  24549399.781 6 129007969.097 6      3332.785          36.000
G21  20714419.461 8 108855059.540 8       519.383          51.000    20714416.727 8  84822068.351 8       404.717          49.000
G25  23751419.336 7 124814545.961 7     -3343.008          46.000    23751422.477 7  97258098.469 7     -2604.941          45.000
G29  21655739.508 5 113801684.610 5     -2213.570          35.000    21655740.562 6  88676633.290 6     -1724.857          36.000
G31  21973774.953 8 115472965.520 8     -2229.012          48.000    21973775.039 8  89978919.804 8     -1736.892          48.000
R09  19459607.703 5 103913200.691 5      1161.531          31.000    19459608.523 5  80821396.684 5       903.413          33.000
R16  21102547.781 6 112726027.027 6     -3605.285          40.000    21102553.172 7  87675796.220 7     -2804.105          44.000
R18  21583013.328 5 115211537.480 5     -3395.934          30.000
R19  19310244.820 6 103296786.900 6      -613.105          36.000    19310246.562 6  80341957.879 6      -476.860          41.000
R20  21729249.164 6 116196087.076 6      3106.578          38.000    21729252.195 7  90374736.598 7      2416.227          46.000
C05  39622866.484 5 206326662.837 5        16.215          35.000    39622867.180 6 159544867.257 6        12.801          37.000
C27  23027435.023 5 119909884.231 5     -2201.441          34.000
C29  24740507.766 7 128830312.800 7      2638.578          46.000
C30  21573908.977 8 112341106.658 8       480.648          51.000
E13  25007831.336 8 131417046.841 8      2303.098          48.000    25007836.508 8 100696250.903 8      1764.687          51.000
E15  23011846.727 8 120928098.042 8      -183.738          51.000    23011849.758 8  92659208.519 8      -140.745          51.000
E27  23213537.594 8 121987958.703 8      -259.516          51.000    23213539.414 8  93471294.393 8      -198.841          51.000
E30  24558978.289 8 129058270.951 8     -2589.070          51.000    24558982.531 8  98888799.191 8     -1983.839          51.000
> 2020 05 09 13 12  0.0000000  0 19        .000000000000
G18  20444592.328 8 107437130.128 8       893.281          51.000    20444592.602 8  83717221.624 8       696.063          51.000
G20  24530377.156 5 128908002.052 5      3333.637          35.000
G21  20711507.852 8 108839758.896 8       502.207          51.000    20711505.117 8  84810145.791 8       391.330          49.000
G25  23770524.773 7 124914944.956 7     -3348.680          46.000    23770527.570 7  97336331.384 7     -2609.364          45.000
G29  21668399.445 5 113868213.837 5     -2220.566          35.000    21668401.828 5  88728474.167 5     -1730.318          34.000
G31  21986546.148 7 115540079.849 7     -2243.750          47.000    21986546.047 8  90031216.655 8     -1748.377          48.000
R09  19453167.602 6 103878763.104 6      1136.520          37.000    19453163.055 5  80794611.840 5       883.957          34.000
R16  21122841.625 7 112834432.615 7     -3620.145          44.000    21122846.891 7  87760111.690 7     -2815.668          42.000
R18  21602114.117 5 115313519.798 5     -3402.113          30.000
R19  19313738.648 5 103315475.880 5      -631.367          35.000    19313740.281 6  80356493.754 6      -491.063          40.000
R20  21711862.500 6 116103114.795 6      3093.352          36.000    21711866.969 7  90302424.844 7      2405.940          47.000
C05  39622778.070 6 206326202.380 6        16.137          36.000    39622778.781 6 159544511.236 6        12.276          37.000
C27  23040139.023 5 119976034.257 5     -2207.281          34.000
C29  24725327.234 7 128751259.900 7      2633.145          47.000
C30  21571175.211 8 112326872.514 8       469.773          51.000
E13  24994710.648 8 131348101.584 8      2294.773          48.000    24994716.984 8 100643422.736 8      1758.309          51.000
E15  23012933.156 8 120933808.025 8      -195.457          51.000    23012936.266 8  92663583.702 8      -149.748          51.000
E27  23215059.125 8 121995953.693 8      -271.949          51.000    23215060.969 8  93477420.424 8      -208.407          51.000
E30  24573783.781 8 129136071.692 8     -2596.105          51.000    24573786.914 8  98948412.724 8     -1989.224          51.000
> 2020 05 09 13 12 30.0000000  0 17        .000000000000
G18  20439555.672 8 107410662.739 8       872.086          51.000    20439556.039 8  83696597.718 8       679.551          50.000
G20  24511358.102 5 128808046.872 5      3331.125          34.000
G21  20708697.328 8 108824989.580 8       483.258          51.000    20708694.633 8  84798637.247 8       376.565          50.000
G25  23789667.352 7 125015538.908 7     -3356.477          46.000    23789670.094 7  97414716.184 7     -2615.439          45.000
G29  21681102.898 5 113934970.413 5     -2228.613          34.000    21681104.523 5  88780492.205 5     -1736.594          31.000
G31  21999404.641 8 115607651.605 8     -2260.102          49.000    21999404.414 8  90083869.925 8     -1761.121          50.000
R09  19446863.109 6 103845085.877 6      1109.504          37.000    19446857.500 5  80768418.486 5       862.947          34.000
R16  21143223.312 7 112943303.586 7     -3636.949          46.000    21143226.852 6  87844789.069 6     -2828.741          39.000
R19  19317341.195 5 103334744.488 5      -652.320          34.000    19317342.422 6  80371480.451 6      -507.357          40.000
R20  21694551.422 6 116010549.723 6      3078.566          38.000    21694557.680 7  90230429.762 7      2394.441          47.000
C05  39622695.836 5 206325774.770 5        13.164          35.000    39622696.594 6 159544179.578 6        10.300          37.000
C29  24710182.430 7 128672394.881 7      2625.402          45.000
C30  21568508.008 8 112312984.349 8       457.035          51.000
E13  24981641.969 8 131279425.958 8      2284.441          49.000    24981647.305 8 100590801.153 8      1750.449          49.000
E15  23014090.359 8 120939889.343 8      -209.141          51.000    23014093.602 8  92668243.423 8      -160.263          51.000
E27  23216655.367 8 122004341.504 8      -286.441          51.000    23216657.398 8  93483847.432 8      -219.454          51.000
E30  24588633.062 8 129214102.816 8     -2605.102          51.000    24588635.242 8  99008202.786 8     -1996.126          50.000
> 2020 05 09 13 13  0.0000000  0 18        .000000000000
G18  20434623.789 8 107384745.792 8       854.633          51.000    20434623.891 8  83676402.707 8       665.948          50.000
G20  24492331.695 5 128708056.169 5      3333.898          34.000
G21  20705978.367 8 108810702.545 8       468.070          50.000    20705976.141 8  84787504.523 8       364.730          50.000
G25  23808837.422 7 125116277.751 7     -3360.516          45.000    23808840.406 7  97493213.877 7     -2618.587          45.000
G29  21693840.188 6 114001904.618 6     -2234.316          37.000    21693840.656 6  88832648.766 6     -1741.023          37.000
G31  22012340.766 8 115675629.809 8     -2272.840          51.000    22012340.219 8  90136839.897 8     -1771.044          51.000
R09  19440690.570 6 103812121.872 6      1086.418          36.000    19440681.867 5  80742779.834 5       844.992          31.000
R16  21163682.289 7 113052587.333 7     -3649.801          46.000    21163683.023 6  87929787.447 6     -2838.737          36.000
R19  19321041.883 5 103354541.054 5      -668.957          35.000    19321043.227 6  80386877.795 6      -520.300          39.000
R20  21677308.508 6 115918343.366 6      3067.293          39.000    21677315.094 7  90158713.716 7      2385.672          47.000
C05  39622610.820 6 206325331.646 6        15.152          36.000    39622611.281 6 159543836.907 6        11.819          36.000
C27  23065648.570 4 120108883.993 4     -2219.188          28.000
C29  24695063.758 7 128593669.809 7      2621.551          44.000
C30  21565897.969 8 112299393.338 8       447.934          51.000
E13  24968616.000 8 131210971.708 8      2277.984          51.000    24968618.430 7 100538349.246 7      1745.489          47.000
E15  23015308.758 8 120946292.401 8      -218.961          51.000    23015312.258 8  92673149.676 8      -167.745          51.000
E27  23218316.992 8 122013073.790 8      -296.941          51.000    23218319.234 8  93490538.401 8      -227.536          51.000
E30  24603516.508 8 129292314.602 8     -2610.188          51.000    24603518.617 8  99068131.284 8     -2000.032          50.000
> 2020 05 09 13 13 30.0000000  0 18        .000000000000
G18  20429800.695 8 107359400.730 8       835.582          51.000    20429800.680 8  83656653.302 8       651.103          51.000
G20  24473302.555 5 128608054.486 5      3333.660          35.000
G21  20703355.141 8 108796918.474 8       451.398          50.000    20703353.383 8  84776763.704 8       351.739          50.000
G25  23828038.664 7 125217181.244 7     -3365.859          45.000    23828042.219 7  97571839.922 7     -2622.751          45.000
G29  21706615.180 5 114069036.426 5     -2240.500          34.000    21706616.055 5  88884959.156 5     -1745.847          35.000
G31  22025357.953 8 115744033.085 8     -2286.840          51.000    22025356.578 8  90190141.114 8     -1781.953          51.000
R09  19434652.266 6 103779894.615 6      1062.281          37.000    19434646.031 5  80717714.167 5       826.225          32.000
R16  21184221.844 7 113162302.154 7     -3664.098          47.000    21184220.766 6  88015121.106 6     -2849.857          37.000
R19  19324844.820 5 103374885.224 5      -686.910          35.000    19324846.172 6  80402701.051 6      -534.263          39.000
R20  21660136.844 6 115826518.544 6      3054.746          39.000    21660142.758 7  90087294.445 7      2375.914          46.000
C05  39622526.664 5 206324893.929 5        14.410          35.000    39622527.195 6 159543498.420 6        11.345          36.000
C27  23078450.773 5 120175537.839 5     -2224.684          32.000
C29  24679975.367 7 128515106.031 7      2616.402          43.000
C30  21563348.859 8 112286119.866 8       437.445          51.000
E13  24955636.680 8 131142760.601 8      2269.863          51.000    24955635.258 7 100486083.685 7      1739.351          46.000
E15  23016592.156 8 120953037.457 8      -230.281          51.000    23016595.867 8  92678317.963 8      -176.455          51.000
E27  23220048.336 8 122022172.081 8      -309.059          51.000    23220050.328 8  93497509.820 8      -236.850          51.000
E30  24618438.070 8 129370727.226 8     -2616.855          51.000    24618440.758 8  99128213.655 8     -2005.114          49.000
> 2020 05 09 13 14  0.0000000  0 19        .000000000000
G18  20425083.031 8 107334610.331 8       816.797          50.000    20425083.375 8  83637336.114 8       636.465          50.000
G20  24454261.148 5 128508018.543 5      3334.938          31.000
G21  20700824.109 8 108783619.311 8       434.938          50.000    20700822.562 8  84766400.732 8       338.915          50.000
G25  23847267.586 7 125318230.634 7     -3371.062          46.000    23847271.547 7  97650579.658 7     -2626.802          46.000
G29  21719424.547 5 114136345.381 5     -2246.391          32.000    21719425.781 5  88937416.234 5     -1750.437          31.000
