     3.02           OBSERVATION DATA    M (MIXED)           RINEX VERSION / TYPE
SAVERINEX           SC600               20200511 195930 LCL PGM / RUN BY / DATE
       G = GPS       R = GLONASS       C = COMPASS          COMMENT
       S = SBAS      J = QZSS          E = GALILEO          COMMENT
BEAN                                                        MARKER NAME
1                                                           MARKER NUMBER
GEODETIC                                                    MARKER TYPE
Unige DICCA         GTER                                    OBSERVER / AGENCY
SC60291900056       SC600               2.12(191226)        REC # / TYPE / VERS
                    HEMA45          NONE                    ANT # / TYPE
  4509407.8091   693652.4678  4442337.6214                  APPROX POSITION XYZ
        0.0000        0.0000        0.0000                  ANTENNA: DELTA H/E/N
G    8 C1C L1C D1C S1C C2Y L2Y D2Y S2Y                      SYS / # / OBS TYPES
R    8 C1C L1C D1C S1C C2P L2P D2P S2P                      SYS / # / OBS TYPES
C    8 C1I L1I D1I S1I C7I L7I D7I S7I                      SYS / # / OBS TYPES
E    8 C1C L1C D1C S1C C7Q L7Q D7Q S7Q                      SYS / # / OBS TYPES
DBHZ                                                        COMMENT
     30.000                                                 INTERVAL
  2020    05    11    17    00    0.0000000     GPS         TIME OF FIRST OBS
  2020    05    11    17    59   30.0000000     GPS         TIME OF LAST OBS
     0                                                      RCV CLOCK OFFS APPL
G L1C  0.00000                                              SYS / PHASE SHIFT
G L2Y  0.00000                                              SYS / PHASE SHIFT
R L1C  0.00000                                              SYS / PHASE SHIFT
R L2P  0.25000                                              SYS / PHASE SHIFT
C L1I  0.00000                                              SYS / PHASE SHIFT
C L7I  0.00000                                              SYS / PHASE SHIFT
E L1C  0.50000                                              SYS / PHASE SHIFT
E L7Q -0.25000                                              SYS / PHASE SHIFT
 14 R01  1 R05  1 R06 -4 R07  5 R08  6 R09 -2 R10 -5 R11  0 GLONASS SLOT / FRQ #
    R12 -1 R13 -2 R20  2 R21  4 R22 -3 R23  3               GLONASS SLOT / FRQ #
 C1C   71.950 C2C   71.950 C2P   71.950                     GLONASS COD/PHS/BIS
    18                                                      LEAP SECONDS
*** Above antenna height is from mark to ANTENNA BOTTOM.    COMMENT
    17     4        0.0000        ANT MEASURE TYPE/HEIGT    COMMENT
    0.0000    0.0000    0.0458    0.0405    0.0000          COMMENT
                    BASE STATION                            COMMENT
                                                            END OF HEADER
> 2020 05 11 17 00  0.0000000  0 11        .000000000000
G10  21105814.164 8 110911831.752 8     -1089.742          48.000    21105816.484 8  86424827.660 8      -849.150          48.000
G16  23186068.945 6 121843596.104 6     -3540.129          37.000    23186065.109 5  94943052.960 5     -2758.548          31.000
G27  20429633.773 8 107358437.470 8      -898.484          51.000    20429635.078 8  83655914.282 8      -700.118          51.000
G32  23973282.852 7 125980433.126 7      2861.410          45.000    23973286.312 7  98166595.678 7      2229.673          46.000
R07  20597717.438 6 110261181.629 6      -979.125          38.000    20597720.438 4  85758681.608 4      -761.545          29.000
R08  20629438.852 8 110469714.744 8      2895.516          51.000    20629439.414 7  85920901.270 7      2252.068          44.000
R22  20920374.195 5 111674446.978 5     -2028.266          34.000    20920382.391 5  86857891.891 5     -1577.540          30.000
C27  21513934.445 8 112028678.141 8       -62.758          49.000
E04  26207482.031 8 137721293.292 8      2648.715          51.000    26207482.484 8 105526706.595 8      2029.511          49.000
E11  22837403.727 5 120011371.509 5       729.504          34.000
E12                                                                  22799828.875 6  91805445.352 6     -1114.029          41.000
> 2020 05 11 17 00 30.0000000  0 12        .000000000000
G10  21112027.445 8 110944482.585 8     -1092.168          48.000    21112029.484 8  86450269.908 8      -851.040          48.000
G11  21915110.867 5 115164671.426 5      2766.156          34.000
G20  22716079.633 5 119373803.736 5     -2914.566          31.000
G27  20434749.930 8 107385323.327 8      -899.047          51.000    20434751.164 8  83676864.307 8      -700.556          51.000
G32  23956905.898 7 125894372.455 7      2870.578          46.000    23956909.734 7  98099535.495 7      2236.814          46.000
R07  20603224.523 6 110290661.460 6      -991.070          37.000    20603233.867 5  85781610.526 5      -770.826          31.000
R08  20613218.695 8 110382854.039 8      2889.949          51.000    20613218.289 7  85853343.015 7      2247.741          42.000
R22  20931743.039 5 111735049.531 5     -2021.789          32.000    20931761.195 5  86905036.680 5     -1572.500          33.000
C27  21514267.820 8 112030413.622 8       -57.965          50.000
E04  26192322.172 8 137641627.984 8      2657.191          50.000    26192323.055 8 105465664.394 8      2036.000          49.000
E11  22833196.406 5 119989261.294 5       739.301          33.000
E12  22808087.125 5 119857369.408 5     -1443.590          34.000    22808085.258 6  91838686.277 6     -1106.020          41.000
> 2020 05 11 17 01  0.0000000  0 10        .000000000000
G10  21118319.789 8 110977548.752 8     -1113.445          48.000    21118321.594 8  86476035.741 8      -867.620          48.000
G11  21899353.570 6 115081853.334 6      2755.625          36.000
G27  20439933.344 8 107412562.811 8      -918.301          51.000    20439934.727 8  83698089.869 8      -715.559          51.000
G32  23940541.805 8 125808377.864 8      2861.031          48.000    23940545.508 8  98032526.806 8      2229.378          48.000
R07  20608863.367 6 110320841.488 6     -1022.059          39.000    20608868.391 4  85805083.828 4      -794.937          28.000
R08  20597092.984 8 110296503.341 8      2865.352          49.000    20597091.570 7  85786181.365 7      2228.610          42.000
R22  20943137.430 5 111795873.711 5     -2035.234          33.000    20943167.047 3  86952469.161 3     -1582.975          23.000
C27  21514637.273 8 112032336.815 8       -71.703          51.000
E04  26177177.641 8 137562045.141 8      2646.918          49.000    26177179.578 8 105404685.363 8      2028.164          50.000
E12  22816343.773 5 119900698.954 5     -1451.867          31.000    22816344.523 6  91871941.277 6     -1112.048          40.000
> 2020 05 11 17 01 30.0000000  0 14        .000000000000
G08  20657862.719 5 108557808.646 5      1303.469          34.000    20657859.070 5  84590478.336 5      1015.690          31.000
G10  21124719.992 7 111011182.716 7     -1126.938          47.000    21124722.180 7  86502244.057 7      -878.130          47.000
G11  21883639.945 5 114999267.768 5      2752.051          33.000
G16  23246680.258 5 122162147.931 5     -3544.777          35.000
G27  20445213.250 8 107440310.017 8      -929.836          51.000    20445214.789 8  83719711.040 8      -724.547          51.000
G32  23924220.352 8 125722606.581 8      2858.703          49.000    23924223.969 8  97965692.131 8      2227.564          48.000
R07  20614661.867 6 110351876.555 6     -1044.965          36.000    20614664.078 4  85829222.163 4      -812.750          26.000
R08  20581091.891 7 110210823.531 7      2848.387          47.000    20581091.312 7  85719541.528 7      2215.412          43.000
R22  20954587.242 5 111857020.445 5     -2039.977          34.000    20954617.625 5  87000051.080 5     -1586.661          33.000
C27  21515072.289 8 112034600.919 8       -77.688          51.000
C28  24042592.562 5 125196083.536 5     -2358.094          32.000
E04  26162077.695 7 137482700.754 7      2644.219          47.000    26162081.453 8 105343889.060 8      2026.039          50.000
E11  22824845.125 5 119945370.196 5       728.180          33.000
E12                                                                  22824635.953 6  91905328.337 6     -1112.464          40.000
> 2020 05 11 17 02  0.0000000  0 13        .000000000000
G08  20650466.195 5 108518936.818 5      1287.434          33.000    20650474.398 5  84560188.741 5      1003.189          32.000
G10  21131210.438 7 111045290.847 7     -1146.547          45.000    21131212.430 7  86528821.832 7      -893.413          45.000
G11  21867958.367 5 114916843.966 5      2743.363          32.000
G16  23266942.070 6 122268630.817 6     -3553.840          38.000    23266923.695 5  95274161.473 5     -2769.226          32.000
G27  20450572.336 8 107468472.886 8      -947.402          51.000    20450573.922 8  83741656.113 8      -738.236          51.000
G32  23907924.391 8 125636969.435 8      2850.520          48.000    23907928.117 8  97898961.989 8      2221.187          48.000
R07  20620601.195 6 110383671.720 6     -1074.145          37.000    20620603.969 4  85853951.744 4      -835.449          27.000
R08  20565199.180 7 110125723.963 7      2825.289          47.000    20565199.750 7  85653353.013 7      2197.447          42.000
R22  20966084.102 5 111918395.777 5     -2051.352          33.000
C27  21515555.352 8 112037115.272 8       -89.727          51.000
C28  24056203.023 5 125266948.575 5     -2365.625          33.000
E04  26147006.234 7 137403504.632 7      2635.508          47.000    26147011.133 8 105283206.373 8      2019.406          49.000
E12  22832942.406 6 119987920.131 6     -1458.457          36.000    22832941.883 6  91938776.844 6     -1117.342          39.000
> 2020 05 11 17 02 30.0000000  0 12        .000000000000
G08  20643156.078 5 108480520.633 5      1271.289          35.000    20643161.281 5  84530254.006 5       990.603          34.000
G10  21137809.062 7 111079967.812 7     -1167.109          45.000    21137810.906 7  86555842.866 7      -909.433          45.000
G16  23287248.383 6 122375352.789 6     -3563.016          39.000    23287235.852 4  95357329.275 4     -2776.364          27.000
G20  22783111.586 5 119726059.112 5     -2957.309          34.000
G27  20456028.938 8 107497147.713 8      -966.016          51.000    20456030.508 8  83764000.108 8      -752.742          51.000
G32  23891672.836 8 125551565.674 8      2841.184          49.000    23891676.320 8  97832413.670 8      2213.912          49.000
R07  20626700.898 6 110416323.363 6     -1104.535          40.000
R08  20549433.938 7 110041306.641 7      2800.680          47.000    20549435.172 7  85587695.141 7      2178.306          42.000
R23  19954970.609 5 106745607.843 5      1504.375          32.000
C27  21516104.820 8 112039975.765 8      -102.898          51.000
E04  26131982.328 8 137324554.914 8      2625.812          49.000    26131987.383 8 105222712.498 8      2011.953          49.000
E12  22841287.031 6 120031749.444 6     -1465.480          36.000    22841281.828 6  91972360.369 6     -1122.910          39.000
> 2020 05 11 17 03  0.0000000  0 12        .000000000000
G08  20635921.430 6 108442502.342 6      1263.242          36.000    20635925.797 5  84500629.420 5       984.348          34.000
G10  21144504.484 7 111115152.856 7     -1178.969          45.000    21144506.781 7  86583259.773 7      -918.677          45.000
G11  21836725.977 5 114752809.907 5      2730.727          30.000
G16  23307587.430 6 122482251.888 6     -3564.094          40.000    23307576.430 4  95440627.362 4     -2777.216          28.000
G27  20461571.742 8 107526275.256 8      -976.117          51.000    20461573.344 8  83786696.865 8      -760.611          51.000
G32  23875454.891 8 125466339.121 8      2840.230          49.000    23875458.422 8  97766003.429 8      2213.170          49.000
R07  20632949.570 6 110449769.017 6     -1125.855          36.000    20632953.906 4  85905412.072 4      -875.665          25.000
R08  20533785.750 8 109957514.349 8      2784.977          50.000    20533787.117 7  85522523.405 7      2166.093          43.000
R22  20989258.312 5 112042092.701 5     -2067.438          33.000    20989267.984 4  87143848.258 4     -1608.004          29.000
C27  21516709.625 8 112043124.224 8      -107.406          51.000
E04  26116994.961 8 137245794.274 8      2624.535          50.000    26116999.477 8 105162363.494 8      2011.052          49.000
E12  22849651.836 5 120075731.823 5     -1464.262          31.000    22849645.195 6  92006033.576 6     -1122.128          39.000
> 2020 05 11 17 03 30.0000000  0 11        .000000000000
G08  20628763.312 6 108404886.536 6      1248.340          36.000    20628764.055 5  84471318.466 5       972.738          35.000
G10  21151296.852 7 111150847.702 7     -1197.371          44.000    21151299.336 7  86611073.941 7      -933.016          44.000
G16  23327960.734 6 122589329.109 6     -3571.215          39.000    23327953.438 5  95524064.134 5     -2782.753          31.000
G20  22816943.453 5 119903847.159 5     -2971.223          33.000
G27  20467201.273 8 107555858.879 8      -992.754          51.000    20467202.930 8  83809749.018 8      -773.578          51.000
G32  23859271.547 8 125381296.102 8      2832.641          49.000    23859275.469 8  97699736.233 8      2207.255          49.000
R07  20639345.250 5 110484010.403 5     -1153.637          35.000    20639365.922 4  85932060.954 4      -897.261          26.000
R08  20518256.258 8 109874354.283 8      2762.492          51.000    20518258.117 7  85457843.417 7      2148.605          45.000
C27  21517370.484 8 112046564.561 8      -118.574          51.000
E04  26102044.430 8 137167227.994 8      2616.586          50.000    26102049.031 8 105102163.448 8      2004.925          50.000
E12  22858032.648 6 120119775.707 6     -1470.156          36.000    22858030.164 6  92039799.001 6     -1126.310          38.000
> 2020 05 11 17 04  0.0000000  0 14        .000000000000
G08  20621677.211 4 108367649.234 4      1235.203          28.000    20621677.469 4  84442302.371 4       962.490          29.000
G10  21158181.102 7 111187025.214 7     -1213.629          46.000    21158183.484 7  86639264.206 7      -945.685          46.000
G16  23348363.000 6 122696555.996 6     -3576.496          40.000    23348358.000 5  95607617.474 5     -2786.883          30.000
G27  20472912.664 8 107585872.998 8     -1007.316          51.000    20472914.484 8  83833136.628 8      -784.922          51.000
G32  23843118.727 7 125296414.080 7      2826.977          47.000    23843122.953 7  97633594.506 7      2202.842          47.000
R07  20645884.984 6 110519020.055 6     -1179.543          38.000
R08  20502840.844 8 109791804.094 8      2741.820          51.000    20502843.359 7  85393637.749 7      2132.527          47.000
R22  21012622.742 4 112166805.392 4     -2085.297          29.000
C27  21518082.406 8 112050271.980 8      -127.719          51.000
C28  24111010.008 4 125552344.926 4     -2388.445          29.000
E04  26087126.258 8 137088832.456 8      2610.648          51.000    26087131.039 8 105042094.214 8      2000.391          49.000
E11  22804481.281 5 119838353.423 5       701.680          32.000
E12  22866436.203 6 120163937.051 6     -1473.270          38.000    22866433.164 6  92073636.930 6     -1128.848          38.000
E25  25631116.883 6 134692423.977 6     -1610.613          40.000
> 2020 05 11 17 04 30.0000000  0 13        .000000000000
G08  20614666.016 5 108330802.524 5      1221.242          35.000    20614667.375 5  84413594.514 5       951.617          35.000
G10  21165159.938 7 111223699.106 7     -1230.555          46.000    21165162.586 7  86667841.266 7      -958.874          46.000
G16  23368797.070 6 122803945.022 6     -3582.098          40.000    23368792.000 4  95691298.289 4     -2791.245          24.000
G27  20478708.836 8 107616332.954 8     -1022.637          51.000    20478710.844 8  83856871.659 8      -796.860          51.000
G32  23827000.039 8 125211711.427 8      2820.477          48.000    23827004.438 8  97567592.521 8      2197.774          48.000
R07  20652571.805 6 110554811.380 6     -1206.035          37.000    20652589.930 4  85987145.136 4      -938.021          29.000
R08  20487542.930 8 109709882.663 8      2720.242          50.000    20487545.555 7  85329921.119 7      2115.744          47.000
R13  22602380.930 6 120695457.815 6     -3370.988          37.000    22602386.281 6  93874256.206 6     -2621.880          40.000
C27  21518848.578 8 112054262.189 8      -137.660          51.000
E04  26072243.914 8 137010624.863 8      2603.922          51.000    26072247.992 8 104982168.969 8      1995.165          48.000
E11  22800492.102 5 119817394.846 5       696.031          32.000
E12  22874860.664 6 120208208.421 6     -1477.258          38.000    22874857.742 6  92107559.135 6     -1132.191          37.000
E25  25640352.148 6 134740944.194 6     -1623.289          38.000    25640358.320 6 103243090.566 6     -1243.810          38.000
> 2020 05 11 17 05  0.0000000  0 15        .000000000000
G08  20607732.000 6 108294365.781 6      1208.570          36.000    20607733.773 6  84385202.194 6       941.746          36.000
G10  21172234.406 8 111260875.464 8     -1246.539          48.000    21172237.070 8  86696809.841 8      -971.329          48.000
G11  21774710.305 5 114426868.146 5      2703.031          33.000
G16  23389263.742 6 122911501.088 6     -3587.395          38.000
G27  20484591.203 8 107647246.419 8     -1037.145          51.000    20484593.617 8  83880960.073 8      -808.165          51.000
G32  23810917.633 8 125127198.771 8      2814.789          48.000    23810922.406 8  97501738.583 8      2193.345          48.000
R07  20659405.367 6 110591390.602 6     -1231.301          37.000    20659400.141 4  86015509.480 4      -957.681          25.000
R08  20472364.398 8 109628601.460 8      2699.504          50.000    20472366.945 7  85266702.430 7      2099.614          47.000
R13  22621353.742 6 120796772.211 6     -3382.590          36.000    22621359.320 6  93953056.258 6     -2630.906          40.000
R22  21036201.672 5 112292664.874 5     -2104.113          32.000    21036181.727 5  87338667.794 5     -1636.526          34.000
R23  19913323.555 5 106522836.940 5      1462.547          33.000
C27  21519670.641 8 112058543.342 8      -146.699          51.000
E04  26057399.062 8 136932614.808 8      2597.820          50.000    26057401.727 7 104922395.072 7      1990.526          47.000
E12  22883307.078 6 120252597.331 6     -1480.898          40.000    22883304.273 6  92141571.409 6     -1134.595          37.000
E25  25649662.406 5 134789833.898 5     -1634.875          33.000    25649662.250 6 103280551.506 6     -1252.655          38.000
> 2020 05 11 17 05 30.0000000  0 15        .000000000000
G08  20600867.109 6 108258292.498 6      1197.887          36.000    20600870.258 6  84357093.157 6       933.418          36.000
G10  21179396.125 8 111298509.639 8     -1260.055          48.000    21179398.766 8  86726135.137 8      -981.861          48.000
G11  21759300.289 5 114345886.913 5      2698.914          31.000
G16  23409754.102 6 123019178.297 6     -3589.406          36.000
G27  20490551.734 8 107678570.307 8     -1049.102          51.000    20490554.391 8  83905368.292 8      -817.482          51.000
G32  23794864.109 8 125042836.110 8      2811.457          49.000    23794869.141 8  97436001.531 8      2190.746          49.000
R07  20666377.539 6 110628712.340 6     -1254.754          36.000    20666379.930 5  86044537.498 5      -975.917          30.000
R08  20457297.594 8 109547920.069 8      2681.242          49.000    20457300.234 7  85203950.267 7      2085.411          46.000
R13  22640388.086 6 120898418.448 6     -3392.016          36.000    22640394.625 6  94032114.375 6     -2638.234          40.000
R23  19905140.961 4 106479097.867 4      1455.934          28.000
C27  21520540.391 8 112063073.355 8      -153.250          51.000
C28  24152442.539 4 125768104.036 4     -2401.484          29.000
E04  26042583.734 8 136854761.111 8      2594.336          48.000    26042585.203 7 104862740.994 7      1987.955          47.000
E12  22891767.797 6 120297060.794 6     -1481.637          38.000    22891765.914 6  92175640.778 6     -1135.083          37.000
E25                                                                  25659027.688 5 103318261.495 5     -1259.521          35.000
> 2020 05 11 17 06  0.0000000  0 13        .000000000000
G08  20594087.266 5 108222666.262 5      1179.859          33.000    20594091.305 5  84329332.453 5       919.368          32.000
G10  21186660.219 8 111336681.824 8     -1280.508          49.000    21186662.781 8  86755879.732 8      -997.795          49.000
G11  21743932.453 5 114265138.761 5      2687.316          31.000
G16  23430283.391 5 123127056.059 5     -3598.289          33.000    23430287.836 5  95943110.773 5     -2803.862          31.000
G27  20496606.141 8 107710386.489 8     -1067.820          51.000    20496608.719 8  83930160.131 8      -832.068          51.000
G32  23778855.430 8 124958708.409 8      2801.250          49.000    23778860.359 8  97370447.552 8      2182.795          49.000
R07  20673502.211 6 110666857.571 6     -1284.180          39.000    20673502.133 5  86074205.987 5      -998.809          30.000
R08  20442358.945 8 109467925.305 8      2655.930          49.000    20442361.641 7  85141732.166 7      2065.723          46.000
R13  22659499.531 6 121000474.174 6     -3407.977          36.000    22659506.156 6  94111491.024 6     -2650.648          40.000
C27  21521473.883 8 112067933.920 8      -166.562          51.000
E04  26027814.141 7 136777147.678 7      2584.008          47.000    26027814.078 7 104803271.016 7      1979.930          47.000
E12  22900258.141 6 120341680.628 6     -1488.992          39.000    22900258.047 6  92209829.994 6     -1141.129          36.000
E25                                                                  25668471.945 5 103356282.278 5     -1271.819          31.000
> 2020 05 11 17 06 30.0000000  0 14        .000000000000
G08  20587385.336 4 108187439.499 4      1166.258          28.000    20587389.656 4  84301890.731 4       908.763          26.000
G10  21194018.961 8 111375351.460 8     -1297.629          51.000    21194021.281 8  86786011.878 8     -1011.139          51.000
G11  21728604.594 5 114184589.627 5      2680.688          35.000
G16  23450843.062 5 123235091.959 5     -3604.211          34.000    23450849.133 5  96027305.543 5     -2808.476          31.000
G27  20502746.945 8 107742655.901 8     -1083.438          51.000    20502749.289 8  83955305.120 8      -844.237          51.000
G32  23762884.188 7 124874779.747 7      2794.062          47.000    23762889.133 7  97305048.621 7      2177.192          47.000
R07  20680774.211 5 110705785.088 5     -1310.652          35.000    20680776.773 5  86104482.945 5     -1019.390          33.000
R08  20427541.875 8 109388580.916 8      2633.625          50.000    20427544.453 7  85080019.915 7      2048.378          46.000
R13  22678679.734 6 121102895.931 6     -3420.328          36.000    22678686.164 6  94191152.326 6     -2660.255          41.000
C27  21522463.727 8 112073086.987 8      -176.949          51.000
C28  24180254.617 5 125912938.334 5     -2417.770          31.000
E04  26013083.328 7 136699737.403 7      2576.648          47.000    26013082.250 8 104743956.681 8      1974.171          48.000
E12  22908770.789 6 120386417.774 6     -1493.582          38.000    22908770.641 5  92244109.094 5     -1144.439          35.000
E25                                                                  25677983.773 5 103394600.626 5     -1281.625          35.000
> 2020 05 11 17 07  0.0000000  0 13        .000000000000
G08  20580770.422 5 108152677.917 5      1149.820          34.000    20580773.945 5  84274802.270 5       895.967          34.000
G10  21201480.070 8 111414559.292 8     -1317.301          50.000    21201482.305 8  86816563.427 8     -1026.468          51.000
G16  23471439.773 5 123343325.981 5     -3612.699          35.000
G27  20508982.172 8 107775420.955 8     -1102.004          51.000    20508984.547 8  83980836.309 8      -858.704          51.000
G32  23746958.734 7 124791095.494 7      2783.980          45.000    23746964.453 7  97239840.153 7      2169.335          45.000
R07  20688198.586 6 110745535.859 6     -1340.336          41.000    20688203.320 5  86135400.235 5     -1042.487          34.000
R08  20412855.047 8 109309933.443 8      2608.578          50.000    20412857.086 7  85018849.689 7      2028.894          44.000
R13  22697936.062 6 121205722.014 6     -3435.523          36.000    22697941.328 6  94271128.128 6     -2672.077          40.000
C27  21523517.797 8 112078575.116 8      -189.977          51.000
E04  25998399.992 8 136622574.600 8      2566.609          49.000    25998398.953 8 104684831.984 8      1966.617          49.000
E12  22917314.359 6 120431314.721 6     -1500.969          36.000    22917313.438 5  92278510.606 5     -1149.680          35.000
E24  25693645.820 5 135021019.433 5     -3118.719          33.000
E25  25687590.633 5 134989159.505 5     -1688.055          32.000    25687570.516 5 103433211.982 5     -1293.022          35.000
> 2020 05 11 17 07 30.0000000  0 15        .000000000000
G08  20574225.961 6 108118284.767 6      1142.262          36.000    20574228.766 6  84248002.411 6       890.074          36.000
G10  21209027.086 8 111454218.837 8     -1327.387          51.000    21209029.000 8  86847466.969 8     -1034.327          51.000
G11  21698071.344 5 114024134.442 5      2669.273          30.000
G16  23492058.469 6 123451670.743 6     -3611.133          37.000    23492060.805 5  96196030.243 5     -2813.858          31.000
G27  20515295.562 8 107808596.751 8     -1110.457          51.000    20515297.891 8  84006687.548 8      -865.291          51.000
G32  23731064.570 7 124707573.923 7      2783.410          45.000    23731070.953 7  97174758.440 7      2168.891          45.000
R07  20695762.484 6 110786021.438 6     -1359.520          36.000    20695765.133 5  86166889.000 5     -1057.404          33.000
R08  20398283.023 8 109231899.939 8      2593.168          49.000    20398284.320 7  84958157.012 7      2016.908          44.000
R13  22717250.578 5 121308861.318 5     -3440.625          35.000    22717254.195 6  94351347.509 6     -2676.042          39.000
R22  21095945.875 5 112611604.856 5     -2145.801          32.000    21095946.961 5  87586805.861 5     -1668.956          32.000
C27  21524620.008 8 112084314.826 8      -193.297          51.000
C28  24208157.078 4 126058225.820 4     -2424.375          29.000
E04  25983748.375 8 136545576.432 8      2566.098          51.000    25983747.633 8 104625833.441 8      1966.311          51.000
E12  22925872.461 6 120476286.507 6     -1498.219          38.000    22925872.055 5  92312969.508 5     -1147.597          35.000
E25                                                                  25697216.266 5 103472044.423 5     -1298.132          30.000
> 2020 05 11 17 08  0.0000000  0 12        .000000000000
G08  20567765.711 6 108084334.931 6      1124.453          39.000    20567768.508 6  84221548.016 6       876.197          39.000
G10  21216673.359 8 111494400.006 8     -1347.887          50.000    21216675.031 8  86878776.988 8     -1050.301          50.000
G16  23512711.211 6 123560194.870 6     -3620.227          37.000    23512713.570 5  96280594.443 5     -2820.959          35.000
G27  20521700.672 8 107842254.848 8     -1129.715          51.000    20521703.023 8  84032914.618 8      -880.300          51.000
G32  23715216.297 7 124624289.658 7      2772.383          47.000    23715222.594 7  97109861.664 7      2160.301          47.000
R07  20703474.789 6 110827312.729 6     -1389.520          40.000    20703476.695 5  86199004.426 5     -1080.740          33.000
R08  20383840.109 8 109154556.743 8      2566.883          50.000    20383840.766 7  84898001.217 7      1996.464          44.000
R13  22736636.688 6 121412382.347 6     -3456.902          36.000    22736639.609 6  94431863.800 6     -2688.702          40.000
C27  21525784.328 8 112090377.654 8      -207.211          51.000
E04  25969142.391 8 136468816.388 8      2554.926          51.000    25969141.914 8 104567017.347 8      1957.667          51.000
E12  22934457.641 6 120521404.822 6     -1506.195          37.000    22934458.906 5  92347540.722 5     -1154.283          34.000
E25  25706943.148 5 135090903.217 5     -1709.480          33.000    25706935.570 5 103511190.312 5     -1309.901          33.000
> 2020 05 11 17 08 30.0000000  0 16        .000000000000
G08  20561368.031 6 108050713.835 6      1113.078          39.000    20561370.414 6  84195349.759 6       867.337          40.000
G10  21224396.438 8 111534984.986 8     -1361.797          50.000    21224398.266 8  86910401.648 8     -1061.140          50.000
G11  21667704.141 5 113864546.907 5      2653.027          35.000
G16  23533375.922 5 123668779.814 5     -3622.566          34.000    23533375.836 5  96365206.012 5     -2822.788          32.000
G27  20528175.336 8 107876278.967 8     -1142.484          51.000    20528177.609 8  84059426.902 8      -890.248          51.000
G32  23699391.953 8 124541129.558 8      2767.629          48.000    23699397.781 8  97045061.674 8      2156.597          49.000
R07  20711317.234 6 110869289.744 6     -1413.137          38.000    20711317.492 5  86231653.204 5     -1099.106          34.000
R08  20369505.000 8 109077788.579 8      2547.027          50.000    20369504.953 7  84838292.674 7      1981.021          44.000
R13  22756071.375 5 121516162.557 5     -3465.969          35.000    22756074.625 6  94512581.678 6     -2695.753          40.000
R22  21120216.180 5 112741060.264 5     -2165.043          33.000
R23  19857246.539 5 106222850.348 5      1396.062          35.000
C27  21526988.586 8 112096649.041 8      -214.785          51.000
C28  24236212.977 5 126204306.571 5     -2438.727          33.000
E04  25954559.523 8 136392180.217 8      2550.230          51.000    25954560.141 8 104508296.166 8      1954.058          51.000
E12  22943048.461 6 120566553.452 6     -1507.570          36.000    22943051.852 5  92382135.064 5     -1155.035          32.000
E25                                                                  25716707.812 5 103550553.623 5     -1317.347          35.000
> 2020 05 11 17 09  0.0000000  0 13        .000000000000
G08  20555064.758 6 108017587.867 6      1098.652          38.000    20555067.070 6  84169537.302 6       856.090          38.000
G10  21232227.438 8 111576136.902 8     -1378.523          51.000    21232229.320 8  86942468.098 8     -1074.174          51.000
G16  23554082.516 6 123777586.942 6     -3627.887          37.000    23554080.188 5  96449990.719 5     -2826.931          34.000
G27  20534750.828 8 107910833.851 8     -1158.023          51.000    20534752.977 8  84086352.781 8      -902.356          51.000
G32  23683623.289 8 124458261.513 8      2759.848          48.000    23683628.273 8  96980489.261 8      2150.534          48.000
R07  20719318.148 6 110912117.544 6     -1438.934          38.000    20719318.500 6  86264963.731 6     -1119.168          36.000
R08  20355308.828 8 109001767.079 8      2524.297          49.000    20355308.820 7  84779164.895 7      1963.345          45.000
R13  22775585.062 5 121620364.984 5     -3477.605          35.000    22775589.000 6  94593627.980 6     -2704.804          40.000
C27  21528264.312 8 112103292.826 8      -225.039          51.000
C28  24250276.836 6 126277606.080 6     -2444.945          36.000
E04  25940031.195 8 136315834.708 8      2542.656          50.000    25940033.695 8 104449797.708 8      1948.287          51.000
E12  22951677.367 6 120611897.300 6     -1512.188          36.000    22951675.383 4  92416882.069 4     -1158.456          29.000
E25  25726571.797 5 135194034.707 5     -1731.340          34.000    25726565.219 6 103590250.459 6     -1326.728          37.000
> 2020 05 11 17 09 30.0000000  0 16        .000000000000
G08  20548830.180 6 107984824.042 6      1079.754          38.000    20548832.109 6  84144007.047 6       841.367          38.000
G10  21240140.383 8 111617719.633 8     -1399.711          51.000    21240142.148 8  86974870.223 8     -1090.684          51.000
G16  23574804.797 6 123886479.406 6     -3637.605          38.000    23574800.539 5  96534842.040 5     -2834.501          32.000
G22  24256936.820 5 127471067.935 5      3545.191          35.000
G27  20541401.727 8 107945784.971 8     -1178.148          51.000    20541403.898 8  84113587.412 8      -918.038          51.000
G32  23667884.711 7 124375554.090 7      2747.754          47.000    23667889.039 7  96916041.989 7      2141.110          47.000
R07  20727452.172 6 110955657.617 6     -1469.734          38.000    20727453.297 6  86298828.236 6     -1143.127          36.000
R08  20341226.672 8 108926358.122 8      2496.754          50.000    20341227.086 7  84720513.504 7      1941.920          46.000
R13  22795151.484 5 121724848.358 5     -3494.184          35.000    22795156.211 6  94674892.813 6     -2717.698          40.000
R22  21144643.016 5 112871514.699 5     -2188.879          34.000    21144643.133 4  87788965.454 4     -1702.452          29.000
R23  19841697.867 5 106139681.788 5      1370.750          30.000
C27  21529586.039 8 112110176.405 8      -239.801          51.000
C28  24264363.852 5 126351017.941 5     -2455.277          34.000
E04  25925532.375 7 136239647.235 7      2530.637          47.000    25925536.977 8 104391420.339 8      1938.987          51.000
E12  22960318.352 6 120657301.797 6     -1520.977          37.000
E25  25736486.695 6 135246149.953 6     -1748.480          36.000    25736479.672 6 103630176.694 6     -1339.715          36.000
> 2020 05 11 17 10  0.0000000  0 15        .000000000000
G08  20542696.133 6 107952587.843 6      1071.770          39.000    20542696.680 6  84118887.991 6       835.145          39.000
G10  21248166.023 8 111659895.021 8     -1409.414          49.000    21248167.469 8  87007734.173 8     -1098.245          49.000
G16  23595573.508 6 123995617.887 6     -3635.570          38.000    23595568.117 3  96619884.880 3     -2832.915          23.000
G27  20548159.180 8 107981295.801 8     -1186.738          51.000    20548161.398 8  84141258.195 8      -924.728          51.000
G32  23652207.758 7 124293173.973 7      2746.867          45.000    23652211.836 7  96851849.752 7      2140.419          45.000
R07  20735748.102 6 111000074.321 6     -1488.754          38.000    20735750.477 6  86333374.674 6     -1157.917          36.000
R08  20327290.570 8 108851732.042 8      2480.820          50.000    20327291.625 7  84662471.016 7      1929.527          46.000
R13  22814800.820 5 121829774.560 5     -3498.039          35.000    22814805.664 6  94756502.050 6     -2720.697          39.000
R22  21156959.617 4 112937248.900 4     -2190.535          29.000    21156959.344 5  87840092.154 5     -1703.750          33.000
R23  19834025.727 5 106098638.118 5      1367.738          33.000
C27  21530984.977 8 112117462.464 8      -243.371          51.000
C28  24278509.016 4 126424566.553 4     -2454.738          27.000
E04  25911094.594 7 136163783.369 7      2529.695          46.000    25911101.031 8 104333290.956 8      1938.371          51.000
E12  22969001.898 5 120702930.677 5     -1518.094          35.000
E25  25746488.883 6 135298718.593 6     -1753.613          38.000    25746483.289 6 103670456.527 6     -1343.564          37.000
> 2020 05 11 17 10 30.0000000  0 14        .000000000000
G08  20536620.109 7 107920657.665 7      1057.121          42.000    20536619.844 6  84094007.329 6       823.731          40.000
G10  21256261.570 8 111702438.231 8     -1426.742          48.000    21256262.617 8  87040884.740 8     -1111.747          48.000
G16  23616345.859 6 124104776.643 6     -3641.355          40.000    23616340.141 4  96704943.631 4     -2837.420          28.000
G27  20554980.625 8 108017143.021 8     -1202.973          51.000    20554982.867 8  84169191.085 8      -937.384          51.000
G32  23636551.156 7 124210901.053 7      2738.125          46.000    23636555.008 7  96787741.039 7      2133.604          46.000
R07  20744166.547 6 111045138.421 6     -1515.609          40.000    20744169.672 6  86368424.422 6     -1178.813          36.000
R08  20313458.117 8 108777664.477 8      2457.008          50.000    20313460.273 7  84604862.961 7      1911.006          46.000
R13  22834490.016 5 121934911.850 5     -3510.812          35.000    22834494.516 6  94838275.458 6     -2730.635          39.000
R22  21169291.531 5 113003110.008 5     -2200.957          35.000    21169295.922 5  87891319.603 5     -1711.855          32.000
R23  19826396.531 5 106057815.188 5      1356.977          31.000
C27  21532419.062 8 112124930.332 8      -254.426          51.000
E04  25896677.578 8 136088021.867 8      2521.117          48.000    25896684.039 8 104275239.970 8      1931.819          51.000
E12  22977685.117 5 120748560.812 5     -1523.625          34.000
E25  25756536.141 6 135351524.091 6     -1766.531          37.000    25756533.555 6 103710917.810 6     -1353.441          37.000
> 2020 05 11 17 11  0.0000000  0 14        .000000000000
G08  20530630.602 6 107889184.593 6      1041.770          38.000    20530630.453 6  84069482.857 6       811.768          38.000
G10  21264455.258 8 111745497.468 8     -1443.500          48.000    21264456.562 8  87074437.427 8     -1124.802          48.000
G16  23637150.180 6 124214102.789 6     -3646.402          41.000    23637144.141 4  96790132.811 4     -2841.349          27.000
G27  20561894.641 8 108053476.482 8     -1218.684          51.000    20561896.766 8  84197502.867 8      -949.624          51.000
G32  23620944.688 7 124128888.309 7      2729.871          46.000    23620948.227 7  96723835.080 7      2127.175          46.000
R07  20752733.570 5 111090999.427 5     -1541.344          35.000    20752736.930 6  86404094.256 6     -1198.820          37.000
R08  20299759.508 8 108704311.538 8      2433.594          51.000    20299762.297 7  84547810.710 7      1892.795          46.000
R13  22854246.906 5 122040408.023 5     -3522.004          34.000    22854251.180 6  94920328.002 6     -2739.339          40.000
R22  21181687.461 5 113069291.914 5     -2210.688          33.000    21181683.531 4  87942775.484 4     -1719.418          27.000
R23  19818833.273 5 106017279.327 5      1346.680          34.000
C27  21533916.883 8 112132729.224 8      -265.020          51.000
E04  25882309.781 8 136012514.636 8      2513.027          50.000    25882315.156 8 104217383.800 8      1925.539          51.000
E12  22986397.141 6 120794342.042 6     -1528.023          36.000
E25  25766657.617 6 135404714.747 6     -1779.121          38.000    25766656.734 6 103751674.288 6     -1363.202          38.000
> 2020 05 11 17 11 30.0000000  0 15        .000000000000
G08  20524715.508 6 107858105.769 6      1027.387          38.000    20524716.430 6  84045265.558 6       800.561          38.000
G10  21272734.664 7 111789006.334 7     -1459.621          47.000    21272735.555 7  87108340.437 7     -1137.364          47.000
G16  23657973.281 6 124323529.180 6     -3651.020          40.000    23657968.680 5  96875400.065 5     -2844.938          30.000
G27  20568888.898 8 108090231.470 8     -1234.152          51.000    20568890.883 8  84226143.118 8      -961.677          51.000
G32  23605376.172 7 124047074.139 7      2721.945          47.000    23605379.500 7  96660083.874 7      2120.999          46.000
R07  20761436.344 6 111137590.720 6     -1567.098          39.000    20761440.008 5  86440331.853 5     -1218.857          35.000
R08  20286183.234 8 108631610.748 8      2410.582          51.000    20286185.961 7  84491265.689 7      1874.897          46.000
R13  22874058.602 5 122146193.488 5     -3532.707          34.000    22874062.359 6  95002605.538 6     -2747.661          40.000
R22  21194133.055 5 113135708.157 5     -2219.766          35.000    21194140.016 5  87994455.574 5     -1726.490          33.000
R23  19811284.547 5 105977023.653 5      1336.031          34.000
C27  21535465.938 8 112140795.706 8      -275.215          51.000
C28  24321107.344 5 126646401.315 5     -2473.438          35.000
E04  25867978.125 8 135937198.962 8      2505.469          48.000    25867981.969 8 104159674.389 8      1919.739          48.000
E12  22995126.414 6 120840209.765 6     -1532.266          37.000    22995124.406 5  92591833.040 5     -1173.816          33.000
E25  25776840.594 6 135458224.397 6     -1790.719          38.000    25776839.836 6 103792675.148 6     -1372.295          36.000
> 2020 05 11 17 12  0.0000000  0 18        .000000000000
G08  20518886.789 6 107827480.549 6      1013.613          38.000    20518888.844 6  84021401.672 6       789.822          38.000
G10  21281110.422 8 111833020.874 8     -1475.527          48.000    21281110.492 7  87142637.513 7     -1149.759          45.000
G16  23678825.758 6 124433110.674 6     -3654.926          40.000    23678822.289 5  96960788.227 5     -2847.988          32.000
G20  23112077.656 5 121454787.251 5     -3107.465          34.000
G27  20575974.297 8 108127465.506 8     -1248.953          51.000    20575976.539 8  84255156.654 8      -973.210          51.000
G32  23589857.039 7 123965519.332 7      2714.273          47.000    23589860.211 7  96596534.791 7      2115.021          47.000
R07  20770287.688 6 111184967.936 6     -1592.262          37.000    20770288.883 5  86477180.764 5     -1238.423          35.000
R08  20272740.656 8 108559623.492 8      2387.812          51.000    20272742.617 7  84435275.658 7      1857.187          45.000
R13  22893933.977 5 122252321.049 5     -3542.797          33.000    22893937.469 6  95085149.127 6     -2755.512          40.000
R22  21206630.484 5 113202416.999 5     -2228.102          32.000    21206629.805 4  88046333.121 4     -1732.971          29.000
R23  19803814.758 5 105937080.118 5      1325.645          31.000
C05  39631695.805 5 206372640.253 5       -20.105          34.000    39631696.914 6 159580418.203 6       -15.444          36.000
C27  21537077.414 8 112149187.517 8      -284.992          51.000
C28  24335370.648 5 126720671.174 5     -2478.477          34.000
E04  25853693.797 8 135862134.534 8      2498.156          48.000    25853695.289 7 104102157.480 7      1914.196          46.000
E12  23003882.094 6 120886221.796 6     -1536.012          37.000    23003878.562 5  92627089.061 5     -1176.678          34.000
E24  25871558.953 5 135955964.547 5     -3117.367          32.000
E25  25787094.695 6 135512097.337 6     -1802.008          37.000    25787091.367 6 103833963.497 6     -1380.960          36.000
> 2020 05 11 17 12 30.0000000  0 15        .000000000000
G08  20513141.211 6 107797288.320 6       999.586          39.000    20513143.359 6  83997875.272 6       778.892          38.000
G10  21289577.938 8 111877517.263 8     -1490.820          49.000    21289578.578 7  87177310.042 7     -1161.678          45.000
G16  23699703.070 6 124542822.226 6     -3658.316          37.000    23699700.203 5  97046308.618 5     -2850.636          32.000
G27  20583146.570 8 108165156.383 8     -1263.430          51.000    20583148.922 8  84284526.169 8      -984.491          51.000
G32  23574383.602 7 123884204.874 7      2706.957          45.000    23574386.227 7  96533172.990 7      2109.323          45.000
R07  20779280.047 6 111233106.243 6     -1616.590          38.000    20779282.867 6  86514621.732 6     -1257.345          36.000
R08  20259427.844 8 108488330.866 8      2365.367          50.000    20259428.633 7  84379825.883 7      1839.733          46.000
R13  22913867.516 5 122358764.804 5     -3552.832          33.000    22913871.148 6  95167938.673 6     -2763.314          40.000
C05  39631812.188 5 206373246.012 5       -19.812          34.000    39631812.180 6 159580882.777 6       -15.151          36.000
C27  21538747.352 8 112157883.317 8      -294.430          51.000
C28  24349665.562 6 126795112.481 6     -2483.648          38.000
E04  25839453.453 8 135787301.087 8      2491.043          49.000    25839451.906 7 104044817.611 7      1908.733          45.000
E11  22740562.539 5 119502460.516 5       616.203          32.000
E12                                                                  23012657.953 5  92662438.787 5     -1179.461          35.000
E25  25797416.203 6 135566333.881 6     -1813.199          38.000    25797410.086 6 103875521.235 6     -1389.538          36.000
> 2020 05 11 17 13  0.0000000  0 15        .000000000000
G08  20507476.102 6 107767516.232 6       985.305          39.000    20507477.852 6  83974676.270 6       767.770          39.000
G10  21298133.984 8 111922479.452 8     -1506.402          48.000    21298135.578 7  87212345.544 7     -1173.820          45.000
G16  23720601.461 5 124652646.796 5     -3661.941          33.000
G27  20590403.094 8 108203289.594 8     -1278.258          51.000    20590405.352 8  84314240.341 8      -996.045          51.000
G32  23558953.352 7 123803119.484 7      2699.137          42.000    23558955.680 7  96469989.667 7      2103.230          42.000
R07  20788411.727 6 111281988.917 6     -1641.945          37.000    20788414.969 6  86552641.588 6     -1277.069          36.000
R08  20246241.891 8 108417721.310 8      2342.344          49.000    20246242.570 7  84324907.380 7      1821.826          46.000
R13  22933855.711 5 122465505.457 5     -3562.809          32.000    22933859.844 6  95250959.131 6     -2771.076          39.000
C05  39631926.273 5 206373839.098 5       -19.074          34.000    39631926.281 6 159581342.969 6       -15.124          37.000
C27  21540473.062 8 112166869.501 8      -304.281          51.000
C28  24363992.289 6 126869710.576 6     -2489.375          37.000
E04  25825255.164 8 135712686.195 8      2483.605          51.000    25825250.672 7 103987645.255 7      1902.998          45.000
E11  22737061.992 5 119484061.826 5       611.133          34.000
E12                                                                  23021458.305 6  92697871.250 6     -1182.529          36.000
E25  25807801.969 6 135620905.985 6     -1824.238          36.000    25807792.812 6 103917336.208 6     -1397.592          37.000
> 2020 05 11 17 13 30.0000000  0 16        .000000000000
G08  20501892.133 6 107738170.634 6       969.414          41.000    20501894.102 6  83951809.548 6       755.388          41.000
G10  21306779.180 7 111967910.075 7     -1523.820          47.000    21306780.195 7  87247746.076 7     -1187.389          46.000
G27  20597744.766 8 108241869.522 8     -1295.000          51.000    20597746.836 8  84344302.616 8     -1009.091          51.000
G32  23543568.250 7 123722270.799 7      2689.199          44.000    23543570.117 7  96406990.768 7      2095.483          44.000
R07  20797683.367 6 111331618.192 6     -1668.500          39.000    20797685.977 6  86591242.133 6     -1297.725          37.000
R08  20233183.766 8 108347802.408 8      2317.469          48.000    20233185.945 7  84270526.073 7      1802.479          47.000
R13  22953899.516 5 122572542.607 5     -3574.840          34.000    22953904.148 6  95334210.183 6     -2780.431          39.000
R22  21244426.562 5 113404149.725 5     -2256.105          32.000    21244421.891 4  88203233.749 4     -1754.749          26.000
R23  19781746.492 5 105819002.044 5      1295.008          32.000
C05  39632040.039 5 206374432.065 5       -21.461          34.000    39632040.359 6 159581802.301 6       -16.553          36.000
C27  21542255.461 8 112176151.121 8      -315.832          51.000
C28  24378349.438 5 126944469.875 5     -2496.578          33.000
E04  25811099.445 8 135638296.332 8      2474.289          50.000    25811093.656 7 103930645.286 7      1896.027          46.000
E11  22733589.055 6 119465808.764 6       604.789          36.000    22733586.898 5  91538737.637 5       463.311          32.000
E12  23030283.867 5 121024967.500 5     -1548.676          34.000    23030279.406 6  92733389.982 6     -1186.465          38.000
E25  25818251.570 5 135675816.736 5     -1837.172          32.000    25818242.031 6 103959410.716 6     -1407.955          38.000
> 2020 05 11 17 14  0.0000000  0 16        .000000000000
G08  20496392.562 6 107709268.159 6       956.977          41.000    20496394.727 6  83929288.160 6       745.696          41.000
G10  21315516.125 7 112013822.560 7     -1537.492          46.000    21315516.688 7  87283522.060 7     -1198.046          46.000
G27  20605174.227 8 108280911.220 8     -1308.156          51.000    20605176.320 8  84374724.675 8     -1019.343          51.000
G32  23528231.883 7 123641676.876 7      2683.180          45.000    23528233.555 7  96344190.364 7      2090.792          45.000
R07  20807096.273 6 111382007.063 6     -1691.137          39.000    20807100.133 6  86630433.622 6     -1315.326          37.000
R08  20220258.508 8 108278592.902 8      2296.176          49.000    20220261.586 7  84216696.479 7      1785.914          47.000
R13  22974001.570 6 122679887.845 6     -3582.176          36.000    22974006.617 6  95417700.871 6     -2786.137          39.000
R22  21257121.406 5 113471920.060 5     -2262.805          33.000
R23  19774505.062 4 105780259.471 4      1286.582          29.000
C05  39632156.867 5 206375040.000 5       -19.332          34.000    39632157.125 6 159582272.411 6       -15.196          37.000
C27  21544097.625 8 112185743.783 8      -323.965          51.000
C28  24392739.203 6 127019404.832 6     -2499.789          36.000
E04  25796989.266 8 135564148.528 8      2468.621          50.000    25796984.859 8 103873830.802 8      1891.514          48.000
E11  22730147.086 5 119447719.826 5       601.254          34.000    22730144.820 5  91524877.341 5       460.285          33.000
E12                                                                  23039125.039 6  92769006.604 6     -1188.180          38.000
E25                                                                  25828758.914 6 104001755.091 6     -1415.075          40.000
> 2020 05 11 17 14 30.0000000  0 17        .000000000000
G08  20490963.945 7 107680739.082 7       942.305          44.000    20490965.562 7  83907057.724 7       734.263          44.000
G10  21324330.852 7 112060144.243 7     -1553.441          46.000    21324332.516 7  87319616.918 7     -1210.474          46.000
G14  24703972.852 7 129820253.968 7      2992.629          43.000    24703974.469 5 101158637.684 5      2331.925          33.000
G16  23783424.523 5 124982731.052 5     -3674.012          35.000
G22  24055772.203 5 126413923.375 5      3496.812          33.000
G27  20612677.953 8 108320343.367 8     -1323.543          51.000    20612679.945 8  84405451.003 8     -1031.332          51.000
G32  23512931.102 7 123561269.948 7      2674.453          44.000    23512932.883 7  96281535.647 7      2083.989          44.000
R07  20816637.195 6 111433081.019 6     -1716.305          40.000    20816640.695 5  86670157.710 5     -1334.907          35.000
R08  20207453.070 7 108210023.281 7      2272.422          47.000    20207456.516 7  84163364.568 7      1767.439          45.000
R13  22994147.141 6 122787464.090 6     -3592.602          36.000    22994152.500 6  95501371.241 6     -2794.246          39.000
C05  39632262.898 5 206375592.616 5       -19.562          34.000    39632263.164 6 159582698.987 6       -15.514          37.000
C27  21545986.156 8 112195577.797 8      -334.414          51.000
C28  24407149.773 5 127094444.954 5     -2505.523          35.000
E04  25782911.539 8 135490173.863 8      2460.418          50.000    25782910.156 8 103817148.981 8      1885.261          51.000
E11  22726722.281 5 119429731.308 5       595.418          32.000    22726720.344 5  91511088.517 5       456.460          34.000
E12                                                                  23047981.125 6  92804666.851 6     -1191.212          38.000
E25                                                                  25839329.883 7 104044313.765 7     -1424.252          42.000
> 2020 05 11 17 15  0.0000000  0 18        .000000000000
G08  20485630.609 7 107652712.970 7       928.086          42.000    20485632.117 7  83885219.213 7       723.187          42.000
G10  21333247.430 7 112107001.388 7     -1568.488          47.000    21333249.367 7  87356128.963 7     -1222.199          46.000
G14  24686895.320 7 129730509.398 7      2991.938          43.000    24686894.203 5 101088707.005 5      2331.386          33.000
G16  23804414.492 5 125093030.844 5     -3677.227          35.000
G20  23219238.164 5 122017907.196 5     -3149.832          33.000
G22  24035825.531 5 126309105.365 5      3492.125          35.000
G27  20620280.273 8 108360293.960 8     -1337.965          51.000    20620282.227 8  84436581.312 8     -1042.570          51.000
G32  23497690.492 7 123481181.180 7      2666.602          43.000    23497693.094 7  96219128.879 7      2077.874          43.000
R07  20826331.680 6 111484968.035 6     -1740.738          38.000    20826332.969 5  86710514.237 5     -1353.911          35.000
R08  20194791.828 7 108142227.116 7      2249.273          45.000    20194795.938 7  84110634.240 7      1749.438          45.000
R13  23014358.867 5 122895396.474 5     -3601.430          34.000    23014364.500 6  95585318.620 6     -2801.112          37.000
C05  39632382.445 5 206376215.006 5       -19.809          34.000    39632382.617 6 159583180.256 6       -15.459          37.000
C27  21547945.648 8 112205780.490 8      -343.953          51.000
C28  24421605.328 5 127169716.891 5     -2511.145          31.000
E04  25768891.328 8 135416502.253 8      2452.898          49.000    25768893.180 8 103760699.357 8      1879.464          51.000
E11                                                                  22723337.750 5  91497469.593 5       452.692          33.000
E12                                                                  23056872.297 6  92840468.936 6     -1194.130          38.000
E25                                                                  25849978.844 7 104087183.682 7     -1432.432          44.000
> 2020 05 11 17 15 30.0000000  0 20        .000000000000
G01  23326988.367 5 122584150.287 5      2907.527          30.000
G08  20480375.492 6 107625099.631 6       912.820          41.000    20480377.773 6  83863702.310 6       711.286          41.000
G10  21342248.086 7 112154300.271 7     -1584.512          43.000    21342250.008 7  87392985.234 7     -1234.684          43.000
G14  24669817.867 7 129640765.830 7      2991.148          42.000    24669816.773 5 101018777.127 5      2330.765          35.000
G16  23825419.867 6 125203415.160 6     -3681.309          38.000
G20  23237238.305 5 122112497.196 5     -3155.773          33.000
G22  24015906.727 6 126204432.408 6      3486.215          37.000
G27  20627963.719 8 108400670.830 8     -1353.449          51.000    20627965.812 8  84468043.804 8     -1054.636          51.000
G32  23482493.312 7 123401321.702 7      2657.309          42.000    23482496.719 7  96156900.740 7      2070.633          42.000
R07  20836157.828 6 111537571.685 6     -1765.922          37.000    20836160.375 5  86751428.264 5     -1373.495          34.000
R08  20182258.703 7 108075113.875 7      2225.258          47.000    20182263.094 7  84058435.097 7      1730.756          45.000
R13  23034619.312 5 123003587.918 5     -3610.824          34.000    23034623.727 5  95669467.440 5     -2808.422          35.000
R23  19753110.906 6 105665806.714 6      1255.820          36.000
C05  39632498.008 5 206376816.096 5       -20.273          35.000    39632498.398 6 159583645.858 6       -15.637          37.000
C27  21549958.742 8 112216261.496 8      -354.523          51.000
C28  24436087.938 5 127245129.213 5     -2516.758          34.000
E04  25754912.219 8 135343043.791 8      2444.652          49.000    25754916.445 8 103704413.028 8      1873.118          51.000
E11                                                                  22719980.094 5  91483950.263 5       448.714          33.000
E12                                                                  23065782.375 6  92876342.446 6     -1197.423          38.000
E25                                                                  25860686.805 7 104130293.267 7     -1441.316          44.000
> 2020 05 11 17 16  0.0000000  0 19        .000000000000
G08  20475203.445 7 107597921.291 7       898.934          43.000    20475205.945 7  83842524.370 7       700.468          43.000
G10  21351336.406 7 112202059.630 7     -1599.328          45.000    21351338.969 7  87430200.378 7     -1246.230          45.000
G14  24652744.656 7 129551046.648 7      2990.715          42.000    24652744.531 5 100948866.252 5      2330.433          34.000
G16  23846444.875 5 125313901.978 5     -3684.262          35.000
G20  23255277.820 5 122207289.504 5     -3162.457          31.000
G22  23996019.555 6 126099926.698 6      3480.930          40.000
G27  20635732.141 8 108441494.409 8     -1368.023          51.000    20635734.445 8  84499854.373 8     -1065.992          51.000
G32  23467344.430 7 123321715.110 7      2649.391          42.000    23467348.039 7  96094869.679 7      2064.460          42.000
R07  20846122.531 6 111590910.578 6     -1789.949          40.000    20846124.312 5  86792914.033 5     -1392.186          32.000
R08  20169858.531 8 108008707.596 8      2201.945          49.000    20169862.109 7  84006785.808 7      1712.624          46.000
R13  23054931.812 5 123112054.291 5     -3619.832          34.000    23054933.852 5  95753830.053 5     -2815.428          34.000
R23  19746098.758 5 105628284.700 5      1245.965          35.000
C05  39632613.695 5 206377419.338 5       -19.473          34.000    39632614.039 6 159584111.585 6       -15.212          37.000
C27  21552029.148 8 112227041.747 8      -364.125          51.000
C28  24450602.188 5 127320702.070 5     -2521.695          31.000
E04  25740978.164 8 135269820.927 8      2437.086          48.000    25740983.578 8 103648307.209 8      1867.330          51.000
E11                                                                  22716651.125 5  91470546.629 5       445.071          34.000
E12  23074719.820 5 121258467.024 5     -1566.031          32.000    23074713.445 6  92912303.182 6     -1199.946          38.000
E25                                                                  25871457.414 7 104173657.030 7     -1449.463          45.000
> 2020 05 11 17 16 30.0000000  0 20        .000000000000
G01  23293852.602 5 122410018.098 5      2897.309          31.000
G08  20470120.352 7 107571209.322 7       883.500          43.000    20470122.141 7  83821709.891 7       688.442          43.000
G10  21360517.883 7 112250307.942 7     -1615.656          44.000    21360519.859 7  87467796.414 7     -1258.956          44.000
G14  24635682.219 7 129461384.935 7      2988.785          43.000    24635682.836 5 100879000.126 5      2328.930          34.000
G16  23867494.266 6 125424518.930 6     -3688.543          37.000
G20  23273361.484 5 122302333.053 5     -3170.555          30.000
G22  23976170.039 6 125995620.718 6      3474.258          41.000
G27  20643591.281 8 108482794.618 8     -1383.746          51.000    20643593.398 8  84532036.352 8     -1078.244          51.000
G32  23452250.109 6 123242394.575 6      2640.039          40.000    23452253.336 6  96033061.566 6      2057.176          40.000
