     3.02           OBSERVATION DATA    M (MIXED)           RINEX VERSION / TYPE
SAVERINEX           SC600               20200501 055931 LCL PGM / RUN BY / DATE
       G = GPS       R = GLONASS       C = COMPASS          COMMENT
       S = SBAS      J = QZSS          E = GALILEO          COMMENT
BEAN                                                        MARKER NAME
1                                                           MARKER NUMBER
GEODETIC                                                    MARKER TYPE
Unige DICCA         GTER                                    OBSERVER / AGENCY
SC60291900056       SC600               2.12(191226)        REC # / TYPE / VERS
                    HEMA45          NONE                    ANT # / TYPE
  4509407.8091   693652.4678  4442337.6214                  APPROX POSITION XYZ
        0.0000        0.0000        0.0000                  ANTENNA: DELTA H/E/N
G    8 C1C L1C D1C S1C C2Y L2Y D2Y S2Y                      SYS / # / OBS TYPES
R    8 C1C L1C D1C S1C C2P L2P D2P S2P                      SYS / # / OBS TYPES
C    8 C1I L1I D1I S1I C7I L7I D7I S7I                      SYS / # / OBS TYPES
E    8 C1C L1C D1C S1C C7Q L7Q D7Q S7Q                      SYS / # / OBS TYPES
DBHZ                                                        COMMENT
     30.000                                                 INTERVAL
  2020    05    01    03    00    0.0000000     GPS         TIME OF FIRST OBS
  2020    05    01    03    59   30.0000000     GPS         TIME OF LAST OBS
     0                                                      RCV CLOCK OFFS APPL
G L1C  0.00000                                              SYS / PHASE SHIFT
G L2Y  0.00000                                              SYS / PHASE SHIFT
R L1C  0.00000                                              SYS / PHASE SHIFT
R L2P  0.25000                                              SYS / PHASE SHIFT
C L1I  0.00000                                              SYS / PHASE SHIFT
C L7I  0.00000                                              SYS / PHASE SHIFT
E L1C  0.50000                                              SYS / PHASE SHIFT
E L7Q -0.25000                                              SYS / PHASE SHIFT
 11 R01  1 R02 -4 R07  5 R08  6 R09 -2 R10 -5 R11  0 R12 -1 GLONASS SLOT / FRQ #
    R21  4 R22 -3 R23  3                                    GLONASS SLOT / FRQ #
 C1C   71.950 C2C   71.950 C2P   71.950                     GLONASS COD/PHS/BIS
    18                                                      LEAP SECONDS
*** Above antenna height is from mark to ANTENNA BOTTOM.    COMMENT
    17     4        0.0000        ANT MEASURE TYPE/HEIGT    COMMENT
    0.0000    0.0000    0.0458    0.0405    0.0000          COMMENT
                    BASE STATION                            COMMENT
                                                            END OF HEADER
> 2020 05 01 03 00  0.0000000  0 14        .000000000000
G02  23501155.148 8 123499379.763 8     -2303.742          49.000    23501154.188 7  96233282.095 7     -1795.127          43.000
G07  21077079.008 8 110760789.398 8     -1220.703          51.000    21077078.000 8  86307094.683 8      -951.197          51.000
G28  23916028.289 5 125679617.827 5      3334.891          30.000
G30  20498606.305 8 107720912.471 8       901.742          51.000    20498606.820 8  83938388.138 8       702.656          51.000
R01  20096461.500 7 107427092.841 7     -1719.168          45.000    20096464.875 6  83554407.051 6     -1337.131          39.000
R02  20254492.602 5 108081798.664 5      2409.367          34.000
R11  19627200.625 8 104881808.323 8      -702.613          51.000    19627202.297 8  81574804.416 8      -546.477          50.000
R12  20427816.102 8 109121753.051 8      3213.109          51.000    20427819.828 7  84872510.868 7      2499.085          46.000
C05  39778984.375 6 207139608.853 6        -7.090          36.000    39778982.711 6 160173490.051 6        -5.358          41.000
C23  22790798.203 8 118677689.252 8      2135.969          51.000
C25  22390764.125 8 116594608.496 8      -980.375          49.000
E07  23743708.320 8 124774005.508 8      -748.074          51.000    23743710.617 8  95606084.830 8      -573.137          51.000
E27  25428018.930 8 133625166.509 8      2811.262          51.000    25428023.273 8 102388100.063 8      2154.126          51.000
E30  23169377.789 7 121755909.800 7       338.871          47.000    23169378.391 6  93293505.687 6       259.684          41.000
> 2020 05 01 03 00 30.0000000  0 14        .000000000000
G02  23514336.656 8 123568649.244 8     -2307.391          48.000    23514333.953 6  96287258.272 6     -1797.967          41.000
G07  21084087.047 8 110797616.419 8     -1227.844          51.000    21084085.812 8  86335791.060 8      -956.761          51.000
G30  20493506.500 8 107694113.070 8       891.578          51.000    20493507.156 8  83917505.520 8       694.739          51.000
R01  20106153.328 7 107478902.055 7     -1728.051          42.000    20106156.859 6  83594703.127 6     -1344.043          39.000
R02  20240983.805 5 108009677.780 5      2406.012          35.000    20240982.680 4  84007569.053 4      1871.345          26.000
R11  19631221.164 8 104903292.361 8      -722.816          51.000    19631222.672 8  81591514.220 8      -562.191          51.000
R12  20409826.523 8 109025653.956 8      3200.434          51.000    20409829.062 7  84797767.131 7      2489.226          45.000
C05  39779028.008 6 207139836.297 6        -1.172          36.000    39779026.398 6 160173665.935 6        -1.030          41.000
C23  22778531.891 8 118613814.187 8      2129.148          51.000
C25  22396457.109 8 116624251.931 8      -989.375          51.000
E02  26891239.930 6 141314415.529 6     -2190.598          41.000    26891238.680 5 108279873.207 5     -1678.375          34.000
E07  23747999.273 8 124796555.609 8      -748.719          51.000    23748001.688 8  95623363.479 8      -573.700          51.000
E27  25411993.109 8 133540946.727 8      2809.996          51.000    25411997.109 8 102323568.020 8      2153.078          51.000
E30  23167488.469 7 121745982.204 7       329.773          47.000    23167489.711 7  93285898.867 7       252.651          42.000
> 2020 05 01 03 01  0.0000000  0 13        .000000000000
G02  23527545.805 7 123638087.982 7     -2323.719          45.000    23527541.195 7  96341346.309 7     -1810.690          42.000
G07  21091143.320 8 110834697.499 8     -1247.652          50.000    21091142.086 8  86364685.418 8      -972.197          50.000
G30  20488472.945 8 107667661.652 8       868.625          51.000    20488473.578 8  83896894.047 8       676.851          51.000
R01  20115903.242 7 107531024.692 7     -1750.121          44.000    20115907.594 6  83635242.958 6     -1361.205          40.000
R11  19635362.344 8 104925421.157 8      -755.828          51.000    19635364.141 8  81608725.524 8      -587.863          51.000
R12  20391916.477 8 108929980.967 8      3174.586          51.000    20391918.516 7  84723354.868 7      2469.122          45.000
C05  39779046.016 6 207139929.801 6        -8.039          36.000    39779044.352 6 160173738.241 6        -6.401          41.000
C23  22766312.305 8 118550183.741 8      2109.641          51.000
C25  22402209.570 8 116654205.701 8     -1010.926          50.000
E02  26903783.172 6 141380327.368 6     -2207.121          41.000    26903781.594 5 108330377.068 5     -1691.210          35.000
E07  23752302.008 8 124819167.167 8      -762.180          51.000    23752304.492 8  95640689.187 8      -583.945          51.000
E27  25395982.234 8 133456806.617 8      2795.984          51.000    25395985.867 8 102259097.044 8      2142.318          51.000
E30  23165659.195 7 121736368.933 7       307.793          47.000    23165660.781 7  93278532.862 7       235.808          43.000
> 2020 05 01 03 01 30.0000000  0 14        .000000000000
G02  23540822.641 7 123707859.314 7     -2322.266          45.000    23540818.227 7  96395713.560 7     -1809.558          44.000
G07  21098286.047 8 110872233.253 8     -1249.359          51.000    21098285.031 8  86393934.065 8      -973.527          51.000
G28  23858945.078 5 125379599.790 5      3337.980          33.000
G30  20483544.211 8 107641760.496 8       863.648          51.000    20483544.727 8  83876711.340 8       672.976          51.000
R01  20125751.125 7 107583666.426 7     -1753.797          47.000    20125755.656 6  83676186.523 6     -1364.064          41.000
R11  19639662.375 8 104948398.646 8      -770.488          51.000    19639664.211 8  81626596.891 8      -599.269          51.000
R12  20374125.094 8 108834942.463 8      3166.961          51.000    20374127.148 7  84649436.068 7      2463.192          46.000
C05  39779076.734 5 207140090.756 5         2.570          35.000    39779075.016 6 160173861.911 6         2.093          41.000
C23  22754178.289 8 118486999.521 8      2108.000          51.000
C25  22408059.695 8 116684668.878 8     -1014.559          50.000
E02  26916394.008 6 141446596.504 6     -2205.648          40.000    26916392.812 5 108381154.687 5     -1689.836          35.000
E07  23756655.125 8 124842042.608 8      -757.594          51.000    23756657.570 8  95658217.115 8      -580.476          51.000
E27  25380025.227 8 133372950.171 8      2799.844          51.000    25380028.023 8 102194843.425 8      2145.302          50.000
E30  23163928.250 7 121727272.325 7       303.980          46.000    23163930.242 7  93271562.724 7       232.863          45.000
> 2020 05 01 03 02  0.0000000  0 14        .000000000000
G02  23554171.008 7 123778000.705 7     -2327.352          46.000    23554167.422 7  96450376.755 7     -1813.518          43.000
G07  21105519.734 8 110910246.460 8     -1258.098          51.000    21105518.805 8  86423554.752 8      -980.336          51.000
G28  23839965.453 5 125279845.025 5      3338.945          34.000
G30  20478724.875 8 107616433.891 8       851.625          51.000    20478725.359 8  83856976.339 8       663.604          51.000
R01  20135700.508 8 107636851.582 8     -1764.680          48.000    20135705.039 6  83717552.747 6     -1372.529          41.000
R11  19644125.414 8 104972247.625 8      -792.273          51.000    19644127.516 8  81645146.108 8      -616.213          50.000
R12  20356458.086 8 108740566.749 8      3151.973          51.000    20356459.703 7  84576032.733 7      2451.534          46.000
C05  39779124.875 5 207140341.033 5         7.105          35.000    39779123.062 6 160174055.458 6         5.371          41.000
C23  22742134.523 8 118424286.756 8      2099.297          51.000
C25  22414012.102 8 116715664.217 8     -1025.219          49.000
E02  26929076.555 6 141513245.477 6     -2211.051          39.000    26929076.375 6 108432223.363 6     -1693.936          36.000
E07  23761063.109 8 124865206.443 8      -760.008          51.000    23761065.250 8  95675966.027 8      -582.338          51.000
E27  25364126.820 8 133289403.375 8      2796.652          51.000    25364128.656 8 102130827.059 8      2142.898          50.000
E30  23162299.969 7 121718716.599 7       293.039          44.000    23162303.141 7  93265007.077 7       224.542          45.000
> 2020 05 01 03 02 30.0000000  0 15        .000000000000
G02  23567539.875 8 123848250.763 8     -2353.816          48.000    23567536.359 7  96505117.056 7     -1834.143          43.000
G07  21112793.867 8 110948472.774 8     -1288.062          50.000    21112792.938 8  86453341.488 8     -1003.685          50.000
G28  23820966.820 5 125179995.530 5      3319.012          35.000
G30  20473964.656 8 107591418.972 8       818.289          51.000    20473965.281 8  83837484.205 8       637.628          51.000
R01  20145701.859 8 107690312.765 8     -1797.195          49.000    20145706.070 6  83759133.655 6     -1397.819          41.000
R02  20187380.711 5 107723806.171 5      2358.730          35.000
R11  19648701.062 8 104996699.249 8      -835.613          51.000    19648702.914 8  81664164.024 8      -649.921          50.000
R12  20338865.375 8 108646589.473 8      3115.355          49.000    20338866.500 7  84502939.247 7      2423.054          45.000
C05  39779140.289 6 207140421.280 6        -9.809          36.000    39779138.469 6 160174117.516 6        -7.902          41.000
C23  22730131.477 8 118361786.121 8      2069.555          51.000
C25  22420016.164 8 116746929.847 8     -1056.926          48.000
E02  26941781.195 6 141580009.671 6     -2237.734          39.000    26941781.375 5 108483380.347 5     -1714.490          35.000
E07  23765475.883 8 124888396.086 8      -783.828          51.000    23765477.922 8  95693734.697 8      -600.545          51.000
E27  25348237.422 8 133205905.064 8      2772.055          51.000    25348238.781 8 102066847.843 8      2124.060          51.000
E30  23160725.000 7 121710439.028 7       260.875          44.000    23160727.391 7  93258664.495 7       199.864          44.000
> 2020 05 01 03 03  0.0000000  0 15        .000000000000
G02  23581027.367 8 123919136.049 8     -2359.582          48.000    23581024.672 7  96560353.070 7     -1838.635          44.000
G07  21120207.867 8 110987434.007 8     -1297.551          50.000    21120206.844 8  86483700.893 8     -1011.079          51.000
G28  23802048.750 5 125080577.511 5      3320.203          34.000
G30  20469363.445 8 107567239.143 8       805.535          51.000    20469364.008 8  83818642.777 8       627.687          51.000
R01  20155854.227 8 107744582.363 8     -1808.789          48.000    20155858.539 6  83801343.311 6     -1406.839          40.000
R02  20174163.039 5 107653313.254 5      2352.637          31.000
R11  19653488.766 8 105022283.753 8      -857.992          51.000    19653490.805 8  81684063.082 8      -667.327          50.000
R12  20321447.109 8 108553545.782 8      3099.516          51.000    20321448.281 7  84430571.879 7      2410.734          46.000
C05  39779222.680 5 207140850.027 5        -6.465          35.000    39779220.836 6 160174449.047 6        -5.247          41.000
C23  22718269.266 8 118300017.407 8      2060.059          51.000
C25  22426171.789 8 116778983.089 8     -1068.254          48.000
E02  26954607.078 6 141647410.820 6     -2243.969          39.000    26954607.227 5 108535025.395 5     -1719.426          33.000
E07  23769993.203 8 124912135.100 8      -787.109          51.000    23769995.375 8  95711924.319 8      -603.062          51.000
E27  25332457.203 8 133122980.361 8      2767.934          51.000    25332458.266 8 102003308.140 8      2120.845          51.000
E30  23159301.352 6 121702962.898 6       249.449          36.000    23159303.555 7  93252936.038 7       190.960          44.000
> 2020 05 01 03 03 30.0000000  0 16        .000000000000
G02  23594500.188 8 123989937.332 8     -2386.828          48.000    23594498.109 7  96615522.869 7     -1859.869          45.000
G07  21127628.203 8 111026428.118 8     -1328.414          50.000    21127627.125 8  86514085.894 8     -1035.128          50.000
G09  22887750.766 5 120275973.294 5     -2667.414          34.000
G28  23783079.133 6 124980893.116 6      3299.086          36.000
G30  20464787.859 8 107543193.686 8       771.266          51.000    20464788.336 8  83799906.060 8       600.986          51.000
R01  20166024.242 7 107798947.233 7     -1842.285          47.000    20166028.438 6  83843627.087 6     -1432.888          39.000
R02  20160939.125 4 107582639.716 4      2325.125          28.000
R11  19658354.750 8 105048286.967 8      -902.266          51.000    19658356.953 8  81704287.802 8      -701.762          49.000
R12  20304071.117 8 108460726.632 8      3061.703          51.000    20304072.867 7  84358379.215 7      2381.328          46.000
C05  39779238.656 6 207140933.048 6       -24.836          36.000    39779236.789 6 160174513.225 6       -19.214          41.000
C23  22706414.984 8 118238287.469 8      2029.211          51.000
C25  22432344.953 7 116811128.331 7     -1100.781          47.000
E02  26967420.578 6 141714746.510 6     -2271.473          38.000    26967420.438 5 108586627.321 5     -1740.569          32.000
E07  23774481.891 8 124935723.092 8      -811.719          51.000    23774484.172 8  95729998.233 8      -621.978          51.000
E27  25316653.086 8 133039930.286 8      2742.387          51.000    25316654.156 8 101939672.372 8      2101.294          51.000
E30  23157898.539 6 121695587.687 6       216.070          40.000    23157900.531 7  93247284.882 7       165.644          43.000
> 2020 05 01 03 04  0.0000000  0 16        .000000000000
G02  23608056.195 7 124061170.377 7     -2381.648          47.000
G07  21135152.648 8 111065969.837 8     -1326.945          49.000    21135151.617 8  86544897.637 8     -1033.983          49.000
G09  22902885.609 5 120355477.344 5     -2658.898          34.000    22902894.719 5  93783507.288 5     -2071.869          34.000
G28  23764157.312 6 124881462.295 6      3310.523          37.000
G30  20460336.086 8 107519799.182 8       769.176          51.000    20460336.586 8  83781676.578 8       599.358          51.000
R01  20176310.039 7 107853932.795 7     -1842.848          44.000    20176314.703 6  83886393.621 6     -1433.326          39.000
R02  20147806.609 6 107512548.240 6      2329.059          36.000
R11  19663397.273 8 105075232.587 8      -913.641          51.000    19663399.586 8  81725245.503 8      -710.609          49.000
R12  20286836.008 8 108368660.129 8      3056.547          51.000    20286837.656 7  84286771.965 7      2377.317          45.000
C05  39779286.523 6 207141182.155 6       -10.840          36.000    39779284.617 6 160174705.858 6        -8.297          41.000
C23  22694666.883 8 118177109.405 8      2030.254          51.000
C25  22438633.523 7 116843876.080 7     -1101.453          45.000
E02  26980319.516 6 141782531.666 6     -2266.820          38.000    26980318.984 5 108638564.617 5     -1736.908          30.000
E07  23779040.266 8 124959676.955 8      -804.332          51.000    23779042.539 8  95748352.482 8      -616.324          51.000
E27  25300923.992 8 132957273.202 8      2748.875          51.000    25300925.039 8 101876337.727 8      2106.320          51.000
E30  23156613.211 7 121688830.075 7       215.055          42.000    23156614.641 7  93242106.874 7       164.821          42.000
> 2020 05 01 03 04 30.0000000  0 15        .000000000000
G02  23621654.773 7 124132631.085 7     -2366.078          47.000    23621654.398 7  96726722.495 7     -1843.697          46.000
G07  21142740.500 8 111105844.577 8     -1315.023          50.000    21142739.422 8  86575968.855 8     -1024.694          50.000
G28  23745243.609 6 124782074.332 6      3331.641          38.000
G30  20455967.523 8 107496842.311 8       777.645          51.000    20455967.969 8  83763788.099 8       605.957          51.000
R01  20186671.492 7 107909321.877 7     -1832.875          44.000    20186675.984 6  83929474.039 6     -1425.569          39.000
R02  20134726.508 5 107442706.509 5      2344.055          32.000    20134722.750 4  83566549.254 4      1823.157          29.000
R11  19668574.859 8 105102901.651 8      -914.312          51.000    19668577.172 8  81746765.905 8      -711.132          48.000
R12  20269701.891 8 108277132.682 8      3061.930          51.000    20269702.938 7  84215583.971 7      2381.501          45.000
C05  39779325.711 6 207141387.041 6        13.371          36.000    39779323.781 6 160174863.512 6        10.424          41.000
C23  22682984.125 8 118116272.984 8      2041.688          51.000
C25  22444996.766 7 116877013.593 7     -1091.652          45.000
E02  26993262.953 6 141850551.226 6     -2251.559          36.000
E07  23783627.703 8 124983783.609 8      -786.359          51.000    23783629.820 8  95766823.820 8      -602.583          51.000
E27  25285229.234 8 132874797.544 8      2765.801          50.000    25285230.391 8 101813142.089 8      2119.268          51.000
E30  23155404.328 6 121682476.496 6       224.770          41.000    23155404.414 6  93237238.508 6       172.070          41.000
> 2020 05 01 03 05  0.0000000  0 16        .000000000000
G02  23635258.938 7 124204121.457 7     -2396.523          47.000    23635259.156 7  96782429.293 7     -1867.421          47.000
G07  21150355.453 8 111145861.118 8     -1349.344          48.000    21150354.242 8  86607150.575 8     -1051.437          49.000
G09  22933230.836 5 120514940.456 5     -2666.402          34.000
G28  23726302.633 6 124682542.560 6      3307.168          39.000    23726293.438 5  97155204.365 5      2577.014          31.000
G30  20451646.125 8 107474133.570 8       739.820          51.000    20451646.812 8  83746092.976 8       576.483          51.000
R01  20197072.562 7 107964921.783 7     -1870.047          46.000    20197077.289 6  83972718.402 6     -1454.484          40.000
R02  20121678.008 5 107373123.634 5      2312.066          32.000    20121656.117 4  83512357.013 4      1798.274          29.000
R11  19673851.617 8 105131099.572 8      -962.102          51.000    19673853.852 8  81768697.623 8      -748.301          48.000
R12  20252633.227 8 108185954.690 8      3020.043          51.000    20252634.180 7  84144667.781 7      2348.925          47.000
C05  39779320.016 6 207141357.903 6        -8.082          36.000    39779318.203 6 160174840.996 6        -6.189          41.000
C23  22671330.766 8 118055591.605 8      2007.074          51.000
C25  22451398.789 7 116910351.842 7     -1127.633          44.000
E02  27006214.633 5 141918614.105 5     -2283.176          34.000
E07  23788208.156 8 125007853.901 8      -814.871          51.000    23788209.984 8  95785267.283 8      -624.364          51.000
E27  25269532.984 8 132792315.601 8      2736.262          49.000    25269534.680 8 101749941.635 8      2096.661          51.000
E30  23154236.648 7 121676337.599 7       187.879          44.000    23154236.812 7  93232534.725 7       143.878          42.000
> 2020 05 01 03 05 30.0000000  0 14        .000000000000
G02  23649010.805 7 124276387.193 7     -2405.320          47.000    23649010.930 7  96838740.268 7     -1874.276          47.000
G07  21158139.539 8 111186766.855 8     -1361.742          49.000    21158138.508 8  86639025.196 8     -1061.095          49.000
G09  22948498.203 5 120595203.287 5     -2671.285          34.000    22948500.977 5  93970270.310 5     -2081.524          35.000
G28  23707477.562 6 124583618.883 6      3303.777          39.000
G30  20447514.359 8 107452421.462 8       723.656          51.000    20447515.484 8  83729174.459 8       563.888          51.000
R01  20207655.883 8 108021493.722 8     -1885.102          48.000    20207660.688 6  84016718.789 6     -1466.190          41.000
R11  19679369.656 8 105160585.856 8      -987.578          51.000    19679371.711 7  81791631.405 7      -768.116          47.000
R12  20235772.797 8 108095890.182 8      3000.336          51.000    20235774.500 8  84074617.611 8      2333.595          48.000
C05  39779412.070 6 207141836.605 6        -7.984          36.000    39779410.336 6 160175211.945 6        -6.494          41.000
C23  22659849.633 8 117995808.180 8      1994.129          51.000
C25  22457981.859 7 116944631.182 7     -1142.078          44.000
E07  23792924.203 8 125032636.659 8      -821.543          51.000    23792925.750 8  95804256.668 8      -629.500          51.000
E27  25253978.445 8 132710577.650 8      2728.539          48.000    25253980.836 8 101687311.236 8      2090.699          51.000
E30  23153251.633 7 121671161.976 7       172.961          46.000    23153252.992 6  93228569.037 6       132.481          40.000
> 2020 05 01 03 06  0.0000000  0 14        .000000000000
G02  23662751.078 8 124348591.586 8     -2410.059          48.000    23662750.430 7  96895003.445 7     -1877.968          47.000
G07  21165933.914 8 111227726.013 8     -1370.617          50.000    21165932.945 8  86670941.413 8     -1068.013          50.000
G09  22963746.867 5 120675319.566 5     -2672.988          32.000    22963754.242 5  94032725.820 5     -2082.854          32.000
G28  23688609.961 6 124484472.093 6      3304.395          39.000    23688599.273 5  97000852.807 5      2574.856          31.000
G30  20443413.602 8 107430871.963 8       711.215          51.000    20443414.805 8  83712382.619 8       554.193          51.000
R01  20218262.258 8 108078189.299 8     -1896.375          48.000    20218267.031 6  84060815.330 6     -1474.958          41.000
R11  19684969.570 8 105190510.363 8     -1009.172          51.000    19684971.977 7  81814906.038 7      -784.911          47.000
R12  20218962.164 8 108006094.252 8      2984.230          51.000    20218965.289 8  84004776.308 8      2321.068          49.000
C05  39779443.344 6 207141998.719 6        -4.293          36.000    39779441.461 6 160175337.281 6        -3.431          40.000
C23  22648382.352 8 117936097.422 8      1984.805          51.000
C25  22464586.656 7 116979023.864 7     -1152.699          44.000
E07  23797617.211 8 125057298.127 8      -824.547          51.000    23797618.617 8  95823153.126 8      -631.787          51.000
E27  25238407.570 8 132628751.377 8      2724.516          50.000    25238410.430 8 101624613.167 8      2087.589          51.000
E30  23152291.375 8 121666115.605 8       161.602          48.000    23152291.555 6  93224702.326 6       123.986          38.000
> 2020 05 01 03 06 30.0000000  0 14        .000000000000
G02  23676544.195 8 124421074.172 8     -2420.883          49.000    23676542.578 7  96951483.375 7     -1886.402          46.000
G07  21173803.328 8 111269079.234 8     -1385.020          50.000    21173801.836 8  86703164.692 8     -1079.236          49.000
G09  22979030.188 5 120755611.425 5     -2679.699          34.000
G28  23669765.484 6 124385447.392 6      3298.488          38.000    23669757.922 5  96923690.761 5      2570.260          31.000
G30  20439408.984 8 107409827.144 8       693.051          51.000    20439410.320 8  83695984.065 8       540.040          51.000
R01  20228956.359 7 108135356.256 7     -1913.430          46.000    20228961.242 6  84105278.491 6     -1488.226          41.000
R11  19690716.383 8 105221219.313 8     -1036.832          51.000    19690718.562 7  81838790.778 7      -806.425          47.000
R12  20202267.930 8 107916918.065 8      2962.141          51.000    20202272.047 8  83935417.027 8      2303.887          49.000
C05  39779478.602 6 207142183.343 6        -6.090          36.000    39779476.742 6 160175479.277 6        -5.029          40.000
C23  22636994.586 8 117876799.518 8      1969.656          51.000
C25  22471278.352 7 117013867.581 7     -1169.148          44.000
E07  23802352.328 8 125082180.835 8      -833.168          51.000    23802353.820 8  95842219.099 8      -638.428          51.000
E27  25222885.695 8 132547180.715 8      2714.691          51.000    25222888.500 8 101562110.985 8      2080.061          51.000
E30  23151420.703 8 121661540.627 8       144.551          48.000    23151419.844 6  93221196.837 6       110.694          38.000
> 2020 05 01 03 07  0.0000000  0 14        .000000000000
G02  23690388.117 8 124493824.586 8     -2427.258          49.000    23690385.633 7  97008171.999 7     -1891.370          45.000
G07  21181745.883 8 111310817.099 8     -1395.480          49.000    21181743.992 8  86735687.708 8     -1087.387          49.000
G09  22994343.445 5 120836089.930 5     -2682.910          32.000
G28  23650943.156 5 124286539.860 5      3296.973          35.000    23650937.172 5  96846619.822 5      2569.054          31.000
G30  20435498.867 8 107389279.050 8       678.773          51.000    20435500.320 8  83679972.579 8       528.914          51.000
R01  20239737.375 7 108192986.423 7     -1926.453          45.000    20239742.164 7  84150101.966 7     -1498.352          42.000
R11  19696608.031 8 105252702.490 8     -1060.078          51.000    19696610.320 7  81863277.725 7      -824.502          47.000
R12  20185689.219 8 107828356.370 8      2944.023          51.000    20185693.328 8  83866535.702 8      2289.796          49.000
C05                                                                  39779514.641 6 160175631.868 6        -3.613          41.000
C23  22625685.320 8 117817907.773 8      1958.445          51.000
C25  22478054.680 7 117049153.105 7     -1181.461          44.000
E07  23807128.086 8 125107277.165 8      -837.848          51.000    23807129.719 8  95861448.749 8      -642.002          51.000
E27  25207411.305 8 132465859.534 8      2708.785          51.000    25207413.969 8 101499799.970 8      2075.593          51.000
E30  23150638.195 8 121657429.132 8       131.520          49.000    23150637.156 6  93218046.525 6       100.688          37.000
> 2020 05 01 03 07 30.0000000  0 14        .000000000000
G02  23704273.070 7 124566791.325 7     -2437.414          47.000    23704270.047 7  97065029.172 7     -1899.284          46.000
G07  21189752.086 8 111352889.768 8     -1409.605          49.000    21189750.547 8  86768471.615 8     -1098.394          49.000
G28  23632133.820 5 124187704.036 5      3291.684          30.000    23632131.500 5  96769625.976 5      2564.942          30.000
G30  20431674.047 8 107369179.263 8       660.961          51.000    20431675.219 8  83664310.401 8       515.034          51.000
R01  20250595.383 7 108251030.559 7     -1943.301          44.000    20250600.586 6  84195247.430 6     -1511.456          41.000
R02  20057366.734 5 107029930.267 5      2261.844          30.000
R11  19702634.977 8 105284908.815 8     -1087.141          51.000    19702636.867 7  81888327.085 7      -845.554          46.000
R12  20169216.648 8 107740363.059 8      2921.891          51.000    20169220.977 8  83798096.485 8      2272.585          49.000
C05  39779547.711 6 207142542.858 6        -6.477          36.000    39779545.953 6 160175758.022 6        -4.869          41.000
C23  22614445.258 8 117759375.397 8      1943.531          51.000
C25  22484906.672 7 117084831.159 7     -1197.391          46.000
E07  23811935.352 8 125132539.070 8      -846.434          51.000    23811937.234 8  95880805.281 8      -648.569          51.000
E27  25191975.516 8 132384741.231 8      2698.992          51.000    25191977.930 8 101437644.409 8      2067.996          51.000
E30  23149934.906 8 121653732.743 8       114.781          49.000    23149933.508 5  93215214.217 5        88.003          35.000
> 2020 05 01 03 08  0.0000000  0 14        .000000000000
G02  23718210.164 7 124640032.769 7     -2445.113          46.000    23718207.266 7  97122100.427 7     -1905.283          46.000
G05  20805293.281 6 109332549.267 6      1248.949          37.000    20805293.125 6  85194196.088 6       973.210          36.000
G07  21197833.289 8 111395356.856 8     -1421.121          48.000    21197831.953 8  86801562.853 8     -1107.367          48.000
G30  20427946.023 8 107349588.850 8       645.484          51.000    20427947.070 8  83649045.148 8       502.975          51.000
R01  20261542.367 7 108309550.484 7     -1957.668          44.000    20261547.578 6  84240762.929 6     -1522.634          40.000
R02  20044682.062 5 106962235.470 5      2252.395          33.000    20044686.453 4  83192901.844 4      1751.862          24.000
R11  19708808.516 8 105317898.313 8     -1111.777          51.000    19708810.492 7  81913985.587 7      -864.716          46.000
R12  20152863.203 8 107653003.235 8      2902.371          51.000    20152867.297 8  83730149.959 8      2257.400          50.000
C05  39779584.094 6 207142732.506 6        -5.676          36.000    39779582.398 6 160175904.711 6        -4.640          41.000
C23  22603286.086 8 117701264.113 8      1930.875          51.000
C25  22491845.430 8 117120961.022 8     -1211.000          48.000
E07  23816785.836 8 125158028.017 8      -852.402          51.000    23816787.969 8  95900335.759 8      -653.148          51.000
E27  25176590.102 8 132303888.718 8      2691.660          51.000    25176592.055 8 101375692.489 8      2062.462          51.000
E30  23149322.047 7 121650512.556 7       100.383          47.000    23149320.898 5  93212746.815 5        76.863          33.000
> 2020 05 01 03 08 30.0000000  0 13        .000000000000
G02  23732191.281 7 124713505.578 7     -2453.305          45.000    23732189.086 7  97179351.960 7     -1911.666          45.000
G05  20798213.047 5 109295342.505 5      1231.555          35.000    20798213.789 6  85165203.713 6       959.650          36.000
G07  21205981.344 8 111438175.960 8     -1433.398          48.000    21205979.773 8  86834928.403 8     -1116.934          48.000
G30  20424307.062 8 107330466.623 8       629.254          51.000    20424308.086 8  83634144.728 8       490.328          51.000
R01  20272571.156 7 108368504.325 7     -1972.695          46.000    20272576.047 6  84286615.912 6     -1534.322          41.000
R11  19715120.648 8 105351627.226 8     -1137.012          51.000    19715122.539 7  81940219.190 7      -884.342          46.000
R12  20136620.961 8 107566238.287 8      2881.844          51.000    20136625.211 8  83662666.080 8      2241.434          50.000
C05  39779617.898 6 207142908.048 6        -5.836          36.000    39779616.102 6 160176040.433 6        -4.697          41.000
C23  22592200.102 8 117643534.292 8      1917.543          51.000
C25  22498862.477 8 117157500.533 8     -1225.137          48.000
E07  23821671.609 8 125183703.209 8      -859.375          51.000    23821673.836 8  95920008.959 8      -658.485          51.000
E27  25161247.602 8 132223262.659 8      2683.332          51.000    25161248.734 8 101313914.070 8      2056.066          51.000
E30  23148792.016 7 121647727.392 7        85.203          45.000
> 2020 05 01 03 09  0.0000000  0 13        .000000000000
G02  23746219.195 7 124787223.295 7     -2461.145          46.000    23746217.930 7  97236794.343 7     -1917.772          45.000
G05  20791230.617 5 109258653.608 5      1214.301          34.000    20791229.711 5  85136615.008 5       946.214          34.000
G07  21214199.266 8 111481361.965 8     -1445.406          49.000    21214197.875 8  86868579.807 8     -1126.291          49.000
G30  20420760.336 8 107311828.954 8       613.496          51.000    20420761.297 8  83619621.857 8       478.049          51.000
R01  20283684.227 7 108427908.497 7     -1987.367          47.000    20283689.070 6  84332819.110 6     -1545.730          40.000
R11  19721573.539 8 105386110.323 8     -1161.754          51.000    19721575.742 7  81967039.401 7      -903.586          47.000
R12  20120492.070 8 107480087.634 8      2861.684          49.000    20120497.383 8  83595660.010 8      2225.754          48.000
C05  39779651.953 5 207143085.710 5        -5.629          35.000    39779650.227 6 160176177.801 6        -4.461          41.000
C23  22581190.492 8 117586203.385 8      1904.668          51.000
C25  22505961.156 8 117194464.631 8     -1238.930          48.000
E07  23826595.883 8 125209581.442 8      -865.793          51.000    23826598.203 8  95939837.722 8      -663.355          51.000
E27  25145951.477 8 132142881.198 8      2675.500          51.000    25145952.422 8 101252323.104 8      2050.094          51.000
E30  23148347.953 7 121645393.676 7        70.504          45.000
> 2020 05 01 03 09 30.0000000  0 14        .000000000000
G02  23760291.469 7 124861173.475 7     -2468.680          47.000    23760291.031 7  97294417.871 7     -1923.647          47.000
G05  20784345.648 6 109222475.126 6      1197.406          37.000    20784343.344 5  85108423.922 5       933.047          35.000
G07  21222484.875 7 111524903.521 7     -1457.129          47.000    21222483.961 7  86902508.284 7     -1135.425          47.000
G09  23071327.469 5 121240643.786 5     -2708.008          30.000
G30  20417303.836 8 107293666.084 8       597.742          51.000    20417304.938 8  83605468.967 8       465.773          51.000
R01  20294879.586 7 108487753.093 7     -2001.934          47.000    20294883.797 6  84379364.902 6     -1557.059          39.000
R11  19728165.742 8 105421335.579 8     -1186.270          51.000    19728167.750 7  81994436.798 7      -922.657          46.000
R12  20104477.383 8 107394544.576 8      2841.488          50.000    20104482.570 8  83529126.496 8      2210.043          48.000
C05  39779684.695 6 207143256.144 6        -5.438          36.000    39779682.914 6 160176309.591 6        -4.193          41.000
C23  22570255.617 8 117529262.957 8      1891.703          51.000
C25  22513138.914 8 117231842.457 8     -1252.648          48.000
E07  23831557.102 8 125235653.405 8      -872.148          51.000    23831559.609 8  95959814.948 8      -668.258          51.000
E27  25130700.508 8 132062736.516 8      2667.715          51.000    25130701.180 8 101190913.558 8      2044.072          51.000
E30  23147988.031 6 121643501.748 6        56.000          41.000    23147995.680 5  93207374.406 5        42.628          35.000
> 2020 05 01 03 10  0.0000000  0 15        .000000000000
G02  23774405.266 8 124935341.545 8     -2475.969          48.000    23774405.391 7  97352211.182 7     -1929.326          45.000
G05  20777555.914 5 109186796.365 5      1180.141          32.000    20777552.891 5  85080622.334 5       919.587          33.000
G07  21230835.633 7 111568787.044 7     -1468.422          47.000    21230834.797 7  86936703.243 7     -1144.225          47.000
G28  23538427.562 5 123695260.918 5      3273.652          33.000
G30  20413935.531 8 107275965.885 8       582.223          51.000    20413936.422 8  83591676.598 8       453.680          51.000
R01  20306154.578 7 108548025.691 7     -2016.230          46.000    20306159.070 6  84426243.578 6     -1568.182          40.000
R11  19734893.742 8 105457288.576 8     -1210.605          50.000    19734896.227 7  82022400.277 7      -941.579          46.000
R12  20088575.719 8 107309599.710 8      2821.555          51.000    20088580.195 8  83463058.247 8      2194.539          48.000
C05  39779713.766 6 207143407.576 6        -4.641          36.000    39779711.984 6 160176426.657 6        -3.570          41.000
C23  22559393.492 8 117472702.184 8      1879.004          51.000
C25  22520393.492 8 117269620.615 8     -1266.094          48.000
E07  23836553.055 8 125261907.416 8      -878.117          51.000    23836555.758 8  95979931.652 8      -672.846          51.000
E08  25496273.398 5 133983820.843 5     -2327.039          32.000
E27  25115492.500 8 131982818.296 8      2660.246          51.000    25115492.961 8 101129677.539 8      2038.305          51.000
E30  23147709.125 6 121642039.483 6        41.555          38.000    23147713.023 6  93206253.932 6        31.880          39.000
> 2020 05 01 03 10 30.0000000  0 14        .000000000000
G02  23788568.250 8 125009767.491 8     -2484.336          48.000    23788568.250 7  97410205.405 7     -1935.846          43.000
G05  20770869.844 5 109151661.581 5      1162.816          35.000    20770865.906 6  85053244.578 6       906.091          36.000
G07  21239259.414 8 111613054.060 8     -1481.254          48.000    21239258.508 7  86971197.006 7     -1154.227          47.000
G28  23519755.867 6 123597135.945 6      3269.219          36.000
G30  20410663.367 8 107258770.814 8       565.461          51.000    20410664.125 8  83578277.862 8       440.619          51.000
R01  20317517.625 7 108608769.380 7     -2031.848          46.000    20317522.469 6  84473488.629 6     -1580.326          40.000
R11  19741765.961 8 105494010.706 8     -1236.082          50.000    19741767.961 7  82050961.913 7      -961.397          46.000
R12  20072795.227 8 107225299.421 8      2800.004          51.000    20072799.375 8  83397491.358 8      2177.781          49.000
C05  39779747.383 6 207143582.152 6        -5.828          36.000    39779745.516 6 160176561.654 6        -4.220          41.000
C23  22548612.508 8 117416564.345 8      1864.867          51.000
C25  22527733.453 8 117307839.981 8     -1280.562          49.000
E07  23841591.805 8 125288386.420 8      -885.641          51.000    23841594.656 8  96000220.752 8      -678.563          51.000
E27  25100336.031 8 131903170.956 8      2651.254          51.000    25100336.727 8 101068649.044 8      2031.468          51.000
E30  23147520.680 6 121641049.468 6        26.254          36.000    23147521.672 6  93205495.268 6        19.796          41.000
> 2020 05 01 03 11  0.0000000  0 14        .000000000000
G02  23802773.234 7 125084413.843 7     -2491.883          47.000    23802772.398 6  97468371.356 6     -1941.727          40.000
G05  20764281.344 6 109117038.333 6      1145.504          37.000    20764278.148 6  85026265.488 6       892.603          37.000
G07  21247749.141 7 111657667.866 7     -1492.910          47.000    21247748.406 7  87005961.035 7     -1163.307          47.000
G28  23501104.625 6 123499126.683 6      3265.320          38.000    23501098.695 5  96233077.291 5      2544.390          32.000
G30  20407480.828 8 107242046.096 8       549.637          51.000    20407481.453 8  83565245.620 8       428.288          51.000
R01  20328962.367 7 108669948.704 7     -2046.586          45.000    20328966.992 6  84521072.559 6     -1591.789          41.000
R11  19748774.570 8 105531464.150 8     -1260.578          50.000    19748776.898 7  82080092.383 7      -980.450          47.000
R12  20057129.141 8 107141611.067 8      2779.379          51.000    20057133.164 8  83332400.430 8      2161.739          48.000
C05  39779778.844 5 207143746.702 5        -5.195          35.000    39779776.961 6 160176688.139 6        -3.987          41.000
C23  22537906.398 8 117360816.205 8      1851.766          51.000
C25  22535150.727 8 117346464.880 8     -1294.188          48.000
E07  23846666.852 8 125315056.108 8      -892.121          51.000    23846669.797 8  96020655.963 8      -683.576          51.000
E27  25085224.406 8 131823761.528 8      2643.039          51.000    25085225.664 8 101007802.863 8      2025.171          51.000
E30  23147416.344 5 121640496.876 5        11.203          35.000    23147415.234 7  93205071.771 7         8.611          43.000
> 2020 05 01 03 11 30.0000000  0 14        .000000000000
G02  23817022.016 7 125159291.270 7     -2499.406          46.000    23817019.539 6  97526717.367 6     -1947.589          39.000
G05  20757792.789 5 109082941.531 5      1127.988          35.000    20757790.930 6  84999696.573 6       878.952          36.000
G07  21256307.211 8 111702640.662 8     -1504.734          49.000    21256306.492 8  87041004.784 8     -1172.520          49.000
G28  23482479.141 6 123401249.653 6      3260.801          39.000    23482478.266 5  96156809.546 5      2540.884          30.000
G30  20404390.297 8 107225805.040 8       533.660          51.000    20404390.852 8  83552590.251 8       415.839          51.000
R01  20340491.414 7 108731576.932 7     -2061.496          47.000    20340496.195 6  84569005.608 6     -1603.386          41.000
R11  19755922.633 8 105569660.675 8     -1285.246          51.000    19755925.195 7  82109800.794 7      -999.636          46.000
R12  20041580.219 8 107058551.460 8      2758.508          50.000    20041584.289 7  83267798.514 7      2145.506          46.000
C05  39779810.766 6 207143912.668 6        -5.148          36.000    39779808.875 6 160176816.453 6        -3.939          41.000
C23  22527278.086 8 117305472.159 8      1838.406          51.000
C25  22542647.930 8 117385507.157 8     -1307.957          48.000
E07  23851780.719 8 125341930.287 8      -898.809          51.000    23851783.727 8  96041247.863 8      -688.659          51.000
E27  25070161.023 8 131744605.311 8      2634.668          50.000    25070163.078 8 100947150.663 8      2018.822          51.000
E30  23147396.016 5 121640395.078 5        -3.547          34.000    23147395.250 7  93204993.713 7        -2.840          45.000
> 2020 05 01 03 12  0.0000000  0 15        .000000000000
G02  23831312.797 7 125234389.492 7     -2506.805          45.000    23831308.727 6  97585235.430 6     -1953.354          38.000
G05  20751403.625 6 109049365.279 6      1110.289          37.000    20751401.109 6  84973533.264 6       865.160          37.000
G07  21264931.938 8 111747963.560 8     -1516.434          48.000    21264930.938 8  87076321.324 8     -1181.637          48.000
G28  23463878.117 6 123303500.169 6      3256.504          39.000    23463876.648 4  96080641.065 4      2537.536          28.000
G30  20401390.328 8 107210039.926 8       517.723          51.000    20401390.875 8  83540305.733 8       403.420          51.000
R01  20352103.133 7 108793646.271 7     -2076.008          47.000    20352107.602 6  84617281.773 6     -1614.673          41.000
R11  19763207.742 8 105608590.357 8     -1309.648          50.000    19763209.953 7  82140079.423 7     -1018.615          47.000
R12  20026148.062 8 106976115.649 8      2737.586          51.000    20026151.805 7  83203681.812 7      2129.237          44.000
C05  39779841.750 5 207144073.592 5        -5.004          35.000    39779839.805 6 160176940.898 6        -3.972          41.000
C23  22516726.312 8 117250525.807 8      1825.062          51.000
C25  22550223.805 7 117424957.967 7     -1321.832          47.000
E02  27193521.953 5 142902872.153 5     -2402.562          35.000    27193523.031 6 109497042.006 6     -1841.260          37.000
E07  23856932.203 8 125369001.728 8      -905.488          51.000    23856935.109 8  96061990.915 8      -693.786          51.000
E27  25055144.258 8 131665696.388 8      2626.352          50.000    25055147.773 8 100886687.996 8      2012.375          51.000
E30  23147461.062 6 121640736.309 6       -18.379          39.000    23147460.336 7  93205255.175 7       -14.256          46.000
> 2020 05 01 03 12 30.0000000  0 15        .000000000000
G02  23845645.547 7 125309709.468 7     -2514.559          44.000    23845641.195 6  97643926.327 6     -1959.396          41.000
G05  20745114.039 5 109016314.632 5      1092.602          35.000    20745111.055 6  84947779.491 6       851.375          36.000
G07  21273623.664 8 111793638.778 8     -1528.594          48.000    21273622.352 8  87111912.411 8     -1191.109          48.000
G28  23445302.906 6 123205885.188 6      3251.414          38.000    23445301.055 4  96004577.433 4      2533.572          29.000
G30  20398481.523 8 107194754.241 8       501.230          51.000    20398481.992 8  83528394.804 8       390.569          51.000
R01  20363798.172 8 108856160.232 8     -2091.465          48.000    20363802.078 6  84665903.735 6     -1626.698          41.000
R11  19770630.609 8 105648254.594 8     -1334.645          50.000    19770632.742 7  82170929.399 7     -1038.054          47.000
R12  20010834.672 8 106894310.102 8      2716.020          51.000    20010836.258 7  83140055.304 7      2112.460          43.000
C05  39779872.391 5 207144233.316 5        -5.605          35.000    39779870.500 6 160177064.409 6        -4.353          41.000
C23  22506251.758 8 117195981.816 8      1811.117          51.000
C25  22557878.438 7 117464819.477 7     -1335.727          46.000
E02  27207265.359 5 142975143.443 5     -2411.781          34.000    27207267.008 6 109552381.130 6     -1847.898          36.000
E07  23862121.992 8 125396274.457 8      -912.703          51.000    23862124.805 8  96082888.212 8      -699.356          51.000
E27  25040176.164 8 131587040.244 8      2617.426          50.000    25040180.609 8 100826418.979 8      2005.515          51.000
E30  23147611.156 6 121641524.326 6       -33.945          40.000    23147610.984 8  93205858.888 8       -26.058          48.000
> 2020 05 01 03 13  0.0000000  0 15        .000000000000
G02  23860020.148 7 125385250.198 7     -2521.805          44.000    23860016.602 7  97702789.255 7     -1965.043          44.000
G05  20738925.164 6 108983792.988 6      1075.359          38.000    20738923.383 6  84922437.948 6       837.942          37.000
G07  21282382.484 8 111839666.218 8     -1540.191          49.000    21282381.000 8  87147777.944 8     -1200.149          49.000
G28  23426754.211 6 123108409.525 6      3246.277          38.000    23426751.977 4  95928622.319 4      2529.573          29.000
G30  20395664.344 8 107179949.444 8       485.355          51.000    20395664.578 8  83516858.604 8       378.199          51.000
R01  20375576.391 7 108919120.089 7     -2106.211          47.000    20375580.047 6  84714872.484 6     -1638.167          40.000
R11  19778190.539 8 105688652.842 8     -1358.973          51.000    19778192.508 7  82202350.255 7     -1056.979          47.000
R12  19995639.688 8 106813139.334 8      2694.953          51.000    19995640.016 7  83076922.527 7      2096.078          44.000
C05  39779903.070 5 207144393.457 5        -5.785          35.000    39779901.234 6 160177188.218 6        -4.114          41.000
C23  22495855.195 8 117141842.880 8      1797.785          51.000
C25  22565612.406 7 117505091.930 7     -1349.312          46.000
E02                                                                  27221058.750 5 109607912.671 5     -1854.414          35.000
E07  23867350.484 8 125423750.448 8      -919.305          51.000    23867353.438 8  96103941.241 8      -704.396          51.000
E27  25025257.070 8 131508640.211 8      2608.945          51.000    25025262.258 8 100766346.226 8      1999.128          51.000
E30  23147844.766 6 121642760.373 6       -48.641          37.000    23147846.734 8  93206805.997 8       -37.327          48.000
> 2020 05 01 03 13 30.0000000  0 16        .000000000000
G02  23874435.438 7 125461002.317 7     -2528.383          45.000    23874432.398 7  97761816.878 7     -1970.168          44.000
G05  20732836.070 6 108951794.913 6      1058.113          39.000    20732835.297 6  84897504.369 6       824.504          38.000
G07  21291206.734 8 111886037.526 8     -1551.152          50.000    21291205.047 8  87183911.415 8     -1208.690          49.000
G13  22724244.164 6 119416712.171 6      2668.125          36.000
G28  23408231.305 6 123011068.863 6      3241.836          36.000    23408229.055 5  95852772.431 5      2526.121          31.000
G30  20392937.391 8 107165618.349 8       470.109          51.000    20392937.133 8  83505691.525 8       366.319          51.000
R01  20387436.250 7 108982518.605 7     -2120.238          46.000    20387439.523 6  84764182.408 6     -1649.077          39.000
R11  19785886.141 8 105729775.428 8     -1382.633          51.000    19785888.172 8  82234334.495 8     -1075.381          48.000
R12  19980562.531 8 106732599.037 8      2674.453          51.000    19980562.281 7  83014280.068 7      2080.130          46.000
C05  39779932.570 5 207144547.222 5        -4.844          35.000    39779930.727 6 160177307.119 6        -3.688          41.000
C23  22485535.164 8 117088103.095 8      1784.961          51.000
C25  22573423.719 7 117545766.986 7     -1362.211          45.000
E07  23872616.289 8 125451423.077 8      -925.387          51.000    23872619.594 8  96125144.938 8      -709.057          51.000
E08  25589673.531 5 134474641.228 5     -2346.668          32.000
E27  25010386.188 8 131430491.064 8      2601.090          51.000    25010391.344 8 100706465.703 8      1993.070          51.000
E30  23148164.070 7 121644437.458 7       -62.812          43.000    23148166.172 8  93208091.001 8       -48.291          48.000
> 2020 05 01 03 14  0.0000000  0 16        .000000000000
G02  23888881.859 7 125536917.255 7     -2532.555          46.000    23888878.812 7  97820971.339 7     -1973.419          44.000
G05  20726838.445 6 108920276.547 6      1042.910          36.000    20726838.227 6  84872944.615 6       812.660          37.000
G07  21300087.312 8 111932705.428 8     -1559.902          48.000    21300085.219 8  87220275.992 8     -1215.508          48.000
G13  22709015.055 6 119336708.915 6      2665.562          37.000
G28  23389726.109 5 122913820.827 5      3240.574          30.000
G30  20390291.930 8 107151715.170 8       456.859          51.000    20390291.477 8  83494857.899 8       355.994          51.000
R01  20399369.062 7 109046308.968 7     -2132.262          45.000    20399372.914 6  84813797.100 6     -1658.429          40.000
R11  19793708.297 8 105771573.950 8     -1403.961          51.000    19793710.234 8  82266844.454 8     -1091.970          49.000
R12  19965595.102 8 106652645.454 8      2655.910          51.000    19965594.922 7  82952093.955 7      2065.708          47.000
C05  39779952.188 6 207144648.534 6        -2.094          36.000    39779950.391 6 160177386.233 6        -1.462          41.000
C23  22475283.102 8 117034718.289 8      1774.172          51.000
C25  22581303.203 7 117586798.058 7     -1373.070          46.000
E07  23877911.070 8 125479247.143 8      -929.383          51.000    23877914.398 8  96146464.678 8      -712.169          51.000
E08  25603074.469 5 134545061.556 5     -2347.293          32.000
E27  24995554.727 8 131352548.961 8      2595.156          51.000    24995559.734 8 100646743.840 8      1988.481          51.000
E30  23148558.602 7 121646509.905 7       -74.926          43.000    23148561.055 8  93209678.914 8       -57.557          48.000
> 2020 05 01 03 14 30.0000000  0 14        .000000000000
G02  23903382.117 7 125613114.686 7     -2543.910          44.000    23903378.875 7  97880345.929 7     -1982.265          42.000
G05  20720955.500 6 108889361.979 6      1021.453          37.000    20720955.398 6  84848855.298 6       795.937          37.000
G07  21309047.289 8 111979790.876 8     -1575.605          49.000    21309045.266 8  87256965.944 8     -1227.745          49.000
G28  23371259.180 5 122816784.039 5      3231.309          30.000
G30  20387751.062 8 107138362.078 8       436.621          51.000    20387751.070 8  83484452.923 8       340.227          51.000
R01  20411398.578 7 109110615.267 7     -2151.402          47.000    20411403.109 6  84863813.097 6     -1673.310          41.000
R11  19801679.758 8 105814170.214 8     -1432.379          50.000    19801681.555 8  82299974.861 8     -1114.072          50.000
R12  19950761.125 8 106573405.921 8      2630.148          51.000    19950761.562 8  82890463.210 8      2045.671          48.000
C05  39779985.328 6 207144821.829 6        -6.035          36.000    39779983.469 6 160177519.470 6        -4.818          41.000
C23  22465122.773 8 116981810.784 8      1756.402          51.000
C25  22589273.992 7 117628304.971 7     -1390.691          44.000
E07  23883258.203 8 125507345.384 8      -940.430          51.000    23883261.289 8  96167994.493 8      -720.577          51.000
E27  24980786.344 8 131274937.996 8      2582.289          51.000    24980790.695 8 100587275.682 8      1978.595          51.000
E30  23149050.945 7 121649099.739 7       -94.016          43.000    23149054.195 8  93211663.357 8       -72.224          48.000
> 2020 05 01 03 15  0.0000000  0 16        .000000000000
G02  23917915.992 7 125689489.763 7     -2545.242          43.000    23917912.711 7  97939858.944 7     -1983.309          42.000
G05  20715168.344 6 108858950.581 6      1009.215          38.000    20715167.266 6  84825158.088 6       786.398          37.000
G07  21318067.078 8 112027190.414 8     -1581.508          49.000    21318065.312 8  87293900.636 8     -1232.344          49.000
G13  22678674.938 5 119177205.228 5      2657.445          31.000
G28  23352817.719 6 122719873.541 6      3231.844          36.000
G30  20385295.297 8 107125456.812 8       426.348          51.000    20385295.523 8  83474396.881 8       332.219          51.000
R01  20423505.141 7 109175333.583 7     -2160.438          46.000    20423509.938 6  84914149.579 6     -1680.340          41.000
R02  19873387.297 5 106048139.424 5      2102.160          32.000
R11  19809780.188 8 105857458.215 8     -1450.676          50.000    19809782.453 8  82333643.331 8     -1128.303          50.000
R12  19936042.180 8 106494779.373 8      2614.316          51.000    19936043.227 7  82829309.224 7      2033.354          47.000
C05  39780012.383 6 207144963.078 6        -1.203          36.000    39780010.523 6 160177628.654 6         -.326          41.000
C23  22455034.820 8 116929280.472 8      1748.344          51.000
C25  22597316.211 7 117670185.114 7     -1398.535          42.000
E07  23888638.109 8 125535616.094 8      -941.555          51.000    23888640.867 8  96189656.453 8      -721.439          51.000
E27  24966061.570 8 131197557.889 8      2579.160          51.000    24966065.469 8 100527984.396 8      1976.273          51.000
E30  23149623.391 7 121652104.914 7      -103.273          44.000    23149625.930 7  93213965.968 7       -79.141          47.000
> 2020 05 01 03 15 30.0000000  0 15        .000000000000
G02  23932497.000 6 125766114.577 6     -2557.809          41.000    23932494.047 6  97999566.599 6     -1993.095          41.000
G05  20709491.617 6 108829118.619 6       985.238          37.000    20709488.906 6  84801912.424 6       767.721          37.000
G07  21327160.469 8 112074977.074 8     -1598.707          48.000    21327158.648 8  87331137.002 8     -1245.743          48.000
G28  23334415.672 6 122623160.025 6      3221.051          36.000
G30  20382938.766 8 107113073.814 8       404.781          51.000    20382939.125 8  83464747.787 8       315.414          51.000
R01  20435703.156 7 109240539.643 7     -2180.906          47.000    20435708.297 7  84964865.403 7     -1696.260          42.000
R02  19861644.570 5 105985469.473 5      2084.996          33.000
R11  19818024.047 8 105901511.633 8     -1480.410          50.000    19818026.438 8  82367907.079 8     -1151.433          50.000
R12  19921452.547 8 106416844.236 8      2587.039          51.000    19921454.352 8  82768693.006 8      2012.141          48.000
C05  39780047.820 5 207145146.393 5        -5.957          35.000    39780045.930 6 160177771.204 6        -4.724          41.000
C23  22445033.617 8 116877202.326 8      1729.133          51.000
C25  22605444.703 7 117712511.096 7     -1417.445          44.000
E07  23894065.094 8 125564134.333 8      -954.066          51.000    23894067.523 8  96211508.084 8      -731.026          51.000
E27  24951395.312 8 131120485.037 8      2564.711          51.000    24951398.852 8 100468928.539 8      1965.141          51.000
E30  23150288.500 7 121655599.802 7      -123.941          44.000    23150291.477 7  93216643.887 7       -94.935          46.000
> 2020 05 01 03 16  0.0000000  0 14        .000000000000
G02  23947108.172 6 125842902.223 6     -2562.977          39.000    23947106.633 6  98059401.152 6     -1997.122          39.000
G05  20703909.602 6 108799783.916 6       968.809          40.000    20703905.422 6  84779054.223 6       754.919          38.000
G07  21336311.367 8 112123065.490 8     -1608.691          49.000    21336309.789 8  87368608.504 8     -1253.523          49.000
G28  23316032.898 5 122526561.955 5      3217.297          34.000
G30  20380665.570 8 107101128.866 8       390.230          51.000    20380666.531 8  83455440.040 8       304.076          51.000
R01  20447976.547 7 109306147.441 7     -2194.277          47.000    20447981.883 7  85015893.678 7     -1706.660          42.000
R11  19826394.641 8 105946242.133 8     -1502.957          51.000    19826397.156 8  82402697.473 8     -1168.967          50.000
R12  19906976.445 8 106339517.996 8      2566.723          51.000    19906979.055 7  82708550.418 7      1996.340          47.000
C05                                                                  39780073.609 6 160177882.797 6        -3.549          41.000
C23  22435103.406 8 116825494.106 8      1716.816          51.000
C25  22613642.984 7 117755198.293 7     -1429.391          44.000
E07  23899523.242 8 125592816.458 8      -959.445          51.000    23899525.164 8  96233485.292 8      -735.162          51.000
