     3.02           OBSERVATION DATA    M (MIXED)           RINEX VERSION / TYPE
SAVERINEX           SC600               20200518 005930 LCL PGM / RUN BY / DATE
       G = GPS       R = GLONASS       C = COMPASS          COMMENT
       S = SBAS      J = QZSS          E = GALILEO          COMMENT
BEAN                                                        MARKER NAME
1                                                           MARKER NUMBER
GEODETIC                                                    MARKER TYPE
Unige DICCA         GTER                                    OBSERVER / AGENCY
SC60291900056       SC600               2.12(191202)        REC # / TYPE / VERS
                    HEMA45          NONE                    ANT # / TYPE
  4509407.8091   693652.4678  4442337.6214                  APPROX POSITION XYZ
        0.0000        0.0000        0.0000                  ANTENNA: DELTA H/E/N
G    8 C1C L1C D1C S1C C2Y L2Y D2Y S2Y                      SYS / # / OBS TYPES
R    8 C1C L1C D1C S1C C2P L2P D2P S2P                      SYS / # / OBS TYPES
C    4 C1I L1I D1I S1I                                      SYS / # / OBS TYPES
E    8 C1C L1C D1C S1C C7Q L7Q D7Q S7Q                      SYS / # / OBS TYPES
DBHZ                                                        COMMENT
     30.000                                                 INTERVAL
  2020    05    17    22    00    0.0000000     GPS         TIME OF FIRST OBS
  2020    05    17    22    59   30.0000000     GPS         TIME OF LAST OBS
     0                                                      RCV CLOCK OFFS APPL
G L1C  0.00000                                              SYS / PHASE SHIFT
G L2Y  0.00000                                              SYS / PHASE SHIFT
R L1C  0.00000                                              SYS / PHASE SHIFT
R L2P  0.25000                                              SYS / PHASE SHIFT
C L1I  0.00000                                              SYS / PHASE SHIFT
E L1C  0.50000                                              SYS / PHASE SHIFT
E L7Q -0.25000                                              SYS / PHASE SHIFT
 11 R01  1 R02 -4 R07  5 R08  6 R09 -2 R10 -5 R11  0 R16 -1 GLONASS SLOT / FRQ #
    R21  4 R22 -3 R23  3                                    GLONASS SLOT / FRQ #
 C1C   71.950 C2C   71.950 C2P   71.950                     GLONASS COD/PHS/BIS
    18                                                      LEAP SECONDS
*** Above antenna height is from mark to ANTENNA BOTTOM.    COMMENT
    17     4        0.0000        ANT MEASURE TYPE/HEIGT    COMMENT
    0.0000    0.0000    0.0458    0.0405    0.0000          COMMENT
                    BASE STATION                            COMMENT
                                                            END OF HEADER
> 2020 05 17 22 00  0.0000000  0 17        .000000000000
G01  23613881.445 7 124091779.691 7     -3561.242          47.000    23613884.797 7  96694897.139 7     -2774.994          47.000
G03  21138680.055 7 111084536.457 7     -1657.859          44.000    21138681.586 7  86559381.871 7     -1291.838          45.000
G04  20255941.055 8 106445815.433 8       150.242          51.000    20255941.164 8  82944756.273 8       117.072          51.000
G09  21426011.852 8 112594509.124 8      2361.605          51.000    21426012.891 8  87736005.697 8      1840.212          51.000
G17  22701490.484 8 119297088.740 8     -1954.645          48.000    22701487.906 8  92958788.643 8     -1523.100          48.000
G19  22331122.609 6 117350820.938 6     -1136.176          36.000    22331133.383 5  91442256.901 5      -885.332          30.000
G22  23064790.539 5 121206293.374 5     -2464.359          30.000
R02  23493335.891 5 125364944.824 5      3169.527          33.000    23493344.656 4  97506076.803 4      2465.188          29.000
R08  20400735.586 6 109245081.641 6     -2107.113          37.000    20400736.508 5  84968358.839 5     -1638.869          35.000
R09  22669297.633 6 121052680.237 6       255.617          38.000    22669301.047 4  94152135.203 4       198.816          27.000
R23  20295502.125 8 108567263.293 8     -3075.055          51.000    20295505.625 6  84441211.609 6     -2391.712          41.000
R24  19808092.344 6 105922824.904 6       217.133          38.000    19808090.797 4  82384354.645 4       168.884          28.000
C19  22122618.969 8 115198254.585 8     -1312.473          49.000
E03  23509585.555 8 123543713.318 8      -747.754          51.000    23509587.484 8  94663408.441 8      -572.969          51.000
E05  26801406.148 5 140842356.432 5     -2474.344          35.000    26801407.930 5 107918179.241 5     -1895.980          33.000
E08  22696937.875 8 119273210.120 8      1683.676          51.000    22696937.367 8  91391305.166 8      1290.044          51.000
E15  23589366.695 8 123962970.709 8     -1478.559          51.000    23589370.156 8  94984616.533 8     -1132.919          51.000
> 2020 05 17 22 00 30.0000000  0 15        .000000000000
G01  23634244.008 7 124198787.783 7     -3570.605          46.000    23634247.227 7  96778280.094 7     -2782.290          46.000
G03  21148184.484 6 111134484.266 6     -1670.277          40.000    21148186.188 6  86598302.215 6     -1301.518          41.000
G04  20255146.336 8 106441639.494 8       129.957          51.000    20255146.484 8  82941502.292 8       101.265          51.000
G09  21412581.516 8 112523932.358 8      2345.391          51.000    21412583.094 8  87681010.828 8      1827.577          51.000
G17  22712704.062 8 119356016.734 8     -1971.930          48.000    22712702.141 8  93004706.571 8     -1536.569          48.000
R02  23475543.789 5 125270003.759 5      3161.625          34.000    23475555.117 4  97432233.779 4      2459.048          28.000
R08  20412579.969 5 109308498.025 5     -2118.148          34.000    20412580.484 5  85017682.616 5     -1647.452          35.000
R09  22667945.945 6 121045464.815 6       226.816          38.000    22667948.812 4  94146523.207 4       176.416          28.000
R23  20312821.430 8 108659905.838 8     -3099.082          51.000    20312824.969 7  84513266.906 7     -2410.397          42.000
R24  19806968.242 5 105916811.705 5       185.570          34.000    19806964.484 4  82379677.800 4       144.339          29.000
C19  22130214.352 8 115237805.406 8     -1322.344          49.000
E03  23513892.383 8 123566344.755 8      -759.117          51.000    23513894.227 8  94680749.408 8      -581.646          51.000
E05  26815552.219 5 140916677.731 5     -2478.625          35.000    26815552.602 5 107975117.926 5     -1899.745          34.000
E08  22687362.383 8 119222890.361 8      1672.898          50.000    22687362.578 8  91352748.487 8      1281.813          51.000
E15  23597859.898 8 124007601.241 8     -1494.891          51.000    23597863.328 8  95018813.957 8     -1145.412          51.000
> 2020 05 17 22 01  0.0000000  0 16        .000000000000
G01  23654627.383 7 124305905.177 7     -3572.809          45.000    23654630.484 7  96861748.192 7     -2784.007          45.000
G03  21157725.023 6 111184621.277 6     -1674.793          41.000    21157726.891 6  86637369.968 6     -1305.030          41.000
G04  20254433.836 8 106437895.754 8       117.184          51.000    20254434.070 8  82938585.088 8        91.312          51.000
G09  21399209.914 8 112453665.062 8      2336.648          51.000    21399211.719 8  87626257.101 8      1820.765          51.000
G17  22723983.180 8 119415290.558 8     -1982.016          48.000    22723982.453 8  93050893.958 8     -1544.425          48.000
G19  22344339.688 5 117420312.172 5     -1176.246          31.000
R02  23457766.664 5 125175140.357 5      3160.750          32.000    23457781.977 5  97358451.168 5      2458.370          30.000
R08  20424454.078 5 109372085.543 5     -2122.582          33.000    20424455.805 5  85067139.642 5     -1650.894          35.000
R09  22666721.086 5 121038928.494 5       206.020          35.000    22666725.672 4  94141439.388 4       160.237          29.000
R23  20330241.406 8 108753088.945 8     -3115.418          51.000    20330245.086 7  84585742.646 7     -2423.103          42.000
R24  19805984.828 5 105911500.617 5       161.879          32.000    19805983.539 4  82375601.546 4       125.906          27.000
C19  22137833.047 8 115277477.855 8     -1324.898          49.000
E03  23518229.820 8 123589137.694 8      -762.828          51.000    23518231.773 8  94698214.121 8      -584.553          51.000
E05  26829691.688 5 140990974.347 5     -2475.977          34.000    26829692.359 6 108032046.494 6     -1897.749          36.000
E08  22677814.633 8 119172718.115 8      1669.480          49.000    22677815.930 8  91314304.848 8      1279.173          51.000
E15  23606412.633 8 124052543.903 8     -1503.781          51.000    23606415.508 8  95053250.570 8     -1152.269          51.000
> 2020 05 17 22 01 30.0000000  0 16        .000000000000
G01  23675044.531 7 124413198.172 7     -3579.781          46.000    23675047.422 7  96945353.124 7     -2789.440          46.000
G03  21167314.352 5 111235015.235 5     -1685.449          35.000    21167316.547 6  86676638.035 6     -1313.337          36.000
G04  20253816.500 8 106434651.793 8        99.418          51.000    20253817.070 8  82936057.340 8        77.469          51.000
G09  21385910.234 8 112383776.552 8      2322.902          51.000    21385911.492 8  87571798.542 8      1810.054          51.000
G17  22735340.875 8 119474976.281 8     -1996.766          48.000    22735340.734 8  93097402.290 8     -1555.924          48.000
G19  22351109.562 4 117455861.620 4     -1196.844          29.000
R02  23440016.500 6 125080424.077 6      3154.406          39.000    23440030.453 5  97284783.071 5      2453.430          32.000
R08  20436371.594 5 109435912.170 5     -2132.098          34.000    20436375.055 5  85116782.502 5     -1658.301          35.000
R09  22665637.023 5 121033141.100 5       179.688          32.000    22665642.617 5  94136938.019 5       139.751          32.000
R23  20347773.984 8 108846878.147 8     -3136.809          50.000    20347778.367 6  84658689.813 6     -2439.740          41.000
R24  19805158.219 5 105907081.563 5       133.094          33.000    19805156.195 4  82372166.489 4       103.517          27.000
C19  22145487.969 8 115317338.950 8     -1332.309          48.000
E03  23522610.617 8 123612159.506 8      -771.539          51.000    23522612.820 8  94715854.208 8      -591.188          51.000
E05  26843836.562 5 141065313.780 5     -2478.328          30.000    26843838.828 6 108088998.615 6     -1899.086          37.000
E08  22668307.461 8 119122761.724 8      1661.246          49.000    22668310.320 8  91276026.591 8      1272.858          51.000
E15  23615037.609 8 124097866.249 8     -1517.457          51.000    23615039.945 8  95087978.103 8     -1162.727          51.000
> 2020 05 17 22 02  0.0000000  0 16        .000000000000
G01  23695491.930 7 124520649.630 7     -3589.344          46.000    23695494.430 7  97029081.539 7     -2796.891          46.000
G03  21176949.430 5 111285650.450 5     -1696.680          34.000    21176952.117 5  86716094.027 5     -1322.088          35.000
G04  20253291.234 8 106431891.611 8        78.852          51.000    20253291.938 8  82933906.561 8        61.443          51.000
G09  21372679.914 8 112314252.525 8      2306.418          50.000    21372680.352 8  87517624.023 8      1797.209          50.000
G17  22746773.797 8 119535056.306 8     -2014.078          48.000    22746773.062 8  93144217.858 8     -1569.412          49.000
R02  23422291.164 6 124985839.723 6      3145.359          38.000    23422302.617 5  97211217.552 5      2446.394          31.000
R08  20448332.594 5 109499960.118 5     -2143.980          34.000    20448335.430 5  85166597.560 5     -1667.543          35.000
R09  22664691.297 6 121028088.418 6       151.367          36.000    22664696.133 5  94133008.021 5       117.727          34.000
R23  20365415.328 8 108941254.232 8     -3160.824          50.000    20365420.945 6  84732093.491 6     -2458.419          40.000
R24  19804484.289 5 105903479.573 5       101.230          35.000    19804484.031 5  82369363.960 5        78.735          31.000
C19  22153176.156 8 115357372.984 8     -1342.348          48.000
C22  22537122.836 5 117356716.203 5      1250.910          31.000
E03  23527031.945 8 123635393.973 8      -783.152          51.000    23527034.141 8  94733657.227 8      -600.117          51.000
E05                                                                  26857988.031 6 108145961.992 6     -1902.992          38.000
E08  22658838.523 8 119073005.903 8      1650.141          48.000    22658842.523 8  91237902.016 8      1264.265          51.000
E15  23623731.695 8 124143552.270 8     -1534.070          51.000    23623733.703 8  95122984.279 8     -1175.421          51.000
> 2020 05 17 22 02 30.0000000  0 18        .000000000000
G01  23715978.719 7 124628307.124 7     -3589.137          47.000    23715979.992 7  97112970.479 7     -2796.730          47.000
G03  21186640.039 5 111336576.028 5     -1699.648          31.000    21186642.969 5  86755776.350 5     -1324.401          30.000
G04  20252867.312 8 106429663.954 8        68.242          51.000    20252867.914 8  82932170.732 8        53.176          51.000
G09  21359528.961 8 112245143.505 8      2299.543          51.000    21359529.461 8  87463772.865 8      1791.852          51.000
G17  22758290.633 8 119595577.595 8     -2021.871          49.000    22758288.953 8  93191377.258 8     -1575.484          49.000
G19  22364997.273 5 117528829.648 5     -1233.266          30.000
G22  23135540.383 4 121578047.408 4     -2488.758          29.000
R02  23404601.742 5 124891438.775 5      3146.062          32.000    23404613.062 5  97137794.554 5      2446.938          30.000
R08  20460346.953 5 109564278.710 5     -2145.609          34.000    20460346.336 5  85216623.073 5     -1668.807          34.000
R09  22663892.805 6 121023821.122 6       131.840          40.000    22663895.883 5  94129688.988 5       102.545          34.000
R23  20383175.695 8 109036263.984 8     -3174.602          51.000    20383181.945 6  84805989.996 6     -2469.135          39.000
R24  19803971.578 5 105900745.666 5        79.016          31.000    19803973.875 5  82367237.582 5        61.454          30.000
C19  22160906.859 8 115397628.288 8     -1342.605          48.000
C22  22529904.734 5 117319201.843 5      1248.859          33.000
E03  23531503.125 8 123658889.647 8      -784.824          51.000    23531505.023 8  94751660.392 8      -601.338          51.000
E05                                                                  26872148.516 6 108202973.846 6     -1899.170          38.000
E08  22649417.742 8 119023500.116 8      1648.719          49.000    22649422.008 8  91199969.011 8      1263.334          51.000
E15  23632504.133 8 124189650.711 8     -1540.812          51.000    23632505.992 8  95158306.444 8     -1180.545          51.000
> 2020 05 17 22 03  0.0000000  0 16        .000000000000
G01  23736492.906 7 124736107.411 7     -3595.449          47.000    23736492.516 7  97196970.662 7     -2801.652          47.000
G04  20252532.953 8 106427906.845 8        50.984          51.000    20252533.742 8  82930801.574 8        39.731          51.000
G09  21346445.914 8 112176389.094 8      2286.160          51.000    21346446.719 8  87410198.023 8      1781.423          51.000
G17  22769879.133 8 119656476.289 8     -2035.957          49.000    22769877.383 8  93238830.784 8     -1586.460          49.000
G19  22372108.109 5 117566214.550 5     -1254.105          32.000
R02  23386934.172 5 124797158.783 5      3141.320          31.000    23386944.750 4  97064465.758 4      2443.252          27.000
R08  20472397.578 5 109628803.081 5     -2153.988          30.000    20472395.695 5  85266808.693 5     -1675.327          34.000
R09  22663229.039 6 121020277.644 6       106.441          39.000    22663232.680 5  94126932.999 5        82.788          30.000
R23  20401043.164 8 109131841.455 8     -3195.090          51.000    20401048.945 6  84880328.010 6     -2485.073          38.000
R24  19803609.812 5 105898817.916 5        50.953          35.000    19803613.891 5  82365738.227 5        39.633          33.000
C19  22168668.203 8 115438043.578 8     -1349.551          48.000
C22  22522735.125 6 117281878.093 6      1241.258          37.000
E03  23536012.156 8 123682584.328 8      -792.758          51.000    23536013.836 8  94769816.053 8      -607.447          51.000
E05                                                                  26886308.195 6 108259986.669 6     -1900.248          38.000
E08  22640033.312 8 118974183.086 8      1641.031          50.000    22640037.062 8  91162180.653 8      1257.443          51.000
E15  23641343.125 8 124236099.536 8     -1553.812          51.000    23641344.727 8  95193897.070 8     -1190.629          51.000
> 2020 05 17 22 03 30.0000000  0 17        .000000000000
G01  23757038.641 7 124844073.503 7     -3605.391          46.000    23757038.102 7  97281100.005 7     -2809.395          46.000
G03  21206163.430 5 111439164.661 5     -1727.348          30.000
G04  20252292.734 8 106426644.451 8        30.035          50.000    20252293.727 8  82929817.907 8        23.404          50.000
G09  21333435.195 8 112108015.240 8      2268.922          51.000    21333436.242 8  87356919.715 8      1767.994          51.000
G17  22781543.664 8 119717774.387 8     -2053.664          50.000    22781542.516 8  93286595.551 8     -1600.258          50.000
G19  22379327.141 5 117604153.309 5     -1278.215          35.000
G31  24234809.695 5 127354811.948 5     -2415.059          32.000    24234808.266 5  99237488.487 5     -1881.864          32.000
R08  20484489.906 5 109693557.731 5     -2166.109          32.000    20484488.695 5  85317173.480 5     -1684.752          33.000
R09  22662705.062 6 121017484.011 6        76.617          36.000    22662709.523 4  94124760.181 4        59.591          28.000
R23  20419021.047 8 109228007.965 8     -3219.207          51.000    20419025.562 6  84955124.108 6     -2503.831          37.000
R24  19803404.828 6 105897722.133 6        18.676          36.000    19803409.891 5  82364885.886 5        14.529          32.000
C19  22176464.898 7 115478642.938 7     -1360.055          47.000
C22  22515608.625 5 117244769.575 5      1229.680          33.000
E03  23540563.750 8 123706502.067 8      -804.781          51.000    23540565.352 8  94788142.636 8      -616.689          51.000
E05  26900466.133 5 141362912.971 5     -2485.273          35.000    26900472.164 6 108317018.929 6     -1904.465          36.000
E08  22630689.586 8 118925079.788 8      1629.402          50.000    22630692.641 8  91124556.070 8      1248.440          50.000
E15  23650253.203 8 124282922.910 8     -1570.953          51.000    23650254.039 8  95229774.683 8     -1203.625          50.000
> 2020 05 17 22 04  0.0000000  0 17        .000000000000
G01  23777619.867 7 124952227.665 7     -3607.934          46.000    23777621.039 7  97365375.927 7     -2811.377          46.000
G03  21215992.734 6 111490789.732 6     -1727.203          36.000    21215994.484 6  86875939.933 6     -1345.876          37.000
G04  20252151.008 8 106425900.183 8        16.438          50.000    20252151.953 8  82929237.958 8        12.808          50.000
G09  21320501.133 8 112040047.140 8      2259.117          51.000    21320502.523 8  87303957.573 8      1760.354          51.000
G17  22793288.398 8 119779493.903 8     -2064.094          50.000    22793288.320 8  93334688.631 8     -1608.388          50.000
G19  22386662.062 5 117642698.391 5     -1294.066          31.000
G31  24248622.531 5 127427398.654 5     -2426.766          32.000    24248622.922 5  99294050.533 5     -1890.983          32.000
R08  20496627.812 5 109758565.426 5     -2171.133          32.000    20496629.039 5  85367735.051 5     -1688.659          31.000
R09  22662326.891 6 121015465.337 6        54.812          36.000    22662330.516 4  94123232.048 4        42.632          28.000
R23  20437112.695 8 109324784.364 8     -3235.715          51.000    20437116.289 6  85030394.555 6     -2516.670          38.000
R24  19803360.688 6 105897483.007 6        -6.137          39.000    19803363.336 4  82364699.986 4        -4.773          29.000
C19  22184301.242 7 115519449.805 7     -1363.301          47.000
C22  22508528.789 5 117207900.255 5      1224.922          31.000
E03  23545162.297 8 123730666.096 8      -809.262          51.000    23545163.898 8  94806657.931 8      -620.081          51.000
E05  26914641.492 6 141437393.736 6     -2483.039          36.000    26914645.055 5 108374088.537 5     -1902.762          34.000
E08  22621391.375 8 118876214.388 8      1625.227          51.000    22621393.367 8  91087113.777 8      1245.274          49.000
E15  23659238.914 8 124330144.248 8     -1580.355          51.000    23659238.430 8  95265957.222 8     -1210.904          49.000
> 2020 05 17 22 04 30.0000000  0 17        .000000000000
G01  23798242.383 7 125060601.948 7     -3613.254          44.000    23798245.711 7  97449823.427 7     -2815.523          44.000
G03  21225887.148 6 111542784.292 6     -1735.438          39.000    21225888.500 6  86916455.219 6     -1352.286          39.000
G04  20252114.336 8 106425707.220 8          .266          50.000    20252115.102 8  82929087.603 8          .210          50.000
G09  21307650.484 8 111972519.652 8      2246.609          50.000    21307652.242 8  87251338.760 8      1750.605          50.000
G17  22805119.359 8 119841666.241 8     -2076.836          50.000    22805119.430 8  93383134.578 8     -1618.314          50.000
G22  23192649.859 4 121878188.481 4     -2510.230          28.000
G31  24262531.078 5 127500485.821 5     -2441.426          33.000    24262530.539 5  99351001.528 5     -1902.410          32.000
R08  20508820.938 5 109823858.989 5     -2178.547          33.000    20508820.422 4  85418518.860 4     -1694.425          27.000
R09  22662100.781 6 121014256.924 6        30.215          37.000    22662104.797 5  94122292.113 5        23.500          31.000
R23  20455323.406 8 109422201.289 8     -3254.801          50.000    20455327.438 6  85106163.254 6     -2531.512          39.000
R24  19803484.141 6 105898135.751 6       -33.438          41.000    19803483.953 4  82365207.654 4       -26.007          26.000
C19  22192183.438 7 115560497.180 7     -1369.316          45.000
C22  22501500.977 5 117171303.694 5      1218.340          34.000
E03  23549813.859 8 123755109.465 8      -816.387          51.000    23549815.570 8  94825387.263 8      -625.549          51.000
E05  26928831.938 6 141511956.385 6     -2483.543          36.000    26928832.469 5 108431220.921 5     -1902.576          31.000
E08  22612145.188 8 118827620.827 8      1618.316          51.000    22612145.969 8  91049879.780 8      1240.051          48.000
E15  23668306.609 8 124377796.710 8     -1592.496          51.000    23668305.438 8  95302470.112 8     -1220.299          50.000
> 2020 05 17 22 05  0.0000000  0 16        .000000000000
G01  23818886.469 7 125169092.343 7     -3619.285          43.000    23818891.727 7  97534361.425 7     -2820.222          43.000
G03  21235821.836 7 111594986.832 7     -1744.367          42.000    21235822.195 7  86957132.484 7     -1359.247          43.000
G04  20252163.062 8 106425962.713 8       -16.992          51.000    20252163.875 8  82929286.720 8       -13.241          51.000
G09  21294864.680 8 111905331.678 8      2232.867          51.000    21294866.750 8  87198984.530 8      1739.900          51.000
G17  22817016.586 8 119904186.665 8     -2090.816          50.000    22817016.477 8  93431851.768 8     -1629.208          50.000
G31  24276515.117 5 127573968.960 5     -2457.344          33.000    24276513.555 5  99408261.001 5     -1914.813          33.000
R08  20521049.156 5 109889333.022 5     -2186.453          30.000    20521047.289 4  85469443.045 4     -1700.575          26.000
R09  22662007.055 5 121013755.353 5         3.863          33.000    22662010.719 5  94121902.142 5         3.011          34.000
R23  20473633.430 8 109520151.358 8     -3274.969          50.000    20473638.797 6  85182346.643 6     -2547.198          41.000
R24  19803754.938 6 105899576.807 6       -62.285          40.000    19803753.188 4  82366335.449 4       -48.444          28.000
C19  22200092.398 7 115601683.333 7     -1376.277          45.000
C22  22494506.391 5 117134795.816 5      1209.848          32.000
E03  23554498.922 8 123779729.252 8      -824.605          51.000    23554500.773 8  94844251.774 8      -631.853          51.000
E05  26943017.828 5 141586513.165 5     -2486.238          33.000    26943015.578 5 108488360.386 5     -1904.444          31.000
E08  22602931.266 8 118779197.094 8      1610.211          51.000    22602931.281 8  91012775.918 8      1233.813          49.000
E15  23677436.891 8 124425777.475 8     -1605.934          51.000    23677435.906 8  95339234.567 8     -1230.476          51.000
> 2020 05 17 22 05 30.0000000  0 19        .000000000000
G01  23839557.625 7 125277723.404 7     -3618.926          43.000    23839563.773 7  97619009.033 7     -2819.942          43.000
G03  21245800.516 6 111647423.277 6     -1747.590          41.000    21245800.242 6  86997992.060 6     -1361.761          41.000
G04  20252301.977 8 106426692.270 8       -27.828          51.000    20252302.742 8  82929855.230 8       -21.684          51.000
G09  21282149.062 8 111838510.574 8      2225.574          50.000    21282151.211 8  87146916.170 8      1734.214          50.000
G17  22828984.531 8 119967079.145 8     -2098.336          49.000    22828984.297 8  93480858.913 8     -1635.067          50.000
G19  22409342.727 5 117761871.939 5     -1347.789          33.000    22409326.305 5  91762439.958 5     -1050.225          32.000
G22  23221380.898 4 122029176.656 4     -2516.578          29.000
G31  24290578.633 5 127647871.956 5     -2466.020          32.000    24290576.734 5  99465847.699 5     -1921.574          32.000
R02  23299060.102 5 124328155.110 5      3119.195          35.000    23299039.078 4  96699673.433 4      2426.047          26.000
R08  20533314.719 5 109955012.372 5     -2187.805          32.000    20533313.562 4  85520527.030 4     -1701.623          24.000
R09  22662050.773 5 121013987.763 5       -15.715          33.000    22662053.516 6  94122082.972 6       -12.223          38.000
R23  20492048.242 8 109618657.783 8     -3288.332          51.000    20492053.953 6  85258962.770 6     -2557.589          40.000
R24  19804177.242 6 105901833.410 6       -84.492          39.000    19804181.406 5  82368090.461 5       -65.719          30.000
C19  22208033.188 7 115643033.868 7     -1376.781          44.000
C22  22487550.664 5 117098568.764 5      1208.918          32.000
E03  23559222.391 8 123804550.953 8      -826.410          51.000    23559224.375 8  94863270.991 8      -633.235          51.000
E05                                                                  26957200.125 5 108545474.365 5     -1900.679          30.000
E08  22593754.195 8 118730969.583 8      1608.699          51.000    22593754.227 8  90975822.381 8      1232.628          49.000
E15  23686634.469 8 124474112.106 8     -1612.734          51.000    23686634.570 8  95376270.193 8     -1235.690          51.000
> 2020 05 17 22 06  0.0000000  0 18        .000000000000
G01  23860261.789 7 125386524.880 7     -3631.273          44.000    23860267.867 7  97703789.424 7     -2829.564          44.000
G03  21255829.508 7 111700124.889 7     -1762.727          43.000    21255828.680 7  87039058.247 7     -1373.553          43.000
G04  20252536.961 8 106427926.744 8       -51.266          51.000    20252537.375 8  82930817.176 8       -39.944          51.000
G09  21269509.469 8 111772088.948 8      2205.742          50.000    21269511.445 8  87095159.092 8      1718.760          50.000
G17  22841028.766 8 120030373.058 8     -2118.180          50.000    22841028.797 8  93530178.846 8     -1650.530          50.000
G19  22417119.469 5 117802737.220 5     -1374.211          34.000
G31  24304727.469 4 127722204.292 4     -2486.965          29.000    24304726.469 4  99523784.589 4     -1937.901          28.000
R02  23281555.164 6 124234800.111 6      3107.453          36.000
R08  20545623.289 5 110020928.145 5     -2203.199          31.000
R09  22662238.734 5 121014987.029 5       -47.480          34.000    22662239.656 6  94122860.189 6       -36.929          37.000
R23  20510572.836 8 109717748.726 8     -3314.438          51.000    20510577.750 6  85336033.512 6     -2577.896          39.000
R24  19804758.000 6 105904937.795 6      -119.418          41.000    19804758.836 4  82370504.968 4       -92.878          29.000
C19  22216011.570 7 115684579.604 7     -1389.742          43.000
C22  22480640.352 5 117062570.987 5      1194.590          34.000
E03  23563990.102 8 123829605.333 8      -840.773          51.000    23563992.117 8  94882468.493 8      -644.220          51.000
E05                                                                  26971391.031 5 108602615.561 5     -1906.530          31.000
E08  22584620.188 8 118682969.981 8      1594.547          51.000    22584620.625 8  90939043.465 8      1221.721          49.000
E15  23695904.906 8 124522831.481 8     -1632.105          51.000    23695906.742 8  95413600.637 8     -1250.586          51.000
> 2020 05 17 22 06 30.0000000  0 17        .000000000000
G01  23881001.953 7 125495513.584 7     -3635.730          45.000    23881007.773 7  97788715.685 7     -2833.037          45.000
G03  21265912.148 7 111753110.049 7     -1770.781          42.000    21265912.320 7  87080345.387 7     -1379.830          42.000
G04  20252871.352 8 106429684.086 8       -67.145          51.000    20252871.688 8  82932186.568 8       -52.317          50.000
G09  21256949.797 8 111706086.513 8      2193.203          51.000    21256951.328 8  87043728.658 8      1708.989          51.000
G17  22853152.547 8 120094084.331 8     -2130.590          50.000    22853152.945 8  93579823.973 8     -1660.203          50.000
G19  22425011.211 5 117844207.607 5     -1392.324          33.000
R02  23264085.078 6 124141628.551 6      3102.852          36.000
R08  20557979.633 5 110087097.653 5     -2209.922          35.000
R09  22662574.078 4 121016772.956 4       -72.012          29.000    22662574.227 6  94124249.154 6       -56.012          36.000
R23  20529209.758 8 109817439.870 8     -3332.820          51.000    20529212.430 6  85413571.029 6     -2592.197          37.000
R24  19805499.703 6 105908909.287 6      -146.703          39.000    19805500.695 5  82373593.902 5      -114.105          33.000
C19  22224030.914 7 115726338.620 7     -1395.512          44.000
C22  22473777.531 5 117026821.191 5      1188.062          33.000
E03  23568805.539 8 123854910.289 8      -847.492          51.000    23568807.406 8  94901857.997 8      -649.365          51.000
E05                                                                  26985593.688 5 108659801.879 5     -1906.803          32.000
E08  22575533.117 8 118635217.076 8      1587.824          50.000    22575533.727 8  90902453.583 8      1216.636          50.000
E15  23705252.023 8 124571953.574 8     -1643.914          51.000    23705255.312 8  95451239.682 8     -1259.661          51.000
> 2020 05 17 22 07  0.0000000  0 17        .000000000000
G01  23901782.742 7 125604714.764 7     -3629.531          44.000    23901788.062 7  97873807.493 7     -2828.206          45.000
G03  21276053.859 7 111806405.464 7     -1767.926          42.000    21276054.547 7  87121874.263 7     -1377.605          42.000
G04  20253310.242 8 106431990.651 8       -72.152          51.000    20253310.484 8  82933983.919 8       -56.223          50.000
G09  21244475.445 8 111640531.296 8      2191.652          51.000    21244476.531 8  86992646.702 8      1707.781          51.000
G17  22865360.586 8 120158237.634 8     -2131.801          50.000    22865361.234 8  93629813.536 8     -1661.147          50.000
G31  24333296.008 5 127872297.622 5     -2504.156          31.000    24333298.461 4  99640768.051 4     -1951.291          27.000
R02  23246680.352 5 124048691.298 5      3109.785          34.000
R08  20570388.789 5 110153547.167 5     -2205.852          30.000
R09  22663061.453 5 121019470.139 5       -86.703          33.000    22663060.453 6  94126257.404 6       -67.436          37.000
R23  20547962.945 8 109917754.451 8     -3340.078          51.000    20547963.594 6  85491593.416 6     -2597.839          38.000
R24  19806408.969 6 105913775.628 6      -163.113          39.000    19806412.453 5  82377378.818 5      -126.869          34.000
C19  22232096.703 7 115768337.228 7     -1390.191          43.000
C22  22466966.727 4 116991346.400 4      1191.355          29.000
E03  23573673.562 8 123880492.055 8      -843.375          51.000    23573675.383 8  94921459.605 8      -646.195          51.000
E05                                                                  26999813.203 5 108717051.427 5     -1898.500          33.000
E08  22566498.055 8 118587737.959 8      1592.043          50.000    22566498.523 8  90866073.524 8      1219.820          49.000
E15  23714681.414 8 124621504.730 8     -1644.910          51.000    23714685.031 8  95489207.491 8     -1260.395          51.000
> 2020 05 17 22 07 30.0000000  0 15        .000000000000
G01  23922579.547 7 125713999.682 7     -3649.359          44.000    23922584.258 7  97958964.552 7     -2843.657          43.000
G03  21286230.617 7 111859883.884 7     -1790.738          43.000    21286231.172 7  87163545.764 7     -1395.377          43.000
G04  20253829.344 8 106434718.759 8      -102.992          51.000    20253829.430 8  82936109.721 8       -80.254          51.000
G09  21232062.125 8 111575297.428 8      2163.930          51.000    21232063.242 8  86941815.130 8      1686.179          51.000
G17  22877627.891 8 120222702.907 8     -2159.172          49.000    22877628.594 8  93680046.188 8     -1682.472          49.000
R02  23229257.000 5 123955822.989 5      3089.043          35.000
R08  20582826.172 4 110220145.916 4     -2227.660          28.000
R09  22663675.227 5 121022756.183 5      -126.395          32.000    22663676.188 6  94128813.226 6       -98.304          38.000
R23  20566807.102 8 110018559.913 8     -3373.578          49.000    20566808.750 6  85569997.678 6     -2623.891          41.000
R24  19807462.742 6 105919407.954 6      -205.805          40.000    19807465.352 5  82381759.482 5      -160.070          33.000
C19  22240184.391 7 115810449.231 7     -1410.738          43.000
E03  23578569.820 8 123906222.975 8      -865.414          51.000    23578571.672 8  94941175.506 8      -663.106          51.000
E05                                                                  27014023.203 5 108774264.504 5     -1910.442          32.000
E08  22557490.523 7 118540405.903 7      1570.074          47.000    22557491.070 8  90829806.124 8      1203.038          49.000
E15  23724168.672 8 124671357.342 8     -1671.906          51.000    23724171.875 8  95527406.261 8     -1281.098          51.000
> 2020 05 17 22 08  0.0000000  0 13        .000000000000
G01  23943408.922 7 125823455.746 7     -3651.270          44.000    23943413.203 7  98044254.997 7     -2845.145          44.000
G03  21296458.875 6 111913634.319 6     -1795.781          38.000    21296459.414 6  87205429.199 6     -1399.313          40.000
G04  20254445.469 8 106437956.931 8      -116.227          51.000    20254445.531 8  82938632.992 8       -90.566          50.000
G09  21219726.812 8 111510475.172 8      2154.004          51.000    21219728.422 8  86891304.284 8      1678.445          51.000
G17  22889971.008 8 120287567.385 8     -2168.562          48.000    22889971.664 7  93730589.945 7     -1689.789          47.000
R02  23211889.344 5 123863075.247 5      3087.094          33.000    23211906.711 4  96337946.993 4      2401.073          29.000
R23  20585758.891 8 110119943.175 8     -3388.812          50.000    20585762.992 7  85648851.349 7     -2635.743          43.000
R24  19808676.914 6 105925897.209 6      -230.418          41.000    19808676.297 5  82386806.721 5      -179.211          30.000
C19  22248310.430 7 115852762.655 7     -1413.621          43.000
E03  23583511.305 8 123932191.464 8      -869.379          51.000    23583513.109 8  94961073.435 8      -666.156          51.000
E05                                                                  27028240.648 5 108831509.113 5     -1908.616          32.000
E08  22548527.156 7 118493310.219 7      1565.977          45.000    22548528.844 8  90793719.822 8      1199.958          48.000
E15  23733730.281 8 124721599.931 8     -1681.031          51.000    23733733.008 8  95565903.829 8     -1288.072          51.000
> 2020 05 17 22 08 30.0000000  0 17        .000000000000
G01  23964262.641 7 125933041.220 7     -3655.594          43.000    23964266.773 7  98129646.272 7     -2848.515          42.000
G03  21306731.312 6 111967616.583 6     -1803.695          37.000    21306731.836 6  87247493.262 6     -1405.480          36.000
G04  20255151.016 8 106441664.481 8      -131.773          51.000    20255150.953 8  82941521.995 8      -102.681          50.000
G09  21207462.234 8 111446025.570 8      2141.852          51.000    21207464.219 8  86841083.808 8      1668.975          51.000
G17  22902382.000 8 120352788.539 8     -2180.312          49.000    22902382.641 8  93781411.610 8     -1698.945          49.000
G22  23308268.359 4 122485760.836 4     -2551.688          29.000
R02  23194544.070 5 123770506.768 5      3083.441          33.000
R08  20607829.969 5 110354002.014 5     -2238.230          30.000
R09  22665332.430 5 121031561.647 5      -172.973          30.000    22665332.953 5  94135695.783 5      -134.534          34.000
R23  20604810.516 8 110221859.944 8     -3406.320          50.000    20604816.664 7  85728119.980 7     -2649.357          43.000
R24  19810043.156 7 105933202.817 7      -257.496          42.000    19810041.633 5  82392488.940 5      -200.272          33.000
C19  22256467.188 7 115895237.445 7     -1418.777          43.000
C22  22446743.328 5 116886057.199 5      1159.305          33.000
E03  23588490.406 8 123958356.845 8      -875.652          51.000    23588492.156 8  94981122.230 8      -670.984          51.000
E05                                                                  27042459.344 5 108888777.225 5     -1907.919          31.000
E08  22539601.797 7 118446411.090 7      1559.719          46.000    22539603.844 8  90757784.122 8      1195.079          48.000
E15  23743358.203 8 124772191.771 8     -1692.449          51.000    23743360.547 8  95604668.998 8     -1296.821          51.000
> 2020 05 17 22 09  0.0000000  0 17        .000000000000
G01  23985134.758 6 126042725.354 6     -3660.328          40.000    23985139.148 6  98215114.407 6     -2852.204          39.000
G03  21317043.258 6 112021801.375 6     -1812.445          38.000    21317042.844 6  87289715.123 6     -1412.295          38.000
G04  20255940.211 8 106445811.641 8      -148.227          51.000    20255940.023 8  82944753.570 8      -115.501          50.000
G09  21195263.430 8 111381920.716 8      2128.340          51.000    21195265.188 8  86791131.990 8      1658.447          51.000
G17  22914855.297 8 120418335.384 8     -2193.012          50.000    22914855.352 8  93832487.089 8     -1708.840          50.000
G19  22466089.492 5 118060066.007 5     -1485.777          32.000
G22  23322839.500 5 122562328.642 5     -2557.262          33.000
R02  23177214.367 6 123678044.098 6      3077.531          37.000    23177216.406 4  96194048.983 4      2393.635          26.000
R08  20620378.055 4 110421201.384 4     -2243.934          26.000    20620383.711 4  85883156.321 4     -1745.282          24.000
R23  20623955.953 8 110324276.601 8     -3424.926          51.000    20623962.844 7  85807777.390 7     -2663.831          43.000
R24  19811556.156 7 105941295.631 7      -285.465          42.000    19811556.219 6  82398783.328 6      -222.028          36.000
C19  22264649.406 7 115937844.492 7     -1425.086          45.000
C22  22440077.766 5 116851337.497 5      1151.629          34.000
E03  23593501.430 8 123984689.422 8      -883.184          51.000    23593503.297 8  95001299.134 8      -676.770          51.000
E05                                                                  27056671.797 5 108946005.014 5     -1909.053          31.000
E08  22530709.531 8 118399679.651 8      1552.141          48.000    22530710.305 7  90721976.945 7      1189.383          47.000
E15  23753046.602 8 124823103.214 8     -1705.117          51.000    23753048.680 8  95643679.053 8     -1306.479          51.000
> 2020 05 17 22 09 30.0000000  0 14        .000000000000
G01  24006062.539 6 126152704.212 6     -3665.727          37.000    24006067.695 6  98300812.238 6     -2856.407          38.000
G04  20256850.625 8 106450595.522 8      -164.949          51.000    20256850.172 8  82948481.281 8      -128.532          51.000
G09  21183168.156 8 111318359.389 8      2114.652          51.000    21183169.281 8  86741603.686 8      1647.784          51.000
G17  22927427.719 8 120484402.491 8     -2205.914          51.000    22927427.133 8  93883967.936 8     -1718.894          51.000
G22  23337465.672 5 122639193.030 5     -2562.211          35.000
R02  23159942.391 6 123585888.319 6      3071.469          36.000
R23  20643232.695 8 110427391.170 8     -3443.641          51.000    20643238.711 6  85887977.620 6     -2678.387          41.000
R24  19813253.781 7 105950376.953 7      -314.020          44.000    19813255.766 5  82405846.556 5      -244.234          35.000
C19  22272894.852 7 115980779.504 7     -1431.777          45.000
C22  22433480.672 5 116816983.867 5      1144.152          34.000
E03  23598581.695 8 124011386.252 8      -891.000          51.000    23598583.758 8  95021755.154 8      -682.741          51.000
E05                                                                  27070915.414 4 109003357.689 4     -1910.361          29.000
E08  22521887.031 8 118353313.911 8      1544.406          49.000    22521885.961 7  90686449.975 7      1183.340          47.000
E15  23762833.016 8 124874531.344 8     -1717.945          51.000    23762834.922 8  95683085.021 8     -1316.294          51.000
> 2020 05 17 22 10  0.0000000  0 16        .000000000000
G01  24026995.969 5 126262714.428 5     -3670.219          34.000    24027002.273 5  98386534.528 5     -2859.908          34.000
G04  20257832.172 8 106455753.827 8      -180.465          51.000    20257831.945 8  82952500.753 8      -140.622          51.000
G09  21171126.797 8 111255081.126 8      2102.266          51.000    21171127.211 8  86692295.970 8      1638.129          51.000
G17  22940048.930 8 120550726.278 8     -2217.348          50.000    22940047.836 8  93935648.775 8     -1727.803          50.000
G22  23352099.289 5 122716091.804 5     -2565.676          35.000
R02  23142678.109 4 123493763.609 4      3068.902          27.000
R08  20645624.156 5 110556422.621 5     -2259.098          31.000    20645632.148 5  85988291.916 5     -1757.070          31.000
R09  22668888.812 5 121050590.781 5      -248.520          34.000
R23  20662589.648 8 110530933.368 8     -3460.762          51.000    20662593.914 6  85968510.437 6     -2691.704          40.000
R24  19815087.297 7 105960180.545 7      -340.934          44.000    19815089.844 6  82413471.631 6      -265.171          36.000
C19  22281153.422 7 116023782.865 7     -1436.668          45.000
C22  22426901.508 5 116782737.383 5      1137.586          34.000
E03  23603681.266 8 124038185.042 8      -897.289          51.000    23603683.352 8  95042289.297 8      -687.536          51.000
E05                                                                  27085142.102 5 109060639.420 5     -1909.859          31.000
E08  22513084.047 8 118307052.384 8      1538.070          49.000    22513082.250 8  90651002.859 8      1178.450          48.000
E15  23772667.555 8 124926213.856 8     -1729.289          51.000    23772669.562 8  95722685.902 8     -1325.007          51.000
> 2020 05 17 22 10 30.0000000  0 15        .000000000000
G01  24047960.672 5 126372887.376 5     -3674.859          34.000    24047967.680 5  98472383.582 5     -2863.527          33.000
G03  21348309.047 5 112186114.166 5     -1837.141          34.000    21348309.617 5  87417746.870 5     -1431.535          35.000
G04  20258910.141 8 106461418.830 8      -196.949          51.000    20258910.188 8  82956915.063 8      -153.464          51.000
G09  21159164.781 8 111192219.906 8      2088.660          51.000    21159164.773 8  86643313.248 8      1627.530          51.000
G17  22952743.664 8 120617437.265 8     -2229.875          49.000    22952742.414 8  93987631.332 8     -1737.568          49.000
R08  20658304.641 5 110624318.171 5     -2267.137          33.000    20658314.148 5  86041099.609 5     -1763.332          33.000
R09  22670358.000 6 121058429.514 6      -274.250          36.000    22670374.844 4  94156638.880 4      -213.306          26.000
R23  20682050.477 8 110635034.927 8     -3479.121          48.000    20682053.797 6  86049478.316 6     -2705.983          40.000
R24  19817080.789 7 105970841.795 7      -369.402          44.000    19817083.094 5  82421763.705 5      -287.310          34.000
C19  22289450.328 7 116066986.087 7     -1443.078          44.000
C22  22420369.039 5 116748729.914 5      1130.051          33.000
E03  23608825.531 8 124065218.160 8      -904.688          51.000    23608827.383 8  95063002.982 8      -693.175          51.000
E05                                                                  27099375.156 5 109117954.813 5     -1910.227          33.000
E08  22504326.164 8 118261028.332 8      1530.406          49.000    22504324.461 8  90615737.695 8      1172.709          48.000
E15  23782575.461 8 124978283.108 8     -1741.805          51.000    23782577.992 8  95762583.115 8     -1334.639          51.000
> 2020 05 17 22 11  0.0000000  0 15        .000000000000
G01  24068955.219 6 126483209.258 6     -3679.730          37.000    24068961.312 6  98558348.689 6     -2867.322          36.000
G03  21358822.836 6 112241367.390 6     -1846.422          40.000    21358824.617 6  87460801.308 6     -1438.770          40.000
G04  20260082.023 8 106467577.746 8      -213.363          51.000    20260081.898 8  82961714.227 8      -166.254          50.000
G09  21147279.977 8 111129764.754 8      2075.129          51.000    21147279.906 8  86594646.917 8      1616.984          51.000
G17  22965509.062 7 120684521.197 7     -2242.500          47.000    22965508.273 7  94039904.530 7     -1747.403          46.000
R08  20671024.672 5 110692432.046 5     -2274.246          30.000    20671031.336 5  86094077.002 5     -1768.861          32.000
R09  22671969.289 5 121067035.348 5      -299.762          35.000    22671980.609 4  94163331.917 4      -233.148          26.000
R23  20701611.570 7 110739679.839 7     -3497.117          47.000    20701615.805 6  86130868.837 6     -2719.980          41.000
R24  19819232.688 7 105982348.525 7      -397.594          42.000    19819234.586 6  82430713.361 6      -309.240          36.000
C19  22297782.883 7 116110376.839 7     -1449.508          43.000
C22  22413882.195 5 116714949.872 5      1122.285          35.000
E03  23614012.031 8 124092472.855 8      -912.191          51.000    23614013.727 8  95083886.447 8      -698.931          51.000
E05                                                                  27113611.625 6 109175284.130 6     -1911.361          36.000
E08  22495611.281 8 118215229.807 8      1522.879          49.000    22495609.609 8  90580645.347 8      1166.878          48.000
E15  23792554.328 8 125030726.299 8     -1754.285          51.000    23792557.703 8  95802766.855 8     -1344.181          51.000
> 2020 05 17 22 11 30.0000000  0 16        .000000000000
G01  24089977.133 6 126593674.022 6     -3683.922          39.000    24089982.055 6  98644425.124 6     -2870.588          39.000
G03  21369385.445 7 112296874.862 7     -1854.168          43.000    21369386.602 7  87504053.967 7     -1444.803          43.000
G04  20261347.023 8 106474225.572 8      -229.461          51.000    20261346.859 8  82966894.355 8      -178.801          50.000
G09  21135471.555 8 111067712.420 8      2061.879          51.000    21135472.148 8  86546294.457 8      1606.659          51.000
G17  22978343.766 7 120751970.668 7     -2254.125          46.000    22978343.727 7  94092462.569 7     -1756.461          46.000
R02  23091085.297 5 123218465.445 5      3051.305          30.000    23091109.375 4  95836623.213 4      2373.246          27.000
R08  20683785.984 5 110760780.830 5     -2281.129          31.000    20683789.070 5  86147274.038 5     -1774.211          32.000
R09  22673723.680 5 121076403.683 5      -324.773          33.000
R23  20721273.539 8 110844860.028 8     -3514.605          48.000    20721278.477 7  86212675.663 7     -2733.582          42.000
R24  19821541.516 7 105994696.156 7      -425.184          42.000    19821542.883 5  82440317.015 5      -330.698          34.000
C19  22306150.211 7 116153950.578 7     -1455.219          42.000
C22  22407437.375 5 116681393.278 5      1114.492          32.000
E03  23619239.633 8 124119944.131 8      -919.066          51.000    23619241.539 8  95104935.876 8      -704.220          51.000
E05  27127853.992 5 142557844.001 5     -2494.457          33.000    27127852.992 6 109232629.683 6     -1911.550          38.000
E08  22486938.367 8 118169652.728 8      1515.789          48.000    22486936.578 7  90545722.654 7      1161.416          47.000
E15  23802603.531 8 125083538.456 8     -1766.289          51.000    23802607.656 8  95843233.333 8     -1353.384          51.000
> 2020 05 17 22 12  0.0000000  0 15        .000000000000
G01  24111024.977 6 126704275.031 6     -3688.941          40.000    24111028.703 6  98730607.747 6     -2874.500          39.000
G03  21379995.523 6 112352631.714 6     -1862.676          41.000    21379997.258 6  87547500.891 6     -1451.436          41.000
G04  20262704.070 8 106481356.652 8      -245.691          51.000    20262704.047 8  82972451.067 8      -191.448          50.000
G09  21123739.094 8 111006059.013 8      2048.422          51.000    21123740.602 8  86498252.857 8      1596.176          51.000
G17  22991247.078 8 120819778.875 8     -2266.211          48.000    22991247.469 8  94145300.127 8     -1765.879          48.000
R02  23073947.969 5 123127016.167 5      3045.281          30.000    23073973.555 4  95765496.111 4      2368.555          26.000
R09  22675619.922 4 121086544.435 4      -349.906          29.000    22675622.867 4  94178427.785 4      -272.146          28.000
R23  20741034.711 8 110950566.742 8     -3532.316          50.000    20741039.992 7  86294891.980 7     -2747.357          43.000
R24  19824006.391 6 106007879.776 6      -453.348          40.000    19824006.914 5  82450570.921 5      -352.607          35.000
C19  22314551.578 6 116197702.211 6     -1461.281          41.000
C22  22401032.266 4 116648054.485 4      1107.645          27.000
E03  23624507.320 8 124147626.503 8      -926.215          51.000    23624509.547 8  95126147.046 8      -709.697          51.000
E05  27142096.398 5 142632700.765 5     -2495.297          34.000    27142097.609 6 109289987.368 6     -1912.109          40.000
E08  22478305.859 7 118124292.460 7      1508.250          45.000    22478304.656 7  90510966.073 7      1155.735          46.000
E15  23812722.438 8 125136714.022 8     -1778.613          51.000    23812726.758 8  95883978.260 8     -1362.819          51.000
> 2020 05 17 22 12 30.0000000  0 15        .000000000000
G01  24132100.570 6 126815025.181 6     -3692.926          38.000    24132103.789 6  98816906.593 6     -2877.601          38.000
G03  21390655.594 7 112408652.255 7     -1870.703          42.000    21390657.797 7  87591153.255 7     -1457.691          42.000
G04  20264155.609 8 106488984.821 8      -261.445          51.000    20264155.305 8  82978395.125 8      -203.721          49.000
G09  21112085.719 8 110944820.108 8      2035.613          51.000    21112087.633 8  86450534.256 8      1586.192          51.000
G17  23004221.250 8 120887957.597 8     -2277.633          50.000    23004221.703 8  94198426.404 8     -1774.779          50.000
G31  24496125.859 4 128728009.977 4     -2668.977          29.000
R02  23056835.234 4 123035689.334 4      3040.832          27.000    23056858.656 4  95694427.277 4      2365.101          27.000
R23  20760896.523 8 111056810.940 8     -3549.160          51.000    20760901.984 7  86377526.342 7     -2760.458          42.000
R24  19826630.570 6 106021914.144 6      -480.891          40.000    19826631.719 6  82461486.514 6      -374.029          37.000
C19  22322989.961 7 116241645.818 7     -1466.934          42.000
C22  22394674.891 5 116614947.028 5      1100.664          34.000
E03  23629817.836 8 124175533.846 8      -932.781          51.000    23629820.227 8  95147530.585 8      -714.764          51.000
E05  27156344.477 5 142707552.567 5     -2495.883          33.000    27156347.930 6 109347368.109 6     -1911.987          40.000
E08  22469716.945 7 118079163.676 7      1501.648          44.000    22469716.641 7  90476386.886 7      1150.611          46.000
E15  23822913.672 8 125190266.849 8     -1790.215          51.000    23822917.625 8  95925012.261 8     -1371.702          51.000
> 2020 05 17 22 13  0.0000000  0 15        .000000000000
G01  24153196.211 6 126925882.274 6     -3697.855          38.000    24153199.305 6  98903288.793 6     -2881.443          38.000
G03  21401358.008 6 112464895.863 6     -1879.090          41.000    21401359.953 6  87634979.453 6     -1464.226          41.000
G04  20265693.945 8 106497068.887 8      -277.762          51.000    20265693.242 8  82984694.403 8      -216.438          50.000
G09  21100503.758 8 110883956.362 8      2021.914          51.000    21100505.656 8  86403107.986 8      1575.517          51.000
G17  23017257.773 8 120956463.943 8     -2289.762          50.000    23017258.109 8  94251807.953 8     -1784.230          50.000
G22  23440527.453 5 123180792.273 5     -2596.320          35.000
R02  23039754.609 5 122944554.110 5      3034.410          31.000
R23  20780850.312 8 111163547.619 8     -3566.754          51.000    20780855.523 7  86460543.745 7     -2774.142          42.000
R24  19829405.398 6 106036757.812 6      -508.934          38.000    19829408.281 6  82473031.630 6      -395.837          37.000
C19  22331457.930 7 116285741.084 7     -1472.945          44.000
C22  22388355.969 6 116582036.332 6      1093.223          38.000
E03  23635163.367 8 124203625.097 8      -940.145          51.000    23635165.750 8  95169055.044 8      -720.403          51.000
E05                                                                  27170596.688 6 109404740.501 6     -1912.621          41.000
E08  22461165.172 7 118034226.192 7      1494.059          43.000    22461165.312 7  90441954.316 7      1144.738          47.000
E15  23833168.945 8 125244155.798 8     -1802.574          51.000    23833172.297 8  95966303.803 8     -1381.229          51.000
> 2020 05 17 22 13 30.0000000  0 17        .000000000000
G01  24174304.117 6 127036805.547 6     -3697.973          38.000    24174307.172 6  98989722.529 6     -2881.537          38.000
G03  21412095.383 6 112521323.321 6     -1883.273          40.000    21412097.594 6  87678948.922 6     -1467.486          41.000
G04  20267311.375 8 106505569.005 8      -289.672          51.000    20267311.047 8  82991317.887 8      -225.718          51.000
G09  21088985.844 8 110823429.700 8      2012.512          51.000    21088987.430 8  86355944.356 8      1568.191          51.000
G17  23030348.641 8 121025256.314 8     -2297.352          49.000    23030348.812 8  94305412.395 8     -1790.144          49.000
G19  22546758.750 5 118484050.108 5     -1648.172          34.000
G22  23455342.141 5 123258670.580 5     -2596.855          32.000
R08  20735221.148 4 111036126.884 4     -2304.055          29.000
R09  22682151.414 4 121121394.731 4      -421.926          29.000    22682145.109 4  94205542.482 4      -328.161          25.000
R23  20800887.867 8 111270733.176 8     -3579.738          50.000    20800892.578 6  86543910.287 6     -2784.241          41.000
R24  19832324.281 7 106052370.965 7      -532.660          42.000    19832328.469 6  82485175.230 6      -414.291          37.000
C19  22339948.164 7 116329948.985 7     -1474.867          43.000
C22  22382066.984 6 116549280.909 6      1089.656          37.000
E03  23640536.289 8 124231860.488 8      -943.062          51.000    23640538.711 8  95190689.936 8      -722.606          51.000
E05  27184833.422 5 142857266.746 5     -2492.695          31.000    27184835.867 6 109462074.311 6     -1910.005          40.000
E08  22452642.938 7 117989441.030 7      1490.840          45.000    22452644.141 8  90407638.485 8      1142.281          48.000
E15  23843480.422 8 125298341.059 8     -1810.602          51.000    23843483.203 8  96007822.377 8     -1387.344          51.000
> 2020 05 17 22 14  0.0000000  0 16        .000000000000
G01  24195449.062 6 127147925.515 6     -3707.848          37.000    24195453.102 5  99076309.513 5     -2889.235          35.000
G03  21422893.062 6 112578066.727 6     -1897.176          39.000    21422895.883 6  87723164.569 6     -1478.319          40.000
G04  20269033.164 8 106514616.667 8      -311.289          51.000    20269033.008 8  82998368.018 8      -242.563          51.000
G09  21077557.586 8 110763373.364 8      1993.422          51.000    21077558.883 8  86309147.222 8      1553.316          51.000
G17  23043518.469 8 121094464.364 8     -2314.293          49.000    23043518.531 8  94359340.752 8     -1803.345          49.000
G19  22556243.242 5 118533890.601 5     -1671.742          32.000
R08  20748173.336 5 111105491.727 5     -2316.715          33.000
R09  22684611.969 5 121134569.296 5      -452.918          35.000    22684612.305 4  94215771.485 4      -352.266          29.000
R23  20821032.523 7 111378498.440 7     -3602.367          47.000    20821037.977 6  86627727.749 6     -2801.838          40.000
R24  19835413.906 7 106068887.860 7      -566.188          43.000    19835417.984 5  82498021.708 5      -440.368          35.000
C19  22348485.172 7 116374400.417 7     -1486.441          43.000
C22  22375832.461 6 116516812.054 6      1077.000          38.000
E03  23645961.641 8 124260371.657 8      -955.410          51.000    23645964.219 8  95212536.153 8      -732.103          51.000
E05  27199087.250 5 142932170.688 5     -2499.062          34.000    27199089.961 6 109519470.514 6     -1914.761          39.000
E08  22444175.414 7 117944940.745 7      1478.023          45.000    22444177.742 8  90373540.894 8      1132.532          50.000
E15  23853873.102 8 125352954.164 8     -1828.160          51.000    23853875.516 8  96049668.775 8     -1400.738          51.000
> 2020 05 17 22 14 30.0000000  0 16        .000000000000
G01  24216626.211 6 127259215.714 6     -3711.895          37.000    24216631.781 6  99163029.151 6     -2892.385          37.000
G03  21433746.289 6 112635101.110 6     -1905.527          40.000    21433748.562 6  87767606.938 6     -1484.827          40.000
G04  20270854.328 8 106524186.225 8      -327.051          51.000    20270854.047 8  83005824.826 8      -254.845          51.000
G09  21066214.398 8 110703763.513 8      1980.211          51.000    21066215.633 8  86262697.996 8      1543.022          51.000
