     3.02           OBSERVATION DATA    M (MIXED)           RINEX VERSION / TYPE
SAVERINEX           SC600               20200502 105931 LCL PGM / RUN BY / DATE
       G = GPS       R = GLONASS       C = COMPASS          COMMENT
       S = SBAS      J = QZSS          E = GALILEO          COMMENT
BEAN                                                        MARKER NAME
1                                                           MARKER NUMBER
GEODETIC                                                    MARKER TYPE
Unige DICCA         GTER                                    OBSERVER / AGENCY
SC60291900056       SC600               2.12(191226)        REC # / TYPE / VERS
                    HEMA45          NONE                    ANT # / TYPE
  4509407.8091   693652.4678  4442337.6214                  APPROX POSITION XYZ
        0.0000        0.0000        0.0000                  ANTENNA: DELTA H/E/N
G    8 C1C L1C D1C S1C C2Y L2Y D2Y S2Y                      SYS / # / OBS TYPES
R    8 C1C L1C D1C S1C C2P L2P D2P S2P                      SYS / # / OBS TYPES
C    8 C1I L1I D1I S1I C7I L7I D7I S7I                      SYS / # / OBS TYPES
E    8 C1C L1C D1C S1C C7Q L7Q D7Q S7Q                      SYS / # / OBS TYPES
DBHZ                                                        COMMENT
     30.000                                                 INTERVAL
  2020    05    02    08    00    0.0000000     GPS         TIME OF FIRST OBS
  2020    05    02    08    59   30.0000000     GPS         TIME OF LAST OBS
     0                                                      RCV CLOCK OFFS APPL
G L1C  0.00000                                              SYS / PHASE SHIFT
G L2Y  0.00000                                              SYS / PHASE SHIFT
R L1C  0.00000                                              SYS / PHASE SHIFT
R L2P  0.25000                                              SYS / PHASE SHIFT
C L1I  0.00000                                              SYS / PHASE SHIFT
C L7I  0.00000                                              SYS / PHASE SHIFT
E L1C  0.50000                                              SYS / PHASE SHIFT
E L7Q -0.25000                                              SYS / PHASE SHIFT
 12 R02 -4 R03  5 R04  6 R05  1 R10 -5 R12 -1 R13 -2 R14 -7 GLONASS SLOT / FRQ #
    R15  0 R17  4 R18 -3 R23  3                             GLONASS SLOT / FRQ #
 C1C   71.950 C2C   71.950 C2P   71.950                     GLONASS COD/PHS/BIS
    18                                                      LEAP SECONDS
*** Above antenna height is from mark to ANTENNA BOTTOM.    COMMENT
    17     4        0.0000        ANT MEASURE TYPE/HEIGT    COMMENT
    0.0000    0.0000    0.0458    0.0405    0.0000          COMMENT
                    BASE STATION                            COMMENT
                                                            END OF HEADER
> 2020 05 02 08 00  0.0000000  0 19        .000000000000
G12  21171267.758 8 111255761.345 8      2313.543          51.000    21171266.984 8  86692802.763 8      1802.761          51.000
G13  23625734.000 7 124154104.296 7     -3684.328          44.000    23625732.469 5  96743450.377 5     -2870.908          34.000
G15  22145979.961 8 116377888.773 8     -3071.672          51.000    22145978.867 8  90684070.186 8     -2393.511          51.000
G19  21561905.609 6 113308627.148 6       102.227          37.000    21561903.805 5  88292361.015 5        79.654          34.000
G24  20223277.250 7 106274028.634 7       589.043          46.000    20223279.617 7  82810947.401 7       458.995          46.000
G25  23696061.258 7 124523753.478 7      3374.059          43.000    23696064.953 7  97031489.780 7      2629.137          42.000
R05  20690171.703 8 110600834.457 8     -2745.367          51.000    20690175.555 7  86022875.641 7     -2135.289          47.000
R14  21817549.219 6 116299797.290 6     -2738.109          37.000    21817578.445 4  90455531.184 4     -2129.647          25.000
R15  19617403.055 5 104829446.366 5      -214.082          34.000    19617402.352 5  81534020.247 5      -166.508          30.000
R23  23214967.188 5 124184402.272 5     -2535.672          30.000
C05                                                                  39732539.758 6 159986472.268 6        22.959          36.000
C23  22377025.953 8 116523109.305 8     -1105.086          51.000
C25  25836792.305 4 134538957.035 4     -2593.617          27.000
C28  24926903.711 6 129800920.766 6      3168.234          37.000
E02  24994197.891 5 131345396.329 5     -1911.449          31.000    24994198.883 6 100641278.237 6     -1464.222          36.000
E07  24289581.188 7 127642626.409 7      -807.301          47.000    24289585.188 8  97804082.059 8      -618.644          51.000
E08  24116659.109 7 126733871.843 7     -2950.020          45.000    24116662.688 7  97107770.422 7     -2260.357          42.000
E27  26090597.516 6 137106998.501 6      2103.082          40.000    26090601.562 6 105055996.791 6      1611.509          36.000
E30  22173442.062 8 116522216.932 8       182.695          50.000    22173444.336 8  89283249.784 8       140.014          50.000
> 2020 05 02 08 00 30.0000000  0 18        .000000000000
G12  21158103.383 8 111186582.975 8      2301.855          51.000    21158102.477 8  86638897.550 8      1793.657          51.000
G13  23646789.750 7 124264751.169 7     -3688.934          42.000    23646787.367 5  96829668.692 5     -2874.494          31.000
G15  22163552.719 8 116470233.441 8     -3081.059          51.000    22163551.812 8  90756027.030 8     -2400.828          51.000
G19  21561391.531 6 113305929.026 6        81.578          38.000    21561390.625 5  88290258.688 5        63.586          33.000
G24  20219956.570 7 106256578.496 7       577.934          47.000    20219958.672 7  82797349.889 7       450.338          47.000
G25  23676823.461 7 124422656.025 7      3369.168          46.000    23676825.664 6  96952712.618 6      2625.329          41.000
R05  20705645.375 8 110683549.673 8     -2765.352          51.000    20705649.266 7  86087209.645 7     -2150.832          47.000
R14  21832981.422 5 116382036.512 5     -2741.051          35.000    21832979.734 4  90519389.099 4     -2131.928          28.000
R15  19618639.688 6 104836058.842 6      -223.465          37.000    19618640.805 5  81539163.336 5      -173.809          31.000
R23  23229253.680 4 124260830.003 4     -2556.348          29.000
C05                                                                  39732377.148 6 159985817.407 6        23.618          36.000
C23  22383419.766 8 116556403.142 8     -1110.973          51.000
C28  24908667.320 6 129705965.306 6      3165.816          37.000
E02                                                                  25005124.859 6 100685268.846 6     -1465.497          37.000
E07  24294237.961 8 127667094.645 8      -820.191          48.000    24294241.836 8  97822830.425 8      -628.467          51.000
E08  24133523.391 7 126822486.554 7     -2954.016          46.000    24133524.414 6  97175669.964 6     -2263.458          41.000
E27  26078612.211 6 137044004.469 6      2099.992          41.000    26078623.430 6 105007728.702 6      1609.097          38.000
E30  22172426.094 8 116516877.890 8       176.848          50.000    22172428.469 8  89279158.834 8       135.426          50.000
> 2020 05 02 08 01  0.0000000  0 19        .000000000000
G12  21144978.320 8 111117609.847 8      2284.359          51.000    21144976.141 8  86585152.294 8      1780.023          51.000
G13  23667841.156 6 124375378.182 6     -3698.938          41.000    23667837.141 5  96915871.463 5     -2882.292          30.000
G15  22181150.281 8 116562707.534 8     -3095.961          51.000    22181149.188 8  90828084.721 8     -2412.437          51.000
G19  21560969.477 6 113303712.053 6        54.527          37.000    21560969.141 4  88288531.050 4        42.492          26.000
G24  20216672.047 7 106239318.014 7       560.812          46.000    20216673.891 7  82783900.176 7       436.997          47.000
G25  23657585.688 7 124321558.868 7      3358.566          45.000    23657587.148 6  96873935.671 6      2617.068          41.000
R05  20721202.375 8 110766711.090 8     -2790.914          51.000    20721206.352 7  86151890.673 7     -2170.714          46.000
R14  21848393.469 5 116464234.270 5     -2749.477          31.000    21848399.359 4  90583306.445 4     -2138.482          28.000
R15  19619902.914 6 104842811.247 6      -238.949          38.000    19619905.367 5  81544415.104 5      -185.852          34.000
R24  21797770.273 4 116562456.952 4        65.770          28.000
C05                                                                  39732179.758 5 159985022.357 5        20.069          35.000
C20  24235669.438 4 126201498.847 4      -777.688          29.000
C23  22389819.188 8 116589725.429 8     -1122.453          51.000
C28  24890416.281 6 129610938.561 6      3157.277          36.000
E02                                                                  25016032.703 6 100729185.864 6     -1471.552          37.000
E07  24298939.055 8 127691795.677 8      -838.625          48.000    24298942.227 8  97841757.189 8      -642.559          50.000
E08  24150381.578 7 126911071.367 7     -2963.605          46.000    24150381.500 6  97243546.598 6     -2270.877          41.000
E27  26066615.500 7 136980954.245 7      2091.176          42.000    26066629.547 5 104959417.419 5      1602.332          35.000
E30  22171415.289 8 116511565.365 8       165.336          50.000    22171417.336 8  89275088.208 8       126.707          49.000
> 2020 05 02 08 01 30.0000000  0 23        .000000000000
G10  24091497.758 5 126601675.134 5      -734.594          35.000
G12  21131973.883 8 111049270.533 8      2277.543          51.000    21131971.289 8  86531900.922 8      1774.709          51.000
G13  23688968.992 6 124486411.403 6     -3698.008          39.000
G15  22198853.383 8 116655736.686 8     -3099.992          51.000    22198851.844 8  90900574.927 8     -2415.581          51.000
G17  22869702.477 5 120181082.187 5     -1705.355          35.000    22869704.852 5  93647612.107 5     -1328.848          34.000
G19  21560720.367 6 113302404.445 6        38.500          38.000    21560719.328 5  88287511.923 5        29.982          31.000
G24  20213505.078 7 106222675.550 7       554.730          47.000    20213507.023 7  82770932.023 7       432.254          47.000
G25  23638429.320 7 124220891.158 7      3358.672          43.000    23638430.578 6  96795493.335 6      2617.147          41.000
R05  20736923.438 8 110850750.027 8     -2805.480          51.000    20736927.453 7  86217254.252 7     -2182.040          46.000
R14  21863879.383 6 116546774.070 6     -2747.031          36.000
R15  19621274.477 6 104850138.264 6      -243.297          40.000    19621277.867 5  81550113.862 5      -189.231          33.000
R17  21927172.398 5 117336719.519 5      3381.418          35.000    21927177.258 5  91261917.190 5      2629.992          33.000
R24  21797470.453 5 116560874.094 5        45.582          33.000
C05                                                                  39732028.930 6 159984414.968 6        24.862          36.000
C20  24240191.188 5 126225062.635 5      -787.730          32.000
C23  22396305.430 8 116623500.021 8     -1123.184          51.000
C25  25881657.078 5 134772577.319 5     -2596.762          30.000
C28  24872232.891 6 129516267.088 6      3159.664          36.000
E02  25026999.945 5 131517780.031 5     -1917.051          35.000    25027003.086 6 100773356.637 6     -1468.490          37.000
E07  24303765.234 7 127717156.999 7      -845.980          47.000    24303767.625 8  97861189.882 8      -648.288          50.000
E08  24167314.492 7 127000052.555 7     -2962.367          45.000    24167315.234 6  97311726.914 6     -2269.791          41.000
E27  26054688.812 6 136918275.774 6      2093.613          38.000    26054703.703 5 104911391.025 5      1603.871          34.000
E30  22170490.797 8 116506706.838 8       164.723          51.000    22170492.383 8  89271365.437 8       126.165          49.000
> 2020 05 02 08 02  0.0000000  0 21        .000000000000
G10  24095737.484 5 126623955.504 5      -756.832          33.000
G12  21119009.906 8 110981145.302 8      2259.434          51.000    21119008.320 8  86478816.323 8      1760.598          51.000
G13  23710093.250 6 124597428.054 6     -3708.453          38.000    23710099.266 4  97088895.907 4     -2889.701          27.000
G15  22216581.234 8 116748897.759 8     -3115.430          50.000    22216579.656 8  90973167.923 8     -2427.611          50.000
G17  22879483.164 5 120232486.621 5     -1726.312          34.000    22879489.359 5  93687667.444 5     -1345.179          32.000
G19  21560564.680 5 113301533.189 5        11.406          30.000
G24  20210375.812 7 106206231.836 7       536.977          47.000    20210378.203 7  82758118.719 7       418.423          47.000
G25  23619274.438 7 124120233.442 7      3347.109          42.000    23619275.812 6  96717058.756 6      2608.140          41.000
R05  20752728.422 8 110935235.012 8     -2831.523          51.000    20752732.461 7  86282964.759 7     -2202.296          47.000
R14  21879358.109 5 116629254.309 5     -2756.469          34.000    21879365.820 5  90711666.849 5     -2143.932          32.000
R15  19622673.297 6 104857611.576 6      -259.070          39.000    19622676.602 5  81555926.426 5      -201.499          30.000
R24  21797285.438 5 116559902.062 5        13.938          34.000
C05                                                                  39731844.555 6 159983672.953 6        21.241          36.000
C23  22402798.359 8 116657309.827 8     -1135.328          51.000
C25  25896618.961 5 134850483.983 5     -2602.414          30.000
C28  24854040.305 6 129421536.407 6      3151.062          37.000
E02  25037964.086 5 131575388.434 5     -1924.809          34.000
E07  24308635.977 7 127742757.495 7      -865.207          47.000    24308638.422 8  97880805.811 8      -662.894          49.000
E08  24184241.812 7 127089007.679 7     -2972.434          44.000    24184244.289 6  97379887.296 6     -2277.690          40.000
E27  26042750.594 5 136855548.471 5      2083.785          35.000    26042749.961 5 104863362.047 5      1597.089          33.000
E30  22169572.461 8 116501881.163 8       152.520          51.000    22169573.984 8  89267667.824 8       116.812          50.000
> 2020 05 02 08 02 30.0000000  0 17        .000000000000
G12  21106143.250 8 110913531.135 8      2244.613          51.000    21106142.375 8  86426129.942 8      1749.049          51.000
G13  23731271.055 6 124708722.233 6     -3714.758          36.000    23731277.531 5  97175618.519 5     -2894.623          34.000
G15  22234389.852 8 116842484.368 8     -3127.320          49.000    22234388.523 8  91046092.509 8     -2436.876          49.000
G24  20207340.828 8 106190283.117 8       522.793          48.000    20207343.516 7  82745691.109 7       407.368          47.000
G25  23600178.078 7 124019882.944 7      3339.242          43.000    23600179.586 7  96638863.596 7      2602.007          43.000
R05  20768672.695 8 111020463.308 8     -2854.004          51.000    20768676.617 7  86349253.417 7     -2219.781          47.000
R14  21894876.359 6 116711974.179 6     -2761.699          38.000    21894902.977 4  90776004.052 4     -2148.003          29.000
R15  19624155.398 6 104865531.842 6      -272.555          36.000
C05                                                                  39731683.289 5 159983023.262 5        19.443          35.000
C11  24258701.930 5 126321410.313 5      -283.820          35.000
C23  22409354.320 8 116691448.057 8     -1144.078          51.000
C28  24835894.922 6 129327042.487 6      3145.125          40.000
E02  25048947.930 5 131633108.469 5     -1929.551          32.000    25048952.305 6 100861761.514 6     -1478.577          37.000
E07  24313608.633 7 127768892.723 7      -880.781          47.000    24313610.781 8  97900831.492 8      -674.890          49.000
E08  24201219.758 7 127178231.245 7     -2979.445          43.000    24201223.508 6  97448253.376 6     -2282.976          38.000
E27                                                                  26030862.023 5 104815487.743 5      1592.183          34.000
E30  22168716.641 8 116497383.974 8       143.699          51.000    22168718.547 8  89264221.902 8       110.140          50.000
> 2020 05 02 08 03  0.0000000  0 21        .000000000000
G12  21093337.430 8 110846235.587 8      2241.238          51.000    21093336.203 8  86373691.851 8      1746.419          51.000
G13  23752465.219 5 124820098.217 5     -3710.297          34.000    23752470.859 5  97262404.947 5     -2891.143          31.000
G15  22252242.250 8 116936300.699 8     -3127.668          49.000    22252241.312 8  91119196.094 8     -2437.147          49.000
G17  22899342.414 5 120336848.333 5     -1751.781          31.000
G24  20204363.469 8 106174636.857 8       519.805          50.000    20204366.188 8  82733499.202 8       405.043          50.000
G25  23581103.945 7 123919647.443 7      3342.488          43.000    23581105.680 7  96560758.067 7      2604.536          43.000
R05  20784717.836 8 111106234.357 8     -2864.695          50.000    20784722.094 7  86415964.193 7     -2228.099          46.000
R14  21910406.891 5 116794736.696 5     -2755.973          33.000    21910423.273 5  90840443.387 5     -2143.553          32.000
R15  19625684.766 6 104873701.841 6      -272.902          36.000
R17  21870708.070 6 117034565.803 6      3339.027          36.000    21870716.094 4  91026912.245 4      2597.021          29.000
R24  21797405.164 5 116560508.488 5       -31.395          34.000
C05                                                                  39731508.047 5 159982317.610 5        27.070          35.000
C11  24260354.086 5 126330033.263 5      -291.770          35.000    24260374.203 5  97686474.857 5      -225.853          30.000
C23  22415936.477 8 116725722.848 8     -1141.492          51.000
C25  25926603.031 5 135006619.216 5     -2598.074          31.000
C28  24817760.055 6 129232596.143 6      3150.926          41.000
E02  25059940.992 5 131690881.667 5     -1922.539          32.000    25059945.195 6 100906029.291 6     -1472.983          36.000
E07  24318646.836 8 127795368.831 8      -884.695          49.000    24318648.516 8  97921118.368 8      -677.991          49.000
E08  24218211.617 7 127267528.082 7     -2974.344          42.000    24218217.156 6  97516675.618 6     -2279.132          38.000
E27                                                                  26018978.742 5 104767650.703 5      1595.996          31.000
E30  22167886.453 8 116493021.312 8       146.574          50.000    22167888.719 8  89260879.083 8       112.289          50.000
> 2020 05 02 08 03 30.0000000  0 21        .000000000000
G12  21080605.734 8 110779328.842 8      2221.379          51.000    21080603.797 8  86321556.747 8      1730.948          51.000
G13  23773688.656 6 124931623.215 6     -3722.289          38.000    23773692.719 5  97349307.453 5     -2900.491          32.000
G15  22270150.977 7 117030413.728 7     -3144.172          46.000    22270150.766 7  91192530.881 7     -2450.004          47.000
G24  20201457.289 8 106159363.499 8       500.633          50.000    20201459.680 8  82721597.883 8       390.107          50.000
G25  23562065.133 7 123819597.497 7      3329.594          42.000    23562067.828 6  96482797.102 6      2594.489          41.000
R05  20800876.867 8 111192614.861 8     -2891.789          51.000    20800880.938 7  86483148.999 7     -2249.172          47.000
R14  21925957.250 5 116877611.387 5     -2767.039          30.000    21925970.727 4  90904901.208 4     -2152.145          26.000
R15  19627273.266 5 104882191.435 5      -290.152          34.000    19627276.414 4  81575052.214 4      -225.671          28.000
R17  21852059.359 5 116934753.877 5      3316.867          33.000    21852068.328 4  90949280.888 4      2579.798          24.000
R24  21797678.562 4 116561997.458 4       -64.746          28.000
C05                                                                  39731332.180 5 159981610.217 5        21.959          35.000
C11  24262102.953 5 126339174.091 5      -315.332          35.000
C20  24259127.477 6 126323621.615 6      -855.539          36.000
C23  22422557.961 8 116760202.701 8     -1154.980          51.000
C25  25941600.922 4 135084723.586 4     -2606.871          29.000
C28  24799647.961 7 129138268.713 7      3140.211          42.000
E02                                                                  25070953.070 5 100950358.405 5     -1480.250          35.000
E07  24323763.414 8 127822254.671 8      -905.203          49.000    24323765.422 8  97941719.180 8      -693.585          50.000
E08  24235230.711 6 127356965.855 6     -2985.879          41.000    24235239.180 6  97585205.856 6     -2287.848          38.000
E27                                                                  26007121.266 5 104719901.158 5      1587.885          32.000
E30  22167094.750 8 116488862.093 8       133.078          49.000    22167097.164 8  89257692.155 8       101.993          49.000
> 2020 05 02 08 04  0.0000000  0 18        .000000000000
G12  21067959.062 8 110712869.091 8      2206.523          51.000    21067957.266 8  86269769.942 8      1719.369          51.000
G13  23794950.914 6 125043352.456 6     -3728.926          38.000    23794953.758 5  97436358.281 5     -2905.644          30.000
G15  22288125.969 7 117124878.414 7     -3156.090          45.000    22288127.172 7  91266139.760 7     -2459.291          45.000
G24  20198633.086 8 106144521.352 8       486.328          50.000    20198635.133 8  82710032.573 8       378.957          50.000
G25  23543072.883 7 123719791.926 7      3321.504          42.000    23543076.852 7  96405026.540 7      2588.185          42.000
R05  20817160.148 8 111279659.475 8     -2913.820          49.000    20817164.016 7  86550850.338 7     -2266.305          47.000
R15  19628931.562 6 104891058.927 6      -303.016          36.000    19628937.039 4  81581949.122 4      -235.682          28.000
R17  21833505.539 5 116835459.316 5      3299.758          35.000
C05                                                                  39731166.531 5 159980943.225 5        20.464          35.000
C11  24263964.680 5 126348890.042 5      -334.957          32.000    24263956.445 5  97700919.950 5      -258.841          33.000
C20  24264106.492 6 126349511.519 6      -873.051          39.000
C23  22429229.672 8 116794944.493 8     -1163.723          51.000
C28  24781569.211 7 129044119.712 7      3134.141          43.000
E02                                                                  25081985.344 5 100994792.569 5     -1483.910          34.000
E07  24328968.797 8 127849607.289 8      -920.781          49.000    24328971.703 8  97962677.668 8      -705.549          51.000
E08  24252288.031 6 127446600.469 6     -2992.461          41.000    24252298.711 5  97653886.910 5     -2292.709          35.000
E27                                                                  25995298.961 5 104672301.299 5      1583.662          32.000
E30  22166352.633 8 116484963.462 8       124.301          50.000    22166354.898 8  89254704.874 8        95.300          49.000
> 2020 05 02 08 04 30.0000000  0 18        .000000000000
G12  21055382.156 8 110646777.403 8      2195.434          51.000    21055381.055 8  86218269.920 8      1710.727          51.000
G13  23816236.852 6 125155204.426 6     -3732.012          37.000
G15  22306153.016 8 117219612.740 8     -3163.703          48.000    22306154.805 8  91339958.713 8     -2465.223          48.000
G24  20195875.812 8 106130031.448 8       475.582          50.000    20195877.453 8  82698741.743 8       370.583          50.000
G25  23524112.102 7 123620152.274 7      3317.195          43.000    23524116.852 7  96327385.276 7      2584.828          43.000
R05  20833551.344 8 111367283.354 8     -2931.844          49.000    20833555.898 7  86619002.253 7     -2280.320          47.000
R15  19630646.422 6 104900222.626 6      -311.621          37.000    19630648.258 4  81589068.857 4      -242.372          26.000
R17  21815032.953 5 116736605.577 5      3286.160          30.000    21815032.383 4  90795174.341 4      2555.902          29.000
C05                                                                  39730996.023 5 159980256.614 5        21.585          35.000
C11                                                                  24265911.656 5  97708816.450 5      -271.008          31.000
C20  24269171.773 6 126375853.485 6      -887.152          38.000
C23  22435936.422 8 116829869.124 8     -1168.719          51.000
C28  24763509.227 7 128950072.785 7      3131.672          42.000
E02  25093032.133 5 131864770.564 5     -1937.336          34.000    25093029.516 5 101039270.252 5     -1484.401          32.000
E07  24334247.453 8 127877346.523 8      -932.633          49.000    24334251.266 8  97983932.392 8      -714.666          51.000
E08  24269367.828 6 127536350.625 6     -2995.078          40.000    24269379.398 5  97722656.482 5     -2294.747          32.000
E27                                                                  25983496.008 5 104624779.034 5      1581.683          34.000
E30  22165645.102 8 116481245.286 8       119.320          50.000    22165647.172 8  89251855.872 8        91.454          49.000
> 2020 05 02 08 05  0.0000000  0 19        .000000000000
G12  21042868.914 8 110581021.696 8      2184.281          51.000    21042868.250 8  86167031.684 8      1702.037          51.000
G13  23837539.617 6 125267143.679 6     -3734.586          39.000
G15  22324225.430 8 117314581.028 8     -3171.453          50.000    22324226.844 8  91413959.912 8     -2471.265          50.000
G24  20193179.328 8 106115861.191 8       465.129          50.000    20193180.727 8  82687699.981 8       362.438          50.000
G25  23505176.500 7 123520646.314 7      3312.457          43.000    23505181.492 7  96249848.191 7      2581.135          43.000
R05  20850044.742 8 111455448.562 8     -2949.773          50.000    20850049.344 7  86687575.158 7     -2294.268          47.000
R15  19632410.094 6 104909648.015 6      -320.363          39.000    19632410.773 4  81596392.184 4      -249.174          26.000
R17  21796635.344 5 116638162.931 5      3272.582          35.000    21796638.180 5  90718607.871 5      2545.342          31.000
R24  21799424.867 4 116571320.459 4      -143.031          29.000
C05                                                                  39730814.375 5 159979524.746 5        23.434          35.000
C11  24267974.016 5 126369717.301 5      -365.105          33.000    24267958.766 5  97717070.681 5      -282.546          33.000
C20  24274313.805 6 126402613.083 6      -900.961          37.000
C23  22442672.016 8 116864943.278 8     -1173.508          51.000
C28  24745461.227 6 128856097.307 6      3129.453          40.000
E02  25104083.680 5 131922840.564 5     -1937.902          35.000    25104079.148 5 101083724.445 5     -1485.305          32.000
E07  24339593.031 8 127905438.400 8      -944.215          49.000    24339597.430 8  98005457.331 8      -723.456          51.000
E08  24286463.242 6 127626181.238 6     -2997.492          40.000    24286475.211 5  97791570.631 5     -2296.232          30.000
E27  25971707.414 5 136482247.012 5      2061.902          35.000    25971707.203 5 104577308.877 5      1579.824          35.000
E30  22164965.461 8 116477673.683 8       114.660          50.000    22164967.781 8  89249119.194 8        87.889          50.000
> 2020 05 02 08 05 30.0000000  0 19        .000000000000
G12  21030442.602 8 110515721.201 8      2170.047          51.000    21030441.602 8  86116148.200 8      1690.946          51.000
G13  23858880.617 6 125379286.492 6     -3740.699          37.000
G15  22342364.617 8 117409899.450 8     -3182.047          51.000    22342365.336 8  91488233.946 8     -2479.517          51.000
G24  20190566.297 8 106102129.504 8       451.309          51.000    20190567.781 8  82676999.957 8       351.669          51.000
G25  23486289.188 7 123421393.957 7      3305.137          44.000    23486293.500 7  96172508.705 7      2575.431          43.000
R05  20866662.047 8 111544272.049 8     -2970.723          50.000    20866666.055 7  86756660.011 7     -2310.565          47.000
R14  21988372.414 4 117210400.588 4     -2779.582          28.000
R15  19634245.836 5 104919455.379 5      -332.199          35.000    19634250.281 4  81604020.166 4      -258.374          29.000
R17  21778339.531 5 116540257.248 5      3255.074          33.000    21778342.188 4  90642458.903 4      2531.718          24.000
C05                                                                  39730644.133 5 159978839.722 5        22.841          35.000
C11  24270130.695 4 126380972.491 4      -384.426          29.000    24270120.766 6  97725773.798 6      -296.821          37.000
C20  24279556.344 4 126430019.859 4      -917.574          29.000
C23  22449458.977 8 116900284.399 8     -1181.488          51.000
C28  24727448.578 6 128762313.499 6      3123.477          40.000
E02  25115161.117 5 131981061.615 5     -1941.059          35.000    25115157.016 5 101128327.632 5     -1488.029          33.000
E07  24345028.188 8 127934001.124 8      -958.988          50.000    24345032.742 8  98027343.033 8      -734.782          51.000
E08  24303595.852 6 127716209.361 6     -3003.207          39.000
E27  25959955.367 6 136420481.008 6      2056.551          38.000    25959954.109 6 104529981.731 6      1575.709          36.000
E30  22164336.203 8 116474366.927 8       106.723          49.000    22164338.703 8  89246585.451 8        81.864          50.000
> 2020 05 02 08 06  0.0000000  0 16        .000000000000
G12  21018095.883 8 110450837.452 8      2157.754          51.000    21018095.102 8  86065589.457 8      1681.370          51.000
G13  23880251.938 5 125491591.770 5     -3743.945          32.000
G15  22360562.336 8 117505526.270 8     -3190.723          51.000    22360562.578 8  91562748.290 8     -2486.277          51.000
G24  20188029.555 8 106088798.829 8       439.680          51.000    20188031.148 8  82666612.423 8       342.608          51.000
G25  23467443.086 7 123322357.366 7      3299.570          45.000    23467446.203 6  96095337.370 6      2571.097          41.000
R05  20883394.008 8 111633710.072 8     -2989.395          51.000    20883397.766 7  86826222.867 7     -2325.088          46.000
R17  21760136.445 5 116442852.838 5      3240.867          32.000
C05                                                                  39730477.742 5 159978169.651 5        23.681          35.000
C11                                                                  24272386.727 4  97734895.538 4      -308.846          29.000
C23  22456289.773 8 116935853.683 8     -1187.465          50.000
C28  24709466.609 7 128668685.159 7      3120.383          43.000
E02  25126257.078 5 132039372.012 5     -1943.934          32.000    25126255.414 5 101173008.490 5     -1489.307          34.000
E07  24350545.656 8 127962995.102 8      -971.648          51.000    24350549.469 8  98049559.165 8      -744.498          50.000
E08  24320758.102 6 127806394.188 6     -3006.996          39.000    24320758.539 5  97929591.613 5     -2304.331          34.000
E27  25948230.891 6 136358862.743 6      2053.395          39.000    25948229.344 5 104482767.759 5      1573.763          33.000
E30  22163749.898 8 116471285.500 8       100.988          50.000    22163752.070 8  89244224.372 8        77.402          49.000
> 2020 05 02 08 06 30.0000000  0 19        .000000000000
G12  21005810.008 8 110386274.202 8      2145.188          51.000    21005809.844 8  86015280.446 8      1671.575          51.000
G13  23901635.297 4 125603940.236 4     -3747.434          29.000
G15  22378799.531 8 117601362.074 8     -3199.461          51.000    22378799.469 8  91637425.499 8     -2493.086          51.000
G19  21564987.898 5 113324776.106 5      -184.824          31.000
G24  20185550.750 8 106075772.655 8       427.699          51.000    20185552.289 8  82656462.165 8       333.272          51.000
G25  23448619.953 7 123223440.658 7      3293.512          44.000    23448621.867 7  96018259.487 7      2566.376          42.000
R05  20900221.172 8 111723659.931 8     -3008.277          51.000    20900224.859 7  86896183.865 7     -2339.771          45.000
R14  22019709.094 6 117377396.231 6     -2786.438          37.000    22019707.516 4  91293540.461 4     -2167.226          26.000
R15  19638089.195 5 104939985.849 5      -351.684          32.000
R17  21742009.422 5 116345855.879 5      3225.156          34.000    21742015.008 4  90491260.644 4      2508.458          29.000
R24  21802541.891 5 116587954.883 5      -223.590          34.000
C05                                                                  39730296.969 5 159977441.118 5        24.246          35.000
C23  22463145.820 8 116971554.745 8     -1193.664          50.000
C28  24691497.312 7 128575118.607 7      3116.289          45.000
E02  25137354.227 5 132097687.036 5     -1945.164          33.000    25137352.906 5 101217692.150 5     -1490.669          34.000
E07  24356126.930 8 127992322.675 8      -984.617          51.000    24356128.766 8  98072030.906 8      -754.480          49.000
E08  24337930.727 6 127896637.009 6     -3010.730          36.000    24337934.617 6  97998738.644 6     -2306.501          36.000
E27  25936515.125 6 136297295.238 6      2050.012          39.000    25936513.945 6 104435592.701 6      1570.414          36.000
E30  22163187.898 8 116468331.929 8        94.906          50.000    22163189.523 8  89241961.226 8        72.705          49.000
> 2020 05 02 08 07  0.0000000  0 17        .000000000000
G12  20993603.852 8 110322130.441 8      2129.273          51.000    20993603.633 8  85965298.279 8      1659.174          51.000
G13  23923049.266 5 125716470.031 5     -3755.543          34.000
G15  22397094.391 8 117697502.535 8     -3211.633          51.000    22397094.117 8  91712340.106 8     -2502.574          51.000
G24  20183148.562 8 106063149.511 8       412.250          51.000    20183150.102 8  82646625.942 8       321.234          51.000
G25  23429838.586 7 123124742.850 7      3284.242          45.000    23429839.633 6  95941352.145 6      2559.150          40.000
R05  20917162.352 8 111814217.234 8     -3030.539          51.000    20917165.422 7  86966617.298 7     -2357.086          43.000
R15  19640097.812 5 104950719.656 5      -365.449          30.000
R17  21723977.602 5 116249370.247 5      3205.637          35.000
R24  21803874.156 4 116595085.592 4      -253.617          29.000
C11  24277209.281 5 126417749.746 5      -436.867          31.000    24277207.922 6  97754232.608 6      -337.895          38.000
C23  22470045.797 8 117007484.342 8     -1203.246          49.000
C28  24673559.102 7 128481713.332 7      3108.977          45.000
E02  25148470.180 6 132156105.048 6     -1950.578          37.000    25148470.320 5 101262453.217 5     -1494.656          34.000
E07  24361790.156 8 128022081.133 8     -1001.035          51.000    24361790.203 8  98094832.823 8      -767.045          48.000
E08                                                                  24355138.891 6  98068003.888 6     -2312.377          36.000
E27  25924824.828 6 136235876.372 6      2042.984          37.000    25924827.930 5 104388531.439 5      1565.454          35.000
E30  22162668.508 8 116465603.552 8        85.285          50.000    22162670.305 8  89239870.634 8        65.384          49.000
> 2020 05 02 08 07 30.0000000  0 19        .000000000000
G12  20981476.539 8 110258401.577 8      2119.031          50.000    20981474.992 8  85915639.416 8      1651.193          50.000
G13  23944492.102 6 125829149.295 6     -3756.719          37.000
G15  22415445.680 8 117793939.811 8     -3217.816          51.000    22415445.477 8  91787485.983 8     -2507.389          51.000
G19  21567340.766 5 113337140.086 5      -227.852          30.000
G24  20180822.148 8 106050924.823 8       402.453          51.000    20180823.852 8  82637100.199 8       313.600          51.000
G25  23411097.938 7 123026259.944 7      3280.676          46.000    23411099.047 6  95864612.224 6      2556.371          41.000
R05  20934214.789 8 111905372.562 8     -3046.836          51.000    20934216.547 6  87037515.815 6     -2369.764          41.000
R14  22051107.984 5 117544822.524 5     -2793.230          32.000
R15  19642193.016 5 104961894.082 5      -373.352          32.000
R17  21706043.562 5 116153394.997 5      3192.109          35.000    21706041.531 4  90341535.425 4      2482.749          29.000
C05                                                                  39729946.586 5 159976030.811 5        24.258          35.000
C11                                                                  24279768.016 5  97764531.865 5      -348.766          33.000
C23  22476988.633 8 117043637.147 8     -1207.203          49.000
C28  24655651.492 7 128388466.711 7      3107.199          45.000
E02  25159603.523 5 132214608.370 5     -1950.832          31.000    25159608.023 5 101307287.250 5     -1494.347          34.000
E07  24367533.891 8 128052264.684 8     -1011.508          51.000    24367533.930 8  98117960.452 8      -775.084          50.000
E08  24372359.609 5 128077603.208 5     -3018.949          32.000    24372371.172 6  98137381.881 6     -2313.044          37.000
E27  25913161.281 6 136174601.019 6      2041.605          37.000    25913169.492 5 104341580.107 5      1564.386          35.000
E30  22162191.000 8 116463094.706 8        81.602          50.000    22162193.383 8  89237948.268 8        62.514          50.000
> 2020 05 02 08 08  0.0000000  0 19        .000000000000
G12  20969416.781 8 110195028.156 8      2106.543          49.000    20969414.648 8  85866257.547 8      1641.465          49.000
G13  23965952.312 5 125941917.835 5     -3760.250          35.000
G15  22433841.742 8 117890611.263 8     -3226.133          50.000    22433841.469 8  91862814.351 8     -2513.870          50.000
G24  20178560.227 8 106039039.411 8       390.574          50.000    20178562.125 8  82627838.829 8       304.344          50.000
G25  23392386.883 7 122927932.935 7      3275.031          46.000    23392388.641 7  95787993.793 7      2551.972          42.000
R05  20951366.688 8 111997060.805 8     -3065.098          51.000    20951367.758 7  87108828.826 7     -2383.968          43.000
R14  22066850.625 5 117628675.811 5     -2796.090          35.000    22066865.281 4  91489048.707 4     -2174.737          28.000
R15  19644292.227 5 104973149.095 5      -382.676          33.000
R17  21688192.219 6 116057873.484 6      3176.406          37.000    21688193.594 5  90267241.039 5      2470.541          30.000
R24  21806993.281 5 116611769.446 5      -302.793          35.000    21807004.078 5  90698129.428 5      -235.503          30.000
C05                                                                  39729764.539 5 159975298.041 5        24.898          34.000
C11  24282414.797 5 126444880.107 5      -467.320          31.000
C23  22483962.742 8 117079953.381 8     -1213.078          48.000
C28  24637763.930 7 128295321.718 7      3103.098          46.000
E02                                                                  25170751.766 5 101352147.733 5     -1495.733          33.000
E07  24373346.930 8 128082812.569 8     -1024.129          51.000    24373347.984 8  98141367.249 8      -784.737          51.000
E08  24389608.125 6 128168244.918 6     -3022.367          36.000    24389618.711 6  98206825.401 6     -2315.621          37.000
E27  25901516.578 6 136113408.964 6      2038.574          38.000    25901527.594 5 104294716.577 5      1562.024          31.000
E30  22161743.906 8 116460744.784 8        75.844          50.000    22161746.539 8  89236147.688 8        58.087          50.000
> 2020 05 02 08 08 30.0000000  0 18        .000000000000
G12  20957412.898 8 110131947.990 8      2080.723          51.000    20957412.164 8  85817104.185 8      1621.342          51.000
G13  23987416.500 6 126054710.859 6     -3777.410          36.000
G15  22452269.984 8 117987451.709 8     -3247.949          50.000    22452269.992 8  91938274.399 8     -2530.873          50.000
G24  20176351.094 8 106027431.025 8       365.098          51.000    20176353.227 8  82618793.321 8       284.489          51.000
G25  23373693.922 7 122829700.251 7      3255.594          46.000    23373696.312 7  95711448.901 7      2536.826          43.000
R05  20968605.773 8 112089214.197 8     -3096.832          51.000    20968607.367 7  87180503.632 7     -2408.650          44.000
R14  22082595.586 4 117712664.425 4     -2812.582          29.000    22082594.219 5  91554283.704 5     -2187.564          34.000
R15  19646459.258 5 104984703.094 5      -405.934          34.000
R17  21670414.984 6 115962746.402 6      3146.789          39.000    21670418.922 5  90193253.371 5      2447.509          32.000
C11                                                                  24285146.219 6  97786249.383 6      -384.400          37.000
C20  24312835.008 5 126603272.683 5     -1020.926          33.000
C23  22490956.047 7 117116370.724 7     -1232.516          47.000
C28  24619885.125 7 128202218.630 7      3085.715          47.000
E02                                                                  25181889.812 5 101397028.181 5     -1507.248          32.000
E07  24379217.312 8 128113661.431 8     -1050.332          51.000    24379219.258 8  98165004.662 8      -804.794          51.000
E08  24406859.648 6 128258895.668 6     -3039.113          36.000    24406869.219 5  98276284.992 5     -2328.534          35.000
E27  25889877.367 6 136052237.482 6      2021.555          40.000
E30  22161314.969 8 116458490.618 8        56.531          50.000    22161317.445 8  89234420.466 8        43.271          49.000
> 2020 05 02 08 09  0.0000000  0 17        .000000000000
G12  20945545.820 8 110069585.363 8      2078.277          51.000    20945546.375 8  85768509.938 8      1619.437          51.000
G13  24008964.695 4 126167960.789 4     -3770.734          28.000
G15  22470810.516 8 118084882.106 8     -3246.121          50.000    22470810.867 8  92014194.169 8     -2529.445          50.000
G24  20174275.484 8 106016524.029 8       363.234          51.000    20174277.883 8  82610294.366 8       283.040          51.000
G25  23355099.828 7 122731986.575 7      3259.824          47.000    23355102.594 7  95635308.416 7      2540.123          43.000
R05  20986011.570 8 112182259.409 8     -3104.605          51.000    20986014.156 7  87252872.094 7     -2414.696          45.000
R15  19648737.016 4 104996897.206 4      -405.289          29.000
R17  21652793.133 5 115868449.359 5      3141.117          34.000    21652795.914 5  90119911.260 5      2443.094          31.000
C11                                                                  24288029.492 5  97797881.131 5      -389.565          34.000
C20  24318731.648 5 126634006.174 5     -1025.984          32.000
C23  22498049.523 8 117153308.641 8     -1228.543          48.000
C28  24602095.617 7 128109579.679 7      3091.535          47.000
E02  25193089.430 5 132390595.459 5     -1958.344          35.000    25193104.016 5 101442175.635 5     -1500.681          31.000
E07  24385225.484 8 128145234.098 8     -1052.930          51.000    24385227.812 8  98189196.705 8      -806.832          51.000
E08  24424196.188 6 128349989.180 6     -3032.023          39.000    24424203.375 6  98346083.833 6     -2323.490          37.000
E27  25878322.859 6 135991510.105 6      2028.438          41.000
E30  22160984.672 8 116456755.260 8        60.672          49.000    22160986.945 8  89233090.764 8        46.561          50.000
> 2020 05 02 08 09 30.0000000  0 15        .000000000000
G12  20933716.969 8 110007424.041 8      2070.812          50.000    20933717.273 8  85720072.571 8      1613.623          50.000
G15  22489364.336 8 118182382.844 8     -3248.965          50.000    22489365.094 8  92090168.756 8     -2531.661          50.000
G24  20172235.180 8 106005801.969 8       356.531          51.000    20172237.586 8  82601939.513 8       277.817          51.000
G25  23336506.312 7 122634275.795 7      3259.254          47.000    23336509.273 7  95559170.176 7      2539.678          44.000
R05  21003484.391 8 112275665.975 8     -3117.359          51.000    21003487.836 7  87325521.607 7     -2424.613          44.000
R15  19651040.547 5 105009205.240 5      -410.098          33.000
C11  24290987.766 5 126489549.898 5      -515.559          35.000
C20  24324676.727 5 126664988.386 5     -1035.125          30.000
C23  22505144.742 8 117190254.419 8     -1229.473          48.000
C28  24584297.266 7 128016894.832 7      3092.398          47.000
E02  25204276.320 5 132449384.051 5     -1955.398          34.000    25204290.359 5 101487233.419 5     -1498.487          30.000
E07  24391272.750 8 128177012.747 8     -1060.504          51.000    24391274.984 8  98213546.549 8      -812.642          51.000
E08  24441517.977 6 128441006.541 6     -3030.516          41.000    24441522.852 6  98415824.276 6     -2322.206          38.000
E27  25866754.016 7 135930709.683 7      2029.992          42.000
E30  22160654.523 8 116455020.957 8        60.051          49.000    22160657.039 8  89231761.891 8        45.986          51.000
> 2020 05 02 08 10  0.0000000  0 17        .000000000000
G12  20921973.188 8 109945711.555 8      2050.637          49.000    20921972.070 8  85671984.967 8      1597.899          49.000
G15  22507977.969 8 118280198.368 8     -3264.773          50.000    22507978.961 8  92166388.622 8     -2543.979          50.000
G24  20170277.359 8 105995512.835 8       336.816          51.000    20170279.602 8  82593922.009 8       262.457          51.000
G25  23317960.414 7 122536816.043 7      3245.340          46.000    23317963.641 7  95483227.548 7      2528.836          44.000
R05  21021071.648 8 112369681.174 8     -3142.914          50.000    21021074.727 7  87398644.464 7     -2444.492          44.000
R14  22130019.531 5 117965424.014 5     -2812.863          34.000
R15  19653413.477 5 105021877.376 5      -427.480          32.000
R17  21617764.156 5 115681055.852 5      3105.883          35.000    21617773.125 5  89974156.482 5      2415.684          31.000
C11  24294052.180 5 126505477.309 5      -539.766          30.000    24294031.820 5  97822038.012 5      -417.049          33.000
C20  24330726.477 5 126696478.014 5     -1057.680          31.000
C23  22512288.703 8 117227452.621 8     -1243.133          49.000
C28  24566537.398 8 127924411.352 8      3080.430          48.000
E02  25215488.664 6 132508295.477 6     -1964.938          36.000    25215500.148 5 101532371.302 5     -1505.563          32.000
E07  24397405.961 8 128209243.637 8     -1080.809          51.000    24397407.797 8  98238242.912 8      -828.131          51.000
E08  24458871.188 6 128532193.025 6     -3041.371          40.000    24458875.023 6  98485694.325 6     -2329.985          37.000
E27  25855217.484 6 135870083.224 6      2019.074          39.000
E30  22160371.477 8 116453534.262 8        46.445          50.000    22160374.453 8  89230622.729 8        35.609          51.000
> 2020 05 02 08 10 30.0000000  0 17        .000000000000
G12  20910306.492 8 109884403.938 8      2038.789          50.000    20910305.758 8  85624212.806 8      1588.667          50.000
G15  22526642.625 8 118378281.714 8     -3271.988          51.000    22526643.680 8  92242817.184 8     -2549.601          51.000
G24  20168393.414 8 105985612.027 8       325.496          51.000    20168395.656 8  82586207.090 8       253.630          51.000
G25  23299453.797 7 122439563.824 7      3240.254          45.000    23299456.969 7  95407446.652 7      2524.876          45.000
R05  21038763.508 8 112464255.654 8     -3159.836          49.000    21038767.055 7  87472202.332 7     -2457.650          45.000
R14  22145856.695 5 118049861.541 5     -2815.320          32.000    22145862.586 5  91816572.238 5     -2189.694          31.000
R15  19655851.898 5 105034912.618 5      -435.855          31.000
R17  21600403.883 6 115588153.185 6      3089.957          38.000    21600409.539 4  89901898.899 4      2403.300          29.000
C11  24297217.695 5 126521965.778 5      -554.977          34.000    24297187.086 4  97834755.906 4      -429.137          29.000
C20  24336867.461 5 126728453.507 5     -1072.191          32.000
C23  22519472.602 8 117264858.825 8     -1248.387          48.000
C28  24548808.133 8 127832087.505 8      3076.707          49.000
E02  25226715.516 6 132567284.487 6     -1965.578          36.000    25226724.773 5 101577570.608 5     -1505.940          33.000
E07  24403616.609 8 128241881.472 8     -1092.703          51.000    24403618.133 8  98263251.109 8      -837.245          51.000
E08  24476247.336 6 128623502.281 6     -3043.797          38.000    24476250.945 6  98555658.517 6     -2332.026          38.000
E27  25843703.922 6 135809586.171 6      2016.180          37.000
E30  22160127.016 8 116452250.053 8        41.410          50.000    22160130.047 8  89229638.718 8        31.733          50.000
> 2020 05 02 08 11  0.0000000  0 16        .000000000000
G12  20898709.883 8 109823462.341 8      2023.230          51.000    20898710.297 8  85576725.842 8      1576.543          51.000
G15  22545350.312 8 118476590.657 8     -3282.758          50.000    22545351.500 8  92319421.521 8     -2557.993          50.000
G19  21579570.352 5 113401407.435 5      -385.309          30.000
G24  20166576.109 8 105976061.701 8       310.473          51.000    20166578.406 8  82578765.263 8       241.927          51.000
G25  23280978.992 7 122342481.044 7      3231.094          43.000    23280982.188 7  95331797.741 7      2517.735          43.000
R05  21056551.188 8 112559345.196 8     -3180.305          48.000    21056556.156 7  87546160.870 7     -2473.570          46.000
R17  21583134.523 5 115495737.370 5      3070.172          30.000    21583136.797 4  89830020.043 4      2387.918          28.000
C11  24300472.258 5 126538893.657 5      -573.836          32.000    24300434.164 5  97847784.360 5      -444.201          34.000
C20  24343091.727 6 126760853.602 6     -1089.117          38.000
C23  22526688.508 8 117302433.937 8     -1257.262          48.000
C28  24531102.516 8 127739886.855 8      3069.266          50.000
E02  25237948.281 6 132626311.304 6     -1970.223          36.000    25237957.305 5 101622795.871 5     -1509.867          33.000
E07  24409897.180 8 128274886.240 8     -1108.270          51.000    24409898.891 8  98288540.476 8      -849.170          51.000
E08  24493638.148 5 128714893.255 5     -3049.742          35.000    24493643.695 6  98625685.337 6     -2336.759          40.000
E27  25832206.250 6 135749179.135 6      2009.859          37.000    25832225.352 5 104015653.014 5      1540.031          33.000
E30  22159913.508 8 116451128.572 8        32.641          51.000    22159916.023 8  89228779.396 8        25.007          50.000
> 2020 05 02 08 11 30.0000000  0 16        .000000000000
G12  20887203.570 8 109762994.624 8      2010.664          51.000    20887204.500 8  85529608.144 8      1566.754          51.000
G15  22564120.930 8 118575229.753 8     -3290.500          50.000    22564122.016 8  92396283.107 8     -2564.029          50.000
G19  21581835.539 5 113413311.022 5      -406.715          31.000
G24  20164845.812 8 105966968.611 8       298.383          51.000    20164848.195 8  82571679.724 8       232.503          51.000
G25  23262557.031 7 122245675.616 7      3225.000          43.000    23262560.367 7  95256364.939 7      2512.987          42.000
R05  21074456.047 8 112655054.354 8     -3197.590          51.000    21074460.883 7  87620601.280 7     -2487.017          46.000
R17  21565977.875 5 115403921.900 5      3053.262          35.000    21565976.844 5  89758592.010 5      2374.756          30.000
C11                                                                  24303795.906 5  97861327.197 5      -457.035          32.000
C20  24349418.750 6 126793782.771 6     -1103.691          37.000
C23  22533957.141 8 117340283.654 8     -1263.371          48.000
C28  24513441.125 8 127647917.844 8      3064.668          50.000
E02  25249207.969 5 132685482.308 5     -1972.195          34.000    25249213.656 5 101668122.634 5     -1510.899          31.000
E07  24416267.984 8 128308364.173 8     -1120.859          51.000    24416270.594 8  98314192.380 8      -858.864          51.000
E08  24511063.609 5 128806509.199 5     -3052.781          31.000    24511072.062 6  98695855.369 6     -2339.003          40.000
E27  25820747.375 6 135688969.053 6      2006.898          38.000    25820764.336 5 103969517.991 5      1537.430          34.000
E30  22159751.391 8 116450276.235 8        26.738          51.000    22159753.219 8  89228126.297 8        20.560          50.000
> 2020 05 02 08 12  0.0000000  0 15        .000000000000
G12  20875760.812 8 109702861.232 8      1998.805          51.000    20875761.094 8  85482750.994 8      1557.513          51.000
G13  24138560.711 4 126848981.948 4     -3793.500          29.000
G15  22582927.367 8 118674056.471 8     -3297.473          50.000    22582928.031 8  92473290.891 8     -2569.462          50.000
G19  21584217.508 5 113425817.960 5      -425.293          32.000    21584213.133 5  88383724.669 5      -331.397          31.000
G24  20163176.078 8 105958193.726 8       286.965          51.000    20163178.586 8  82564842.143 8       223.609          51.000
G25  23244161.891 7 122149008.438 7      3219.738          46.000    23244165.422 7  95181039.886 7      2508.887          44.000
R05  21092449.953 8 112751236.510 8     -3214.082          51.000    21092453.719 7  87695409.530 7     -2499.842          46.000
R17  21548908.008 6 115312568.416 6      3036.996          37.000    21548908.578 5  89687539.391 5      2362.111          34.000
C23  22541251.852 8 117378268.884 8     -1268.555          48.000
C28  24495797.953 8 127556044.036 8      3060.668          50.000
E02  25260468.680 6 132744656.614 6     -1972.914          37.000    25260467.734 5 101713455.976 5     -1511.659          33.000
E07  24422702.047 8 128342174.291 8     -1132.660          51.000    24422705.781 8  98340098.814 8      -867.838          51.000
E08                                                                  24528507.680 6  98766059.919 6     -2340.659          39.000
E27  25809300.336 6 135628815.837 6      2004.078          39.000    25809316.203 5 103923426.403 5      1536.056          34.000
E30  22159613.836 8 116449552.372 8        21.902          51.000    22159615.516 8  89227571.647 8        16.830          50.000
> 2020 05 02 08 12 30.0000000  0 18        .000000000000
G12  20864393.359 8 109643123.962 8      1979.984          51.000    20864392.766 8  85436202.507 8      1542.848          51.000
G13  24160230.555 5 126962870.908 5     -3802.336          31.000
G15  22601780.602 8 118773129.414 8     -3311.098          50.000    22601780.977 8  92550490.534 8     -2580.076          50.000
G19  21586718.906 6 113438962.936 6      -453.945          37.000    21586718.242 6  88393967.375 6      -353.727          36.000
G24  20161578.664 8 105949798.914 8       268.887          51.000    20161581.250 8  82558300.720 8       209.522          51.000
G25  23225805.000 7 122052541.916 7      3207.543          46.000    23225808.812 7  95105871.209 7      2499.387          47.000
R05  21110542.328 8 112847949.446 8     -3237.344          49.000    21110546.125 7  87770630.646 7     -2517.937          46.000
R14  22209410.016 5 118388635.348 5     -2833.539          33.000    22209419.359 4  92080091.863 4     -2203.864          26.000
R17  21531935.719 6 115221743.293 6      3014.078          38.000    21531937.219 5  89616897.672 5      2344.283          33.000
C11  24310825.539 4 126592813.520 4      -629.086          29.000
C20  24362309.430 5 126860934.396 5     -1137.586          33.000
C23  22548584.102 8 117416450.182 8     -1280.582          49.000
C28  24478185.219 8 127464328.655 8      3049.938          51.000
E02                                                                  25271738.375 5 101758846.376 5     -1517.230          33.000
E07  24429210.578 8 128376377.151 8     -1151.270          51.000    24429215.070 8  98366306.181 8      -882.127          51.000
E08                                                                  24545963.117 6  98836344.575 6     -2347.680          40.000
E27  25797877.438 6 135568780.613 6      1994.480          40.000    25797891.109 5 103877425.377 5      1528.181          32.000
E30  22159512.273 8 116449017.762 8        10.012          51.000    22159514.211 8  89227162.018 8         7.683          51.000
> 2020 05 02 08 13  0.0000000  0 18        .000000000000
G12  20853104.477 8 109583799.703 8      1970.820          51.000    20853103.758 8  85389975.812 8      1535.704          51.000
G13  24181920.094 5 127076835.338 5     -3802.180          32.000
G15  22620683.125 8 118872462.444 8     -3315.309          50.000    22620683.195 8  92627892.836 8     -2583.357          50.000
G19  21589346.180 5 113452775.645 5      -471.324          30.000    21589345.117 5  88404730.569 5      -367.256          32.000
G24  20160056.812 8 105941801.315 8       260.066          51.000    20160059.258 8  82552068.816 8       202.649          51.000
G25  23207489.664 7 121956293.535 7      3204.578          47.000    23207493.250 7  95030872.493 7      2497.074          47.000
R05  21128734.891 8 112945205.989 8     -3250.730          48.000    21128740.133 7  87846274.623 7     -2528.346          46.000
R14  22225338.680 4 118473566.438 4     -2832.266          29.000    22225353.594 4  92146150.757 4     -2202.876          29.000
R17  21515065.633 6 115131467.883 6      3000.004          36.000    21515068.805 5  89546683.462 5      2333.336          32.000
C11  24314478.258 5 126611844.788 5      -641.234          32.000
C20  24368880.148 5 126895163.593 5     -1148.504          34.000
C23  22555957.023 8 117454843.552 8     -1283.238          49.000
C28  24460606.156 8 127372790.418 8      3048.453          49.000
E02                                                                  25283026.328 5 101804269.042 5     -1515.925          33.000
E07  24435796.820 8 128410988.321 8     -1160.414          51.000    24435801.031 8  98392826.406 8      -889.178          51.000
E08  24563440.742 5 129081750.360 5     -3063.730          32.000    24563441.008 6  98906720.509 6     -2347.366          39.000
E27  25786480.680 6 135508879.701 6      1994.695          39.000    25786490.984 5 103831516.242 5      1528.310          34.000
E30  22159449.711 8 116448688.316 8         7.648          51.000    22159451.906 8  89226909.576 8         5.846          51.000
> 2020 05 02 08 13 30.0000000  0 19        .000000000000
G12  20841894.305 8 109524891.645 8      1957.652          49.000    20841894.031 8  85344073.433 8      1525.443          49.000
G13  24203635.602 5 127190953.535 5     -3804.262          33.000
G15  22639634.859 8 118972055.569 8     -3323.062          49.000    22639634.406 8  92705497.816 8     -2589.402          49.000
G19  21592101.961 6 113467258.551 6      -492.684          38.000    21592099.734 5  88416015.925 5      -383.912          30.000
G24  20158611.086 8 105934203.832 8       247.621          51.000    20158613.305 8  82546148.698 8       192.952          51.000
