     3.02           OBSERVATION DATA    M (MIXED)           RINEX VERSION / TYPE
SAVERINEX           SC600               20200509 175931 LCL PGM / RUN BY / DATE
       G = GPS       R = GLONASS       C = COMPASS          COMMENT
       S = SBAS      J = QZSS          E = GALILEO          COMMENT
BEAN                                                        MARKER NAME
1                                                           MARKER NUMBER
GEODETIC                                                    MARKER TYPE
Unige DICCA         GTER                                    OBSERVER / AGENCY
SC60291900056       SC600               2.12(191226)        REC # / TYPE / VERS
                    HEMA45          NONE                    ANT # / TYPE
  4509407.8091   693652.4678  4442337.6214                  APPROX POSITION XYZ
        0.0000        0.0000        0.0000                  ANTENNA: DELTA H/E/N
G    8 C1C L1C D1C S1C C2Y L2Y D2Y S2Y                      SYS / # / OBS TYPES
R    8 C1C L1C D1C S1C C2P L2P D2P S2P                      SYS / # / OBS TYPES
C    4 C1I L1I D1I S1I                                      SYS / # / OBS TYPES
E    8 C1C L1C D1C S1C C7Q L7Q D7Q S7Q                      SYS / # / OBS TYPES
DBHZ                                                        COMMENT
     30.000                                                 INTERVAL
  2020    05    09    15    00    0.0000000     GPS         TIME OF FIRST OBS
  2020    05    09    15    59   30.0000000     GPS         TIME OF LAST OBS
     0                                                      RCV CLOCK OFFS APPL
G L1C  0.00000                                              SYS / PHASE SHIFT
G L2Y  0.00000                                              SYS / PHASE SHIFT
R L1C  0.00000                                              SYS / PHASE SHIFT
R L2P  0.25000                                              SYS / PHASE SHIFT
C L1I  0.00000                                              SYS / PHASE SHIFT
E L1C  0.50000                                              SYS / PHASE SHIFT
E L7Q -0.25000                                              SYS / PHASE SHIFT
 13 R02 -4 R03  5 R04  6 R05  1 R09 -2 R10 -7 R11  0 R15  0 GLONASS SLOT / FRQ #
    R16 -1 R18 -3 R19  3 R20  2 R21  4                      GLONASS SLOT / FRQ #
 C1C   71.950 C2C   71.950 C2P   71.950                     GLONASS COD/PHS/BIS
    18                                                      LEAP SECONDS
*** Above antenna height is from mark to ANTENNA BOTTOM.    COMMENT
    17     4        0.0000        ANT MEASURE TYPE/HEIGT    COMMENT
    0.0000    0.0000    0.0458    0.0405    0.0000          COMMENT
                    BASE STATION                            COMMENT
                                                            END OF HEADER
> 2020 05 09 15 00  0.0000000  0 19        .000000000000
G10  22866968.672 8 120166712.152 8      3100.750          51.000    22866972.344 8  93636441.265 8      2416.169          51.000
G16  20483119.883 7 107639527.739 7       396.699          45.000    20483120.188 7  83874964.806 7       309.116          43.000
G18  21656643.711 6 113806501.677 6     -2480.613          41.000    21656644.203 6  88680367.640 6     -1932.948          36.000
G20  21231275.711 8 111571135.337 8      1323.352          51.000    21231274.234 7  86938607.223 7      1031.183          43.000
G21  21975197.633 8 115480495.375 8     -2154.258          50.000    21975196.062 7  89984745.447 7     -1678.642          43.000
G26  20842697.828 8 109529103.703 8     -1849.465          51.000    20842700.031 8  85347355.960 8     -1441.141          51.000
R05  23367212.648 7 124911141.648 7      3966.828          42.000    23367214.344 5  97153134.207 5      3085.314          33.000
R09  21359842.289 8 114060364.257 8     -3852.438          51.000    21359844.578 7  88713605.606 7     -2996.343          47.000
R10  20098937.125 7 107138631.366 7     -1330.516          43.000
R21  22687861.984 5 121407336.212 5      2881.609          33.000    22687874.703 4  94427974.200 4      2241.240          25.000
C05  39613631.203 6 206278571.935 6         -.312          36.000
C20  25621726.477 7 133419089.625 7      3124.344          42.000
C29  22250694.586 5 115865210.135 5      1295.309          31.000
C30  22208414.617 8 115645139.918 8     -1335.527          49.000
E13  23314159.711 8 122516756.097 8       444.094          50.000    23314161.859 8  93876550.387 8       340.280          51.000
E15  24436720.117 7 128415853.704 7     -1828.754          45.000    24436723.492 7  98396578.530 7     -1401.181          42.000
E21  24083691.719 7 126560666.905 7      -132.945          43.000    24083694.633 7  96975054.708 7      -101.759          45.000
E26  25644729.680 7 134764011.865 7      2284.176          46.000    25644732.578 7 103260734.480 7      1750.258          46.000
E27  25141212.812 8 132117943.232 8     -2696.824          51.000    25141216.305 8 101233226.035 8     -2066.395          51.000
> 2020 05 09 15 00 30.0000000  0 19        .000000000000
G10  22849292.984 8 120073821.840 8      3091.738          51.000    22849295.648 8  93564059.230 8      2409.147          51.000
G16  20480908.938 7 107627908.117 7       377.727          46.000    20480908.680 7  83865910.558 7       294.332          42.000
G18  21670830.883 6 113881056.089 6     -2490.012          39.000    21670831.297 6  88738462.017 6     -1940.272          36.000
G20  21223772.609 8 111531706.154 8      1305.082          50.000    21223771.195 7  86907883.220 7      1016.950          43.000
G21  21987514.297 8 115545220.151 8     -2160.938          51.000    21987512.477 6  90035180.314 6     -1683.847          41.000
G26  20853302.500 8 109584830.736 8     -1865.691          51.000    20853304.594 8  85390779.593 8     -1453.786          51.000
R05  23344964.344 6 124792209.219 6      3961.703          40.000    23344966.359 5  97060631.379 5      3081.331          34.000
R09  21381523.664 8 114176138.294 8     -3865.941          50.000    21381525.445 7  88803651.992 7     -3006.846          46.000
R10  20106499.797 7 107178946.914 7     -1357.102          42.000
R21  22671718.539 5 121320962.442 5      2876.055          34.000
C05  39613632.648 5 206278579.781 5         -.520          35.000
C20  25603735.227 7 133325401.945 7      3121.598          42.000
C29  22243261.055 5 115826443.988 5      1288.629          34.000
C30  22216127.812 8 115685304.179 8     -1342.145          49.000
E13  23311647.570 8 122503555.556 8       435.945          50.000    23311649.727 8  93866435.679 8       334.102          51.000
E15  24447171.719 7 128470777.161 7     -1832.840          46.000    24447174.797 6  98438662.729 6     -1404.483          41.000
E21  24084491.438 7 126564874.067 7      -147.492          42.000    24084495.688 7  96978278.381 7      -113.061          45.000
E26  25631702.703 7 134695555.521 7      2279.586          46.000    25631705.195 7 103208280.971 7      1746.774          46.000
E27  25156631.211 8 132198970.955 8     -2705.000          50.000    25156635.234 8 101295312.177 8     -2072.665          51.000
> 2020 05 09 15 01  0.0000000  0 19        .000000000000
G10  22831668.453 8 119981201.327 8      3083.348          51.000    22831670.422 8  93491887.430 8      2402.609          51.000
G16  20478805.539 7 107616853.216 7       359.637          46.000    20478805.016 7  83857296.346 7       280.236          43.000
G18  21685070.938 6 113955889.169 6     -2498.336          39.000    21685070.414 5  88796773.526 5     -1946.758          34.000
G20  21216372.672 8 111492820.318 8      1287.641          49.000    21216371.773 7  86877582.599 7      1003.359          43.000
G21  21999867.820 8 115610138.219 8     -2166.621          50.000    21999865.742 7  90085765.791 7     -1688.276          42.000
G26  20863999.633 8 109641044.905 8     -1881.367          51.000    20864001.367 8  85434582.807 8     -1466.000          51.000
R05  23322743.398 7 124673423.876 7      3957.684          42.000    23322745.664 5  96968242.879 5      3078.201          33.000
R09  21403279.406 7 114292313.846 7     -3878.512          47.000    21403281.406 7  88894010.664 7     -3016.623          45.000
R10  20114211.734 6 107220057.906 6     -1383.070          41.000
R21  22655609.477 5 121234772.714 5      2870.688          32.000    22655639.148 4  94293787.833 4      2232.754          29.000
C05  39613635.617 5 206278595.141 5         -.191          35.000
C20  25585758.820 7 133231792.532 7      3119.605          42.000
C29  22235860.922 4 115787885.372 4      1282.535          29.000
C30  22223878.273 8 115725662.558 8     -1347.914          49.000
E13  23309180.445 8 122490591.645 8       428.676          50.000    23309182.695 8  93856502.303 8       328.427          51.000
E15  24457645.617 7 128525817.117 7     -1836.195          46.000    24457647.969 6  98480836.180 6     -1406.946          40.000
E21  24085375.008 7 126569521.522 7      -161.664          42.000    24085380.141 7  96981839.414 7      -123.914          44.000
E26  25618701.242 7 134627233.096 7      2275.527          45.000    25618703.438 7 103155930.074 7      1743.637          46.000
E27  25172095.023 8 132280238.103 8     -2712.418          48.000    25172099.438 8 101357581.786 8     -2078.367          49.000
> 2020 05 09 15 01 30.0000000  0 18        .000000000000
G10  22814095.789 8 119888856.806 8      3073.621          50.000    22814097.047 8  93419930.642 8      2395.029          50.000
G16  20476810.242 7 107606367.803 7       340.199          47.000    20476809.820 7  83849125.883 7       265.090          44.000
G18  21699364.117 6 114031002.332 6     -2508.309          39.000    21699363.820 5  88855303.235 5     -1954.529          35.000
G20  21209077.164 8 111454482.607 8      1268.871          51.000    21209076.586 7  86847709.072 7       988.731          44.000
G21  22012258.406 8 115675250.849 8     -2173.543          50.000    22012256.562 7  90136502.893 7     -1693.670          44.000
G26  20874789.430 8 109697748.255 8     -1898.117          50.000    20874791.016 8  85478767.203 8     -1479.055          50.000
R05  23300550.578 6 124554793.362 6      3952.062          41.000    23300552.570 5  96875974.831 5      3073.832          33.000
R09  21425107.969 6 114408889.970 6     -3892.254          41.000    21425112.016 7  88984680.956 7     -3027.309          44.000
R10  20122072.508 6 107261965.665 6     -1410.121          41.000
R21  22639536.383 5 121148771.146 5      2863.504          34.000    22639558.109 5  94226897.610 5      2227.164          30.000
C05  39613640.203 5 206278619.357 5         -.562          35.000
C20  25567798.625 7 133138267.226 7      3116.148          42.000
C30  22231666.516 8 115766217.994 8     -1355.000          48.000
E13  23306759.242 8 122477867.203 8       420.277          50.000    23306761.250 8  93846752.393 8       322.049          51.000
E15  24468142.242 7 128580976.048 7     -1840.500          46.000    24468144.070 6  98523100.802 6     -1410.262          40.000
E21  24086343.461 7 126574612.784 7      -177.008          43.000    24086348.531 7  96985740.521 7      -135.665          44.000
E26  25605725.914 7 134559048.110 7      2270.691          44.000    25605727.922 7 103103684.490 7      1739.910          46.000
E27  25187605.016 8 132361746.517 8     -2720.801          48.000    25187608.758 8 101420036.248 8     -2084.775          48.000
> 2020 05 09 15 02  0.0000000  0 18        .000000000000
G10  22796570.703 8 119796767.846 8      3064.707          50.000    22796571.094 8  93348172.989 8      2388.083          50.000
G16  20474918.945 7 107596429.420 7       321.359          47.000    20474918.648 7  83841381.678 7       250.410          45.000
G18  21713706.039 6 114106370.184 6     -2517.105          40.000    21713706.352 6  88914031.433 6     -1961.384          36.000
G20  21201881.945 8 111416671.352 8      1250.957          50.000    21201881.523 7  86818245.780 7       974.775          46.000
G21  22024681.336 8 115740533.236 8     -2179.508          49.000    22024679.859 7  90187372.278 7     -1698.321          44.000
G26  20885667.180 8 109754916.218 8     -1914.070          48.000    20885669.141 8  85523313.646 8     -1491.483          48.000
R05  23278382.555 7 124436298.735 7      3946.719          42.000    23278383.836 5  96783812.439 5      3069.670          32.000
R09  21447005.688 6 114525838.915 6     -3905.113          39.000    21447011.898 7  89075641.246 7     -3037.310          42.000
R10  20130078.461 7 107304645.256 7     -1436.012          42.000
R21  22623497.109 5 121062934.242 5      2857.676          35.000    22623512.875 4  94160102.100 4      2222.640          24.000
C05  39613642.445 5 206278630.545 5         -.902          35.000
C20  25549850.250 7 133044805.597 7      3113.691          43.000
C30  22239488.133 8 115806947.098 8     -1361.078          48.000
E13  23304379.203 8 122465358.550 8       412.672          50.000    23304380.805 8  93837167.846 8       316.251          51.000
E15  24478656.930 7 128636229.951 7     -1844.105          45.000    24478658.922 6  98565438.173 6     -1412.911          40.000
E21  24087392.500 7 126580124.870 7      -191.340          43.000    24087397.188 7  96989964.063 7      -146.695          44.000
E26  25592772.398 7 134490977.622 7      2266.504          44.000    25592774.586 7 103051526.605 7      1736.702          46.000
E27  25203156.828 8 132443471.531 8     -2728.438          49.000    25203158.703 7 101482656.671 7     -2090.681          47.000
> 2020 05 09 15 02 30.0000000  0 19        .000000000000
G10  22779097.914 8 119704951.007 8      3055.820          51.000    22779094.930 8  93276627.510 8      2381.165          49.000
G16  20473134.680 8 107587052.869 8       303.145          48.000    20473134.375 7  83834075.263 7       236.217          45.000
G18  21728099.062 6 114182004.537 6     -2525.660          39.000    21728099.164 6  88972967.265 6     -1968.053          38.000
G20  21194789.836 8 111379401.719 8      1233.262          51.000    21194789.500 7  86789204.536 7       960.983          46.000
G21  22037138.883 8 115805998.066 8     -2185.191          49.000    22037137.555 7  90238383.824 7     -1702.750          44.000
G26  20896635.648 7 109812561.214 7     -1929.547          47.000    20896638.234 7  85568231.833 7     -1503.543          47.000
R03  23314109.031 5 124802250.103 5     -1837.020          32.000
R05  23256243.680 7 124317958.485 7      3941.852          42.000    23256244.945 5  96691770.150 5      3065.888          33.000
R09  21468977.359 7 114643170.625 7     -3917.484          42.000    21468983.336 6  89166899.207 6     -3046.932          41.000
R10  20138232.383 7 107348108.360 7     -1461.777          43.000
R21  22607491.641 4 120977276.281 4      2852.250          29.000
C05  39613644.695 5 206278642.276 5         -.336          35.000
C20  25531916.891 7 132951423.828 7      3111.121          42.000
C30  22247345.586 7 115847863.165 7     -1366.984          47.000
E13  23302042.625 8 122453078.977 8       405.523          50.000    23302043.992 8  93827758.832 8       310.684          51.000
E15  24489192.062 7 128691591.758 7     -1847.109          43.000    24489194.773 6  98607858.239 6     -1415.359          40.000
E21  24088524.453 7 126586071.843 7      -205.410          44.000    24088528.148 7  96994520.786 7      -157.488          43.000
E26  25579843.281 7 134423035.501 7      2262.562          44.000    25579845.945 7 102999467.092 7      1733.658          46.000
E27  25218752.656 8 132525425.400 8     -2735.617          51.000    25218753.172 8 101545452.426 8     -2096.071          48.000
> 2020 05 09 15 03  0.0000000  0 17        .000000000000
G10  22761679.359 8 119613416.675 8      3045.992          51.000    22761675.109 8  93205302.198 8      2373.503          51.000
G16  20471459.008 8 107578247.057 8       283.574          48.000    20471458.273 7  83827213.582 7       220.967          44.000
G18  21742543.953 6 114257910.773 6     -2534.918          39.000    21742543.172 6  89032115.023 6     -1975.261          36.000
G20  21187802.656 8 111342682.508 8      1214.402          51.000    21187802.336 8  86760592.173 8       946.291          48.000
G21  22049632.180 8 115871651.033 8     -2191.973          48.000    22049630.984 7  90289541.968 7     -1708.031          43.000
G26  20907696.852 8 109870689.540 8     -1946.047          49.000    20907699.531 8  85613526.632 8     -1516.400          49.000
R05  23234136.383 7 124199784.542 7      3935.781          43.000    23234137.578 5  96599857.216 5      3061.166          34.000
R09  21491023.086 7 114760888.606 7     -3930.715          44.000    21491027.469 6  89258457.577 6     -3057.226          38.000
R10  20146534.125 7 107392360.680 7     -1488.652          43.000
C05  39613648.617 5 206278663.067 5         -.980          35.000
C20  25514001.164 7 132858131.870 7      3107.852          43.000
C30  22255240.141 7 115888973.314 7     -1374.023          46.000
E13  23299751.039 8 122441035.591 8       397.113          51.000    23299752.336 8  93818530.780 8       304.294          51.000
E15  24499748.930 6 128747068.233 6     -1851.391          41.000    24499752.016 6  98650366.154 6     -1418.625          40.000
E21  24089740.508 7 126592461.445 7      -220.703          44.000    24089742.109 6  96999416.680 6      -169.152          41.000
E26  25566940.211 7 134355229.525 7      2257.574          44.000    25566943.328 7 102947511.930 7      1729.836          46.000
E27  25234393.414 8 132607614.224 8     -2743.895          51.000    25234393.664 8 101608428.227 8     -2102.504          49.000
> 2020 05 09 15 03 30.0000000  0 18        .000000000000
G10  22744313.852 8 119522161.265 8      3036.906          51.000    22744311.672 8  93134194.159 8      2366.423          51.000
G16  20469890.547 8 107570005.593 8       265.062          48.000    20469889.367 7  83820791.657 7       206.539          45.000
G18  21757039.062 6 114334080.562 6     -2543.457          38.000    21757037.344 6  89091468.098 6     -1981.908          37.000
G20  21180919.258 8 111306508.945 8      1196.523          51.000    21180918.867 8  86732404.993 8       932.356          48.000
G21  22062159.555 8 115937483.629 8     -2197.750          48.000    22062158.641 7  90340840.102 7     -1712.532          43.000
G26  20918849.211 8 109929293.364 8     -1961.672          51.000    20918851.766 8  85659191.942 8     -1528.575          51.000
R05  23212059.789 7 124081775.235 7      3930.711          43.000    23212062.336 6  96508072.361 6      3057.226          36.000
R09  21513139.773 7 114878981.938 7     -3942.844          45.000    21513140.594 5  89350307.852 5     -3066.659          33.000
R10  20154982.453 7 107437393.612 7     -1514.336          44.000
C05  39613652.750 5 206278684.644 5        -1.172          35.000
C20  25496101.930 7 132764925.923 7      3105.180          45.000
C29  22199401.523 4 115598110.329 4      1247.906          28.000
C30  22263170.500 7 115930270.806 7     -1379.875          46.000
E13  23297503.148 8 122429221.463 8       389.773          51.000    23297504.453 8  93809478.391 8       298.667          51.000
E15  24510326.047 6 128802652.077 6     -1854.938          39.000    24510329.289 6  98692956.386 6     -1421.223          40.000
E21  24091039.695 7 126599287.428 7      -235.129          44.000    24091038.609 6  97004646.957 6      -180.044          41.000
E26  25554062.023 7 134287553.441 7      2253.566          43.000    25554065.633 7 102895656.266 7      1726.630          46.000
E27  25250077.148 8 132690030.033 8     -2751.121          51.000    25250078.023 8 101671577.952 8     -2108.029          51.000
> 2020 05 09 15 04  0.0000000  0 17        .000000000000
G10  22727002.281 8 119431191.451 8      3027.457          50.000    22727002.523 8  93063308.629 8      2359.057          50.000
G16  20468430.430 8 107562333.459 8       246.207          49.000    20468429.086 7  83814813.377 7       191.850          45.000
G18  21771584.297 6 114410515.661 6     -2551.988          38.000    21771582.828 5  89151027.861 5     -1988.562          34.000
G20  21174140.711 8 111270886.320 8      1178.223          51.000    21174140.391 8  86704647.101 8       918.099          49.000
G21  22074721.680 7 116003498.416 7     -2203.457          47.000    22074720.906 6  90392280.202 6     -1716.976          41.000
G26  20930092.852 8 109988375.140 8     -1977.344          51.000    20930095.273 8  85705229.652 8     -1540.787          51.000
R05  23190015.727 7 123963939.058 7      3924.797          43.000    23190018.977 6  96416422.172 6      3052.623          36.000
R09  21535326.711 7 114997450.400 7     -3955.328          45.000    21535324.211 5  89442449.810 5     -3076.372          33.000
R10  20163578.242 7 107483209.289 7     -1540.164          46.000
C05  39613657.883 6 206278711.781 6         -.859          36.000
C20  25478220.688 7 132671812.321 7      3102.258          45.000
C30  22271137.641 7 115971759.112 7     -1386.281          46.000
E13  23295299.203 8 122417639.942 8       382.195          50.000    23295300.734 8  93800604.248 8       292.845          51.000
E15  24520924.320 6 128858346.342 6     -1858.480          39.000    24520927.352 6  98735631.206 6     -1423.911          39.000
E21  24092422.672 7 126606553.762 7      -249.605          46.000    24092420.883 7  97010214.659 7      -191.229          43.000
E26  25541208.688 6 134220011.368 6      2249.102          40.000    25541214.008 7 102843903.267 7      1723.430          47.000
E27  25265804.258 8 132772675.170 8     -2758.613          51.000    25265806.148 8 101734903.408 8     -2113.773          51.000
> 2020 05 09 15 04 30.0000000  0 17        .000000000000
G10  22709744.617 8 119340504.688 8      3018.500          49.000    22709746.805 8  92992643.619 8      2352.078          49.000
G16  20467077.852 8 107555225.883 8       227.680          48.000    20467076.656 7  83809275.001 7       177.413          46.000
G18  21786178.383 5 114487208.691 5     -2560.000          34.000    21786177.742 5  89210788.733 5     -1994.799          34.000
G20  21167466.227 8 111235810.500 8      1160.238          51.000    21167465.883 8  86677315.302 8       904.082          49.000
G21  22087317.234 7 116069688.379 7     -2209.016          46.000    22087316.414 7  90443856.797 7     -1721.311          43.000
G26  20941426.094 8 110047928.115 8     -1992.684          51.000    20941428.430 8  85751634.515 8     -1552.740          51.000
R05  23168004.523 7 123846275.059 7      3919.363          45.000    23168008.594 6  96324905.892 6      3048.400          38.000
R09  21557581.109 7 115116284.303 7     -3967.102          43.000    21557580.438 6  89534876.096 6     -3085.526          37.000
R10  20172319.109 7 107529799.865 7     -1565.809          46.000
C05  39613663.250 5 206278739.295 5         -.695          35.000
C20  25460356.516 7 132578788.329 7      3099.547          45.000
C30  22279140.602 7 116013432.503 7     -1391.953          46.000
E13  23293138.195 8 122406285.209 8       374.910          50.000    23293139.875 8  93791903.874 8       287.326          51.000
E15  24531542.391 6 128914144.873 6     -1861.414          37.000    24531545.391 6  98778385.921 6     -1426.314          39.000
E21  24093888.477 7 126614255.263 7      -263.727          46.000    24093887.609 7  97016115.807 7      -202.064          44.000
E26  25528379.000 6 134152598.080 6      2245.207          36.000    25528386.828 7 102792248.959 7      1720.377          47.000
E27  25281573.328 8 132855542.730 8     -2765.648          50.000    25281576.320 8 101798399.305 8     -2119.163          51.000
> 2020 05 09 15 05  0.0000000  0 19        .000000000000
G10  22692541.227 8 119250101.884 8      3009.184          50.000    22692544.930 8  92922199.874 8      2344.818          50.000
G16  20465832.633 8 107548681.860 8       209.168          49.000    20465831.461 7  83804175.747 7       162.988          47.000
G18  21800820.570 6 114564155.791 6     -2568.770          36.000    21800820.320 5  89270747.503 5     -2001.636          33.000
G20  21160895.500 8 111201280.835 8      1142.375          51.000    21160895.023 8  86650409.067 8       890.162          48.000
G21  22099945.703 7 116136050.432 7     -2214.590          47.000    22099944.672 6  90495567.487 6     -1725.654          41.000
G26  20952848.180 8 110107948.949 8     -2008.039          51.000    20952850.719 8  85798403.946 8     -1564.706          51.000
R05  23146026.578 7 123728785.801 7      3913.715          46.000    23146030.977 6  96233525.464 6      3044.007          40.000
R09  21579901.852 7 115235477.279 7     -3978.602          43.000    21579904.109 6  89627581.693 6     -3094.468          39.000
R10  20181203.539 7 107577161.146 7     -1590.914          43.000
R21  22527976.352 5 120551759.367 5      2821.828          34.000
C05  39613668.039 5 206278764.271 5         -.746          35.000
C20  25442509.320 7 132485854.553 7      3096.676          45.000
C29  22178010.031 5 115486683.014 5      1228.531          34.000
C30  22287178.688 7 116055288.730 7     -1397.742          44.000
E13  23291020.055 8 122395154.836 8       367.715          51.000    23291021.516 8  93783375.406 8       281.747          51.000
E15  24542179.922 6 128970044.948 6     -1864.438          37.000    24542182.852 6  98821218.470 6     -1428.906          39.000
E21  24095436.625 7 126622390.196 7      -277.965          46.000    24095436.789 7  97022349.054 7      -213.037          44.000
E26  25515573.922 6 134085311.815 6      2241.164          38.000    25515583.281 7 102740691.976 7      1717.280          46.000
E27  25297384.047 8 132938629.283 8     -2772.707          50.000    25297387.789 8 101862063.005 8     -2124.587          51.000
> 2020 05 09 15 05 30.0000000  0 19        .000000000000
G10  22675392.805 8 119159986.098 8      2998.977          50.000    22675397.000 8  92851979.789 8      2336.865          50.000
G16  20464694.781 8 107542702.476 8       189.848          49.000    20464693.227 7  83799516.479 7       147.933          46.000
G18  21815510.859 5 114641355.005 5     -2577.102          35.000
G20  21154428.828 8 111167298.925 8      1123.555          50.000    21154428.344 7  86623929.657 7       875.497          47.000
G21  22112606.719 7 116202583.744 7     -2220.672          47.000    22112605.602 6  90547411.622 6     -1730.394          39.000
G26  20964358.766 8 110168436.457 8     -2024.137          51.000    20964361.531 8  85845537.041 8     -1577.249          51.000
R05  23124081.750 7 123611476.242 7      3907.383          45.000    23124086.633 6  96142284.811 6      3039.079          41.000
R09  21602289.703 7 115355025.778 7     -3990.723          43.000    21602293.070 6  89720563.818 6     -3103.898          39.000
R10  20190231.773 7 107625291.682 7     -1617.055          44.000
R21  22512173.672 5 120467190.946 5      2815.523          35.000
C05  39613672.875 5 206278788.952 5         -.121          35.000
C20  25424679.578 7 132393013.821 7      3093.090          44.000
C29  22170958.555 6 115449949.907 6      1221.109          36.000
C30  22295251.906 7 116097327.788 7     -1404.359          44.000
E13  23288944.602 8 122384248.633 8       359.660          51.000    23288945.875 8  93775018.704 8       275.602          51.000
E15  24552836.992 6 129026046.034 6     -1868.402          38.000    24552839.172 6  98864128.415 6     -1431.798          38.000
E21  24097067.234 7 126630958.973 7      -293.031          46.000    24097067.969 7  97028914.750 7      -224.369          45.000
E26  25502793.969 6 134018152.998 6      2236.590          38.000    25502803.898 7 102689232.662 7      1713.622          46.000
E27  25313236.508 8 133021933.619 8     -2780.562          50.000    25313240.359 8 101925893.565 8     -2130.561          51.000
> 2020 05 09 15 06  0.0000000  0 18        .000000000000
G10  22658303.672 8 119070180.893 8      2988.953          51.000    22658307.602 8  92782001.698 8      2329.054          51.000
G16  20463668.328 8 107537309.106 8       170.668          48.000    20463666.484 7  83795313.851 7       132.988          47.000
G18  21830252.953 5 114718825.172 5     -2586.348          35.000    21830252.406 5  89391236.100 5     -2015.321          34.000
G20  21148070.289 8 111133886.796 8      1104.922          48.000    21148070.125 7  86597894.238 7       860.978          46.000
G21  22125303.523 7 116269306.121 7     -2226.531          46.000    22125302.242 6  90599403.063 6     -1734.959          39.000
G26  20975961.648 8 110229409.997 8     -2039.820          51.000    20975964.258 8  85893048.869 8     -1589.473          51.000
R05  23102174.219 7 123494372.048 7      3900.523          45.000    23102180.070 6  96051203.827 6      3033.740          41.000
R09  21624747.812 7 115474946.349 7     -4002.938          44.000    21624751.469 6  89813835.283 6     -3113.399          40.000
R10  20199408.594 7 107674210.251 7     -1643.113          45.000
C05  39613681.359 5 206278833.043 5        -1.309          35.000
C20  25406871.609 7 132300289.208 7      3089.598          43.000
C29  22163946.664 5 115413438.747 5      1213.930          34.000
C30  22303364.320 7 116139569.823 7     -1410.707          45.000
E13  23286915.594 8 122373586.846 8       352.039          51.000    23286916.992 8  93766849.285 8       269.741          51.000
E15  24563516.852 6 129082168.189 6     -1872.094          37.000    24563518.445 6  98907131.097 6     -1434.372          38.000
E21  24098784.461 7 126639982.436 7      -307.551          46.000    24098785.844 7  97035828.846 7      -235.635          46.000
E26  25490042.648 6 133951142.608 6      2231.754          40.000    25490052.219 7 102637887.060 7      1710.204          46.000
E27  25329134.375 8 133105474.957 8     -2787.855          51.000    25329137.820 8 101989905.712 8     -2136.149          51.000
> 2020 05 09 15 06 30.0000000  0 17        .000000000000
G10  22641269.211 8 118980662.806 8      2978.730          51.000    22641272.117 8  92712247.350 8      2321.089          51.000
G16  20462748.688 8 107532476.370 8       151.266          49.000    20462746.906 8  83791548.066 8       117.866          48.000
G18  21845041.312 6 114796538.050 6     -2594.867          38.000
G20  21141815.172 7 111101019.433 7      1086.027          47.000    21141815.234 7  86572283.326 7       846.255          46.000
G21  22138031.047 7 116336190.272 7     -2232.641          44.000    22138029.469 6  90651520.594 6     -1739.720          40.000
G26  20987651.539 8 110290841.855 8     -2055.816          51.000    20987654.258 8  85940917.816 8     -1601.935          51.000
R05  23080300.969 7 123377450.977 7      3893.777          46.000    23080307.352 6  95960265.332 6      3028.497          40.000
R09  21647270.266 7 115595208.297 7     -4014.727          45.000    21647274.031 6  89907372.274 6     -3122.568          41.000
R10  20208727.914 7 107723887.730 7     -1668.859          46.000
C05  39613688.664 5 206278870.475 5        -1.391          35.000
C20  25389081.289 6 132207657.308 6      3085.852          41.000
C30  22311511.047 7 116181988.488 7     -1417.141          43.000
E13  23284928.117 8 122363142.763 8       344.129          51.000    23284929.750 8  93758846.678 8       263.701          51.000
E15  24574214.477 6 129138384.293 6     -1875.625          37.000    24574216.094 6  98950205.764 6     -1437.152          38.000
E21  24100583.500 7 126649434.510 7      -322.699          47.000    24100584.953 7  97043071.322 7      -247.197          46.000
E26  25477315.047 6 133884254.497 6      2227.031          39.000    25477323.617 7 102586635.176 7      1706.588          45.000
E27  25345072.094 8 133189225.481 8     -2795.551          51.000    25345074.781 8 102054078.127 8     -2142.042          51.000
> 2020 05 09 15 07  0.0000000  0 18        .000000000000
G10  22624293.695 8 118891454.199 8      2968.922          51.000    22624295.062 8  92642734.172 8      2313.449          51.000
G16  20461939.695 8 107528224.569 8       132.535          50.000    20461937.828 7  83788234.967 7       103.274          47.000
G18  21859879.055 6 114874511.299 6     -2603.238          40.000
G20  21135668.023 7 111068717.695 7      1067.730          47.000    21135668.555 7  86547113.142 7       831.998          45.000
G21  22150793.055 7 116403254.506 7     -2237.938          45.000    22150791.281 6  90703778.422 6     -1743.850          38.000
G26  20999432.070 8 110352750.116 8     -2071.125          51.000    20999434.859 8  85989157.984 8     -1613.864          51.000
R05  23058467.078 7 123260737.441 7      3887.379          47.000    23058473.148 6  95869488.224 6      3023.520          39.000
R09  21669859.461 7 115715827.001 7     -4026.066          42.000    21669863.227 7  90001186.726 7     -3131.388          42.000
R10  20218193.375 8 107774341.564 8     -1694.238          48.000
C05  39613698.234 5 206278920.755 5        -1.180          35.000
C20  25371313.016 6 132115140.062 6      3082.332          41.000
C29  22150035.000 5 115341044.997 5      1201.055          30.000
C30  22319695.352 6 116224602.885 6     -1423.199          41.000
E13  23282985.695 8 122352935.501 8       336.789          51.000    23282987.523 8  93751025.523 8       258.011          51.000
E15  24584933.336 5 129194713.246 5     -1879.203          34.000    24584935.719 6  98993366.859 6     -1439.870          38.000
E21  24102468.094 7 126659334.797 7      -337.105          47.000    24102468.859 7  97050657.278 7      -258.254          46.000
E26  25464614.297 6 133817508.475 6      2222.828          41.000    25464622.039 7 102535492.136 7      1703.359          45.000
E27  25361052.812 8 133273203.255 8     -2802.602          51.000    25361054.352 8 102118424.656 8     -2147.445          50.000
> 2020 05 09 15 07 30.0000000  0 17        .000000000000
G10  22607372.492 8 118802532.984 8      2958.508          50.000    22607372.961 8  92573445.009 8      2305.337          50.000
G16  20461236.664 8 107524529.491 8       113.238          50.000    20461234.852 8  83785355.681 8        88.238          49.000
G18  21874761.297 6 114952717.897 6     -2611.430          39.000
G20  21129624.070 7 111036958.010 7      1049.000          46.000    21129624.938 7  86522365.370 7       817.403          45.000
G21  22163584.344 7 116470472.661 7     -2244.027          43.000    22163582.727 6  90756156.191 6     -1748.593          37.000
G26  21011298.164 8 110415108.469 8     -2086.824          50.000    21011301.219 8  86037748.884 8     -1626.100          50.000
R05  23036668.469 7 123144211.083 7      3880.336          47.000    23036673.992 6  95778856.700 6      3018.042          40.000
R09  21692509.617 6 115836773.097 6     -4037.820          39.000    21692513.289 7  90095255.876 7     -3140.527          42.000
R10  20227799.656 8 107825544.682 8     -1720.016          49.000
C05  39613705.555 5 206278959.322 5        -1.660          35.000
C20  25353562.852 6 132022715.393 6      3078.605          41.000
C30  22327912.078 6 116267387.963 6     -1429.824          41.000
E13  23281083.305 8 122342939.656 8       329.102          51.000    23281085.375 8  93743366.365 8       252.163          51.000
E15  24595669.195 5 129251113.286 5     -1882.504          30.000    24595671.125 6  99036594.692 6     -1442.339          38.000
E21  24104432.758 7 126669658.578 7      -351.762          45.000    24104433.359 7  97058567.698 7      -269.508          46.000
E26  25451935.977 6 133750879.831 6      2218.277          41.000    25451942.430 7 102484439.063 7      1699.749          44.000
E27  25377071.453 8 133357381.870 8     -2809.801          51.000    25377072.016 8 102182925.066 8     -2152.898          50.000
> 2020 05 09 15 08  0.0000000  0 17        .000000000000
G10  22590510.203 8 118713922.751 8      2948.355          49.000    22590510.516 8  92504398.164 8      2297.423          49.000
G16  20460643.688 8 107521412.888 8        94.234          50.000    20460641.852 8  83782927.151 8        73.429          49.000
G18  21889691.516 6 115031176.713 6     -2619.352          38.000    21889690.852 4  89634612.675 4     -2041.062          28.000
G20  21123687.828 8 111005762.639 8      1030.398          48.000    21123688.211 7  86498057.279 7       802.905          44.000
G21  22176408.375 7 116537863.292 7     -2249.164          42.000    22176407.078 6  90808668.357 6     -1752.595          38.000
G26  21023253.797 8 110477936.187 8     -2102.059          50.000    21023257.008 8  86086705.530 8     -1637.968          50.000
R05  23014909.852 8 123027897.523 8      3873.477          48.000    23014914.562 6  95688390.675 6      3012.707          41.000
R09  21715221.500 5 115958063.422 5     -4048.918          31.000    21715226.531 6  90189592.813 6     -3149.158          41.000
R10  20237549.977 8 107877515.602 8     -1745.137          48.000
C05  39613714.602 5 206279006.790 5        -1.535          35.000
C20  25335835.320 7 131930406.526 7      3074.992          43.000
C30  22336164.812 6 116310364.122 6     -1435.582          36.000
E13  23279225.125 8 122333175.592 8       321.562          51.000    23279227.445 8  93735884.808 8       246.446          51.000
E15  24606426.102 5 129307639.514 5     -1885.695          34.000    24606426.484 6  99079904.658 6     -1444.937          38.000
E21  24106481.469 7 126680426.723 7      -366.402          45.000    24106482.586 7  97066818.593 7      -280.660          47.000
E26  25439283.805 7 133684389.481 7      2214.148          42.000    25439289.109 7 102433491.943 7      1696.612          44.000
E27  25393131.766 8 133441780.577 8     -2816.926          51.000    25393132.500 8 102247594.143 8     -2158.394          51.000
> 2020 05 09 15 08 30.0000000  0 18        .000000000000
G10  22573704.336 8 118625610.510 8      2939.594          48.000    22573705.477 8  92435583.511 8      2290.593          48.000
G16  20460157.805 8 107518859.272 8        76.379          51.000    20460155.953 8  83780937.305 8        59.516          49.000
G18  21904666.078 5 115109869.897 5     -2626.828          31.000
G20  21117856.570 8 110975116.532 8      1013.070          49.000    21117856.469 7  86474177.223 7       789.402          45.000
G21  22189261.852 6 116605409.352 6     -2253.523          40.000    22189260.938 6  90861301.673 6     -1755.992          38.000
G26  21035295.492 8 110541215.890 8     -2116.160          50.000    21035298.906 8  86136014.413 8     -1648.956          50.000
R05  22993188.969 8 122911785.257 8      3867.656          49.000    22993193.125 7  95598081.250 7      3008.180          42.000
R09  21737994.875 6 116079677.655 6     -4058.832          38.000    21738000.875 6  90284181.730 6     -3156.869          41.000
R10  20247440.234 8 107930235.627 8     -1769.125          48.000
C05  39613722.391 5 206279046.541 5         -.719          35.000
C20  25318128.008 7 131838200.244 7      3072.562          44.000
C29  22129471.562 5 115233927.877 5      1180.762          34.000
C30  22344450.289 5 116353515.249 5     -1440.824          34.000
E13  23277408.164 8 122323627.011 8       315.348          51.000    23277410.578 8  93728568.372 8       241.585          51.000
E15  24617199.391 5 129364256.278 5     -1887.945          34.000    24617199.516 6  99123284.064 6     -1446.311          37.000
E21  24108611.625 7 126691623.490 7      -379.703          45.000    24108613.328 7  97075397.914 7      -290.977          47.000
E26  25426654.703 7 133618021.847 7      2210.758          43.000    25426660.047 7 102382638.880 7      1694.050          44.000
E27  25409230.703 8 133526382.060 8     -2822.832          51.000    25409232.531 8 102312418.583 8     -2162.877          51.000
> 2020 05 09 15 09  0.0000000  0 18        .000000000000
G10  22556959.781 8 118537619.418 8      2927.820          49.000    22556962.047 8  92367019.074 8      2281.421          49.000
G16  20459783.188 8 107516889.550 8        56.074          51.000    20459781.344 8  83779402.456 8        43.694          50.000
G18  21919688.289 5 115188815.894 5     -2635.988          33.000
G20  21112134.008 8 110945041.313 8       993.227          51.000    21112133.297 7  86450742.019 7       773.943          46.000
G21  22202148.586 6 116673129.801 6     -2259.965          41.000    22202147.805 6  90914070.896 6     -1761.012          38.000
G26  21047426.828 8 110604966.506 8     -2132.609          50.000    21047430.188 8  86185690.222 8     -1661.774          51.000
R05  22971510.414 8 122795899.540 8      3859.227          49.000    22971514.391 7  95507948.047 7      3001.624          43.000
R09  21760834.852 6 116201632.644 6     -4070.773          41.000    21760839.062 6  90379035.503 6     -3166.160          39.000
R10  20257474.844 8 107983722.720 8     -1795.547          48.000
C05  39613732.898 5 206279100.724 5        -1.254          35.000
C20  25300445.266 7 131746119.333 7      3067.398          45.000
C29  22122694.594 5 115198645.638 5      1172.656          31.000
C30  22352773.914 6 116396861.234 6     -1447.828          36.000
E13  23275635.820 8 122314313.787 8       306.793          51.000    23275638.211 8  93721432.283 8       235.063          51.000
E15  24627993.500 5 129420980.332 5     -1892.273          34.000    24627993.680 6  99166747.912 6     -1449.948          37.000
E21  24110827.281 7 126703269.228 7      -395.512          45.000    24110829.523 7  97084321.290 7      -303.036          47.000
E26  25414053.039 7 133551797.500 7      2205.215          44.000    25414057.742 7 102331895.602 7      1689.836          43.000
E27  25425371.945 8 133611205.127 8     -2830.836          51.000    25425375.133 8 102377412.834 8     -2169.094          51.000
> 2020 05 09 15 09 30.0000000  0 18        .000000000000
G10  22540273.633 8 118449933.645 8      2918.016          50.000    22540276.430 8  92298692.521 8      2273.778          49.000
G16  20459516.078 8 107515485.809 8        37.562          51.000    20459514.398 8  83778308.628 8        29.269          50.000
G18  21934755.523 6 115267994.160 6     -2642.879          37.000
G20  21106516.703 8 110915519.737 8       974.996          51.000    21106515.242 7  86427738.194 7       759.737          46.000
G21  22215064.859 6 116741005.055 6     -2264.727          40.000    22215063.531 6  90966960.670 6     -1764.725          36.000
G26  21059643.953 8 110669167.941 8     -2147.258          51.000    21059646.898 8  86235717.272 8     -1673.191          51.000
R05  22949871.508 8 122680226.345 8      3852.379          50.000    22949875.508 7  95417980.118 7      2996.298          44.000
R09  21783734.828 7 116323904.916 7     -4080.758          42.000    21783736.258 6  90474136.033 6     -3173.926          37.000
R10  20267649.094 7 108037956.373 7     -1820.020          47.000
C05  39613742.484 5 206279151.062 5        -1.590          35.000
C20  25282783.820 7 131654147.960 7      3064.000          45.000
C29  22115955.273 4 115163562.305 4      1166.375          28.000
C30  22361131.852 5 116440383.347 5     -1453.559          33.000
E13  23273904.578 8 122305216.854 8       299.883          51.000    23273906.648 8  93714461.921 8       229.714          50.000
E15  24638805.398 5 129477795.240 5     -1895.230          33.000    24638805.672 6  99210281.448 6     -1452.267          37.000
E21  24113124.648 7 126715345.454 7      -409.316          43.000    24113127.602 7  97093574.501 7      -313.728          47.000
E26  25401474.625 7 133485697.948 7      2201.633          42.000    25401478.805 7 102281247.929 7      1686.735          44.000
E27  25441551.461 8 133696229.664 8     -2837.254          51.000    25441556.031 8 102442561.452 8     -2173.973          51.000
> 2020 05 09 15 10  0.0000000  0 18        .000000000000
G10  22523646.938 8 118362559.846 8      2906.809          51.000    22523649.516 8  92230609.073 8      2265.046          51.000
G16  20459357.406 8 107514652.644 8        17.836          51.000    20459355.938 8  83777659.399 8        13.898          50.000
G18  21949867.297 5 115347406.663 5     -2651.453          34.000
G20  21101005.484 8 110886556.822 8       955.746          51.000    21101004.125 8  86405169.703 8       744.737          48.000
G21  22228010.938 6 116809036.688 6     -2270.473          41.000    22228009.320 5  91019972.278 5     -1769.199          33.000
G26  21071947.336 8 110733822.500 8     -2163.109          51.000    21071949.672 8  86286097.390 8     -1685.543          51.000
R05  22928273.781 8 122564774.077 8      3844.262          50.000    22928277.930 7  95328184.025 7      2989.987          44.000
R09  21806693.547 6 116446494.279 6     -4091.883          39.000    21806693.320 6  90569483.159 6     -3182.579          36.000
R10  20277963.188 7 108092937.853 7     -1845.621          47.000
R21  22371494.359 5 119714389.720 5      2760.109          32.000    22371502.688 4  93111223.116 4      2146.752          28.000
C05  39613751.805 6 206279200.427 6        -2.125          36.000
C20  25265144.578 7 131562292.514 7      3059.363          46.000
C30  22369523.320 6 116484085.236 6     -1460.316          37.000
E13  23272215.453 8 122296339.631 8       291.844          51.000    23272217.266 8  93707659.890 8       223.603          51.000
E15                                                                  24649636.297 6  99253886.996 6     -1454.970          38.000
E21  24115504.742 7 126727856.128 7      -424.762          44.000    24115508.539 7  97103160.565 7      -325.356          47.000
E26  25388919.633 6 133419727.264 6      2196.562          41.000    25388924.445 7 102230698.989 7      1682.988          44.000
E27  25457769.539 8 133781457.972 8     -2844.762          51.000    25457775.383 8 102507866.218 8     -2179.708          51.000
> 2020 05 09 15 10 30.0000000  0 17        .000000000000
G10  22507083.461 8 118275518.602 8      2896.230          51.000    22507085.250 8  92162784.754 8      2256.803          51.000
G16  20459310.977 8 107514408.747 8        -1.285          51.000    20459309.641 8  83777469.337 8        -1.001          50.000
G18  21965026.148 4 115427069.167 4     -2659.074          28.000
G20  21095603.914 8 110858171.307 8       936.996          51.000    21095602.773 8  86383051.147 8       730.127          48.000
G21  22240989.875 6 116877241.113 6     -2276.086          39.000    22240988.180 5  91073118.586 5     -1773.573          35.000
G26  21084340.016 8 110798946.449 8     -2178.137          51.000    21084342.227 8  86336843.250 8     -1697.252          51.000
R05  22906721.500 8 122449565.505 8      3836.574          50.000    22906725.594 7  95238577.445 7      2984.005          43.000
R09  21829713.148 6 116569414.460 6     -4102.621          36.000    21829712.023 5  90665087.659 5     -3190.928          34.000
R10  20288420.570 8 108148682.361 8     -1870.473          48.000
C05  39613764.312 5 206279265.452 5        -1.816          35.000
C20  25247531.508 7 131470573.208 7      3055.461          46.000
C30  22377953.484 6 116527984.180 6     -1466.227          36.000
E13  23270571.586 8 122287699.439 8       284.539          50.000    23270573.680 8  93701039.481 8       218.056          51.000
E15                                                                  24660487.953 6  99297577.699 6     -1457.146          38.000
E21  24117971.438 7 126740818.989 7      -439.176          44.000    24117976.008 7  97113093.143 7      -336.478          47.000
E26  25376392.359 6 133353903.398 6      2191.969          39.000    25376397.547 7 102180262.545 7      1679.791          42.000
E27  25474029.086 8 133866906.293 8     -2851.371          50.000    25474035.922 8 102573339.579 8     -2184.811          51.000
> 2020 05 09 15 11  0.0000000  0 17        .000000000000
G10  22490577.039 8 118188777.470 8      2886.023          50.000    22490578.461 8  92095194.279 8      2248.849          50.000
G16  20459370.047 8 107514719.002 8       -19.863          51.000    20459368.703 8  83777711.098 8       -15.478          50.000
G20  21090305.766 8 110830329.225 8       918.781          51.000    21090304.547 8  86361356.021 8       715.933          48.000
G21  22253994.516 6 116945581.682 6     -2280.371          39.000    22253993.375 6  91126370.965 6     -1776.913          38.000
G26  21096815.062 8 110864502.962 8     -2192.730          50.000    21096817.547 8  86387926.188 8     -1708.624          50.000
R05  22885208.828 8 122334569.448 8      3829.270          50.000    22885212.797 7  95149136.169 7      2978.324          42.000
R09  21852784.523 5 116692625.482 5     -4112.418          32.000    21852784.688 5  90760918.384 5     -3198.550          30.000
R10  20299013.789 7 108205151.742 7     -1894.590          47.000
R21  22340624.570 5 119549197.521 5      2749.105          30.000
C05  39613773.344 5 206279312.383 5        -1.098          35.000
C20  25229938.367 7 131378957.777 7      3051.844          47.000
C30  22386415.539 6 116572044.866 6     -1471.676          39.000
E13  23268965.766 8 122279260.584 8       277.727          50.000    23268968.188 8  93694573.364 8       212.791          50.000
E15                                                                  24671353.594 6  99341326.023 6     -1459.430          37.000
E21  24120517.703 7 126754198.879 7      -453.066          45.000    24120522.859 7  97123345.245 7      -347.236          47.000
E26  25363887.328 6 133288191.304 6      2188.453          41.000    25363891.938 7 102129911.756 7      1676.768          42.000
E27  25490323.492 8 133952537.881 8     -2857.656          50.000    25490330.820 8 102638953.362 8     -2189.582          51.000
> 2020 05 09 15 11 30.0000000  0 18        .000000000000
G10  22474137.336 8 118102386.907 8      2875.281          50.000    22474139.500 8  92027876.979 8      2240.479          49.000
G16  20459543.727 8 107515631.754 8       -38.961          51.000    20459542.500 8  83778422.337 8       -30.359          50.000
G18  21995475.227 5 115587003.069 5     -2673.961          35.000
G20  21085120.242 8 110803079.177 8       899.934          51.000    21085118.906 8  86340122.225 8       701.247          48.000
G21  22267034.023 6 117014105.713 6     -2285.688          40.000    22267033.289 5  91179766.317 5     -1781.055          32.000
G26  21109381.078 8 110930538.197 8     -2207.781          50.000    21109383.531 8  86439382.177 8     -1720.349          50.000
R05  22863745.703 8 122219839.161 8      3821.250          49.000    22863749.297 6  95059901.603 6      2972.086          40.000
R09  21875919.273 5 116816171.746 5     -4122.383          31.000    21875918.328 4  90857009.790 4     -3206.298          28.000
R10  20309751.461 7 108262392.032 7     -1919.375          47.000
C05  39613787.938 6 206279387.622 6        -1.438          36.000
C20  25212374.656 8 131287496.070 8      3047.555          48.000
C29  22089406.695 4 115025337.472 4      1139.242          29.000
C30  22394917.547 6 116616314.352 6     -1477.641          40.000
E13  23267407.102 8 122271070.321 8       270.398          50.000    23267409.297 8  93688297.714 8       207.239          50.000
E15                                                                  24682241.672 6  99385167.953 6     -1461.953          37.000
E21  24123152.875 7 126768043.504 7      -467.660          46.000    24123157.531 7  97133953.460 7      -358.412          47.000
E26  25351413.992 7 133222638.891 7      2184.008          42.000    25351417.039 7 102079683.307 7      1673.392          42.000
E27  25506662.195 8 134038398.931 8     -2864.266          51.000    25506669.016 8 102704742.952 8     -2194.670          51.000
> 2020 05 09 15 12  0.0000000  0 17        .000000000000
G10  22457754.289 8 118016292.149 8      2864.406          51.000    22457757.242 8  91960790.189 8      2232.005          50.000
G16  20459821.070 8 107517089.988 8       -58.246          51.000    20459820.094 8  83779558.622 8       -45.387          51.000
G18  22010763.688 5 115667336.114 5     -2681.383          34.000
G20  21080036.586 8 110776364.802 8       881.113          51.000    21080035.500 8  86319305.853 8       686.585          49.000
G21  22280097.305 6 117082753.144 6     -2290.816          41.000    22280096.406 5  91233257.819 5     -1785.055          32.000
G26  21122026.859 8 110996992.994 8     -2222.625          49.000    21122029.375 8  86491165.145 8     -1731.916          49.000
R05  22842322.664 8 122105320.792 8      3813.172          49.000    22842325.922 6  94970831.878 6      2965.806          40.000
R10  20320622.273 8 108320341.910 8     -1944.070          48.000
C05  39613797.273 5 206279436.185 5        -1.984          35.000
C20  25194829.625 7 131196133.690 7      3043.195          47.000
C29  22082862.055 5 114991259.166 5      1132.254          31.000
C30  22403448.852 6 116660735.410 6     -1484.070          40.000
E13  23265884.945 8 122263070.669 8       263.051          51.000    23265886.672 8  93682168.119 8       201.600          50.000
E15                                                                  24693140.930 6  99429058.863 6     -1463.976          36.000
E21  24125865.320 7 126782295.388 7      -482.309          47.000    24125869.219 7  97144873.717 7      -369.492          47.000
E26  25338960.414 7 133157188.802 7      2179.492          44.000    25338962.398 7 102029533.280 7      1670.105          43.000
E27  25523033.688 8 134124430.389 8     -2870.949          51.000    25523039.320 8 102770663.096 8     -2199.830          51.000
> 2020 05 09 15 12 30.0000000  0 17        .000000000000
G10  22441436.625 8 117930538.566 8      2853.707          51.000    22441439.625 8  91893969.233 8      2223.668          51.000
G16  20460210.469 8 107519136.888 8       -77.180          51.000    20460209.711 8  83781153.605 8       -60.140          51.000
G18  22026096.258 4 115747916.145 4     -2689.703          29.000
G20  21075063.203 8 110750229.961 8       862.375          51.000    21075062.258 8  86298941.063 8       671.981          48.000
G21  22293191.977 7 117151564.773 7     -2295.570          43.000    22293190.609 5  91286877.255 5     -1788.756          30.000
G26  21134760.219 8 111063908.411 8     -2237.363          48.000    21134763.281 8  86543307.059 8     -1743.400          48.000
R05  22820948.297 8 121991062.182 8      3805.066          50.000    22820951.594 6  94881964.156 6      2959.499          41.000
R10  20331634.562 8 108379042.173 8     -1968.301          49.000
R21  22294560.320 4 119302694.736 4      2729.777          29.000
C05  39613809.414 5 206279500.254 5        -1.512          35.000
C20  25177311.352 7 131104915.462 7      3039.078          45.000
C30  22412017.242 6 116705349.884 6     -1489.223          38.000
E13  23264407.164 8 122255303.795 8       255.863          50.000    23264409.070 8  93676216.876 8       196.120          51.000
E15                                                                  24704059.156 6  99473030.937 6     -1466.799          36.000
E21  24128663.242 7 126796997.063 7      -496.664          47.000    24128666.125 7  97156138.633 7      -380.546          47.000
E26  25326534.719 6 133091883.786 6      2175.387          41.000    25326536.172 7 101979494.427 7      1666.834          43.000
E27  25539445.492 8 134210673.257 8     -2877.422          51.000    25539449.461 8 102836745.215 8     -2204.727          50.000
> 2020 05 09 15 13  0.0000000  0 16        .000000000000
G10  22425179.008 8 117845101.183 8      2841.645          51.000    22425181.805 8  91827394.689 8      2214.268          51.000
G16  20460706.828 8 107521745.259 8       -97.234          51.000    20460706.070 8  83783186.104 8       -75.767          51.000
G18  22041469.312 5 115828699.129 5     -2696.914          35.000
G20  21070194.875 8 110724647.694 8       842.688          51.000    21070193.953 8  86279006.829 8       656.640          48.000
G21  22306312.422 7 117220512.095 7     -2301.297          42.000    22306310.648 5  91340602.390 5     -1793.221          31.000
G26  21147575.945 8 111131255.129 8     -2252.996          49.000    21147579.555 8  86595785.011 8     -1755.581          50.000
R05  22799618.000 8 121877040.134 8      3795.754          48.000    22799621.680 6  94793280.452 6      2952.256          41.000
R10  20342781.867 8 108438462.180 8     -1993.574          49.000
C05  39613819.141 5 206279550.585 5        -2.613          35.000
C20  25159815.375 7 131013816.512 7      3033.770          45.000
C30  22420616.500 6 116750130.180 6     -1496.449          38.000
E13  23262968.078 8 122247741.484 8       247.742          50.000    23262970.500 8  93670422.395 8       189.900          51.000
E15                                                                  24714992.984 5  99517062.335 5     -1469.412          35.000
E21  24131541.812 8 126812120.778 8      -511.941          48.000    24131543.555 8  97167726.905 8      -392.294          48.000
E26  25314130.680 6 133026696.264 6      2170.238          40.000    25314132.766 7 101929545.627 7      1662.766          42.000
E27  25555891.859 8 134297098.274 8     -2884.691          50.000    25555894.125 8 102902966.902 8     -2210.291          50.000
> 2020 05 09 15 13 30.0000000  0 17        .000000000000
G10  22408986.609 8 117760008.311 8      2830.836          51.000    22408988.883 8  91761088.593 8      2205.849          51.000
G16  20461315.086 8 107524941.275 8      -116.164          51.000    20461314.258 8  83785676.498 8       -90.517          51.000
G18  22056886.594 5 115909716.101 5     -2705.090          32.000
G20  21065436.789 8 110699644.843 8       824.059          51.000    21065436.086 8  86259524.093 8       642.124          48.000
G21  22319463.008 6 117289619.281 6     -2305.832          39.000    22319461.227 6  91394452.151 6     -1796.758          37.000
G26  21160478.688 8 111199057.075 8     -2267.336          51.000    21160482.305 8  86648617.680 8     -1766.755          51.000
R05  22778337.219 7 121763285.085 7      3787.441          47.000    22778341.328 6  94704804.423 6      2945.791          40.000
R09  21969014.453 5 117313284.452 5     -4161.770          32.000    21969011.141 6  91243670.607 6     -3236.935          39.000
R10  20354068.070 8 108498625.066 8     -2017.590          48.000
C05  39613831.242 5 206279613.484 5        -1.957          35.000
C20  25142347.938 7 130922864.745 7      3029.465          46.000
C30  22429252.859 6 116795101.204 6     -1501.754          39.000
E13  23261572.797 8 122240408.844 8       240.812          50.000    23261575.156 8  93664803.897 8       184.513          50.000
E15  24725946.594 5 129935718.218 5     -1920.016          32.000    24725947.570 5  99561172.165 5     -1471.280          35.000
E21  24134505.617 8 126827692.108 8      -526.246          49.000    24134506.695 8  97179658.146 8      -403.237          48.000
E26  25301753.773 6 132961652.109 6      2165.969          40.000    25301755.852 6 101879706.599 6      1659.791          39.000
E27  25572377.477 8 134383729.496 8     -2890.855          50.000    25572378.656 8 102969346.597 8     -2215.104          50.000
> 2020 05 09 15 14  0.0000000  0 18        .000000000000
G10  22392858.406 8 117675253.721 8      2819.730          51.000    22392859.648 8  91695046.071 8      2197.196          51.000
G16  20462033.414 8 107528716.082 8      -135.316          51.000    20462032.477 8  83788617.889 8      -105.444          51.000
