     3.02           OBSERVATION DATA    M (MIXED)           RINEX VERSION / TYPE
SAVERINEX           SC600               20200505 085930 LCL PGM / RUN BY / DATE
       G = GPS       R = GLONASS       C = COMPASS          COMMENT
       S = SBAS      J = QZSS          E = GALILEO          COMMENT
BEAN                                                        MARKER NAME
1                                                           MARKER NUMBER
GEODETIC                                                    MARKER TYPE
Unige DICCA         GTER                                    OBSERVER / AGENCY
SC60291900056       SC600               2.12(191226)        REC # / TYPE / VERS
                    HEMA45          NONE                    ANT # / TYPE
  4509407.8091   693652.4678  4442337.6214                  APPROX POSITION XYZ
        0.0000        0.0000        0.0000                  ANTENNA: DELTA H/E/N
G    8 C1C L1C D1C S1C C2Y L2Y D2Y S2Y                      SYS / # / OBS TYPES
R    8 C1C L1C D1C S1C C2P L2P D2P S2P                      SYS / # / OBS TYPES
C    8 C1I L1I D1I S1I C7I L7I D7I S7I                      SYS / # / OBS TYPES
E    8 C1C L1C D1C S1C C7Q L7Q D7Q S7Q                      SYS / # / OBS TYPES
DBHZ                                                        COMMENT
     30.000                                                 INTERVAL
  2020    05    05    06    00    0.0000000     GPS         TIME OF FIRST OBS
  2020    05    05    06    59   30.0000000     GPS         TIME OF LAST OBS
     0                                                      RCV CLOCK OFFS APPL
G L1C  0.00000                                              SYS / PHASE SHIFT
G L2Y  0.00000                                              SYS / PHASE SHIFT
R L1C  0.00000                                              SYS / PHASE SHIFT
R L2P  0.25000                                              SYS / PHASE SHIFT
C L1I  0.00000                                              SYS / PHASE SHIFT
C L7I  0.00000                                              SYS / PHASE SHIFT
E L1C  0.50000                                              SYS / PHASE SHIFT
E L7Q -0.25000                                              SYS / PHASE SHIFT
 14 R04  6 R05  1 R06 -4 R07  5 R08  6 R09 -2 R10 -7 R11  0 GLONASS SLOT / FRQ #
    R15  0 R16 -1 R17  4 R18 -3 R19  3 R20  2               GLONASS SLOT / FRQ #
 C1C   71.950 C2C   71.950 C2P   71.950                     GLONASS COD/PHS/BIS
    18                                                      LEAP SECONDS
*** Above antenna height is from mark to ANTENNA BOTTOM.    COMMENT
    17     4        0.0000        ANT MEASURE TYPE/HEIGT    COMMENT
    0.0000    0.0000    0.0458    0.0405    0.0000          COMMENT
                    BASE STATION                            COMMENT
                                                            END OF HEADER
> 2020 05 05 06 00  0.0000000  0 17        .000000000000
G13  20411981.070 8 107265666.613 8     -1179.242          51.000    20411979.734 8  83583640.037 8      -918.890          49.000
G15  20341894.391 8 106897373.141 8       409.320          51.000    20341893.859 8  83296653.954 8       318.951          51.000
G19  24104856.516 7 126671884.227 7      3357.578          46.000    24104856.312 7  98705328.835 7      2616.298          43.000
G24  22316359.281 4 117273225.685 4      2604.098          29.000
G28  21743767.836 7 114264257.542 7     -2122.434          43.000    21743765.516 6  89037065.304 6     -1653.844          39.000
R06  22149811.117 5 118195542.152 5     -4256.941          35.000
R07  19451719.617 8 104126549.415 8     -1215.242          51.000    19451718.984 7  80987329.605 7      -945.191          43.000
R09  19331474.672 6 103228996.757 6        -7.738          41.000    19331473.992 5  80289214.663 5        -6.019          33.000
R10  20908637.453 4 111454771.836 4      2450.160          29.000
C05  39765707.383 6 207070472.693 6        22.918          36.000    39765705.484 6 160119989.036 6        17.719          39.000
C21  22833139.836 8 118898225.532 8     -2019.215          51.000
C22  26136376.398 5 136098963.450 5     -3497.289          31.000
C26  22687273.844 6 118138641.761 6      1816.570          37.000
E07  23520338.500 8 123600236.926 8      -260.926          51.000    23520341.508 8  94706655.903 8      -199.918          51.000
E08  23632807.906 8 124191215.275 8     -2608.930          51.000    23632806.523 8  95159493.191 8     -1999.056          51.000
E27  25393255.461 8 133442449.208 8      2306.305          49.000    25393259.023 8 102248134.364 8      1767.133          51.000
E30  22044065.844 8 115842324.492 8       -54.523          51.000    22044067.484 8  88762314.554 8       -41.784          51.000
> 2020 05 05 06 00 30.0000000  0 16        .000000000000
G13  20418787.430 8 107301434.191 8     -1196.258          51.000    20418786.242 8  83611510.879 8      -932.149          49.000
G15  20339639.047 8 106885521.009 8       389.961          51.000    20339638.609 8  83287418.522 8       303.866          51.000
G19  24085732.414 7 126571384.745 7      3351.395          47.000    24085731.375 6  98627017.560 6      2611.476          41.000
G28  21755950.023 7 114328275.139 7     -2136.082          43.000    21755947.062 6  89086949.102 6     -1664.480          36.000
R06  22173796.039 5 118323542.138 5     -4267.164          35.000
R07  19458634.391 8 104163562.642 8     -1243.086          51.000    19458632.984 7  81016117.634 7      -966.845          44.000
R09  19331594.500 6 103229641.472 6       -25.926          40.000    19331594.930 5  80289716.142 5       -20.164          35.000
R10  20894910.875 5 111381617.908 5      2435.992          35.000
C05  39765605.961 6 207069944.749 6        21.152          36.000    39765604.055 6 160119580.815 6        16.547          39.000
C21  22844843.359 8 118959166.182 8     -2034.441          51.000
C26  22676862.070 5 118084421.807 5      1806.988          35.000
E02  25524026.000 5 134129661.438 5     -2327.250          34.000
E07  23521894.531 8 123608413.479 8      -275.148          51.000    23521897.484 8  94712921.047 8      -210.783          51.000
E08  23647752.984 8 124269748.754 8     -2617.531          51.000    23647751.711 8  95219668.148 8     -2005.611          51.000
E27  25380139.797 8 133373525.687 8      2297.707          50.000    25380143.406 8 102195322.817 8      1760.596          50.000
E30  22044438.117 8 115844280.184 8       -66.742          51.000    22044439.719 8  88763813.067 8       -51.095          51.000
> 2020 05 05 06 01  0.0000000  0 17        .000000000000
G13  20425650.617 8 107337501.034 8     -1211.074          51.000    20425650.016 8  83639614.902 8      -943.694          50.000
G15  20337454.430 8 106874041.035 8       372.535          51.000    20337454.078 8  83278473.056 8       290.284          51.000
G17  23129996.031 5 121548951.100 5      2009.031          33.000    23129993.008 5  94713452.536 5      1565.482          31.000
G19  24066603.664 7 126470861.392 7      3347.145          45.000    24066602.648 7  98548687.703 7      2608.168          43.000
G28  21768169.844 6 114392490.900 6     -2147.750          40.000    21768166.875 6  89136987.359 6     -1673.568          40.000
R06  22197801.430 6 118451650.964 6     -4276.047          36.000
R07  19465664.406 8 104201193.410 8     -1268.586          51.000    19465662.766 7  81045386.035 7      -986.678          46.000
R09  19331775.766 6 103230610.294 6       -42.125          40.000    19331776.727 6  80290469.611 6       -32.767          37.000
R10  20881231.359 6 111308694.597 6      2422.852          39.000
C05  39765474.273 6 207069259.249 6        21.758          36.000    39765472.367 6 160119050.765 6        16.628          38.000
C21  22856593.977 8 119020355.307 8     -2047.539          51.000
C26  22666463.117 5 118030276.118 5      1800.090          31.000
E02  25537322.484 5 134199508.052 5     -2331.922          35.000
E07  23523492.617 8 123616809.648 8      -287.500          51.000    23523495.406 8  94719354.473 8      -220.250          51.000
E08  23662707.336 8 124348332.970 8     -2624.230          51.000    23662705.867 8  95279882.006 8     -2010.759          51.000
E27  25367034.234 8 133304654.116 8      2290.977          51.000    25367037.109 8 102142551.092 8      1755.445          49.000
E30  22044840.086 8 115846393.557 8       -76.973          51.000    22044841.641 8  88765432.415 8       -58.988          51.000
> 2020 05 05 06 01 30.0000000  0 16        .000000000000
G13  20432611.945 8 107374083.114 8     -1228.625          51.000    20432611.547 8  83668120.413 8      -957.370          50.000
G15  20335381.930 8 106863149.941 8       352.535          51.000    20335381.438 8  83269986.475 8       274.703          51.000
G19  24047511.703 7 126370533.587 7      3340.332          45.000    24047510.594 7  98470510.230 7      2602.856          43.000
G28  21780467.586 6 114457118.560 6     -2161.820          41.000    21780465.906 6  89187346.605 6     -1684.535          39.000
R06  22221868.695 6 118580084.527 6     -4287.090          37.000
R07  19472850.000 8 104239660.806 8     -1296.898          50.000    19472849.375 8  81075305.115 8     -1008.699          48.000
R09  19332058.117 6 103232121.206 6       -59.859          39.000    19332060.844 6  80291644.761 6       -46.557          39.000
R10  20867636.031 6 111236221.573 6      2407.316          38.000
C05  39765353.508 6 207068630.151 6        19.250          36.000    39765351.469 6 160118564.281 6        14.810          39.000
C21  22868432.555 8 119082005.218 8     -2063.344          51.000
C22  26196885.688 5 136414054.541 5     -3502.961          31.000
C26  22656118.703 4 117976418.974 4      1789.367          29.000
E07  23525173.867 8 123625641.720 8      -302.418          51.000    23525176.078 8  94726121.903 8      -231.666          51.000
E08  23677711.727 8 124427182.763 8     -2633.371          51.000    23677710.391 8  95340299.368 8     -2017.766          51.000
E27  25353979.906 8 133236050.939 8      2281.641          51.000    25353981.914 8 102089985.027 8      1748.249          49.000
E30  22045313.125 8 115848879.851 8       -89.789          51.000    22045314.508 8  88767337.482 8       -68.755          51.000
> 2020 05 05 06 02  0.0000000  0 16        .000000000000
G13  20439659.156 8 107411115.921 8     -1243.016          51.000    20439658.430 8  83696977.148 8      -968.584          50.000
G15  20333409.492 8 106852784.537 8       335.660          51.000    20333408.586 8  83261909.533 8       261.553          51.000
G19  24028445.203 7 126270340.077 7      3336.445          45.000    24028444.883 7  98392437.372 7      2599.831          43.000
G28  21792831.617 7 114522092.145 7     -2172.703          43.000    21792830.617 6  89237975.366 6     -1693.015          38.000
R06  22245984.359 6 118708773.888 6     -4295.047          37.000
R07  19480179.320 8 104278898.151 8     -1321.730          50.000    19480179.672 8  81105823.052 8     -1028.013          48.000
R09  19332429.570 6 103234107.757 6       -75.133          40.000    19332433.641 6  80293189.870 6       -58.440          38.000
R10  20854113.328 6 111164134.705 6      2395.336          38.000
C05  39765231.344 6 207067993.749 6        20.371          36.000    39765229.211 6 160118072.208 6        15.486          39.000
C21  22880347.016 8 119144050.637 8     -2075.812          51.000
C22  26217057.438 5 136519110.874 5     -3503.000          31.000
C26  22645817.109 5 117922786.808 5      1782.895          34.000
E07  23526925.930 8 123634845.823 8      -314.188          51.000    23526927.398 8  94733174.407 8      -240.732          51.000
E08  23692753.258 8 124506232.928 8     -2639.484          48.000    23692752.484 8  95400870.254 8     -2022.426          50.000
E27  25340964.398 8 133167652.393 8      2275.355          51.000    25340965.992 8 102037575.761 8      1743.484          49.000
E30  22045844.953 8 115851674.075 8       -99.430          51.000    22045846.391 8  88769478.493 8       -76.183          51.000
> 2020 05 05 06 02 30.0000000  0 15        .000000000000
G13  20446796.531 8 107448623.155 8     -1257.422          51.000    20446795.445 8  83726203.552 8      -979.809          50.000
G15  20331541.805 8 106842969.355 8       318.770          51.000    20331540.508 8  83254261.331 8       248.392          51.000
G19  24009409.758 7 126170308.158 7      3332.465          47.000    24009409.727 7  98314490.419 7      2596.726          45.000
G28  21805265.773 7 114587432.976 7     -2183.262          43.000    21805264.297 6  89288890.264 6     -1701.243          38.000
R06  22270151.914 6 118837739.563 6     -4302.883          37.000
R07  19487656.625 8 104318928.633 8     -1346.820          50.000    19487658.062 8  81136957.869 8     -1047.530          49.000
R09  19332895.219 6 103236593.050 6       -90.293          37.000    19332898.227 6  80295122.823 6       -70.225          37.000
R10  20840668.547 5 111092458.527 5      2383.383          33.000
C05  39765112.359 6 207067373.772 6        20.906          36.000    39765110.094 6 160117592.760 6        16.432          38.000
C21  22892342.375 8 119206513.563 8     -2088.297          51.000
C26  22635565.906 6 117869403.248 6      1776.062          37.000
E07  23528753.047 8 123644446.093 8      -325.871          51.000    23528754.453 8  94740530.452 8      -249.699          51.000
E08  23707835.562 7 124585506.097 7     -2645.309          45.000    23707836.727 8  95461612.053 8     -2026.934          49.000
E27  25327992.531 8 133099482.777 8      2269.305          51.000    25327993.492 8 101985341.908 8      1738.821          48.000
E30  22046439.586 8 115854799.240 8      -108.914          51.000    22046441.320 8  88771873.098 8       -83.418          51.000
> 2020 05 05 06 03  0.0000000  0 15        .000000000000
G13  20454012.430 8 107486543.442 8     -1273.801          51.000    20454011.422 8  83755751.801 8      -992.572          49.000
G15  20329767.352 8 106833644.012 8       299.879          51.000    20329765.969 8  83246994.827 8       233.672          51.000
G19  23990394.227 7 126070379.989 7      3326.344          47.000    23990394.602 7  98236624.346 7      2591.956          45.000
G28  21817757.516 7 114653077.186 7     -2196.020          44.000    21817755.539 5  89340041.592 5     -1711.184          33.000
R06  22294359.578 6 118966915.969 6     -4312.453          37.000
R07  19495270.562 8 104359688.657 8     -1373.695          51.000    19495272.797 8  81168660.094 8     -1068.430          50.000
R09  19333441.297 6 103239513.097 6      -107.324          40.000    19333444.977 6  80297393.983 6       -83.474          37.000
C05  39764984.742 6 207066710.418 6        19.809          36.000    39764982.469 6 160117079.034 6        15.426          39.000
C21  22904406.453 8 119269331.508 8     -2102.672          51.000
C26  22625352.422 6 117816207.619 6      1766.988          39.000
E02  25590795.031 6 134480515.952 6     -2348.984          36.000
E07  23530643.477 8 123654381.576 8      -339.605          51.000    23530645.367 8  94748143.331 8      -260.211          51.000
E08  23722949.391 7 124664940.020 7     -2653.277          47.000    23722951.547 8  95522477.031 8     -2032.989          48.000
E27  25315052.633 8 133031481.315 8      2261.105          51.000    25315052.539 8 101933236.891 8      1732.580          48.000
E30  22047085.508 8 115858193.311 8      -120.461          51.000    22047086.969 8  88774473.747 8       -92.277          51.000
> 2020 05 05 06 03 30.0000000  0 17        .000000000000
G13  20461317.898 8 107524934.162 8     -1285.430          51.000    20461316.891 8  83785666.619 8     -1001.634          49.000
G15  20328097.086 8 106824867.043 8       285.566          51.000    20328095.852 8  83240155.616 8       222.519          51.000
G19  23971410.289 7 125970616.466 7      3324.836          47.000    23971410.477 7  98158886.582 7      2590.784          45.000
G28  21830317.562 7 114719080.762 7     -2203.957          43.000    21830315.938 5  89391472.932 5     -1717.369          35.000
R06  22318617.008 5 119096357.751 5     -4317.191          34.000
R07  19503031.742 8 104401235.588 8     -1395.840          51.000    19503034.352 8  81200974.351 8     -1085.656          49.000
R09  19334081.500 6 103242925.707 6      -119.930          38.000    19334083.648 6  80300048.142 6       -93.279          36.000
R10  20813982.578 6 110950208.848 6      2359.535          38.000
C05  39764859.547 6 207066058.748 6        23.859          36.000    39764857.289 6 160116575.136 6        18.407          38.000
C21  22916549.391 8 119332559.972 8     -2112.367          51.000
C22  26277601.938 5 136834365.838 5     -3501.012          31.000
C26  22615186.805 6 117763257.376 6      1762.934          38.000
E02  25604209.250 5 134551021.580 5     -2349.598          32.000
E07  23532608.797 8 123664710.248 8      -348.707          51.000    23532610.703 8  94756057.493 8      -267.206          51.000
E08  23738107.164 8 124744591.350 8     -2656.477          50.000    23738107.562 7  95583508.563 7     -2035.416          47.000
E27  25302155.641 8 132963706.137 8      2257.582          51.000    25302155.023 8 101881305.279 8      1729.806          48.000
E30  22047793.766 8 115861913.234 8      -127.227          51.000    22047794.547 8  88777324.059 8       -97.482          51.000
> 2020 05 05 06 04  0.0000000  0 18        .000000000000
G13  20468699.195 8 107563723.401 8     -1300.895          51.000    20468698.023 8  83815891.983 8     -1013.684          48.000
G15  20326517.719 8 106816567.546 8       267.457          51.000    20326516.375 8  83233688.465 8       208.408          51.000
G17  23062482.070 5 121194159.838 5      1933.586          35.000    23062485.969 5  94437018.779 5      1506.681          35.000
G19  23952444.664 7 125870949.358 7      3319.219          47.000    23952444.258 7  98081223.932 7      2586.404          44.000
G24  22198702.664 5 116654965.324 5      2550.629          35.000
G28  21842931.711 7 114785369.737 7     -2215.617          43.000    21842930.492 5  89443126.641 5     -1726.458          35.000
R06  22342910.758 5 119225988.436 5     -4325.324          35.000
R07  19510926.281 8 104443495.337 8     -1421.895          51.000    19510929.008 8  81233843.018 8     -1105.918          49.000
R09  19334798.977 6 103246756.239 6      -136.086          41.000    19334800.562 6  80303027.491 6      -105.845          36.000
R10  20800743.930 6 110879625.188 6      2345.855          38.000
C05  39764723.180 6 207065347.898 6        23.516          36.000    39764720.953 6 160116026.255 6        17.903          39.000
C21  22928757.055 8 119396126.247 8     -2125.777          51.000
C22  26297777.805 5 136939423.090 5     -3502.223          32.000
C26  22605050.938 5 117710481.730 5      1755.156          33.000
E07  23534635.492 8 123675360.725 8      -361.715          51.000    23534637.211 8  94764218.257 8      -277.164          51.000
E08  23753293.070 8 124824387.362 8     -2663.570          51.000    23753291.531 7  95644650.932 7     -2040.846          47.000
E27  25289287.875 8 132896086.045 8      2250.176          51.000    25289287.766 8 101829492.495 8      1724.194          49.000
E30  22048549.828 8 115865886.547 8      -137.953          51.000    22048550.781 8  88780368.545 8      -105.707          51.000
> 2020 05 05 06 04 30.0000000  0 17        .000000000000
G13  20476187.953 8 107603077.384 8     -1318.043          51.000    20476186.859 8  83846557.401 8     -1027.046          49.000
G15  20325061.070 8 106808912.635 8       247.574          51.000    20325059.734 8  83227723.589 8       192.915          51.000
G17  23051502.789 5 121136464.681 5      1918.492          31.000    23051516.930 4  94392062.893 4      1494.917          28.000
G19  23933529.641 7 125771548.291 7      3312.152          45.000    23933529.016 7  98003768.560 7      2580.898          44.000
G24  22184167.727 5 116578594.936 5      2542.824          32.000
G28  21855631.391 7 114852107.810 7     -2228.934          43.000    21855629.875 5  89495130.342 5     -1736.831          34.000
R06  22367271.070 5 119355974.114 5     -4335.754          32.000
R07  19518985.562 8 104486636.226 8     -1449.555          51.000    19518987.750 8  81267397.029 8     -1127.431          48.000
R09  19335626.977 6 103251172.659 6      -154.145          41.000    19335627.484 6  80306462.503 6      -119.887          37.000
R10  20787596.398 6 110809546.331 6      2330.586          37.000
C05  39764607.250 6 207064744.664 6        21.117          36.000    39764605.070 6 160115559.768 6        16.384          39.000
C21  22941060.578 8 119460193.406 8     -2140.781          51.000
C26  22594979.859 6 117658045.399 6      1745.855          36.000
E07  23536755.023 8 123686499.650 8      -376.375          51.000    23536756.727 8  94772753.276 8      -288.361          51.000
E08  23768537.828 8 124904493.234 8     -2672.219          51.000    23768535.383 7  95706030.719 7     -2047.481          47.000
E27  25276481.062 8 132828787.849 8      2240.941          51.000    25276482.453 8 101777926.358 8      1717.085          51.000
E30  22049385.586 8 115870278.812 8      -150.277          51.000    22049386.852 8  88783734.053 8      -115.169          51.000
> 2020 05 05 06 05  0.0000000  0 15        .000000000000
G13  20483757.992 8 107642857.879 8     -1332.977          51.000    20483756.859 8  83877555.159 8     -1038.683          49.000
G15  20323701.008 8 106801764.943 8       229.938          51.000    20323699.547 8  83222153.955 8       179.172          51.000
G19  23914638.930 7 125672278.539 7      3306.980          45.000    23914638.086 7  97926415.558 7      2576.868          44.000
G28  21868390.031 7 114919155.145 7     -2239.910          43.000    21868388.516 5  89547374.985 5     -1745.381          35.000
R06  22391670.281 5 119486170.681 5     -4343.484          32.000
R07  19527182.773 8 104530516.355 8     -1474.832          51.000    19527184.430 8  81301526.000 8     -1147.095          48.000
R09  19336537.453 6 103256033.523 6      -169.125          39.000    19336537.461 6  80310243.171 6      -131.542          36.000
R10  20774518.703 6 110739833.341 6      2317.863          39.000
C05  39764485.734 6 207064111.453 6        21.664          36.000    39764483.453 6 160115070.110 6        16.915          38.000
C21  22953433.156 8 119524623.131 8     -2153.535          51.000
C26  22584948.430 5 117605811.855 5      1737.711          31.000
E07  23538941.156 8 123697989.441 8      -388.727          51.000    23538943.039 8  94781557.110 8      -297.852          51.000
E08  23783814.742 8 124984770.039 8     -2678.648          50.000    23783811.750 7  95767541.460 7     -2052.510          46.000
E27  25263709.281 8 132761674.097 8      2234.215          50.000    25263712.391 8 101726501.522 8      1711.883          51.000
E30  22050275.086 8 115874951.370 8      -160.285          51.000    22050276.039 8  88787314.303 8      -122.825          51.000
> 2020 05 05 06 05 30.0000000  0 14        .000000000000
G13  20491406.625 8 107683050.605 8     -1346.438          51.000    20491405.102 8  83908874.140 8     -1049.175          48.000
G15  20322434.852 8 106795111.041 8       213.770          51.000    20322433.203 8  83216969.095 8       166.574          51.000
G19  23895770.797 7 125573129.393 7      3303.020          44.000    23895770.664 7  97849156.503 7      2573.784          43.000
G28  21881204.422 7 114986495.430 7     -2249.320          44.000    21881203.148 5  89599847.910 5     -1752.717          33.000
R06  22416107.094 5 119616560.580 5     -4348.957          32.000
R07  19535514.961 8 104575120.289 8     -1498.621          51.000    19535516.531 8  81336217.926 8     -1165.594          48.000
R09  19337527.914 6 103261322.949 6      -183.262          41.000    19337527.906 6  80314357.127 6      -142.537          38.000
R10  20761507.664 6 110670471.575 6      2306.426          38.000
C05  39764355.688 6 207063434.214 6        23.473          36.000    39764353.422 6 160114546.427 6        18.024          38.000
C21  22965871.562 8 119589399.716 8     -2164.758          49.000
E07  23541191.625 8 123709816.247 8      -399.625          51.000    23541193.484 8  94790619.187 8      -306.239          51.000
E08  23799120.617 8 125065202.565 8     -2683.438          49.000    23799116.977 7  95829171.503 7     -2056.134          45.000
E27  25250970.281 8 132694731.168 8      2228.797          50.000    25250974.883 8 101675207.565 8      1707.770          51.000
E30  22051214.789 8 115879889.310 8      -168.750          51.000    22051215.656 8  88791097.905 8      -129.314          51.000
> 2020 05 05 06 06  0.0000000  0 14        .000000000000
G13  20499145.570 8 107723718.165 8     -1363.082          51.000    20499143.664 8  83940563.132 8     -1062.142          49.000
G15  20321274.664 8 106789014.587 8       194.359          51.000    20321272.961 8  83212218.601 8       151.449          51.000
G19  23876938.727 7 125474167.138 7      3296.066          46.000    23876937.688 6  97772043.091 6      2568.363          41.000
G28  21894086.219 7 115054189.155 7     -2261.781          45.000    21894085.109 5  89652596.227 5     -1762.430          33.000
R06  22440590.266 5 119747203.829 5     -4358.562          30.000
R07  19543993.773 8 104620510.015 8     -1525.594          50.000    19543995.766 8  81371521.057 8     -1186.573          48.000
R09  19338610.953 6 103267103.361 6      -200.281          41.000    19338611.242 6  80318852.986 6      -155.774          38.000
R10  20748573.258 5 110601526.095 5      2291.652          33.000
C05  39764229.141 6 207062776.166 6        21.938          36.000    39764226.867 6 160114036.783 6        17.223          39.000
C21  22978388.312 8 119654583.589 8     -2179.207          48.000
E07  23543518.398 8 123722043.078 8      -413.785          51.000    23543519.852 8  94799987.776 8      -317.071          51.000
E08  23814467.781 8 125145852.400 8     -2691.395          49.000    23814462.672 7  95890968.067 7     -2062.309          44.000
E27  25238276.156 8 132628022.228 8      2220.258          50.000    25238281.312 8 101624092.937 8      1701.186          51.000
E30  22052216.680 8 115885154.553 8      -180.449          51.000    22052217.711 8  88795132.318 8      -138.269          51.000
> 2020 05 05 06 06 30.0000000  0 13        .000000000000
G13  20506966.773 8 107764818.839 8     -1377.516          51.000    20506965.055 8  83972589.597 8     -1073.389          49.000
G15  20320212.758 8 106783434.951 8       177.137          51.000    20320211.133 8  83207870.822 8       138.029          51.000
G19  23858135.266 7 125375353.811 7      3291.035          46.000    23858133.195 6  97695045.754 6      2564.449          40.000
G28  21907026.992 7 115122192.616 7     -2271.965          45.000    21907025.844 6  89705585.933 6     -1770.362          36.000
R07  19552611.305 8 104666642.209 8     -1550.285          48.000    19552614.219 8  81407401.664 8     -1205.777          48.000
R09  19339776.828 7 103273331.446 7      -215.004          42.000    19339777.062 6  80323697.036 6      -167.225          38.000
R10  20735708.602 5 110532954.507 5      2279.152          35.000
C05  39764098.266 6 207062094.399 6        22.875          36.000    39764095.977 6 160113509.582 6        17.915          38.000
C21  22990976.070 8 119720132.087 8     -2191.277          49.000
E07  23545913.602 8 123734628.862 8      -425.684          51.000    23545914.688 8  94809631.415 8      -326.188          51.000
E08  23829847.906 7 125226677.170 7     -2697.227          47.000    23829841.203 7  95952898.662 7     -2066.589          43.000
E27  25225618.914 8 132561506.394 8      2213.832          50.000    25225623.109 8 101573126.265 8      1696.334          51.000
E30  22053273.008 8 115890705.053 8      -189.895          51.000    22053274.156 8  88799385.285 8      -145.531          51.000
> 2020 05 05 06 07  0.0000000  0 14        .000000000000
G13  20514878.766 8 107806397.416 8     -1393.844          50.000    20514877.156 8  84004988.460 8     -1086.112          48.000
G15  20319257.984 8 106778417.839 8       157.891          51.000    20319256.383 8  83203961.373 8       123.029          51.000
G19  23839369.445 7 125276737.711 7      3283.883          46.000    23839365.523 5  97618202.125 5      2558.873          35.000
G28  21920034.891 7 115190548.719 7     -2284.418          44.000    21920032.594 5  89758850.403 5     -1780.066          34.000
R07  19561375.977 8 104713561.605 8     -1577.035          49.000    19561379.508 8  81443894.510 8     -1226.583          48.000
R09  19341035.602 7 103280051.471 7      -232.234          43.000    19341034.789 6  80328923.730 6      -180.627          37.000
R10  20722924.922 5 110464803.091 5      2264.594          32.000
C05  39763971.438 6 207061433.359 6        21.324          36.000    39763969.125 6 160112999.186 6        16.994          38.000
C21  23003642.867 8 119786087.977 8     -2205.332          51.000
C26  22545259.938 5 117399087.110 5      1706.121          33.000
E07  23548385.719 8 123747618.789 8      -439.789          51.000    23548387.086 8  94819584.720 8      -336.963          51.000
E08  23845269.352 7 125307720.671 7     -2705.066          47.000    23845262.883 7  96014996.886 7     -2072.713          44.000
E27  25213006.672 8 132495229.037 8      2205.184          49.000    25213009.695 8 101522342.357 8      1689.776          51.000
E30  22054391.867 8 115896584.896 8      -201.488          51.000    22054393.211 8  88803890.608 8      -154.342          51.000
> 2020 05 05 06 07 30.0000000  0 14        .000000000000
G13  20522880.469 8 107848448.949 8     -1409.441          49.000    20522879.180 8  84037755.905 8     -1098.266          48.000
G15  20318409.625 8 106773959.347 8       139.449          51.000    20318407.984 8  83200487.213 8       108.662          51.000
G19  23820640.391 7 125178317.829 7      3277.668          44.000    23820634.641 5  97541511.309 5      2554.024          35.000
G28  21933108.562 7 115259250.790 7     -2295.570          44.000    21933105.820 5  89812384.462 5     -1788.756          34.000
R06  22514289.781 4 120140563.231 4     -4380.977          28.000
R07  19570287.195 8 104761261.898 8     -1602.855          51.000    19570290.344 7  81480994.764 7     -1246.662          47.000
R09  19342385.250 7 103287257.789 7      -248.336          43.000    19342383.680 6  80334528.664 6      -193.150          36.000
C05  39763848.039 5 207060790.811 5        21.039          35.000    39763845.719 6 160112502.333 6        16.483          38.000
C21  23016387.109 8 119852445.144 8     -2218.352          51.000
C26  22535446.492 5 117348010.158 5      1698.426          33.000
E07  23550933.781 8 123761008.717 8      -452.844          51.000    23550935.719 8  94829844.509 8      -347.014          51.000
E08  23860731.922 8 125388977.478 8     -2711.898          49.000    23860727.617 7  96077258.558 7     -2078.035          47.000
E27  25200439.039 8 132429186.276 8      2197.664          49.000    25200441.234 8 101471738.180 8      1683.915          51.000
E30  22055572.305 8 115902788.927 8      -212.031          51.000    22055573.789 8  88808644.342 8      -162.492          51.000
> 2020 05 05 06 08  0.0000000  0 14        .000000000000
G13  20530969.414 8 107890959.096 8     -1424.910          49.000    20530968.648 8  84070880.691 8     -1110.320          49.000
G15  20317664.961 8 106770046.159 8       121.047          51.000    20317663.195 8  83197437.974 8        94.322          51.000
G19  23801945.148 6 125080083.386 6      3271.266          38.000    23801941.430 6  97464965.003 6      2549.035          37.000
G24  22083510.312 5 116049623.679 5      2494.957          32.000
G28  21946244.969 7 115328282.480 7     -2306.703          45.000    21946242.688 5  89866175.362 5     -1797.434          32.000
R07  19579341.375 8 104809727.399 8     -1628.492          50.000    19579344.164 7  81518690.139 7     -1266.605          47.000
R09  19343823.289 7 103294934.456 7      -264.031          43.000    19343822.070 6  80340499.457 6      -205.358          40.000
C05  39763725.289 6 207060151.838 6        20.965          36.000    39763723.109 6 160112008.239 6        16.223          38.000
C21  23029205.109 8 119919187.870 8     -2231.438          51.000
C26  22525678.781 6 117297170.135 6      1690.660          38.000
E07  23553555.211 8 123774784.785 8      -465.938          51.000    23553557.461 8  94840400.168 8      -356.981          51.000
E08  23876232.695 8 125470432.396 8     -2718.734          49.000    23876231.164 8  96139672.031 8     -2083.156          50.000
E27  25187913.258 8 132363364.409 8      2190.199          49.000    25187915.344 8 101421303.236 8      1678.160          51.000
E30  22056811.836 8 115909302.241 8      -222.551          51.000    22056813.234 8  88813635.043 8      -170.478          51.000
> 2020 05 05 06 08 30.0000000  0 15        .000000000000
G13  20539126.477 8 107933824.539 8     -1438.828          51.000    20539126.078 8  84104282.318 8     -1121.165          49.000
G15  20317004.469 8 106766575.681 8       104.258          51.000    20317002.938 8  83194733.687 8        81.240          51.000
G19  23783267.141 6 124981934.598 6      3266.066          41.000    23783264.891 6  97388485.352 6      2544.981          38.000
G24  22069268.914 5 115974790.739 5      2487.984          33.000
G28  21959424.102 7 115397538.439 7     -2316.113          43.000    21959422.484 5  89920141.004 5     -1804.764          35.000
R07  19588518.875 8 104858851.364 8     -1652.520          51.000    19588520.758 7  81556897.619 7     -1285.293          47.000
R09  19345329.484 7 103302975.270 7      -278.152          42.000    19345328.875 6  80346753.415 6      -216.341          39.000
R10  20685011.172 5 110262794.576 5      2226.027          30.000
C05  39763583.641 5 207059414.098 5        22.008          35.000    39763581.422 6 160111437.744 6        17.226          38.000
C21  23042076.547 8 119986211.976 8     -2242.809          51.000
C26  22515937.891 6 117246464.854 6      1683.766          37.000
E07  23556230.586 8 123788843.924 8      -477.336          51.000    23556233.023 8  94851172.755 8      -365.733          51.000
E08  23891750.961 8 125551981.070 8     -2723.902          49.000    23891752.398 8  96202157.353 8     -2087.086          51.000
E27  25175410.328 8 132297660.611 8      2184.223          50.000    25175412.594 8 101370958.770 8      1673.604          51.000
E30  22058090.492 8 115916020.776 8      -231.336          51.000    22058091.914 8  88818782.997 8      -177.224          51.000
> 2020 05 05 06 09  0.0000000  0 14        .000000000000
G13  20547388.656 8 107977241.613 8     -1450.270          51.000    20547388.516 8  84138113.781 8     -1130.080          50.000
G15  20316465.891 8 106763745.415 8        89.766          51.000    20316464.586 8  83192528.273 8        69.947          51.000
G19  23764645.141 7 124884071.512 7      3263.559          43.000    23764642.977 6  97312228.492 6      2543.033          39.000
G24  22055091.938 5 115900278.147 5      2485.402          33.000
G28  21972682.859 6 115467213.258 6     -2323.238          37.000    21972680.844 6  89974433.079 6     -1810.309          37.000
R07  19597856.406 8 104908832.607 8     -1674.020          51.000    19597857.727 7  81595771.906 7     -1302.015          47.000
R09  19346941.172 7 103311578.943 7      -290.008          42.000    19346940.109 6  80353445.131 6      -225.562          40.000
R10  20672533.359 5 110196253.117 5      2215.809          31.000
C05  39763460.383 6 207058772.626 6        26.168          36.000    39763458.211 6 160110941.739 6        19.869          38.000
C21  23055038.547 8 120053710.825 8     -2251.730          51.000
E07  23558997.242 8 123803383.296 8      -486.484          51.000    23558999.945 8  94862313.303 8      -372.797          51.000
E08  23907323.766 8 125633819.257 8     -2726.555          48.000    23907328.156 8  96264864.517 8     -2089.256          51.000
E27  25162967.578 8 132232272.212 8      2180.426          49.000    25162969.789 8 101320855.982 8      1670.749          51.000
E30  22059445.250 8 115923140.641 8      -237.941          51.000    22059446.883 8  88824238.486 8      -182.307          51.000
> 2020 05 05 06 09 30.0000000  0 15        .000000000000
G13  20555746.125 8 108021159.741 8     -1471.262          51.000    20555746.156 8  84172335.663 8     -1146.438          50.000
G15  20316039.680 8 106761505.372 8        65.801          51.000    20316038.250 8  83190782.785 8        51.273          51.000
G19  23746068.812 7 124786447.425 7      3251.109          45.000    23746065.109 6  97236157.811 6      2533.335          39.000
G28  21986010.484 6 115537254.203 6     -2339.707          41.000    21986008.273 5  90029010.484 5     -1823.151          33.000
R07  19607343.445 8 104959618.189 8     -1705.172          51.000    19607344.898 7  81635271.783 7     -1326.245          47.000
R09  19348648.047 7 103320692.749 7      -311.168          42.000    19348647.336 6  80360533.637 6      -242.020          40.000
R10  20660133.117 5 110130121.339 5      2196.094          34.000
C05  39763345.984 6 207058176.534 6        20.270          36.000    39763343.922 6 160110481.568 6        15.447          38.000
C21  23068081.250 8 120121632.564 8     -2270.129          50.000
C26  22496637.047 5 117145899.474 5      1665.758          33.000
E02  25766803.680 5 135405466.222 5     -2397.035          32.000
E07  23561845.461 8 123818352.626 8      -505.211          51.000    23561848.305 8  94873783.301 8      -387.068          51.000
E08  23922942.039 8 125715895.328 8     -2738.871          49.000    23922948.352 8  96327753.989 8     -2098.610          51.000
E27  25150575.328 8 132167149.144 8      2167.328          49.000    25150577.086 8 101270956.512 8      1660.689          51.000
E30  22060866.648 8 115930610.522 8      -253.832          51.000    22060868.047 8  88829962.160 8      -194.507          51.000
> 2020 05 05 06 10  0.0000000  0 14        .000000000000
G13  20564176.094 8 108065458.097 8     -1483.949          51.000    20564175.977 8  84206853.854 8     -1156.324          51.000
G15  20315703.078 8 106759736.319 8        50.148          51.000    20315701.805 8  83189404.294 8        39.074          51.000
G19  23727515.617 7 124688945.533 7      3247.113          46.000    23727511.641 6  97160182.356 6      2530.218          41.000
G28  21999384.883 6 115607538.829 6     -2347.824          40.000    21999382.625 5  90083777.632 5     -1829.476          34.000
R07  19616957.398 8 105011083.609 8     -1727.812          51.000    19616958.656 7  81675300.433 7     -1343.854          46.000
R09  19350427.406 6 103330192.807 6      -323.922          41.000    19350425.805 6  80367922.533 6      -251.942          39.000
R10  20647793.297 4 110064356.914 4      2185.586          29.000
C05  39763217.680 5 207057508.596 5        22.219          35.000    39763215.547 6 160109965.044 6        17.459          38.000
C21  23081182.102 8 120189856.204 8     -2280.215          49.000
C26  22487047.539 6 117095965.220 6      1660.598          36.000
E07  23564752.820 8 123833631.749 8      -515.430          51.000    23564755.703 8  94885490.687 8      -394.919          51.000
E08  23938582.742 8 125798087.914 8     -2742.652          50.000    23938589.914 8  96390732.717 8     -2101.495          51.000
E27  25138210.094 7 132102171.564 7      2162.594          47.000    25138212.008 8 101221168.503 8      1657.007          51.000
E30  22062331.695 8 115938309.321 8      -261.359          51.000    22062332.656 8  88835861.235 8      -200.250          51.000
> 2020 05 05 06 10 30.0000000  0 15        .000000000000
G13  20572686.719 8 108110180.581 8     -1494.410          51.000    20572686.656 8  84241702.549 8     -1164.472          51.000
G15  20315464.445 8 106758482.472 8        36.566          51.000    20315463.547 8  83188427.256 8        28.493          51.000
G19  23708994.352 7 124591613.057 7      3244.945          47.000    23708990.609 7  97084338.900 7      2528.532          44.000
G28  22012813.836 6 115678109.239 6     -2353.527          40.000    22012812.289 6  90138767.594 6     -1833.914          38.000
R07  19626706.766 8 105063272.860 8     -1748.145          51.000    19626707.703 7  81715892.057 7     -1359.668          47.000
R09  19352286.727 6 103340122.981 6      -334.691          41.000    19352284.883 6  80375646.001 6      -260.316          40.000
R10  20635528.344 4 109998977.294 4      2177.266          27.000
C05  39763083.891 5 207056811.740 5        27.230          35.000    39763081.656 6 160109426.158 6        21.189          37.000
C21  23094349.727 8 120258423.839 8     -2287.910          50.000
C26  22477498.531 5 117046232.922 5      1656.957          31.000
E02  25794177.656 5 135549232.625 5     -2396.383          34.000
E07  23567727.703 8 123849265.195 8      -523.672          51.000    23567730.969 8  94897469.550 8      -401.219          51.000
E08  23954254.039 8 125880440.209 8     -2744.352          51.000    23954261.281 8  96453833.804 8     -2102.788          51.000
E27  25125880.797 7 132037384.167 7      2159.883          47.000    25125883.625 8 101171526.187 8      1654.948          51.000
E30  22063848.383 8 115946280.502 8      -266.848          51.000    22063849.602 8  88841969.025 8      -204.483          51.000
> 2020 05 05 06 11  0.0000000  0 12        .000000000000
G13  20581290.828 8 108155395.314 8     -1513.570          51.000    20581290.773 8  84276934.806 8     -1179.405          50.000
G15  20315337.023 8 106757813.012 8        14.332          51.000    20315336.359 8  83187905.575 8        11.168          51.000
G19  23690518.953 8 124494522.166 8      3234.016          48.000    23690516.508 7  97008683.715 7      2520.012          46.000
G28  22026309.930 6 115749031.637 6     -2367.918          40.000    22026308.961 5  90194031.787 5     -1845.134          34.000
R07  19636604.109 8 105116253.612 8     -1777.402          51.000    19636604.930 7  81757099.283 7     -1382.424          47.000
R09  19354239.141 7 103350551.211 7      -354.066          43.000    19354237.984 6  80383756.886 6      -275.385          40.000
C05  39762957.578 5 207056153.927 5        23.277          35.000    39762955.242 6 160108917.518 6        17.697          37.000
C21  23107596.711 8 120327401.528 8     -2304.344          51.000
E07  23570783.047 8 123865321.658 8      -540.426          51.000    23570786.469 8  94909772.556 8      -414.086          51.000
E08  23969969.094 8 125963019.571 8     -2754.707          51.000    23969975.555 8  96517108.888 8     -2110.696          51.000
E27  25113601.234 8 131972855.862 8      2148.438          49.000    25113605.094 8 101122082.427 8      1646.202          51.000
E30  22065429.781 8 115954591.800 8      -280.867          51.000    22065431.453 8  88848337.428 8      -215.219          51.000
> 2020 05 05 06 11 30.0000000  0 14        .000000000000
G13  20589973.141 8 108201020.579 8     -1523.070          51.000    20589972.648 8  84312486.969 8     -1186.808          49.000
G15  20315305.508 8 106757647.188 8         1.738          51.000    20315304.836 8  83187776.356 8         1.355          51.000
G19  23672074.625 8 124397594.828 8      3232.875          48.000    23672072.953 7  96933155.953 7      2519.123          46.000
G28  22039857.008 6 115820222.290 6     -2373.141          38.000    22039855.797 5  90249505.016 5     -1849.197          35.000
G30  24255608.953 5 127464071.340 5     -2940.359          33.000
R07  19646633.500 8 105169940.962 8     -1796.676          51.000    19646634.078 7  81798856.089 7     -1397.414          47.000
R09  19356269.117 6 103361393.639 6      -363.348          40.000    19356267.398 6  80392189.819 6      -282.607          39.000
R16  22609221.117 6 120774393.109 6     -3482.719          36.000    22609228.508 4  93935669.622 4     -2708.781          27.000
C05  39762823.297 5 207055455.368 5        28.199          35.000    39762820.836 6 160108376.562 6        21.890          37.000
C21  23120906.836 8 120396706.610 8     -2311.012          51.000
E07  23573903.547 8 123881719.758 8      -547.660          51.000    23573906.602 8  94922337.347 8      -419.627          51.000
E08  23985711.672 8 126045743.315 8     -2755.176          51.000    23985716.953 8  96580494.605 8     -2111.139          51.000
E27  25101356.062 8 131908505.507 8      2146.656          51.000    25101360.250 8 101072775.015 8      1644.805          51.000
E30  22067060.352 8 115963160.828 8      -285.359          51.000    22067061.992 8  88854903.299 8      -218.619          51.000
> 2020 05 05 06 12  0.0000000  0 16        .000000000000
G13  20598729.438 8 108247033.541 8     -1542.766          51.000    20598728.273 7  84348341.205 7     -1202.155          47.000
G15  20315365.758 8 106757963.309 8       -21.098          51.000    20315364.898 8  83188022.682 8       -16.440          51.000
G19  23653657.719 8 124300812.059 8      3221.098          49.000    23653656.477 7  96857740.873 7      2509.949          47.000
G24  21970794.484 5 115457308.127 5      2441.395          34.000
G28  22053450.906 6 115891656.807 6     -2387.734          40.000    22053449.992 5  90305168.290 5     -1860.569          35.000
R07  19656790.547 8 105224311.145 8     -1826.273          51.000    19656790.867 7  81841143.993 7     -1420.435          47.000
R09  19358371.594 7 103372625.941 7      -383.285          42.000    19358371.508 6  80400926.104 6      -298.108          41.000
R10  20599165.016 5 109805186.290 5      2133.941          33.000
R16  22628800.273 6 120878978.651 6     -3488.207          36.000
C05  39762676.844 5 207054692.039 5        23.992          35.000    39762674.164 6 160107786.287 6        18.525          37.000
C21  23134275.000 8 120466315.268 8     -2327.754          50.000
E02  25835363.797 5 135765753.599 5     -2409.164          34.000
E07  23577084.602 8 123898437.542 8      -565.094          51.000    23577087.656 8  94935147.074 8      -432.913          51.000
E08  24001477.188 8 126128588.231 8     -2765.980          51.000    24001480.812 8  96643973.163 8     -2119.346          51.000
E27  25089140.266 8 131844311.362 8      2134.723          50.000    25089144.555 8 101023587.293 8      1635.697          51.000
E30  22068735.711 8 115971964.613 8      -299.789          51.000    22068737.180 8  88861649.039 8      -229.723          51.000
> 2020 05 05 06 12 30.0000000  0 17        .000000000000
G13  20607598.031 8 108293637.181 8     -1553.957          51.000    20607596.375 7  84384655.678 7     -1210.879          46.000
G15  20315556.422 8 106758964.886 8       -35.336          51.000    20315555.492 8  83188803.137 8       -27.534          51.000
G17  22886356.250 5 120268613.722 5      1699.832          32.000
G19  23635307.656 8 124204380.419 8      3217.941          50.000    23635306.039 7  96782599.368 7      2507.487          47.000
G24  21956895.633 5 115384269.507 5      2437.336          35.000
G28  22067129.352 6 115963536.165 6     -2393.992          40.000    22067128.000 5  90361178.135 5     -1865.452          35.000
R07  19667113.234 8 105279568.455 8     -1847.164          51.000    19667113.438 7  81884121.891 7     -1436.683          47.000
R09  19360586.133 6 103384453.448 6      -394.617          41.000    19360587.273 6  80410125.296 6      -306.921          40.000
R10  20587214.789 6 109741471.292 6      2124.277          37.000
R16  22648413.148 5 120983743.833 5     -3485.816          35.000
C05  39762556.570 5 207054066.415 5        27.496          35.000    39762553.461 6 160107327.512 6        21.216          36.000
C21  23147739.195 8 120536427.006 8     -2336.098          50.000
E02  25849147.586 5 135838186.734 5     -2408.285          32.000
E07  23580365.156 8 123915678.269 8      -574.047          51.000    23580368.383 8  94948357.493 8      -439.836          51.000
E08  24017304.117 8 126211756.252 8     -2768.309          51.000    24017306.305 8  96707699.311 8     -2121.112          51.000
E27  25076992.766 8 131780476.994 8      2131.238          50.000    25076996.461 8 100974675.205 8      1632.949          51.000
E30  22070494.078 8 115981205.439 8      -305.898          51.000    22070495.844 8  88868729.664 8      -234.435          51.000
> 2020 05 05 06 13  0.0000000  0 15        .000000000000
G13  20616547.336 8 108340666.000 8     -1573.816          51.000    20616544.922 7  84421301.443 7     -1226.353          45.000
G15  20315846.094 8 106760487.663 8       -58.434          51.000    20315845.406 8  83189989.713 8       -45.533          51.000
G17  22876726.445 5 120218022.051 5      1680.254          35.000    22876717.750 5  93676367.763 5      1309.277          35.000
G19  23616993.641 8 124108138.324 8      3205.840          51.000    23616991.742 7  96707605.542 7      2498.057          46.000
G28  22080860.523 6 116035692.947 6     -2408.770          39.000    22080858.281 6  90417404.163 6     -1876.966          36.000
R07  19677569.633 8 105335543.473 8     -1876.785          51.000    19677570.383 8  81927658.009 8     -1459.722          48.000
R09  19362880.305 6 103396706.706 6      -414.555          41.000    19362881.352 6  80419655.600 6      -322.434          40.000
R10  20575334.969 6 109678131.601 6      2106.301          37.000
R16  22668027.148 5 121088519.456 5     -3491.430          32.000
C05  39762431.211 5 207053412.916 5        23.539          35.000    39762427.805 6 160106819.740 6        17.975          36.000
C21  23161267.742 8 120606876.398 8     -2352.938          50.000
E07  23583714.203 8 123933277.039 8      -591.582          51.000    23583717.445 8  94961842.259 8      -453.281          51.000
E08  24033160.297 8 126295081.187 8     -2779.059          49.000    24033162.156 8  96771545.707 8     -2129.441          51.000
E27  25064882.156 8 131716837.747 8      2119.125          50.000    25064884.961 8 100925912.656 8      1623.724          50.000
E30  22072304.008 8 115990717.461 8      -320.598          51.000    22072306.039 8  88876018.091 8      -245.608          51.000
> 2020 05 05 06 13 30.0000000  0 17        .000000000000
G13  20625576.969 8 108388117.279 8     -1587.527          51.000    20625574.172 7  84458276.420 7     -1237.034          45.000
G15  20316234.430 8 106762529.704 8       -75.500          51.000    20316234.109 8  83191580.895 8       -58.834          51.000
G17  22867176.852 5 120167843.359 5      1667.340          35.000    22867172.531 5  93637267.548 5      1299.226          35.000
G19  23598715.984 8 124012087.332 8      3199.766          51.000    23598713.992 7  96632760.614 7      2493.324          47.000
G28  22094643.617 6 116108123.147 6     -2417.594          39.000    22094641.062 6  90473843.302 6     -1883.839          36.000
R06  22812619.398 4 121732509.991 4     -4458.469          29.000
R07  19688158.836 8 105392231.882 8     -1900.230          51.000    19688160.516 8  81971748.974 8     -1477.960          48.000
R09  19365254.023 7 103409382.367 7      -428.215          42.000    19365255.938 7  80429514.434 7      -333.056          42.000
R10  20563522.266 5 109615165.290 5      2093.676          31.000
R16  22687641.086 5 121193307.891 5     -3491.074          31.000
C05  39762300.742 5 207052733.595 5        24.137          35.000    39762296.859 6 160106293.394 6        19.060          36.000
C21  23174860.188 8 120677659.567 8     -2363.668          50.000
C26  22421172.266 5 116752913.830 5      1607.309          30.000
E07  23587131.023 8 123951231.961 8      -603.117          51.000    23587134.375 8  94975599.919 8      -462.147          51.000
E08  24049044.086 7 126378559.873 7     -2783.863          46.000    24049047.289 8  96835509.933 8     -2133.048          50.000
E27  25052808.961 8 131653391.948 8      2112.875          51.000    25052810.602 8 100877298.344 8      1619.028          49.000
E30  22074165.227 8 116000497.844 8      -329.207          51.000    22074167.016 8  88883512.141 8      -252.226          51.000
> 2020 05 05 06 14  0.0000000  0 17        .000000000000
G13  20634689.750 8 108436006.672 8     -1604.914          51.000    20634687.305 7  84495592.787 7     -1250.582          46.000
G15  20316724.750 8 106765107.378 8       -96.148          51.000    20316724.633 8  83193589.475 8       -74.918          51.000
G17  22857717.070 5 120118121.679 5      1650.055          33.000    22857713.391 5  93598505.286 5      1285.751          32.000
G19  23580478.125 8 123916246.313 8      3189.859          50.000    23580476.188 7  96558079.274 7      2485.605          47.000
G28  22108481.242 7 116180839.969 7     -2429.824          42.000    22108478.969 5  90530505.749 5     -1893.370          32.000
R06  22837707.266 5 121866388.608 5     -4466.480          30.000
R07  19698883.695 8 105449647.999 8     -1927.391          51.000    19698886.266 8  82016405.931 8     -1499.082          48.000
R09  19367709.383 6 103422494.530 6      -445.793          41.000    19367712.070 6  80439712.754 6      -346.731          40.000
R10  20551780.398 5 109552588.952 5      2078.246          30.000
R16  22707262.656 5 121298104.255 5     -3494.887          30.000
C05  39762167.758 5 207052041.919 5        22.027          35.000    39762164.094 6 160105757.547 6        17.114          36.000
C21  23188519.680 8 120748790.119 8     -2378.051          51.000
C26  22411942.453 5 116704839.855 5      1598.062          32.000
E07  23590618.547 8 123969558.802 8      -618.395          51.000    23590621.695 8  94989642.552 8      -473.835          51.000
E08  24064960.117 7 126462206.813 7     -2792.480          47.000    24064964.188 8  96899603.108 8     -2139.612          49.000
E27  25040775.938 8 131590155.607 8      2103.023          51.000    25040776.812 8 100828844.566 8      1611.417          50.000
E30  22076080.180 8 116010561.353 8      -341.457          51.000    22076081.844 8  88891223.144 8      -261.657          51.000
> 2020 05 05 06 14 30.0000000  0 15        .000000000000
G13  20643892.312 8 108484367.460 8     -1618.699          51.000    20643890.312 7  84533276.498 7     -1261.324          47.000
G15  20317323.680 8 106768255.339 8      -113.199          51.000    20317323.719 8  83196042.410 8       -88.207          51.000
G19  23562286.930 8 123820652.992 8      3183.449          48.000    23562285.906 8  96483590.964 8      2480.610          48.000
G28  22122379.797 6 116253875.574 6     -2438.637          41.000    22122377.148 5  90587416.513 5     -1900.246          32.000
R06  22862834.000 4 122000462.077 4     -4471.379          29.000
R07  19709750.484 8 105507824.537 8     -1950.676          50.000    19709754.086 8  82061654.312 8     -1517.195          49.000
R09  19370253.312 6 103436076.665 6      -458.973          41.000    19370256.047 6  80450276.602 6      -356.979          41.000
R10  20540118.273 5 109490437.389 5      2065.430          31.000
C05  39762039.219 5 207051371.873 5        22.938          34.000    39762035.898 6 160105239.395 6        17.939          37.000
C21  23202252.125 8 120820300.007 8     -2388.750          50.000
C26  22402766.359 5 116657010.913 5      1591.059          31.000
E07  23594183.227 8 123988291.816 8      -629.965          51.000    23594186.023 8  95003996.407 8      -482.697          51.000
E08  24080916.539 8 126546055.061 8     -2797.094          51.000    24080919.289 8  96963850.460 8     -2143.246          48.000
E27  25028789.406 8 131527163.289 8      2097.027          51.000    25028790.195 8 100780577.749 8      1606.783          50.000
E30  22078055.352 8 116020941.290 8      -350.098          51.000    22078056.922 8  88899176.609 8      -268.221          51.000
> 2020 05 05 06 15  0.0000000  0 16        .000000000000
G13  20653181.703 8 108533182.408 8     -1633.918          51.000    20653180.086 8  84571314.114 8     -1273.183          49.000
G15  20318028.039 8 106771956.906 8      -131.793          51.000    20318027.938 8  83198926.758 8      -102.696          51.000
G17  22839044.859 5 120019997.732 5      1620.922          32.000    22839044.336 5  93522073.196 5      1263.059          31.000
G19  23544139.859 7 123725293.736 7      3175.441          46.000    23544139.945 7  96409285.052 7      2474.373          46.000
G28  22136335.180 5 116327210.561 5     -2448.820          34.000    22136333.047 5  90644560.707 5     -1908.169          35.000
R07  19720757.219 8 105566742.274 8     -1975.418          51.000    19720760.742 8  82107479.167 8     -1536.436          49.000
R09  19372881.531 6 103450110.229 6      -474.469          39.000    19372885.312 6  80461191.645 6      -369.025          40.000
R10  20528534.180 5 109428693.947 5      2051.777          34.000
R16  22746509.578 4 121507770.011 4     -3496.180          29.000
C05  39761911.680 5 207050706.568 5        22.918          35.000    39761908.562 6 160104724.922 6        17.622          36.000
C21  23216053.898 8 120892170.452 8     -2400.938          50.000
C26  22393636.625 5 116609420.931 5      1583.117          31.000
E07  23597822.102 8 124007414.102 8      -643.066          51.000    23597824.656 8  95018648.545 8      -492.751          51.000
E08  24096908.359 8 126630086.519 8     -2803.266          51.000    24096909.148 7  97028238.132 7     -2147.939          46.000
E27  25016845.695 8 131464398.383 8      2089.133          50.000    25016847.117 8 100732485.177 8      1600.761          50.000
E30  22080087.508 8 116031619.861 8      -360.145          51.000    22080088.891 8  88907358.890 8      -275.955          51.000
> 2020 05 05 06 15 30.0000000  0 15        .000000000000
G13  20662549.297 8 108582407.544 8     -1648.777          51.000    20662548.023 8  84609671.345 8     -1284.762          50.000
G15  20318829.492 8 106776168.915 8      -149.984          50.000    20318829.211 8  83202208.846 8      -116.871          50.000
G19  23526029.344 7 123630128.397 7      3167.754          45.000    23526030.633 7  96335130.252 7      2468.377          45.000
G28  22150338.016 6 116400799.440 6     -2458.336          38.000    22150336.984 5  90701902.717 5     -1915.583          31.000
R07  19731894.445 8 105626354.723 8     -1999.746          51.000    19731897.008 8  82153844.403 8     -1555.358          48.000
R09  19375585.562 6 103464549.383 6      -489.078          40.000    19375588.688 6  80472422.092 6      -380.394          36.000
R10  20517019.969 6 109367314.056 6      2038.871          36.000
R16  22766161.758 5 121612693.522 5     -3497.094          34.000    22766164.875 4  94587685.910 4     -2719.965          27.000
C05                                                                  39761773.688 6 160104180.820 6        17.719          36.000
C21  23229916.859 8 120964356.501 8     -2412.586          50.000
C26  22384546.797 5 116562178.294 5      1575.289          31.000
E07  23601527.000 8 124026882.310 8      -655.762          51.000    23601529.328 8  95033565.733 8      -502.485          51.000
E08  24112926.211 8 126714256.489 8     -2809.082          51.000    24112924.859 7  97092731.901 7     -2152.351          46.000
E27  25004936.953 8 131401817.807 8      2081.789          50.000    25004939.125 8 100684533.818 8      1595.134          51.000
