     3.02           OBSERVATION DATA    M (MIXED)           RINEX VERSION / TYPE
SAVERINEX           SC600               20200503 175930 LCL PGM / RUN BY / DATE
       G = GPS       R = GLONASS       C = COMPASS          COMMENT
       S = SBAS      J = QZSS          E = GALILEO          COMMENT
BEAN                                                        MARKER NAME
1                                                           MARKER NUMBER
GEODETIC                                                    MARKER TYPE
Unige DICCA         GTER                                    OBSERVER / AGENCY
SC60291900056       SC600               2.12(191226)        REC # / TYPE / VERS
                    HEMA45          NONE                    ANT # / TYPE
  4509407.8091   693652.4678  4442337.6214                  APPROX POSITION XYZ
        0.0000        0.0000        0.0000                  ANTENNA: DELTA H/E/N
G    8 C1C L1C D1C S1C C2Y L2Y D2Y S2Y                      SYS / # / OBS TYPES
R    8 C1C L1C D1C S1C C2P L2P D2P S2P                      SYS / # / OBS TYPES
C    8 C1I L1I D1I S1I C7I L7I D7I S7I                      SYS / # / OBS TYPES
E    8 C1C L1C D1C S1C C7Q L7Q D7Q S7Q                      SYS / # / OBS TYPES
DBHZ                                                        COMMENT
     30.000                                                 INTERVAL
  2020    05    03    15    00    0.0000000     GPS         TIME OF FIRST OBS
  2020    05    03    15    59   30.0000000     GPS         TIME OF LAST OBS
     0                                                      RCV CLOCK OFFS APPL
G L1C  0.00000                                              SYS / PHASE SHIFT
G L2Y  0.00000                                              SYS / PHASE SHIFT
R L1C  0.00000                                              SYS / PHASE SHIFT
R L2P  0.25000                                              SYS / PHASE SHIFT
C L1I  0.00000                                              SYS / PHASE SHIFT
C L7I  0.00000                                              SYS / PHASE SHIFT
E L1C  0.50000                                              SYS / PHASE SHIFT
E L7Q -0.25000                                              SYS / PHASE SHIFT
 13 R04  6 R05  1 R06 -4 R07  5 R09 -2 R10 -5 R11  0 R12 -1 GLONASS SLOT / FRQ #
    R19  3 R20  2 R21  4 R22 -3 R23  3                      GLONASS SLOT / FRQ #
 C1C   71.950 C2C   71.950 C2P   71.950                     GLONASS COD/PHS/BIS
    18                                                      LEAP SECONDS
*** Above antenna height is from mark to ANTENNA BOTTOM.    COMMENT
    17     4        0.0000        ANT MEASURE TYPE/HEIGT    COMMENT
    0.0000    0.0000    0.0458    0.0405    0.0000          COMMENT
                    BASE STATION                            COMMENT
                                                            END OF HEADER
> 2020 05 03 15 00  0.0000000  0 15        .000000000000
G10  23786623.656 6 124999577.372 6      3418.332          40.000    23786629.844 6  97402271.519 6      2663.635          40.000
G18  21144521.148 8 111115250.336 8     -2051.316          48.000    21144520.797 6  86583323.851 6     -1598.428          41.000
G20  21722197.930 8 114150946.086 8      2139.785          48.000    21722198.219 7  88948832.948 7      1667.365          45.000
G21  21459446.359 8 112770176.649 8     -1809.738          50.000    21459445.344 8  87872825.557 8     -1410.186          49.000
G26  20436654.969 8 107395363.424 8     -1001.023          51.000    20436656.680 8  83684677.236 8      -780.018          51.000
R05  22943683.883 6 122647134.306 6      -659.309          37.000
R11  20933441.594 8 111861972.789 8     -3575.328          51.000    20933445.727 7  87003767.871 7     -2780.814          47.000
R12  19867965.938 6 106131167.439 6       155.223          36.000    19867965.172 4  82546408.446 4       120.729          27.000
R21  20438684.797 5 109371585.397 5     -2143.500          31.000    20438684.617 5  85066762.174 5     -1667.170          35.000
R22  19974150.750 5 106623366.023 5      1142.930          34.000    19974146.359 4  82929273.018 4       888.945          26.000
C27  21681735.867 8 112902663.954 8      -697.797          51.000
E02  25839369.859 8 135786761.963 8     -2918.922          50.000    25839371.938 8 104044403.355 8     -2236.532          50.000
E15  25145593.312 8 132141076.740 8      2030.215          48.000    25145596.789 8 101250933.126 8      1555.553          48.000
E30  22453249.922 8 117992652.783 8      -727.930          51.000    22453252.766 8  90409911.074 8      -557.770          51.000
E36  25468495.672 5 133837843.165 5     -2248.312          34.000
> 2020 05 03 15 00 30.0000000  0 13        .000000000000
G10  23767114.578 6 124897063.456 6      3412.754          40.000    23767121.914 6  97322390.576 6      2659.292          39.000
G18  21156260.000 8 111176938.492 8     -2064.766          49.000    21156259.469 7  86631392.527 7     -1608.908          42.000
G20  21710017.109 7 114086941.902 7      2123.699          45.000    21710018.305 7  88898959.561 7      1654.831          45.000
G21  21469797.523 8 112824572.052 8     -1820.062          50.000    21469796.352 8  87915211.569 8     -1418.231          49.000
G26  20442413.719 8 107425625.534 8     -1019.914          51.000    20442415.273 8  83708258.093 8      -794.738          51.000
R05  22947451.359 5 122667256.082 5      -687.125          33.000    22947457.586 4  95407910.124 4      -534.434          25.000
R11  20953553.312 8 111969439.481 8     -3592.730          51.000    20953557.133 7  87087353.025 7     -2794.349          47.000
R12  19867171.117 5 106126860.750 5       126.504          34.000
C27  21685771.930 8 112923680.766 8      -706.926          51.000
E02  25856044.031 8 135874383.178 8     -2926.121          50.000    25856046.375 8 104111541.652 8     -2242.105          50.000
E15  25134014.000 7 132080230.408 7      2022.715          47.000    25134019.031 8 101204310.638 8      1549.848          48.000
E30  22457438.836 8 118014664.179 8      -743.090          51.000    22457441.398 8  90426776.953 8      -569.318          51.000
E36  25481330.508 6 133905312.412 6     -2252.805          36.000
> 2020 05 03 15 01  0.0000000  0 12        .000000000000
G10  23747665.086 6 124794860.468 6      3408.582          41.000    23747673.055 6  97242751.901 6      2656.038          41.000
G18  21168103.773 8 111239177.736 8     -2076.773          50.000    21168103.266 6  86679890.614 6     -1618.265          41.000
G20  21697956.734 7 114023568.730 7      2108.930          46.000    21697958.445 7  88849577.845 7      1643.322          44.000
G21  21480234.930 8 112879421.008 8     -1828.781          50.000    21480234.039 8  87957951.039 8     -1425.024          50.000
G26  20448307.312 8 107456580.469 8     -1037.512          51.000    20448309.336 8  83732407.163 8      -808.451          51.000
R11  20973790.758 8 112077578.478 8     -3608.676          51.000    20973794.406 8  87171461.093 8     -2806.751          48.000
R22  19961477.828 5 106555722.089 5      1115.473          30.000
C27  21689887.969 8 112945114.318 8      -714.523          51.000
E02  25872787.219 8 135962368.760 8     -2931.832          50.000    25872790.336 8 104178959.149 8     -2246.448          49.000
E15  25122506.109 7 132019757.600 7      2016.543          47.000    25122511.719 8 101157974.328 8      1545.113          48.000
E30  22461742.219 8 118037277.138 8      -756.746          51.000    22461744.758 8  90444103.762 8      -579.805          51.000
E36  25494217.383 5 133973016.377 5     -2255.145          32.000
> 2020 05 03 15 01 30.0000000  0 13        .000000000000
G10  23728201.023 7 124692576.809 7      3404.168          42.000    23728208.914 7  97163050.391 7      2652.598          42.000
G18  21179976.945 8 111301571.406 8     -2089.301          49.000    21179976.672 7  86728509.046 7     -1628.027          43.000
G20  21685942.930 8 113960433.838 8      2093.648          50.000    21685943.766 7  88800381.881 7      1631.414          42.000
G21  21490683.281 8 112934327.397 8     -1838.109          51.000    21490682.586 8  88000735.240 8     -1432.293          49.000
G26  20454262.320 8 107487873.245 8     -1055.301          51.000    20454264.305 8  83756787.686 8      -822.312          51.000
R05  22955451.836 5 122710005.089 5      -737.984          32.000
R11  20994077.781 8 112185984.567 8     -3624.984          51.000    20994081.859 8  87255776.912 8     -2819.432          49.000
R21  20474952.438 5 109565632.458 5     -2169.020          35.000    20474956.602 5  85217723.283 5     -1687.018          35.000
C27  21694008.953 8 112966573.212 8      -722.523          51.000
C28  24843239.352 5 129365276.834 5     -2549.301          32.000
E02  25889524.109 8 136050322.791 8     -2938.020          49.000    25889528.109 7 104246352.457 7     -2251.183          47.000
E15  25110994.445 7 131959263.941 7      2009.969          46.000    25110999.789 7 101111622.070 7      1540.136          47.000
E30  22466085.039 8 118060097.060 8      -770.973          51.000    22466087.594 8  90461589.145 8      -590.775          51.000
> 2020 05 03 15 02  0.0000000  0 12        .000000000000
G10  23708789.016 7 124590563.635 7      3398.277          42.000    23708796.125 7  97083559.645 7      2648.008          42.000
G18  21191945.336 8 111364465.692 8     -2102.246          50.000    21191945.188 7  86777517.573 7     -1638.114          43.000
G20  21674041.727 8 113897888.301 8      2077.535          51.000    21674040.977 7  88751645.153 7      1618.859          42.000
G21  21501208.570 8 112989637.989 8     -1847.887          50.000    21501207.664 8  88043834.389 8     -1439.912          49.000
G26  20460344.172 8 107519834.707 8     -1073.902          51.000    20460346.438 8  83781692.711 8      -836.810          51.000
R11  21014480.492 8 112295007.922 8     -3641.668          51.000    21014484.773 8  87340572.820 8     -2832.411          49.000
R21  20487147.445 5 109630867.206 5     -2177.996          34.000    20487144.016 5  85268461.323 5     -1693.994          34.000
C27  21698201.047 8 112988402.003 8      -731.262          51.000
C30  22982791.109 5 119677422.599 5      1825.836          30.000
E02  25906320.617 7 136138592.115 7     -2944.855          47.000    25906324.938 7 104313987.318 7     -2256.445          43.000
E15  25099545.320 7 131899097.852 7      2002.691          46.000    25099549.875 7 101065520.810 7      1534.485          47.000
E30  22470533.664 8 118083472.020 8      -785.816          51.000    22470535.797 8  90479499.820 8      -602.098          51.000
> 2020 05 03 15 02 30.0000000  0 13        .000000000000
G10  23689387.523 7 124488604.159 7      3394.945          42.000    23689393.781 7  97004110.758 7      2645.412          42.000
G18  21203966.820 8 111427638.852 8     -2113.117          49.000    21203966.680 7  86826743.400 7     -1646.585          43.000
G20  21662211.344 8 113835714.537 8      2063.527          51.000    21662209.859 7  88703198.106 7      1607.943          43.000
G21  21511768.594 8 113045131.618 8     -1855.535          49.000    21511767.680 8  88087076.176 8     -1445.872          49.000
G26  20466510.695 8 107552242.755 8     -1090.496          51.000    20466513.555 8  83806945.705 8      -849.740          51.000
R11  21034956.484 8 112404421.432 8     -3656.336          51.000    21034960.469 8  87425672.172 8     -2843.817          48.000
R12  19865569.227 5 106118309.698 5        15.383          31.000    19865579.602 5  82536487.390 5        11.964          30.000
R21  20499361.820 5 109696256.250 5     -2184.664          30.000    20499363.328 5  85319319.509 5     -1699.183          33.000
C27  21702422.172 8 113010382.542 8      -737.918          51.000
C30  22972278.305 4 119622681.245 4      1820.266          28.000
E02  25923134.609 7 136226955.629 7     -2949.754          46.000    25923136.117 6 104381694.273 6     -2260.105          40.000
E15  25088117.047 7 131839039.843 7      1997.301          46.000    25088121.289 7 101019502.361 7      1530.558          47.000
E30  22475045.977 8 118107182.221 8      -798.648          51.000    22475047.805 8  90497667.374 8      -611.898          51.000
> 2020 05 03 15 03  0.0000000  0 12        .000000000000
G10  23670021.367 7 124386828.635 7      3392.074          42.000    23670026.461 7  96924805.199 7      2643.178          42.000
G18  21216065.141 8 111491216.096 8     -2123.359          49.000    21216064.891 7  86876284.119 7     -1654.566          44.000
G20  21650475.984 8 113774042.115 8      2050.012          51.000    21650474.672 7  88655141.716 7      1597.412          45.000
G21  21522387.297 8 113100933.411 8     -1862.598          50.000    21522386.438 7  88130558.100 7     -1451.375          47.000
G26  20472786.625 8 107585224.276 8     -1106.281          51.000    20472789.672 8  83832645.570 8      -862.037          51.000
R11  21055528.797 8 112514350.543 8     -3670.219          51.000    21055532.148 7  87511172.527 7     -2854.615          47.000
R12  19865563.406 5 106118282.968 5       -10.980          35.000    19865572.523 5  82536465.827 5        -8.540          32.000
R21  20511630.711 5 109761927.973 5     -2191.805          31.000    20511636.172 5  85370397.398 5     -1704.743          32.000
C27  21706696.445 8 113032640.512 8      -744.000          51.000
E02  25939990.461 7 136315539.287 7     -2953.926          46.000    25939989.156 7 104449569.939 7     -2263.359          42.000
E15  25076733.727 7 131779217.422 7      1992.656          47.000    25076738.695 8 100973664.451 8      1526.817          48.000
E30  22479645.914 8 118131354.897 8      -810.895          51.000    22479647.883 8  90516189.270 8      -621.341          51.000
> 2020 05 03 15 03 30.0000000  0 11        .000000000000
G10  23650671.688 6 124285141.895 6      3386.629          40.000    23650675.281 6  96845568.832 6      2638.935          40.000
G18  21228221.320 8 111555097.241 8     -2135.461          51.000    21228221.094 7  86926061.619 7     -1663.996          44.000
G20  21638817.344 8 113712775.314 8      2034.246          50.000    21638816.742 7  88607401.401 7      1585.130          46.000
G21  21533045.922 8 113156944.617 8     -1871.695          50.000    21533044.891 7  88174203.176 7     -1458.464          47.000
G26  20479153.227 8 107618680.636 8     -1124.516          51.000    20479156.086 8  83858715.469 8      -876.246          51.000
R11  21076177.547 8 112624691.526 8     -3686.105          50.000    21076180.367 7  87596993.228 7     -2866.974          45.000
R12  19865699.867 5 106119013.417 5       -39.281          33.000    19865710.312 5  82537036.007 5       -30.549          35.000
C27  21711005.266 8 113055078.173 8      -752.137          51.000
E02  25956869.820 7 136404243.500 7     -2959.988          46.000    25956869.875 7 104517538.047 7     -2268.076          45.000
E15  25065376.555 7 131719532.566 7      1986.082          47.000    25065382.406 8 100927931.935 8      1521.713          49.000
E30  22484314.953 8 118155891.694 8      -825.160          51.000    22484317.219 8  90534990.171 8      -632.236          51.000
> 2020 05 03 15 04  0.0000000  0 12        .000000000000
G10  23631354.305 6 124183626.213 6      3381.586          39.000    23631355.156 6  96766465.949 6      2635.014          39.000
G18  21240450.141 8 111619359.620 8     -2147.789          50.000    21240450.117 7  86976136.182 7     -1673.602          44.000
G20  21627251.008 8 113651996.028 8      2018.477          49.000    21627251.336 7  88560040.941 7      1572.842          46.000
G21  21543758.828 8 113213241.499 8     -1880.590          50.000    21543757.727 7  88218070.870 7     -1465.395          46.000
G26  20485625.234 8 107652690.751 8     -1142.211          51.000    20485627.883 8  83885216.861 8      -890.034          51.000
R11  21096916.398 7 112735521.165 7     -3701.719          47.000    21096919.711 7  87683194.010 7     -2879.118          44.000
R12  19866005.047 6 106120648.064 6       -67.238          38.000    19866009.156 5  82538289.764 5       -52.296          35.000
R21  20536301.211 5 109893907.121 5     -2208.008          30.000    20536301.859 5  85473023.801 5     -1717.339          32.000
C27  21715363.711 8 113077773.739 8      -760.180          51.000
E02  25973787.594 7 136493146.274 7     -2965.879          47.000    25973790.477 8 104585658.307 8     -2272.604          48.000
E15  25054060.203 7 131660064.907 7      1979.180          46.000    25054066.750 8 100882365.834 8      1516.658          48.000
E30  22489068.398 8 118180871.893 8      -839.355          51.000    22489071.031 8  90554130.825 8      -643.134          51.000
> 2020 05 03 15 04 30.0000000  0 15        .000000000000
G10  23612057.234 6 124082218.806 6      3375.035          38.000    23612057.617 6  96687447.342 6      2629.904          38.000
G18  21252738.508 8 111683935.325 8     -2161.020          49.000    21252738.641 7  87026454.905 7     -1683.911          44.000
G20  21615765.117 8 113591640.540 8      2001.473          49.000    21615766.031 7  88513010.714 7      1559.589          45.000
G21  21554513.258 8 113269756.634 8     -1890.734          50.000    21554512.055 7  88262108.622 7     -1473.300          45.000
G26  20492190.047 8 107687188.386 8     -1161.438          51.000    20492192.875 8  83912098.121 8      -905.016          51.000
G29  24301995.930 5 127707849.723 5     -2942.586          31.000
R11  21117733.102 7 112846768.492 7     -3718.406          47.000    21117737.734 7  87769719.674 7     -2892.094          45.000
R12  19866452.953 6 106123062.437 6       -96.629          38.000    19866455.797 5  82540149.456 5       -75.156          34.000
R21  20548687.516 5 109960211.030 5     -2216.609          32.000    20548692.945 5  85524593.617 5     -1724.026          32.000
C27  21719759.117 8 113100661.557 8      -769.461          51.000
C30  22930582.625 5 119405559.722 5      1795.887          30.000
E02  25990730.812 7 136582180.456 7     -2973.262          46.000    25990735.992 8 104653879.255 8     -2278.234          50.000
E15  25042771.555 7 131600748.840 7      1971.328          43.000    25042778.641 8 100836915.886 8      1510.501          48.000
E30  22493893.555 8 118206229.515 8      -854.828          51.000    22493896.766 8  90573560.680 8      -655.004          51.000
E36  25584633.438 5 134448156.208 5     -2272.371          33.000
> 2020 05 03 15 05  0.0000000  0 14        .000000000000
G10  23592806.414 6 123981061.385 6      3370.789          38.000    23592808.766 6  96608623.430 6      2626.592          37.000
G18  21265112.492 8 111748961.134 8     -2171.965          49.000    21265112.281 7  87077124.367 7     -1692.440          43.000
G20  21604387.031 8 113531850.083 8      1986.633          49.000    21604387.867 7  88466420.754 7      1548.026          44.000
G21  21565335.445 8 113326627.857 8     -1898.504          50.000    21565334.102 7  88306423.832 7     -1479.357          44.000
G26  20498874.000 8 107722311.847 8     -1178.172          51.000    20498876.891 8  83939467.032 8      -918.056          51.000
R05  22987888.094 5 122883393.996 5      -915.457          31.000
R11  21138655.523 8 112958570.866 8     -3732.762          49.000    21138659.969 7  87856677.034 7     -2903.262          46.000
R12  19867074.922 5 106126368.859 5      -123.711          32.000    19867085.289 6  82542749.437 6       -96.226          36.000
R21  20561136.016 6 110026846.311 6     -2223.367          38.000    20561147.281 4  85576421.123 4     -1729.289          29.000
C27  21724217.703 8 113123878.752 8      -776.301          51.000
E02  26007725.172 7 136671483.459 7     -2978.156          46.000    26007731.852 8 104722306.182 8     -2281.943          50.000
E15  25031538.727 7 131541723.366 7      1965.707          45.000    25031544.867 7 100791688.581 7      1506.197          47.000
E30  22498816.766 8 118232103.280 8      -868.020          51.000    22498820.672 8  90593386.010 8      -665.088          51.000
E36  25597620.742 5 134516404.857 5     -2273.422          32.000
> 2020 05 03 15 05 30.0000000  0 14        .000000000000
G10  23573560.227 6 123879932.486 6      3364.770          37.000    23573564.852 6  96529821.773 6      2621.901          38.000
G18  21277529.039 8 111814210.651 8     -2184.359          50.000    21277528.633 7  87127968.128 7     -1702.098          42.000
G20  21593074.445 8 113472402.471 8      1970.070          49.000    21593074.750 7  88420097.963 7      1535.120          44.000
G21  21576182.164 8 113383628.359 8     -1907.980          49.000    21576180.836 7  88350839.798 7     -1486.738          44.000
G26  20505634.336 8 107757836.290 8     -1196.625          51.000    20505636.953 8  83967148.394 8      -932.435          51.000
R05  22993091.977 5 122911219.028 5      -941.293          31.000    22993101.305 4  95597671.766 4      -732.108          25.000
R11  21159639.320 8 113070696.247 8     -3748.699          51.000    21159643.211 8  87943885.590 8     -2915.658          48.000
R12  19867833.133 5 106130422.435 5      -151.496          31.000    19867840.906 5  82545898.010 5      -117.830          35.000
R21  20573606.969 6 110093583.087 6     -2232.098          37.000    20573619.008 4  85628327.446 4     -1736.079          25.000
C27  21728696.766 8 113147202.551 8      -784.887          51.000
C28  24960991.633 5 129978435.042 5     -2562.910          32.000
E02  26024727.414 7 136760829.518 7     -2984.605          45.000    26024734.938 8 104790766.104 8     -2286.983          49.000
E15  25020319.555 8 131482764.211 8      1958.453          48.000    25020324.109 7 100746512.130 7      1500.609          47.000
E30  22503795.398 8 118258268.645 8      -882.773          51.000    22503799.734 8  90613434.764 8      -676.414          51.000
> 2020 05 03 15 06  0.0000000  0 15        .000000000000
G10  23554354.336 6 123779008.771 6      3362.355          36.000    23554359.758 6  96451180.002 6      2620.020          36.000
G18  21290020.805 8 111879855.400 8     -2193.332          50.000    21290020.633 7  87179119.862 7     -1709.090          43.000
G20  21581860.555 8 113413473.376 8      1957.223          49.000    21581860.688 7  88374179.252 7      1525.112          45.000
G21  21587086.375 8 113440930.739 8     -1913.602          49.000    21587085.156 7  88395491.003 7     -1491.118          44.000
G26  20512503.930 8 107793934.725 8     -1211.328          51.000    20512506.188 8  83995277.034 8      -943.892          51.000
R05  22998431.680 5 122939771.253 5      -962.867          32.000
R11  21180715.594 8 113183317.126 8     -3760.660          51.000    21180719.242 8  88031479.538 8     -2924.958          48.000
R21  20586130.914 6 110160596.294 6     -2236.652          37.000
R22  19902404.781 5 106240430.839 5       987.137          34.000    19902404.969 5  82631420.196 5       767.776          31.000
C27  21733229.367 8 113170804.529 8      -789.875          51.000
C28  24975752.664 4 130055296.684 4     -2561.785          29.000
C30  22899676.211 5 119244636.808 5      1779.301          30.000
E02  26041770.430 7 136850390.785 7     -2987.258          44.000    26041778.211 8 104859390.935 8     -2288.962          48.000
E15  25009146.484 8 131424045.196 8      1954.793          48.000    25009149.883 7 100701519.680 7      1497.915          47.000
E30  22508862.953 8 118284898.940 8      -893.828          51.000    22508866.945 8  90633839.789 8      -684.887          51.000
> 2020 05 03 15 06 30.0000000  0 14        .000000000000
G10  23535181.375 6 123678249.780 6      3356.438          39.000    23535185.711 6  96372666.569 6      2615.409          39.000
G18  21302579.156 8 111945849.942 8     -2204.992          50.000    21302579.180 7  87230544.161 7     -1718.176          43.000
G20  21570737.734 8 113355022.073 8      1940.926          50.000    21570737.875 7  88328632.806 7      1512.410          45.000
G21  21598039.547 8 113498489.750 8     -1922.258          50.000    21598038.711 7  88440342.173 7     -1497.863          43.000
G26  20519474.023 8 107830563.297 8     -1229.176          51.000    20519476.273 8  84023818.757 8      -957.799          51.000
R05  23003913.961 5 122969085.222 5      -989.184          34.000    23003924.609 4  95642666.471 4      -769.362          29.000
R11  21201875.102 8 113296385.387 8     -3775.762          50.000    21201878.844 8  88119421.479 8     -2936.704          48.000
R21  20598699.242 5 110227840.256 5     -2244.703          32.000    20598731.562 4  85732775.364 4     -1745.883          28.000
R22  19896896.867 6 106211049.503 6       973.367          36.000    19896903.078 5  82608568.141 5       757.063          33.000
C27  21737807.133 8 113194641.243 8      -797.836          51.000
C30  22889441.797 4 119191360.818 4      1772.227          28.000
E02  26058845.867 7 136940122.481 7     -2993.113          43.000    26058853.742 7 104928146.367 7     -2293.454          47.000
E15  24998010.625 7 131365523.122 7      1948.121          47.000    24998013.266 7 100656678.113 7      1492.683          47.000
E30  22514010.891 8 118311950.649 8      -908.086          51.000    22514014.242 8  90654567.720 8      -695.797          51.000
> 2020 05 03 15 07  0.0000000  0 15        .000000000000
G10  23516036.578 6 123577636.492 6      3351.820          37.000    23516039.273 6  96294266.678 6      2611.811          38.000
G18  21315199.531 8 112012170.291 8     -2215.254          50.000    21315199.398 7  87282222.337 7     -1726.172          42.000
G20  21559702.094 8 113297028.687 8      1926.246          49.000    21559702.258 7  88283443.153 7      1500.971          46.000
G21  21609037.039 8 113556281.233 8     -1929.453          49.000    21609036.469 7  88485374.497 7     -1503.470          43.000
G26  20526540.484 8 107867699.470 8     -1245.465          51.000    20526542.953 8  84052756.003 8      -970.492          51.000
R05  23009534.578 4 122999137.374 4     -1013.469          28.000    23009544.688 5  95666040.594 5      -788.238          32.000
R11  21223112.734 8 113409874.773 8     -3789.133          49.000    21223116.977 7  88207690.948 7     -2947.106          47.000
R12  19871072.969 5 106147719.109 5      -231.867          30.000    19871072.445 4  82559319.129 4      -180.344          26.000
R21  20611304.594 6 110295291.128 6     -2250.684          36.000    20611341.016 4  85785237.123 4     -1750.532          27.000
R22  19891461.078 5 106182041.016 5       960.945          31.000    19891468.156 5  82586005.930 5       747.399          30.000
C27  21742425.586 8 113218690.554 8      -804.375          51.000
E02  26075949.367 7 137030001.310 7     -2997.473          42.000    26075957.180 7 104997014.508 7     -2296.813          46.000
E15  24986907.445 7 131307176.245 7      1942.922          46.000    24986910.211 7 100611970.779 7      1488.684          46.000
E30  22519234.617 8 118339401.625 8      -920.871          51.000    22519237.516 8  90675601.565 8      -705.510          51.000
E36  25649604.859 5 134789582.701 5     -2279.652          32.000
> 2020 05 03 15 07 30.0000000  0 14        .000000000000
G10  23496915.508 5 123477136.284 5      3347.422          31.000    23496913.875 5  96215954.957 5      2608.387          30.000
G18  21327874.844 8 112078778.894 8     -2226.824          50.000    21327874.766 7  87334125.133 7     -1735.191          42.000
G20  21548747.188 8 113239459.628 8      1910.051          49.000    21548747.484 7  88238584.147 7      1488.348          47.000
G21  21620071.695 8 113614268.438 8     -1937.984          48.000    21620070.625 7  88530559.342 7     -1510.118          43.000
G26  20533696.898 8 107905307.191 8     -1263.199          51.000    20533699.266 8  84082060.702 8      -984.311          51.000
R05  23015287.422 6 123029890.560 6     -1038.203          37.000    23015297.461 5  95689959.934 5      -807.488          32.000
R11  21244421.562 8 113523745.354 8     -3803.781          50.000    21244425.727 7  88296256.895 7     -2958.497          46.000
R12  19872457.602 6 106155110.337 6      -260.844          40.000    19872459.969 5  82565090.035 5      -202.878          31.000
R21  20623942.148 6 110362911.336 6     -2258.273          37.000
C27  21747077.906 8 113242916.847 8      -812.215          51.000
E02  26093073.672 6 137119990.360 6     -3003.277          40.000    26093081.312 7 105065967.101 7     -2301.218          45.000
E15  24975830.531 7 131248969.258 7      1936.160          45.000    24975833.477 7 100567370.650 7      1483.527          45.000
E30  22524527.711 8 118367216.179 8      -934.996          51.000    22524530.156 8  90696914.000 8      -716.387          51.000
E36  25662628.352 5 134858022.027 5     -2283.023          32.000
> 2020 05 03 15 08  0.0000000  0 17        .000000000000
G10  23477833.984 5 123376848.761 5      3339.730          34.000    23477828.906 5  96137809.122 5      2602.393          34.000
G18  21340623.023 8 112145770.284 8     -2238.809          50.000    21340622.992 7  87386326.194 7     -1744.526          43.000
G20  21537891.914 8 113182413.831 8      1893.305          50.000    21537892.297 7  88194132.897 7      1475.302          47.000
G21  21631161.594 8 113672546.530 8     -1946.938          48.000    21631160.125 7  88575970.846 7     -1517.091          43.000
G26  20540961.555 8 107943482.321 8     -1281.363          51.000    20540963.680 8  84111807.545 8      -998.465          51.000
R05  23021190.109 6 123061442.312 6     -1064.238          36.000    23021199.484 5  95714500.281 5      -827.744          30.000
R11  21265819.531 8 113638091.177 8     -3818.832          50.000    21265823.562 7  88385192.472 7     -2970.206          46.000
R12  19874000.812 6 106163349.179 6      -288.926          39.000    19874003.602 5  82571496.204 5      -224.720          30.000
R21  20636629.078 5 110430797.680 5     -2266.309          35.000
R22  19880809.180 5 106125120.288 5       934.977          34.000
C27  21751782.422 8 113267415.415 8      -820.664          51.000
C28  25034875.375 4 130363164.788 4     -2566.875          27.000
C30  22858947.609 5 119032559.734 5      1755.203          34.000
E02  26110236.992 6 137210184.804 6     -3009.516          40.000    26110244.219 7 105135077.061 7     -2305.972          44.000
E15  24964798.828 7 131190998.873 7      1928.848          45.000    24964801.250 7 100522951.819 7      1478.020          45.000
E30  22529908.578 8 118395490.631 8      -949.684          51.000    22529910.688 8  90718578.827 8      -727.704          51.000
E36  25675670.969 5 134926560.386 5     -2285.746          31.000
> 2020 05 03 15 08 30.0000000  0 16        .000000000000
G10  23458779.547 6 123276724.105 6      3334.316          40.000    23458775.297 6  96059790.110 6      2598.175          39.000
G18  21353433.500 8 112213089.485 8     -2249.941          49.000    21353433.305 7  87438782.706 7     -1753.201          42.000
G20  21527126.539 8 113125840.788 8      1877.395          50.000    21527126.594 7  88150050.002 7      1462.905          46.000
G21  21642296.461 8 113731060.634 8     -1954.711          48.000    21642295.266 7  88621566.254 7     -1523.151          43.000
G26  20548323.898 8 107982171.555 8     -1298.715          51.000    20548326.133 8  84141954.970 8     -1011.986          51.000
R05  23027232.172 5 123093737.378 5     -1089.168          32.000    23027240.047 4  95739618.778 4      -847.125          25.000
R11  21287295.938 8 113752854.358 8     -3832.789          51.000    21287299.938 7  88474452.677 7     -2981.058          46.000
R12  19875702.930 6 106172426.797 6      -317.188          40.000    19875708.484 5  82578572.841 5      -246.701          34.000
R21  20649355.078 6 110498894.764 6     -2273.590          37.000
C27  21756529.086 8 113292133.346 8      -828.008          51.000
C28  25049668.117 5 130440203.073 5     -2570.188          32.000
C30  22848853.984 5 118979987.640 5      1748.570          34.000
E02  26127429.016 6 137300530.277 6     -3014.371          40.000    26127435.688 7 105204302.746 7     -2309.593          44.000
E15  24953802.078 7 131133212.353 7      1922.660          44.000    24953804.930 7 100478673.869 7      1473.234          46.000
E30  22535366.797 8 118424171.798 8      -963.258          51.000    22535368.766 8  90740555.293 8      -738.072          51.000
E36  25688725.852 5 134995163.958 5     -2288.004          31.000
> 2020 05 03 15 09  0.0000000  0 16        .000000000000
G10  23439764.016 7 123176810.424 7      3330.188          45.000    23439762.344 7  95981935.413 7      2594.954          45.000
G18  21366314.383 8 112280779.507 8     -2259.285          48.000    21366314.023 7  87491528.169 7     -1760.482          42.000
G20  21516459.875 8 113069787.536 8      1863.117          49.000    21516459.578 7  88106372.152 7      1451.780          46.000
G21  21653484.516 7 113789854.019 7     -1961.059          47.000    21653483.438 7  88667379.298 7     -1528.098          43.000
G26  20555792.500 8 108021419.247 8     -1314.328          51.000    20555794.648 8  84172537.549 8     -1024.152          51.000
R05  23033424.570 5 123126829.610 5     -1112.637          30.000
R11  21308858.672 8 113868076.988 8     -3845.043          51.000    21308862.469 7  88564070.220 7     -2990.589          46.000
R12  19877565.406 5 106182390.972 5      -343.285          34.000    19877571.570 5  82586324.309 5      -267.009          35.000
R21  20662128.758 6 110567246.974 6     -2279.223          38.000
C27  21761326.508 8 113317114.923 8      -833.887          51.000
C28  25064483.617 5 130517352.667 5     -2570.180          35.000
C30  22838800.758 5 118927636.539 5      1744.887          33.000
E02  26144657.461 6 137391070.484 6     -3017.758          38.000    26144664.672 7 105273677.687 7     -2312.416          44.000
E15  24942849.047 7 131075654.942 7      1918.152          45.000    24942852.953 7 100434571.453 7      1469.642          46.000
E30  22540910.906 8 118453304.576 8      -975.336          51.000    22540912.648 8  90762877.812 8      -747.326          51.000
E36                                                                  25701805.672 5 103490518.331 5     -1753.206          33.000
> 2020 05 03 15 09 30.0000000  0 14        .000000000000
G10  23420775.703 8 123077039.221 8      3317.020          48.000    23420776.625 7  95904191.713 7      2584.694          47.000
G18  21379251.836 7 112348766.975 7     -2277.582          47.000    21379251.820 7  87544505.421 7     -1774.739          43.000
G20  21505879.141 8 113014185.068 8      1839.438          50.000    21505878.523 7  88063045.587 7      1433.331          45.000
G21  21664711.820 7 113848853.760 7     -1976.605          47.000    21664710.062 6  88713353.118 6     -1540.215          41.000
G26  20563353.906 8 108061153.330 8     -1338.988          51.000    20563355.977 8  84203499.156 8     -1043.367          51.000
R11  21330493.164 8 113983682.486 8     -3866.422          51.000    21330496.180 7  88653985.536 7     -3007.220          45.000
R12  19879579.195 6 106193180.884 6      -378.172          37.000    19879582.594 5  82594690.177 5      -294.131          35.000
R21  20674935.242 6 110635780.163 6     -2293.992          37.000
R22  19865375.453 6 106042679.214 6       890.660          37.000    19865373.930 3  82477658.352 3       692.730          23.000
C27  21766160.891 8 113342289.022 8      -848.676          51.000
E02  26161908.891 6 137481732.694 6     -3030.465          36.000    26161916.992 7 105343146.068 7     -2322.068          45.000
E15  24931926.711 7 131018255.440 7      1904.207          45.000    24931931.078 7 100390590.046 7      1458.963          46.000
E30  22546527.328 8 118482817.304 8      -996.598          51.000    22546528.766 8  90785491.465 8      -763.621          51.000
E36                                                                  25714880.500 4 103543167.514 4     -1760.551          29.000
> 2020 05 03 15 10  0.0000000  0 13        .000000000000
G10  23401845.078 8 122977567.948 8      3317.066          49.000    23401847.562 8  95826681.738 8      2584.730          49.000
G18  21392275.055 7 112417204.264 7     -2282.273          46.000    21392275.297 7  87597833.193 7     -1778.392          43.000
G20  21495414.109 8 112959190.188 8      1829.445          50.000    21495412.883 7  88020192.452 7      1425.545          45.000
G21  21676007.570 7 113908212.516 7     -1978.324          47.000    21676005.172 7  88759606.688 7     -1541.548          42.000
G26  20571036.922 8 108101527.631 8     -1350.012          51.000    20571039.391 8  84234959.625 8     -1051.960          51.000
R11  21352227.781 8 114099823.621 8     -3873.738          51.000    21352229.930 7  88744317.451 7     -3012.908          44.000
R12  19881773.891 5 106204867.887 5      -399.973          34.000    19881776.195 6  82603797.349 6      -311.090          36.000
R21  20687804.719 6 110704650.415 6     -2294.777          38.000
C27  21771061.594 8 113367808.276 8      -849.992          51.000
C30  22818826.906 5 118823645.805 5      1731.574          30.000
E02  26179213.797 6 137572669.881 6     -3029.434          38.000    26179221.992 7 105412825.188 7     -2321.314          45.000
E15  24921064.445 7 130961168.419 7      1904.070          47.000    24921068.086 7 100346848.082 7      1458.903          45.000
E30  22552245.281 8 118512864.196 8     -1004.082          51.000    22552246.578 8  90808514.406 8      -769.371          51.000
> 2020 05 03 15 10 30.0000000  0 14        .000000000000
G10  23382905.031 8 122878042.867 8      3308.418          50.000    23382906.789 8  95749129.881 8      2577.994          50.000
G18  21405315.688 7 112485732.720 7     -2295.742          46.000    21405315.672 6  87651231.984 6     -1788.890          41.000
G20  21484997.258 8 112904447.835 8      1810.590          51.000    21484995.922 7  87977536.113 7      1410.852          45.000
G21  21687303.398 7 113967571.947 7     -1988.445          47.000    21687301.352 7  88805860.792 7     -1549.438          43.000
G26  20578773.656 8 108142184.824 8     -1369.812          51.000    20578776.391 8  84266640.535 8     -1067.386          51.000
R11  21373993.883 8 114216133.957 8     -3889.754          51.000    21373995.438 7  88834780.986 7     -3025.367          44.000
R12  19884075.727 5 106217169.729 5      -430.285          32.000    19884077.477 5  82613358.628 5      -334.669          34.000
R21  20700669.227 6 110773492.850 6     -2304.383          39.000
R22  19855459.102 5 105989775.289 5       868.512          31.000
C27  21775960.711 8 113393318.886 8      -859.996          51.000
C30  22808835.930 5 118771699.902 5      1722.570          34.000
E02  26196504.000 6 137663524.000 6     -3036.992          39.000    26196511.656 7 105482440.642 7     -2327.028          45.000
E15  24910193.875 7 130904037.426 7      1895.184          47.000    24910196.180 7 100303072.435 7      1452.214          46.000
E30  22557996.609 8 118543088.330 8     -1020.277          51.000    22557998.078 8  90831673.131 8      -781.774          51.000
> 2020 05 03 15 11  0.0000000  0 14        .000000000000
G10  23364037.445 8 122778895.885 8      3304.125          51.000    23364038.477 8  95671872.620 8      2574.646          51.000
G18  21418454.859 7 112554779.196 7     -2304.695          46.000    21418454.461 6  87705034.427 6     -1795.866          41.000
G20  21474710.555 8 112850389.120 8      1796.066          51.000    21474709.086 7  87935412.467 7      1399.535          46.000
G21  21698680.641 8 114027359.650 8     -1994.531          49.000    21698679.039 7  88852448.623 7     -1554.180          42.000
G26  20586645.852 8 108183553.108 8     -1385.203          51.000    20586648.812 8  84298875.565 8     -1079.379          51.000
R11  21395872.703 8 114333045.584 8     -3901.430          51.000    21395874.266 7  88925712.179 7     -3034.448          44.000
R12  19886575.062 5 106230541.532 5      -456.438          35.000    19886579.391 5  82623751.902 5      -355.010          35.000
R21  20713609.680 6 110842742.794 6     -2309.578          39.000
R22  19850608.898 4 105963913.163 4       857.562          29.000    19850604.055 4  82416344.914 4       666.993          25.000
C27  21780939.641 8 113419245.490 8      -865.703          51.000
C30  22798923.086 5 118720130.094 5      1717.727          32.000
E02  26213860.148 6 137754722.574 6     -3040.160          40.000    26213867.125 7 105552320.042 7     -2329.569          45.000
E15  24899396.000 7 130847291.518 7      1890.523          47.000    24899398.320 7 100259591.873 7      1448.547          47.000
E30  22563863.156 8 118573918.317 8     -1032.281          51.000    22563864.742 8  90855296.088 8      -790.978          51.000
> 2020 05 03 15 11 30.0000000  0 14        .000000000000
G10  23345189.625 8 122679850.272 8      3298.328          50.000    23345190.875 8  95594694.288 8      2570.126          50.000
G18  21431638.969 7 112624061.886 7     -2314.793          46.000    21431638.414 6  87759020.927 6     -1803.738          40.000
G20  21464501.047 8 112796736.656 8      1780.180          51.000    21464499.344 7  87893605.394 7      1387.153          46.000
G21  21710085.891 8 114087294.297 8     -2001.770          50.000    21710084.164 7  88899150.921 7     -1559.823          42.000
G26  20594599.938 8 108225352.047 8     -1402.039          50.000    20594603.227 8  84331446.157 8     -1092.498          50.000
R11  21417809.711 8 114450269.872 8     -3914.133          50.000    21417811.469 7  89016886.570 7     -3044.329          45.000
R12  19889210.555 6 106244600.596 6      -483.594          36.000    19889214.445 5  82634696.970 5      -376.125          33.000
R21  20726572.070 5 110912113.984 5     -2315.516          33.000
C27  21785944.984 8 113445310.404 8      -872.637          51.000
C30  22789033.648 4 118668491.617 4      1713.379          28.000
E02  26231227.914 6 137845984.430 6     -3044.629          39.000    26231234.406 7 105622247.904 7     -2332.918          44.000
E15  24888617.578 7 130790651.109 7      1884.754          45.000    24888621.289 8 100216192.101 8      1444.207          48.000
E30  22569791.617 8 118605074.059 8     -1045.418          51.000    22569793.281 8  90879168.666 8      -801.044          51.000
E36  25767305.445 5 135408097.081 5     -2299.156          35.000
> 2020 05 03 15 12  0.0000000  0 16        .000000000000
G10  23326363.055 8 122580915.898 8      3302.547          49.000    23326364.945 8  95517602.622 8      2573.413          49.000
G18  21444868.922 7 112693585.667 7     -2314.816          45.000    21444868.227 6  87813195.293 6     -1803.753          39.000
G20  21454370.250 8 112743499.318 8      1774.297          51.000    21454368.508 7  87852121.788 7      1382.569          46.000
G21  21721520.102 8 114147380.673 8     -1998.629          49.000    21721518.234 7  88945971.459 7     -1557.373          44.000
G26  20602637.000 8 108267587.827 8     -1408.430          51.000    20602640.391 8  84364357.126 8     -1097.478          51.000
R05  23073449.820 5 123340715.695 5     -1251.965          34.000    23073451.766 4  95931706.538 4      -973.750          28.000
R11  21439804.984 8 114567809.934 8     -3916.422          48.000    21439807.859 7  89108306.584 7     -3046.109          45.000
R12  19891986.312 5 106259435.050 5      -500.992          35.000    19891993.828 5  82646243.294 5      -389.661          33.000
R21  20739558.711 5 110981612.002 5     -2311.801          33.000
C27  21790978.047 8 113471520.112 8      -869.441          51.000
C28  25153519.906 5 130980968.134 5     -2570.102          30.000
C30  22779166.859 5 118617112.243 5      1716.973          32.000
E02  26248608.859 6 137937315.020 6     -3038.730          41.000    26248614.891 7 105692228.441 7     -2328.438          44.000
E15  24877860.383 7 130734123.275 7      1889.117          45.000    24877865.914 8 100172878.581 8      1447.526          48.000
E30  22575782.984 8 118636562.191 8     -1048.387          51.000    22575785.117 8  90903295.912 8      -803.273          51.000
E36  25780425.562 6 135477018.813 6     -2290.000          36.000
> 2020 05 03 15 12 30.0000000  0 14        .000000000000
G10  23307596.086 7 122482295.858 7      3274.555          47.000    23307598.422 7  95440755.858 7      2551.601          47.000
G18  21458182.523 7 112763548.656 7     -2346.691          44.000    21458181.555 6  87867711.868 6     -1828.594          39.000
G20  21444356.914 8 112690879.211 8      1736.188          51.000    21444355.398 7  87811119.125 7      1352.873          47.000
G21  21733020.828 8 114207817.391 8     -2027.773          49.000    21733019.234 7  88993065.022 7     -1580.083          44.000
G26  20610795.500 8 108310459.810 8     -1447.020          51.000    20610798.602 8  84397763.866 8     -1127.548          51.000
R11  21461896.680 8 114685865.441 8     -3951.309          49.000    21461900.594 7  89200127.503 7     -3073.240          45.000
R12  19894946.648 6 106275256.078 6      -549.945          40.000    19894947.914 5  82658531.837 5      -427.729          31.000
R21  20752607.719 6 111051439.264 6     -2340.871          36.000
R22  19836455.969 5 105888370.752 5       808.387          31.000
C27  21796077.039 8 113498072.573 8      -898.113          51.000
C28  25168397.344 5 131058425.278 5     -2591.703          34.000
E02  26266040.977 6 138028913.087 6     -3065.035          39.000    26266046.219 7 105762413.942 7     -2348.426          42.000
E15  24867162.961 7 130677908.262 7      1861.328          45.000    24867169.312 7 100129804.773 7      1426.138          47.000
E30  22581875.695 8 118668582.513 8     -1083.566          51.000    22581878.375 8  90927830.936 8      -830.253          51.000
> 2020 05 03 15 13  0.0000000  0 14        .000000000000
G10  23288846.750 7 122383772.377 7      3278.703          46.000    23288850.062 7  95363984.316 7      2554.834          47.000
G18  21471537.227 7 112833728.038 7     -2346.750          44.000    21471536.484 6  87922397.071 6     -1828.636          40.000
G20  21434419.352 8 112638657.632 8      1730.281          51.000    21434418.336 7  87770427.006 7      1348.271          47.000
G21  21744545.812 8 114268381.983 8     -2024.625          49.000    21744544.414 7  89040258.200 7     -1577.630          43.000
G26  20619032.938 8 108353746.451 8     -1453.488          51.000    20619035.703 8  84431493.698 8     -1132.588          51.000
G27  21896091.953 6 115064734.728 6      2297.285          39.000    21896091.961 5  89660846.174 5      1790.089          32.000
R11  21484043.062 8 114804207.532 8     -3953.234          50.000    21484046.906 7  89292171.336 7     -3074.738          44.000
R12  19898038.594 5 106291796.769 5      -566.645          34.000    19898045.531 5  82671383.706 5      -440.727          34.000
R21  20765674.984 5 111121369.600 5     -2336.723          34.000
C27  21801199.914 8 113524748.575 8      -894.984          51.000
C28  25183256.688 5 131135826.059 5     -2582.668          34.000
E02  26283481.125 6 138120556.405 6     -3059.598          36.000    26283486.422 6 105832634.121 6     -2344.146          40.000
E15  24856483.211 7 130621785.476 7      1865.438          43.000    24856489.312 7 100086801.592 7      1429.466          45.000
E30  22588027.742 8 118700913.885 8     -1086.664          51.000    22588030.852 8  90952604.310 8      -832.642          51.000
> 2020 05 03 15 13 30.0000000  0 15        .000000000000
G10  23270150.898 7 122285531.699 7      3272.004          46.000    23270155.234 7  95287433.146 7      2549.613          46.000
G18  21484967.406 7 112904305.027 7     -2357.359          43.000    21484967.312 6  87977392.132 6     -1836.906          40.000
G20  21424592.875 8 112587020.314 8      1713.484          50.000    21424592.062 7  87730190.167 7      1335.186          47.000
G21  21756129.711 8 114329256.178 8     -2032.227          50.000    21756128.203 7  89087692.630 7     -1583.553          43.000
G26  20627383.672 8 108397630.313 8     -1470.754          51.000    20627386.578 8  84465688.879 8     -1146.045          51.000
G27  21883002.164 5 114995940.528 5      2290.293          31.000    21882998.281 5  89607240.361 5      1784.650          30.000
R11  21506278.055 8 114923018.846 8     -3966.133          51.000    21506280.867 7  89384580.076 7     -3084.773          43.000
R12  19901306.734 6 106309214.046 6      -594.805          37.000    19901310.242 5  82684956.481 5      -462.620          34.000
R21  20778796.820 5 111191588.227 5     -2342.945          30.000
C27  21806381.578 8 113551729.390 8      -902.473          51.000
C28  25198141.547 5 131213351.592 5     -2584.250          34.000
C30  22749839.680 5 118464389.562 5      1687.965          32.000
E02  26300964.453 5 138212499.907 5     -3064.082          34.000    26300970.797 6 105903028.377 6     -2347.707          39.000
E15  24845855.195 6 130565938.356 6      1859.016          41.000    24845860.883 7 100044009.643 7      1424.545          45.000
E30  22594273.992 8 118733739.284 8     -1100.430          51.000    22594277.500 8  90977756.218 8      -843.162          51.000
> 2020 05 03 15 14  0.0000000  0 16        .000000000000
G10  23251488.312 8 122187461.714 8      3265.805          48.000    23251492.570 8  95211015.028 8      2544.786          48.000
G18  21498450.812 7 112975162.566 7     -2366.793          43.000    21498451.102 6  88032605.822 6     -1844.257          38.000
G20  21414856.117 8 112535853.991 8      1697.270          51.000    21414855.203 7  87690320.311 7      1322.548          47.000
G21  21767750.336 8 114390323.411 8     -2039.113          49.000    21767748.648 7  89135277.465 7     -1588.919          43.000
G26  20635826.242 8 108441995.493 8     -1487.215          51.000    20635829.094 8  84500259.123 8     -1158.869          51.000
G27  21869945.156 5 114927336.776 5      2284.488          31.000    21869928.383 5  89553698.610 5      1780.121          31.000
R05  23102884.273 5 123498136.903 5     -1360.512          32.000
R11  21528578.289 8 115042178.181 8     -3978.117          51.000    21528579.625 7  89477259.448 7     -3094.097          42.000
R12  19904721.281 6 106327467.498 6      -621.809          36.000    19904725.367 5  82699138.848 5      -483.629          32.000
R21  20791950.828 5 111261976.632 5     -2349.023          34.000    20791971.477 4  86537123.031 4     -1827.012          26.000
C27  21811599.891 8 113578900.619 8      -909.223          51.000
C28  25213032.250 6 131290887.915 6     -2585.242          38.000
C30  22740130.961 5 118413826.673 5      1681.953          32.000
E02                                                                  26318477.141 6 105973507.410 6     -2351.146          37.000
E15  24835257.438 7 130510252.015 7      1853.129          42.000    24835263.242 7 100001340.875 7      1419.966          44.000
E30  22600592.594 8 118766943.293 8     -1113.465          51.000    22600596.570 8  91003198.228 8      -853.204          51.000
> 2020 05 03 15 14 30.0000000  0 13        .000000000000
G10  23232862.828 8 122089583.311 8      3266.219          49.000    23232866.188 8  95134746.237 8      2545.109          50.000
G18  21511990.953 7 113046316.559 7     -2369.883          44.000    21511991.086 6  88088050.482 6     -1846.662          39.000
G20  21405212.680 8 112485178.630 8      1687.676          50.000    21405212.008 7  87650833.028 7      1315.072          46.000
G21  21779410.781 8 114451599.883 8     -2039.383          49.000    21779409.133 7  89183025.371 7     -1589.126          43.000
G26  20644363.797 8 108486859.049 8     -1497.035          51.000    20644366.391 8  84535217.735 8     -1166.521          51.000
G27  21856923.578 5 114858894.447 5      2284.555          33.000
R11  21550945.930 8 115161699.596 8     -3983.219          51.000    21550946.023 6  89570220.424 6     -3098.062          40.000
R12  19908292.062 6 106346518.548 6      -642.078          39.000    19908290.094 4  82713964.328 4      -499.394          29.000
C27  21816857.969 8 113606279.598 8      -909.477          51.000
C28  25227928.711 6 131368452.295 6     -2579.262          38.000
E02                                                                  26336005.523 5 106044083.910 5     -2349.476          33.000
E15  24824694.719 7 130454744.387 7      1853.988          43.000    24824698.586 7  99958809.077 7      1420.651          43.000
E30  22606986.875 8 118800543.410 8     -1119.805          51.000    22606990.945 8  91028943.751 8      -858.020          51.000
> 2020 05 03 15 15  0.0000000  0 15        .000000000000
G10  23214279.062 8 121991922.683 8      3241.820          51.000    23214282.336 8  95058647.126 8      2526.097          51.000
G16  20538424.641 6 107930188.480 6       719.004          39.000
G18  21525591.672 7 113117788.134 7     -2397.570          43.000    21525591.805 6  88143742.594 6     -1868.237          38.000
G20  21395667.391 8 112435019.078 8      1653.422          51.000    21395667.000 7  87611747.689 7      1288.381          47.000
G21  21791115.172 8 114513107.281 8     -2063.941          49.000    21791113.859 7  89230953.200 7     -1608.266          42.000
G26  20653000.031 8 108532243.383 8     -1531.367          51.000    20653002.492 8  84570582.149 8     -1193.273          51.000
R11  21573384.359 8 115281602.663 8     -4013.180          48.000    21573384.125 6  89663478.268 6     -3121.365          39.000
R12  19912015.383 6 106366426.204 6      -687.559          38.000    19912015.234 4  82729431.814 4      -534.771          25.000
R21  20818382.023 6 111403374.813 6     -2372.707          36.000
C27  21822160.078 8 113633888.933 8      -933.938          51.000
C28  25242834.070 5 131446067.432 5     -2597.727          35.000
E02                                                                  26353558.188 5 106114774.433 5     -2366.151          33.000
E15  24814170.555 7 130399438.803 7      1830.328          42.000    24814172.594 7  99916432.118 7      1402.402          43.000
E30  22613460.906 8 118834562.474 8     -1150.820          51.000    22613464.672 8  91055010.297 8      -881.833          51.000
E36  25859422.648 5 135892189.021 5     -2321.551          33.000
> 2020 05 03 15 15 30.0000000  0 14        .000000000000
G10  23195728.594 8 121894436.353 8      3250.246          51.000    23195732.461 8  94982683.814 8      2532.662          51.000
G16  20534306.969 6 107908550.286 6       716.785          38.000    20534304.984 5  84084537.866 5       558.534          32.000
G18  21539243.523 7 113189528.834 7     -2392.215          43.000    21539244.320 5  88199644.416 5     -1864.064          35.000
G20  21386212.000 8 112385331.088 8      1652.121          51.000    21386211.492 7  87573029.793 7      1287.367          47.000
G21  21802854.516 8 114574797.549 8     -2055.734          49.000    21802853.148 6  89279023.536 6     -1601.871          41.000
G26  20661726.180 8 108578101.201 8     -1532.777          51.000    20661728.742 8  84606315.508 8     -1194.372          51.000
R11  21595883.258 7 115401836.282 7     -4009.449          46.000    21595884.133 6  89756993.252 6     -3118.461          38.000
R12  19915892.352 6 106387117.756 6      -699.383          40.000
R21  20831646.586 4 111474319.013 4     -2363.348          29.000
C27  21827497.516 8 113661682.267 8      -925.883          51.000
C28  25257739.758 5 131523687.137 5     -2583.496          35.000
E02                                                                  26371129.250 6 106185542.348 6     -2357.192          37.000
E15  24803675.188 6 130344289.048 6      1839.344          41.000    24803677.141 7  99874174.546 7      1409.295          44.000
E30  22620005.531 8 118868953.684 8     -1148.855          51.000    22620008.883 8  91081361.990 8      -880.352          51.000
> 2020 05 03 15 16  0.0000000  0 13        .000000000000
G10  23177215.539 8 121797146.946 8      3237.977          51.000    23177219.789 8  94906873.916 8      2523.099          51.000
G16  20530290.281 6 107887439.298 6       693.270          37.000    20530286.922 5  84068087.735 5       540.213          31.000
G18  21552949.828 7 113261556.305 7     -2407.324          43.000    21552951.219 6  88255769.708 6     -1875.840          36.000
G20  21376850.523 8 112336136.230 8      1629.859          51.000    21376849.984 7  87534696.163 7      1270.020          47.000
G21  21814631.945 8 114636688.349 8     -2067.949          48.000    21814630.344 6  89327250.120 6     -1611.389          41.000
G26  20670546.188 8 108624451.279 8     -1554.727          51.000    20670548.695 8  84642432.449 8     -1211.475          51.000
R11  21618447.227 7 115522416.161 7     -4026.781          47.000    21618448.648 6  89850777.525 6     -3131.941          37.000
R12  19919919.008 6 106408620.315 6      -731.863          40.000    19919919.039 4  82762256.346 4      -569.230          28.000
C27  21832874.031 8 113689678.719 8      -938.270          51.000
C28  25272650.914 6 131601330.705 6     -2590.094          40.000
E02  26388728.375 6 138673713.316 6     -3086.332          37.000    26388724.953 6 106256401.580 6     -2364.756          38.000
E15  24793213.406 7 130289314.929 7      1827.859          43.000    24793216.555 7  99832051.488 7      1400.592          45.000
E30  22626624.570 8 118903736.264 8     -1167.688          51.000    22626627.523 8  91108013.543 8      -894.731          51.000
> 2020 05 03 15 16 30.0000000  0 14        .000000000000
G10  23158769.414 8 121700210.755 8      3227.871          50.000    23158774.008 8  94831339.238 8      2515.224          50.000
G16  20526403.000 6 107867010.021 6       672.207          38.000    20526400.438 5  84052168.836 5       523.798          34.000
G18  21566739.469 7 113334021.766 7     -2420.141          44.000    21566740.984 6  88312236.306 6     -1885.824          36.000
G20  21367612.594 8 112287589.809 8      1610.066          51.000    21367612.219 7  87496867.797 7      1254.597          47.000
G21  21826476.359 8 114698931.688 8     -2078.023          48.000    21826474.758 6  89375751.423 6     -1619.239          41.000
G26  20679488.953 8 108671446.042 8     -1574.539          51.000    20679491.172 8  84679051.743 8     -1226.914          51.000
R11  21641105.391 8 115643494.345 8     -4041.594          48.000    21641105.555 5  89944949.375 5     -3143.465          34.000
R12  19924126.570 6 106431088.904 6      -762.512          40.000    19924121.414 4  82779731.934 4      -593.065          25.000
R21  20858305.453 5 111616990.292 5     -2385.133          31.000    20858278.906 4  86813193.361 4     -1855.103          25.000
C27  21838318.648 8 113718029.784 8      -948.363          51.000
C28  25287596.219 6 131679149.684 6     -2594.418          38.000
E02  26406373.664 5 138766461.703 5     -3093.238          35.000    26406373.359 6 106327468.502 6     -2370.263          38.000
E15  24782815.109 7 130234669.721 7      1818.652          44.000    24782819.773 7  99790180.508 7      1393.531          45.000
E30  22633347.250 8 118939063.022 8     -1184.027          51.000    22633349.820 8  91135082.080 8      -907.188          51.000
> 2020 05 03 15 17  0.0000000  0 15        .000000000000
G10  23140317.109 8 121603243.386 8      3223.961          50.000    23140321.914 8  94755780.269 8      2512.180          50.000
