     3.02           OBSERVATION DATA    M (MIXED)           RINEX VERSION / TYPE
SAVERINEX           SC600               20200512 175931 LCL PGM / RUN BY / DATE
       G = GPS       R = GLONASS       C = COMPASS          COMMENT
       S = SBAS      J = QZSS          E = GALILEO          COMMENT
BEAN                                                        MARKER NAME
1                                                           MARKER NUMBER
GEODETIC                                                    MARKER TYPE
Unige DICCA         GTER                                    OBSERVER / AGENCY
SC60291900056       SC600               2.12(191226)        REC # / TYPE / VERS
                    HEMA45          NONE                    ANT # / TYPE
  4509407.8091   693652.4678  4442337.6214                  APPROX POSITION XYZ
        0.0000        0.0000        0.0000                  ANTENNA: DELTA H/E/N
G    8 C1C L1C D1C S1C C2Y L2Y D2Y S2Y                      SYS / # / OBS TYPES
R    8 C1C L1C D1C S1C C2P L2P D2P S2P                      SYS / # / OBS TYPES
C    8 C1I L1I D1I S1I C7I L7I D7I S7I                      SYS / # / OBS TYPES
E    8 C1C L1C D1C S1C C7Q L7Q D7Q S7Q                      SYS / # / OBS TYPES
DBHZ                                                        COMMENT
     30.000                                                 INTERVAL
  2020    05    12    15    00    0.0000000     GPS         TIME OF FIRST OBS
  2020    05    12    15    59   30.0000000     GPS         TIME OF LAST OBS
     0                                                      RCV CLOCK OFFS APPL
G L1C  0.00000                                              SYS / PHASE SHIFT
G L2Y  0.00000                                              SYS / PHASE SHIFT
R L1C  0.00000                                              SYS / PHASE SHIFT
R L2P  0.25000                                              SYS / PHASE SHIFT
C L1I  0.00000                                              SYS / PHASE SHIFT
C L7I  0.00000                                              SYS / PHASE SHIFT
E L1C  0.50000                                              SYS / PHASE SHIFT
E L7Q -0.25000                                              SYS / PHASE SHIFT
 13 R01  1 R05  1 R06 -4 R07  5 R08  6 R10 -5 R11  0 R12 -1 GLONASS SLOT / FRQ #
    R13 -2 R14 -7 R21  4 R22 -3 R23  3                      GLONASS SLOT / FRQ #
 C1C   71.950 C2C   71.950 C2P   71.950                     GLONASS COD/PHS/BIS
    18                                                      LEAP SECONDS
*** Above antenna height is from mark to ANTENNA BOTTOM.    COMMENT
    17     4        0.0000        ANT MEASURE TYPE/HEIGT    COMMENT
    0.0000    0.0000    0.0458    0.0405    0.0000          COMMENT
                    BASE STATION                            COMMENT
                                                            END OF HEADER
> 2020 05 12 15 00  0.0000000  0 20        .000000000000
G10  22449572.078 8 117973340.235 8      2860.355          51.000    22449575.898 8  91927278.803 8      2228.851          51.000
G16  20461558.805 8 107526222.601 8       -56.043          51.000    20461557.523 8  83786651.280 8       -43.670          51.000
G18  21944875.328 6 115321166.808 6     -2644.676          38.000
G20  21077306.188 8 110762021.108 8       869.801          51.000    21077305.531 8  86308122.800 8       677.767          49.000
G21  22148869.773 7 116393152.809 7     -2221.832          45.000    22148868.234 6  90695939.485 6     -1731.301          40.000
G26  21131846.602 8 111048590.865 8     -2232.840          48.000    21131849.633 8  86531388.658 8     -1739.875          48.000
R08  22894833.062 7 122600818.015 7      3788.727          47.000    22894837.367 7  95356201.753 7      2946.790          43.000
R13  20262128.508 5 108198632.077 5     -1831.078          35.000    20262130.602 6  84154494.933 6     -1424.172          39.000
R22  21300888.641 5 113705574.854 5     -2573.270          32.000    21300893.750 5  88437690.860 5     -2001.426          32.000
R24  22070924.812 5 118023114.067 5      2695.438          35.000    22070937.680 4  91795811.068 4      2096.445          26.000
C05  39615892.148 5 206290345.721 5          .492          34.000
C11                                                                  22837800.719 5  91958363.346 5     -1213.093          33.000
C14  24554421.555 7 127861338.925 7      2899.871          44.000    24554424.820 8  98870537.550 8      2242.419          49.000
C21  24939000.422 5 129863908.938 5      -707.262          31.000
C23  24149947.844 8 125755079.081 8     -2458.871          50.000
C28  23182889.781 5 120719395.974 5      1934.316          30.000
E13  24177869.711 8 127055573.947 8     -1574.195          51.000    24177871.445 8  97354293.097 8     -1206.226          51.000
E21  25125922.047 8 132037599.936 8     -2544.566          51.000    25125921.859 8 101171651.204 8     -1949.706          49.000
E26  22699385.062 8 119286075.078 8       795.754          48.000    22699388.836 8  91401097.856 8       609.665          50.000
E33  27269132.594 6 143300259.842 6      2327.688          38.000    27269135.461 6 109801503.416 6      1783.696          39.000
> 2020 05 12 15 00 30.0000000  0 20        .000000000000
G10  22433287.133 8 117887758.156 8      2848.344          51.000    22433290.898 8  91860591.513 8      2219.492          51.000
G16  20461945.594 8 107528255.517 8       -76.258          51.000    20461944.398 8  83788235.368 8       -59.422          51.000
G18  21960007.461 5 115400687.978 5     -2653.531          35.000
G20  21072406.750 8 110736275.658 8       849.730          51.000    21072406.164 8  86288061.421 8       662.128          48.000
G21  22161581.883 7 116459954.825 7     -2228.371          42.000    22161580.375 6  90747993.002 6     -1736.393          41.000
G26  21144648.773 8 111115865.216 8     -2248.867          49.000    21144651.977 8  86583810.220 8     -1752.364          49.000
R08  22873642.211 7 122487342.744 7      3779.547          47.000    22873646.289 6  95267943.259 6      2939.651          40.000
R12  22797885.711 4 121782212.500 4     -4449.500          29.000
R13  20272494.844 5 108253992.838 5     -1856.941          35.000    20272498.609 6  84197553.278 6     -1444.288          40.000
R24  22055837.320 6 117942418.444 6      2687.461          36.000
C05  39615902.953 5 206290402.047 5         -.770          34.000
C11  22846864.195 5 118969605.767 5     -1574.348          31.000    22846862.523 5  91994854.502 5     -1218.008          32.000
C14  24537743.477 7 127774490.461 7      2892.996          46.000    24537746.375 8  98803380.839 8      2237.084          49.000
C21  24943131.922 4 129885432.105 4      -724.301          27.000
C23  24164155.891 8 125829061.216 8     -2470.000          50.000
C28  23171773.219 5 120661504.323 5      1928.203          35.000
E13  24186881.336 8 127102930.189 8     -1579.609          51.000    24186883.258 8  97390579.033 8     -1210.317          51.000
E21  25140486.734 8 132114135.297 8     -2554.496          51.000    25140486.219 8 101230295.125 8     -1957.305          50.000
E26  22694875.172 8 119262376.877 8       787.438          48.000    22694878.898 8  91382939.488 8       603.367          50.000
E33  27255864.383 6 143230537.196 6      2323.172          38.000    27255868.930 6 109748079.665 6      1780.302          41.000
> 2020 05 12 15 01  0.0000000  0 20        .000000000000
G10  22417065.508 8 117802509.832 8      2835.465          51.000    22417068.977 8  91794164.297 8      2209.456          51.000
G16  20462442.383 8 107530866.061 8       -97.234          51.000    20462441.117 8  83790269.549 8       -75.767          51.000
G18  21975183.742 5 115480441.314 5     -2662.754          34.000
G20  21067615.727 8 110711099.820 8       828.984          51.000    21067615.281 8  86268443.904 8       645.962          48.000
G21  22174324.797 6 116526919.175 6     -2235.480          40.000    22174323.125 6  90800173.023 6     -1741.933          39.000
G26  21157535.984 8 111183585.362 8     -2265.309          51.000    21157539.070 8  86636579.157 8     -1765.176          51.000
R08  22852497.766 8 122374114.020 8      3769.539          48.000    22852500.789 6  95179876.545 6      2931.867          39.000
R12  22822895.164 5 121915790.932 5     -4455.586          33.000    22822897.133 5  94823408.075 5     -3465.456          33.000
R13  20283003.164 6 108310109.949 6     -1883.590          36.000    20283007.727 6  84241199.906 6     -1465.017          40.000
R23  19786738.547 5 105845708.850 5       813.484          30.000
R24  22040792.516 5 117861927.312 5      2678.992          30.000
C05  39615914.398 5 206290461.473 5        -2.336          34.000
C11  22855959.953 5 119016958.778 5     -1582.098          33.000    22855956.203 6  92031470.685 6     -1222.986          37.000
C14  24521100.867 7 127687824.022 7      2885.242          47.000    24521102.680 7  98736364.883 7      2231.067          47.000
C23  24178421.703 8 125903343.704 8     -2481.621          51.000
C28  23160682.273 5 120603765.628 5      1921.301          33.000
E13  24195917.867 8 127150417.166 8     -1585.602          51.000    24195919.992 8  97426965.132 8     -1214.950          51.000
E21  25155101.766 8 132190936.547 8     -2565.035          51.000    25155102.039 8 101289142.793 8     -1965.396          51.000
E26  22690407.188 8 119238898.087 8       778.395          49.000    22690411.102 8  91364949.242 8       596.450          50.000
E33  27242616.922 6 143160922.528 6      2318.156          39.000    27242623.438 7 109694738.668 7      1776.184          42.000
> 2020 05 12 15 01 30.0000000  0 16        .000000000000
G10  22400915.430 8 117717638.515 8      2823.770          51.000    22400917.750 8  91728030.813 8      2200.340          51.000
G16  20463056.945 8 107534095.190 8      -116.988          51.000    20463055.492 8  83792785.753 8       -91.160          51.000
G18  21990411.758 5 115560465.456 5     -2670.250          34.000
G20  21062940.906 8 110686534.630 8       809.680          51.000    21062940.633 7  86249302.198 7       630.922          47.000
G21  22187105.727 6 116594084.769 6     -2241.180          38.000    22187104.297 6  90852509.871 6     -1746.371          38.000
G26  21170515.523 8 111251790.175 8     -2280.543          51.000    21170517.945 8  86689725.742 8     -1777.046          51.000
R08  22831408.031 8 122261177.079 8      3760.688          48.000    22831410.023 6  95092036.785 6      2924.982          39.000
R13  20293661.172 6 108367021.630 6     -1909.020          37.000    20293665.578 6  84285464.527 6     -1484.793          41.000
C05  39615934.219 5 206290564.314 5        -3.344          34.000
C11  22865095.992 6 119064513.141 6     -1587.488          36.000    22865088.734 5  92068242.761 5     -1227.610          35.000
C14  24504501.430 7 127601382.256 7      2878.695          46.000    24504501.938 7  98669522.657 7      2225.999          47.000
C23  24192752.367 8 125977964.395 8     -2491.953          50.000
E13  24204986.805 8 127198074.623 8     -1590.395          51.000    24204988.938 8  97463481.864 8     -1218.599          51.000
E21  25169774.336 8 132268042.718 8     -2574.230          50.000    25169776.312 8 101348224.117 8     -1972.447          51.000
E26  22685988.758 8 119215678.887 8       770.805          49.000    22685993.180 8  91347157.909 8       590.575          50.000
E33  27229397.641 6 143091456.519 6      2314.172          39.000    27229405.961 6 109641511.565 6      1773.152          41.000
> 2020 05 12 15 02  0.0000000  0 16        .000000000000
G10  22384824.102 8 117633077.661 8      2812.012          51.000    22384825.195 8  91662139.227 8      2191.178          51.000
G16  20463775.992 8 107537873.989 8      -136.625          51.000    20463774.562 8  83795730.264 8      -106.461          51.000
G18  22005678.422 5 115640689.276 5     -2678.738          32.000
G20  21058369.430 8 110662511.797 8       790.309          51.000    21058368.859 8  86230583.116 8       615.825          48.000
G21  22199911.641 6 116661381.192 6     -2247.262          40.000    22199910.594 6  90904948.636 6     -1751.116          37.000
G26  21183573.578 8 111320408.704 8     -2295.676          51.000    21183575.492 8  86743194.698 8     -1788.841          51.000
R08  22810360.203 7 122148466.151 7      3751.699          47.000    22810361.891 6  95004372.798 6      2917.991          39.000
R13  20304454.336 6 108424655.236 6     -1934.582          37.000    20304458.703 7  84330290.667 7     -1504.675          42.000
R22  21359015.359 5 114015894.147 5     -2596.461          35.000    21359016.703 4  88679017.571 4     -2019.470          25.000
C11  22874256.805 6 119112200.027 6     -1593.227          36.000    22874246.375 6  92105117.355 6     -1231.920          37.000
C14  24487931.992 7 127515099.153 7      2872.090          47.000    24487931.969 8  98602803.169 8      2220.810          48.000
C23  24207133.961 8 126052852.373 8     -2502.094          49.000
E13  24214074.789 8 127245832.514 8     -1595.035          51.000    24214076.734 8  97500075.564 8     -1222.179          51.000
E21  25184491.156 8 132345383.089 8     -2583.281          50.000    25184495.023 8 101407484.905 8     -1979.388          51.000
E26  22681606.477 8 119192649.693 8       763.113          49.000    22681611.070 8  91329512.172 8       584.645          49.000
E33  27216193.547 6 143022070.098 6      2310.297          39.000    27216202.789 6 109588345.429 6      1770.120          41.000
> 2020 05 12 15 02 30.0000000  0 18        .000000000000
G10  22368794.961 8 117548847.427 8      2801.398          50.000    22368795.930 8  91596505.239 8      2182.905          50.000
G16  20464603.062 8 107542220.371 8      -155.027          51.000    20464601.609 8  83799117.041 8      -120.801          51.000
G18  22020985.961 5 115721128.361 5     -2685.742          32.000
G20  21053904.883 8 110639049.955 8       772.051          51.000    21053903.953 8  86212301.173 8       601.598          48.000
G21  22212745.430 6 116728824.461 6     -2250.852          41.000    22212744.789 6  90957501.822 6     -1753.910          38.000
G26  21196713.000 8 111389456.698 8     -2309.375          51.000    21196714.781 8  86796998.296 8     -1799.516          51.000
R08  22789358.172 7 122036003.526 7      3743.801          45.000    22789360.430 6  94916901.932 6      2911.848          39.000
R13  20315385.531 6 108483025.762 6     -1958.930          38.000    20315389.820 7  84375689.948 7     -1523.612          42.000
R22  21373617.734 5 114093795.158 5     -2599.434          35.000    21373611.844 4  88739606.195 4     -2021.782          26.000
R24  21995870.461 5 117621828.696 5      2658.359          32.000
C05  39615962.562 5 206290711.460 5        -2.852          34.000
C11  22883443.109 5 119160036.490 5     -1597.875          30.000    22883433.844 6  92142107.489 6     -1235.418          38.000
C14  24471396.523 7 127428994.565 7      2866.402          46.000    24471396.266 8  98536221.716 8      2216.602          48.000
C23  24221568.742 7 126128022.625 7     -2510.957          47.000
E13  24223185.023 8 127293707.537 8     -1598.379          51.000    24223186.742 8  97536759.010 8     -1224.726          51.000
E21  25199255.680 8 132422973.623 8     -2591.152          50.000    25199260.953 8 101466937.365 8     -1985.390          51.000
E26  22677263.734 8 119169827.648 8       756.684          50.000    22677267.844 8  91312025.150 8       579.877          49.000
E33  27203007.852 6 142952780.855 6      2307.523          40.000    27203017.305 7 109535253.731 7      1767.995          42.000
> 2020 05 12 15 03  0.0000000  0 18        .000000000000
G10  22352830.953 8 117464959.272 8      2790.875          51.000    22352832.430 8  91531137.829 8      2174.708          51.000
G16  20465540.016 8 107547143.613 8      -173.438          51.000    20465538.344 8  83802953.317 8      -135.146          51.000
G18  22036335.523 5 115801789.381 5     -2692.410          35.000
G20  21049548.844 8 110616158.567 8       753.801          51.000    21049548.000 8  86194463.763 8       587.377          48.000
G21  22225608.914 6 116796422.245 6     -2255.785          41.000    22225608.141 5  91010175.399 5     -1757.761          34.000
G26  21209935.172 8 111458941.264 8     -2323.156          50.000    21209937.133 8  86851142.093 8     -1810.252          50.000
R08  22768404.609 7 121923802.812 7      3735.781          44.000    22768407.375 6  94829634.769 6      2905.608          38.000
R13  20326456.234 6 108542138.832 6     -1982.504          39.000    20326459.688 7  84421666.746 7     -1541.951          42.000
R22  21388240.844 6 114171829.185 6     -2602.910          37.000    21388238.078 4  88800299.202 4     -2024.489          26.000
R24  21980975.312 5 117542155.347 5      2652.977          33.000
C11  22892657.031 5 119208082.009 5     -1602.090          34.000    22892651.992 6  92179219.864 6     -1239.167          38.000
C14  24454897.586 7 127343079.731 7      2860.934          47.000    24454896.766 8  98469787.023 8      2212.210          48.000
C21  24965233.352 4 130000509.996 4      -807.719          29.000
C23  24236058.180 7 126203481.632 7     -2519.762          47.000
E13  24232319.117 8 127341707.755 8     -1601.859          51.000    24232320.672 8  97573538.387 8     -1227.426          51.000
E21  25214069.453 8 132500821.647 8     -2598.984          50.000    25214075.453 8 101526587.112 8     -1991.382          51.000
E26  22672961.977 8 119147221.245 8       750.191          49.000    22672965.664 8  91294703.382 8       574.819          49.000
E33  27189842.570 6 142883597.876 6      2304.289          39.000    27189851.688 7 109482243.425 7      1765.840          42.000
> 2020 05 12 15 03 30.0000000  0 20        .000000000000
G10  22336935.359 8 117381426.826 8      2779.422          51.000    22336936.922 8  91466047.669 8      2165.786          51.000
G16  20466588.883 8 107552655.008 8      -192.598          51.000    20466587.008 8  83807247.923 8      -150.076          51.000
G18  22051729.219 6 115882681.440 6     -2699.418          36.000
G20  21045303.664 8 110593849.442 8       734.879          51.000    21045302.586 8  86177080.056 8       572.636          48.000
G21  22238503.453 7 116864183.397 7     -2260.363          42.000    22238502.492 6  91062976.297 6     -1761.319          36.000
G26  21223242.094 8 111528871.653 8     -2337.438          49.000    21223244.227 8  86905633.281 8     -1821.380          49.000
R08  22747503.547 7 121811879.523 7      3727.148          44.000    22747506.727 6  94742583.391 6      2898.899          39.000
R12  22948324.305 5 122585827.352 5     -4476.820          31.000
R13  20337667.359 6 108602003.599 6     -2007.098          38.000    20337670.047 7  84468228.209 7     -1561.076          42.000
R22  21402893.164 6 114250005.846 6     -2607.344          36.000    21402882.469 4  88861103.387 4     -2027.928          25.000
R24  21966117.781 6 117462696.563 6      2646.309          36.000
C05  39615991.734 5 206290864.296 5        -2.230          35.000
C11  22901906.117 5 119256244.999 5     -1607.367          33.000    22901902.109 6  92216462.545 6     -1242.873          39.000
C14  24438438.141 7 127257368.209 7      2854.504          47.000    24438436.195 8  98403509.514 8      2207.341          49.000
C21  24969942.742 5 130024997.684 5      -823.402          34.000
C23  24250605.852 8 126279237.977 8     -2529.113          49.000
E13  24241479.062 8 127389843.382 8     -1605.848          51.000    24241480.484 8  97610421.524 8     -1230.464          51.000
E21  25228934.289 8 132578936.587 8     -2607.309          51.000    25228940.383 8 101586441.377 8     -1997.817          51.000
E26  22668703.023 8 119124841.129 8       743.105          48.000    22668706.695 8  91277555.007 8       569.431          48.000
E33  27176700.141 6 142814532.154 6      2301.480          40.000    27176709.156 7 109429322.985 7      1763.185          42.000
> 2020 05 12 15 04  0.0000000  0 19        .000000000000
G10  22321101.930 8 117298219.575 8      2767.977          51.000    22321103.203 8  91401210.932 8      2156.868          51.000
G16  20467743.219 8 107558721.793 8      -211.762          51.000    20467741.539 8  83811975.278 8      -165.009          51.000
G18  22067160.078 5 115963769.468 5     -2707.285          33.000
G20  21041163.109 8 110572090.265 8       715.973          51.000    21041161.891 8  86160124.867 8       557.901          49.000
G21  22251422.422 7 116932073.165 7     -2265.016          43.000    22251422.234 5  91115877.400 5     -1764.947          35.000
G26  21236627.438 8 111599212.904 8     -2351.824          50.000    21236629.414 8  86960444.632 8     -1832.593          50.000
R08  22726648.539 7 121700204.610 7      3718.113          44.000    22726653.094 6  94655725.188 6      2891.866          40.000
R12  22973475.820 5 122720192.583 5     -4480.559          32.000
R13  20349011.609 6 108662583.078 6     -2031.367          38.000    20349015.016 7  84515345.586 7     -1579.952          43.000
C05  39616003.438 5 206290925.522 5        -2.062          34.000
C11  22911179.836 5 119304543.405 5     -1612.199          31.000    22911178.234 6  92253809.897 6     -1246.824          36.000
C14  24422011.648 7 127171829.527 7      2848.375          45.000    24422009.047 8  98337365.699 8      2202.472          49.000
C21  24974740.438 5 130049951.623 5      -839.504          30.000
C23  24265204.789 8 126355256.482 8     -2538.543          49.000
C28  23094781.516 5 120260593.370 5      1891.277          30.000
E13  24250658.359 8 127438080.484 8     -1609.734          51.000    24250659.719 8  97647382.409 8     -1233.403          51.000
E21  25243843.539 8 132657283.785 8     -2615.566          51.000    25243849.414 8 101646473.602 8     -2004.114          51.000
E26  22664480.742 8 119102653.759 8       736.207          49.000    22664484.336 8  91260554.310 8       564.155          48.000
E33  27163574.148 6 142745550.727 6      2297.902          40.000    27163583.531 7 109376467.095 7      1760.638          43.000
> 2020 05 12 15 04 30.0000000  0 17        .000000000000
G10  22305335.578 8 117215365.894 8      2756.273          51.000    22305337.047 8  91336649.694 8      2147.749          51.000
G16  20469008.086 8 107565369.821 8      -230.988          51.000    20469006.523 8  83817155.543 8      -179.988          50.000
G20  21037132.273 8 110550907.694 8       696.953          51.000    21037131.242 8  86143618.994 8       543.080          49.000
G21  22264370.633 6 117000116.264 6     -2270.699          41.000    22264370.797 5  91168897.985 5     -1769.379          34.000
G26  21250095.812 8 111669988.995 8     -2365.891          51.000    21250097.352 8  87015594.809 8     -1843.554          51.000
R08  22705845.805 7 121588809.254 7      3708.895          44.000    22705851.266 6  94569084.358 6      2884.693          40.000
R12  22998650.602 5 122854679.018 5     -4484.570          33.000    22998661.773 4  95553676.542 4     -3488.014          26.000
R13  20360494.977 6 108723900.964 6     -2055.914          40.000    20360498.641 7  84563037.247 7     -1599.044          43.000
C05  39616016.125 5 206290991.215 5        -1.633          34.000
C11                                                                  22920484.977 5  92291281.449 5     -1250.515          32.000
C14  24405623.414 7 127086491.845 7      2841.551          44.000    24405620.414 8  98271377.255 8      2197.385          49.000
C23  24279858.328 8 126431560.313 8     -2547.641          49.000
C28  23083900.352 5 120203917.147 5      1886.699          30.000
E13  24259861.703 8 127486444.025 8     -1613.727          51.000    24259863.086 8  97684440.183 8     -1236.504          51.000
E21  25258801.742 8 132735887.371 8     -2623.953          51.000    25258806.961 8 101706702.283 8     -2010.499          51.000
E26  22660300.242 8 119080684.529 8       729.125          49.000    22660303.586 8  91243720.737 8       558.713          49.000
E33  27150468.875 6 142676679.362 6      2294.480          38.000    27150478.586 7 109323695.598 7      1758.064          43.000
> 2020 05 12 15 05  0.0000000  0 18        .000000000000
G10  22289640.664 8 117132889.026 8      2744.559          51.000    22289642.570 8  91272382.079 8      2138.617          51.000
G16  20470387.625 8 107572620.040 8      -250.145          50.000    20470385.938 8  83822805.073 8      -194.918          50.000
G20  21033215.164 8 110530323.256 8       677.863          51.000    21033214.039 8  86127579.185 8       528.205          48.000
G21  22277351.805 6 117068331.687 6     -2275.430          40.000    22277352.000 5  91222052.860 5     -1773.062          35.000
G26  21263650.586 8 111741218.791 8     -2380.148          51.000    21263651.984 8  87071098.512 8     -1854.661          51.000
R08  22685100.367 7 121477718.619 7      3699.469          44.000    22685105.969 6  94482680.563 6      2877.365          39.000
R12  23023851.969 6 122989303.372 6     -4488.160          36.000
R13  20372119.969 6 108785975.041 6     -2079.949          40.000    20372122.641 6  84611317.030 6     -1617.741          41.000
C05  39616033.430 5 206291080.801 5        -1.582          34.000
C11  22929822.367 4 119401580.143 4     -1622.828          29.000    22929825.523 6  92328892.818 6     -1254.671          36.000
C14  24389277.648 7 127001378.070 7      2834.988          45.000    24389274.812 8  98205561.889 8      2192.356          48.000
C21  24984607.281 5 130101386.545 5      -871.777          32.000
C23  24294569.891 8 126508167.549 8     -2556.918          49.000
C28  23073051.164 4 120147428.142 4      1882.223          27.000
E13  24269092.820 8 127534953.842 8     -1617.664          51.000    24269094.359 8  97721610.037 8     -1239.473          51.000
E21  25273812.297 8 132814766.454 8     -2632.055          51.000    25273816.344 8 101767142.051 8     -2016.745          51.000
E26  22656165.211 8 119058953.692 8       722.246          48.000    22656168.609 8  91227069.844 8       553.317          49.000
E33  27137388.344 6 142607938.940 6      2290.977          37.000    27137398.383 7 109271024.394 7      1755.477          42.000
> 2020 05 12 15 05 30.0000000  0 20        .000000000000
G10  22274013.008 8 117050766.405 8      2731.699          51.000    22274014.820 8  91208390.491 8      2128.597          51.000
G16  20471877.055 8 107580447.338 8      -270.289          50.000    20471875.523 8  83828904.268 8      -210.615          50.000
G20  21029407.039 8 110510312.273 8       657.715          51.000    21029405.969 8  86111986.236 8       512.505          48.000
G21  22290360.531 6 117136692.917 6     -2281.188          41.000    22290360.219 5  91275321.397 5     -1777.543          34.000
G26  21277286.484 8 111812875.285 8     -2395.395          51.000    21277287.859 8  87126934.713 8     -1866.541          51.000
R08  22664408.008 7 121366911.854 7      3689.000          46.000    22664413.102 6  94396497.605 6      2869.225          38.000
R12  23049074.461 5 123124036.068 5     -4492.809          35.000    23049076.477 4  95763131.790 4     -3494.401          25.000
R13  20383880.305 6 108848776.631 6     -2105.133          39.000    20383881.875 6  84660162.668 6     -1637.326          40.000
R22  21461721.109 5 114564084.422 5     -2625.285          32.000
R24  21907043.477 5 117146822.758 5      2618.605          34.000    21907045.523 4  91114190.361 4      2036.693          25.000
C05  39616050.914 5 206291172.381 5        -3.082          35.000
C11                                                                  22939196.336 5  92366624.347 5     -1259.507          34.000
C14  24372970.500 7 126916465.784 7      2827.199          45.000    24372967.891 7  98139902.331 7      2186.176          47.000
C21  24989684.375 5 130127827.275 5      -889.488          34.000
C23  24309334.656 8 126585050.859 8     -2567.113          49.000
C28  23062234.305 4 120091104.790 4      1874.734          28.000
E13  24278346.875 8 127583584.020 8     -1622.773          51.000    24278348.484 8  97758872.124 8     -1243.481          51.000
E21  25288869.922 8 132893894.320 8     -2641.562          51.000    25288872.625 8 101827772.437 8     -2024.024          50.000
E26  22652070.430 7 119037435.718 7       713.871          47.000    22652074.133 8  91210582.061 8       546.971          49.000
E33  27124327.211 6 142539304.334 6      2286.285          38.000    27124338.336 6 109218434.291 6      1751.778          40.000
> 2020 05 12 15 06  0.0000000  0 19        .000000000000
G10  22258416.375 8 116968806.340 8      2705.699          51.000    22258417.602 8  91144525.556 8      2108.337          51.000
G16  20473439.398 8 107588657.785 8      -303.480          50.000    20473438.258 8  83835302.001 8      -236.478          50.000
G20  21025671.328 8 110490681.077 8       624.598          51.000    21025670.195 8  86096689.220 8       486.703          48.000
G21  22303359.891 6 117205003.972 6     -2298.957          41.000    22303358.672 5  91328550.747 5     -1791.392          32.000
G26  21290966.094 8 111884762.310 8     -2423.602          49.000    21290967.617 8  87182950.533 8     -1888.521          49.000
R08  22643732.805 7 121256195.611 7      3664.910          45.000    22643736.586 6  94310385.026 6      2850.486          38.000
R12  23074278.922 4 123258675.676 4     -4510.535          29.000
R13  20395739.156 6 108912105.793 6     -2143.457          39.000    20395740.766 6  84709418.645 6     -1667.136          41.000
R22  21476456.562 6 114642709.985 6     -2643.344          36.000
R24  21892349.070 5 117068190.292 5      2596.578          35.000
C05  39616031.227 5 206291069.299 5       -16.645          34.000
C11  22948562.070 5 119499237.249 5     -1647.648          30.000    22948561.461 5  92404326.963 5     -1273.991          30.000
C14  24356665.906 7 126831564.831 7      2806.605          46.000    24356663.078 7  98074251.576 7      2170.149          47.000
C21  24994815.641 5 130154559.766 5      -919.578          34.000
C23  24324115.172 8 126662015.355 8     -2590.043          49.000
E13  24287586.664 8 127632139.419 8     -1640.727          51.000    24287588.281 8  97796076.888 8     -1257.126          51.000
E21  25303937.281 8 132973074.998 8     -2663.672          51.000    25303938.844 8 101888443.303 8     -2041.028          49.000
E26  22647978.961 7 119015935.900 7       692.883          47.000    22647982.938 8  91194108.178 8       530.904          48.000
E33  27111250.250 7 142470581.353 7      2268.684          42.000    27111259.594 6 109165776.461 6      1738.411          38.000
> 2020 05 12 15 06 30.0000000  0 19        .000000000000
G10  22242966.781 8 116887618.136 8      2706.281          51.000    22242968.016 8  91081262.069 8      2108.794          51.000
G16  20475190.180 8 107597858.164 8      -310.363          51.000    20475189.297 8  83842471.117 8      -241.842          50.000
G20  21022123.508 8 110472037.163 8       618.000          51.000    21022122.273 8  86082161.517 8       481.561          48.000
G21  22316464.883 7 117273870.527 7     -2292.070          43.000    22316462.938 4  91382212.963 4     -1786.029          27.000
G26  21304804.406 8 111957484.721 8     -2425.090          48.000    21304806.359 8  87239617.307 8     -1889.680          48.000
R08  22623189.984 7 121146191.929 7      3667.988          43.000    22623194.000 6  94224826.681 6      2852.883          40.000
R12  23099584.375 4 123393832.399 4     -4500.625          29.000
R13  20407812.367 6 108976575.498 6     -2154.785          40.000    20407814.461 7  84759561.740 7     -1675.944          42.000
R24  21877766.891 5 116990181.390 5      2603.230          33.000
C05  39616090.219 5 206291376.850 5        -3.953          34.000
C11  22958032.195 5 119548558.397 5     -1640.988          33.000    22958035.625 5  92442465.164 5     -1268.726          30.000
C14  24340479.789 7 126747278.983 7      2812.074          47.000    24340476.250 7  98009076.427 7      2174.501          45.000
C21  25000119.453 5 130182184.501 5      -922.500          31.000
C23  24339026.539 8 126739659.873 8     -2586.641          49.000
C28  23040678.391 5 119978866.126 5      1864.340          33.000
E13  24296927.461 8 127681226.000 8     -1632.109          51.000    24296929.188 8  97833688.670 8     -1250.538          51.000
E21  25319129.727 8 133052913.685 8     -2659.281          51.000    25319130.875 8 101949618.349 8     -2037.655          49.000
E26  22644006.477 7 118995060.592 7       698.441          47.000    22644010.211 8  91178112.807 8       535.163          48.000
E33  27098272.469 7 142402376.779 7      2277.824          44.000    27098276.750 6 109113515.935 6      1745.193          36.000
> 2020 05 12 15 07  0.0000000  0 18        .000000000000
G10  22227544.633 8 116806574.604 8      2695.637          51.000    22227546.852 8  91018111.305 8      2100.496          51.000
G16  20477009.688 8 107607419.206 8      -328.055          51.000    20477008.914 8  83849921.278 8      -255.624          50.000
G20  21018643.836 8 110453751.362 8       600.309          51.000    21018642.594 8  86067912.862 8       467.773          48.000
G21  22329555.133 6 117342660.899 6     -2294.660          40.000    22329553.281 5  91435815.815 5     -1788.047          30.000
G26  21318681.234 7 112030410.914 7     -2437.340          47.000    21318683.828 8  87296442.911 8     -1899.223          48.000
R08  22602662.492 7 121036264.430 7      3659.715          45.000    22602666.539 6  94139327.553 6      2846.445          41.000
R13  20419979.016 6 109041543.100 6     -2177.246          41.000    20419981.352 7  84810092.107 7     -1693.414          42.000
R23  19736522.812 4 105577090.480 4       679.375          26.000
C05  39616107.719 5 206291467.952 5        -1.879          34.000
C11                                                                  22967496.078 4  92480592.626 4     -1271.617          29.000
C14  24324292.578 7 126662986.725 7      2806.773          46.000    24324288.695 7  97943896.312 7      2170.251          46.000
C21  25005475.016 5 130210076.773 5      -936.984          34.000
C23  24353948.406 8 126817358.001 8     -2593.961          49.000
C28  23029946.828 5 119922977.471 5      1861.109          31.000
E13  24306249.398 8 127730213.281 8     -1634.461          51.000    24306251.250 8  97871224.363 8     -1252.418          51.000
E21  25334327.438 8 133132779.023 8     -2665.816          51.000    25334328.773 8 102010813.817 8     -2042.627          49.000
E26  22640032.922 8 118974179.660 8       692.922          48.000    22640036.414 8  91162113.139 8       530.913          48.000
E33  27085273.859 7 142334061.025 7      2275.824          45.000    27085272.258 6 109061170.141 6      1743.571          36.000
> 2020 05 12 15 07 30.0000000  0 16        .000000000000
G10  22212201.859 8 116725949.692 8      2678.309          50.000    22212205.430 8  90955286.712 8      2086.994          50.000
G16  20478949.383 8 107617612.032 8      -352.469          50.000    20478948.812 8  83857863.738 8      -274.648          50.000
G20  21015284.125 8 110436095.790 8       575.855          51.000    21015283.070 8  86054155.298 8       448.719          49.000
G21  22342682.508 6 117411645.012 6     -2305.332          37.000    22342679.875 5  91489537.500 5     -1796.366          32.000
G26  21332648.305 8 112103810.378 8     -2456.734          48.000    21332651.336 8  87353637.337 8     -1914.335          48.000
R08  22582202.648 7 120926694.048 7      3644.066          47.000    22582205.898 7  94054106.222 7      2834.277          42.000
R13  20432289.805 6 109107280.790 6     -2206.406          41.000    20432292.438 7  84861221.404 7     -1716.094          43.000
R23  19732762.688 4 105556957.937 4       663.668          29.000
C11                                                                  22977006.195 5  92518844.647 5     -1279.473          34.000
C14  24308155.898 7 126578959.542 7      2794.504          43.000    24308153.383 8  97878921.194 8      2160.700          50.000
C21  25010933.797 5 130238504.813 5      -958.934          35.000
C23  24368931.469 8 126895376.285 8     -2608.148          48.000
E13  24315604.008 8 127779371.865 8     -1643.672          51.000    24315605.898 8  97908891.312 8     -1259.428          51.000
E21  25349581.883 8 133212940.797 8     -2679.184          51.000    25349583.797 8 102072236.437 8     -2052.917          49.000
E26  22636110.031 8 118953564.112 8       680.441          48.000    22636113.477 8  91146316.807 8       521.428          48.000
E33  27072305.773 7 142265905.517 7      2267.039          44.000    27072299.719 6 109008947.173 6      1736.866          37.000
> 2020 05 12 15 08  0.0000000  0 16        .000000000000
G10  22196919.289 8 116645644.141 8      2669.781          49.000    22196924.586 8  90892710.928 8      2080.349          49.000
G16  20480989.852 8 107628335.181 8      -367.930          50.000    20480989.539 8  83866219.424 8      -286.698          49.000
G20  21012025.000 8 110418969.136 8       560.504          51.000    21012023.977 8  86040809.884 8       436.756          48.000
G21  22355826.609 5 117480661.515 5     -2305.668          33.000
G26  21346686.289 8 112177579.483 8     -2466.859          50.000    21346689.469 8  87411119.775 8     -1922.225          50.000
R08  22561790.641 8 120817381.247 8      3637.801          48.000    22561792.789 6  93969085.242 6      2829.407          41.000
R13  20444724.727 6 109173682.428 6     -2226.176          40.000    20444727.680 7  84912867.092 7     -1731.470          44.000
C05  39616154.180 5 206291709.746 5        -4.004          34.000
C11  22986509.117 5 119696765.056 5     -1655.859          35.000    22986516.938 5  92557169.750 5     -1280.853          30.000
C14  24292049.633 6 126495099.040 6      2790.820          41.000    24292050.602 8  97814074.937 8      2158.085          51.000
C21  25016476.703 5 130267366.901 5      -971.164          35.000
C23  24383955.453 7 126973611.403 7     -2613.152          45.000
E13  24324971.836 8 127828599.102 8     -1643.723          51.000    24324973.648 8  97946610.866 8     -1259.491          50.000
E21  25364873.445 8 133293295.555 8     -2683.379          51.000    25364875.961 8 102133806.925 8     -2056.149          50.000
E26  22632218.227 8 118933111.694 8       677.367          48.000    22632221.898 8  91130645.481 8       518.923          48.000
E33  27059348.336 7 142197808.556 7      2267.172          43.000    27059339.430 6 108956769.025 6      1737.360          36.000
> 2020 05 12 15 08 30.0000000  0 19        .000000000000
G10  22181696.906 8 116565654.082 8      2658.238          49.000    22181703.469 8  90830380.964 8      2071.355          49.000
G16  20483130.070 8 107639582.060 8      -386.531          50.000    20483129.938 8  83874983.224 8      -301.193          50.000
G18  22207887.609 5 116703240.887 5     -2770.078          34.000
G20  21008865.539 8 110402365.452 8       541.836          51.000    21008864.312 8  86027871.947 8       422.210          49.000
G21  22368986.148 6 117549818.921 6     -2309.129          38.000    22368984.211 5  91597251.774 5     -1799.343          30.000
G26  21360793.461 8 112251709.854 8     -2479.906          51.000    21360796.367 8  87468883.680 8     -1932.394          51.000
R08  22541425.953 7 120708324.161 7      3628.012          47.000    22541426.500 6  93884263.135 6      2821.790          38.000
R13  20457281.680 6 109240738.355 6     -2249.219          39.000    20457285.484 7  84965021.665 7     -1749.392          45.000
R24  21819622.406 5 116679275.185 5      2576.355          35.000    21819621.578 4  90750580.432 4      2003.832          26.000
C05  39616162.539 5 206291753.118 5        -3.598          34.000
C11  22996050.312 6 119746439.782 6     -1660.340          36.000    22996060.672 5  92595580.958 5     -1283.880          32.000
C14  24275974.961 7 126411401.203 7      2784.234          43.000    24275979.125 8  97749354.484 8      2153.010          51.000
C21  25022102.516 5 130296655.855 5      -986.301          32.000
C23  24399018.352 7 127052054.568 7     -2621.027          43.000
C28  22997915.953 4 119756176.679 4      1844.375          29.000
E13  24334351.461 8 127877887.891 8     -1646.855          51.000    24334353.141 8  97984377.581 8     -1261.924          50.000
E21  25380200.375 8 133373835.291 8     -2690.617          51.000    25380203.266 8 102195519.156 8     -2061.633          51.000
E26  22628356.008 8 118912815.662 8       671.016          48.000    22628359.812 7  91115093.958 7       514.164          47.000
E33  27046400.398 7 142129763.770 7      2264.477          44.000    27046389.430 6 108904630.858 6      1735.079          36.000
> 2020 05 12 15 09  0.0000000  0 19        .000000000000
G10  22166539.773 8 116486002.229 8      2667.109          50.000    22166546.281 8  90768314.585 8      2078.270          50.000
G16  20485373.859 8 107651372.928 8      -384.352          50.000    20485373.891 8  83884170.912 8      -299.492          50.000
G18  22223732.516 6 116786476.980 6     -2754.465          36.000    22223712.453 5  91002386.467 5     -2146.336          33.000
G20  21005809.438 8 110386305.781 8       543.844          51.000    21005808.312 8  86015357.946 8       423.774          49.000
G21  22382165.547 6 117619078.002 6     -2292.605          37.000    22382162.133 4  91651212.725 4     -1786.464          25.000
G26  21374972.992 8 112326219.865 8     -2472.254          51.000    21374974.922 8  87526943.395 8     -1926.432          51.000
R08  22521112.914 7 120599548.372 7      3639.062          47.000    22521112.047 6  93799659.826 6      2830.385          37.000
R13  20469964.922 6 109308465.812 6     -2250.629          41.000    20469968.867 7  85017698.566 7     -1750.489          45.000
R22  21565557.156 5 115118386.785 5     -2632.098          30.000    21565553.703 4  89536519.437 4     -2047.187          26.000
R24  21805169.344 4 116601984.964 4      2590.938          28.000    21805165.805 4  90690459.808 4      2015.168          28.000
C05  39616164.336 5 206291762.729 5        18.035          34.000
C11  23005613.891 5 119796234.125 5     -1643.945          33.000    23005631.641 5  92634085.138 5     -1272.320          30.000
C14  24259937.578 7 126327888.593 7      2798.133          47.000    24259942.867 8  97684777.298 8      2163.721          51.000
C21  25027813.328 5 130326390.829 5      -980.770          34.000
C23  24414124.422 6 127130723.486 6     -2608.547          41.000
E13  24343746.391 8 127927257.679 8     -1629.309          51.000    24343748.047 8  98022206.364 8     -1248.395          50.000
E21  25395565.969 8 133454578.631 8     -2677.094          51.000    25395569.180 8 102257387.399 8     -2051.271          51.000
E26  22624527.398 7 118892695.796 7       685.410          47.000    22624530.719 7  91099677.443 7       525.214          46.000
E33  27033465.969 7 142061791.513 7      2282.109          44.000    27033453.656 6 108852548.294 6      1748.662          36.000
> 2020 05 12 15 09 30.0000000  0 16        .000000000000
G10  22151462.438 8 116406768.047 8      2617.320          51.000    22151468.102 8  90706573.712 8      2039.470          51.000
G16  20487735.898 8 107663785.029 8      -441.039          49.000    20487735.859 8  83893842.673 8      -343.667          49.000
G20  21002871.570 8 110370867.352 8       487.273          51.000    21002870.328 8  86003328.009 8       379.694          49.000
G21  22395379.266 6 117688514.477 6     -2334.355          37.000    22395377.523 5  91705319.095 5     -1818.984          32.000
G26  21389238.773 8 112401184.498 8     -2523.195          51.000    21389239.766 8  87585357.339 8     -1966.129          51.000
R08  22500867.609 7 120491136.597 7      3590.531          46.000    22500866.320 6  93715339.591 6      2792.638          36.000
R13  20482788.633 7 109376939.911 7     -2312.016          42.000    20482791.641 7  85070956.158 7     -1798.237          44.000
R22  21580477.289 5 115198033.547 5     -2674.148          34.000    21580477.312 4  89598469.927 4     -2079.890          26.000
C05  39616174.422 5 206291814.822 5       -18.852          34.000
C14  24243951.516 8 126244639.992 8      2753.801          48.000    24243956.570 8  97620404.250 8      2129.268          51.000
C21  25033623.562 5 130356647.340 5     -1033.980          34.000
C23  24429289.633 7 127209692.025 7     -2653.965          43.000
E13  24353171.102 8 127976784.672 8     -1670.531          50.000    24353172.938 8  98060155.608 8     -1280.038          50.000
E21  25410984.305 8 133535600.886 8     -2722.371          51.000    25410987.789 8 102319469.365 8     -2086.012          51.000
E26  22620746.891 7 118872828.691 7       641.098          47.000    22620749.430 7  91084454.632 7       491.174          45.000
E33  27020559.656 7 141993968.837 7      2241.359          44.000    27020546.539 5 108800580.367 5      1717.342          35.000
> 2020 05 12 15 10  0.0000000  0 19        .000000000000
G10  22136488.328 8 116328075.435 8      2618.258          51.000    22136492.602 8  90645254.857 8      2040.204          51.000
G16  20490239.133 8 107676939.835 8      -446.598          49.000    20490239.039 8  83904093.155 8      -347.998          48.000
G18  22255516.422 6 116953528.055 6     -2791.582          36.000
G20  21000075.047 8 110356172.073 8       481.719          51.000    21000074.047 8  85991877.157 8       375.365          49.000
G21  22408649.203 5 117758247.643 5     -2325.289          34.000    22408649.352 5  91759656.653 5     -1811.917          33.000
G26  21403613.258 8 112476723.178 8     -2523.191          50.000    21403613.930 8  87644218.581 8     -1966.123          51.000
R08  22480714.094 7 120383216.982 7      3593.223          44.000    22480713.320 6  93631402.193 6      2794.732          37.000
R13  20495774.469 6 109446280.445 6     -2321.363          40.000    20495776.602 7  85124887.626 7     -1805.505          44.000
R22  21595452.828 5 115277953.938 5     -2664.531          33.000    21595454.430 4  89660630.230 4     -2072.410          25.000
R23  19714780.008 4 105460778.443 4       610.871          29.000
R24  21776418.906 5 116448325.136 5      2553.930          32.000
C05  39616215.773 5 206292030.677 5        -5.625          35.000
C11  23024868.922 5 119896531.987 5     -1677.340          34.000    23024899.211 5  92711592.247 5     -1297.808          33.000
C14  24228039.672 8 126161778.140 8      2759.809          49.000    24228043.969 8  97556330.247 8      2134.020          51.000
C23  24444536.039 7 127289077.989 7     -2648.895          45.000
E13  24362648.398 8 128026589.461 8     -1660.562          49.000    24362650.641 8  98098317.719 8     -1272.349          50.000
E21  25426477.922 8 133617021.779 8     -2716.512          49.000    25426481.781 8 102381856.783 8     -2081.429          51.000
E26  22617037.367 7 118853335.303 7       647.734          47.000    22617039.648 7  91069518.166 7       496.346          45.000
E33  27007704.273 7 141926417.188 7      2251.320          43.000    27007692.375 5 108748820.069 5      1724.960          35.000
> 2020 05 12 15 10 30.0000000  0 17        .000000000000
G10  22121571.398 8 116249684.221 8      2631.754          51.000    22121574.648 8  90584170.841 8      2050.717          51.000
G16  20492837.484 8 107690594.501 8      -439.738          49.000    20492837.219 8  83914733.146 8      -342.653          49.000
G18  22271467.492 5 117037346.718 5     -2771.312          35.000
G20  20997373.789 8 110341977.904 8       488.465          51.000    20997373.086 8  85980816.790 8       380.622          49.000
G26  21418050.008 8 112552591.185 8     -2510.621          50.000    21418051.477 8  87703336.451 8     -1956.331          50.000
R08  22460606.047 7 120275546.816 7      3608.996          42.000    22460607.094 6  93547658.808 6      2806.997          37.000
R13  20508874.625 6 109516237.359 6     -2317.703          38.000    20508877.438 7  85179298.539 7     -1802.658          45.000
R22  21610431.180 5 115357911.220 5     -2641.926          35.000    21610421.930 4  89722819.530 4     -2054.822          25.000
C05  39616242.102 5 206292167.744 5        20.094          35.000
C11  23034545.602 6 119946912.385 6     -1657.492          36.000
C14  24212155.969 8 126079064.992 8      2778.016          48.000    24212159.039 8  97492371.218 8      2148.307          50.000
C23  24459815.898 7 127368638.411 7     -2631.355          44.000
C28  22955650.234 5 119536084.646 5      1848.324          32.000
E13  24372132.266 8 128076428.540 8     -1638.160          48.000    24372134.797 8  98136506.117 8     -1255.229          50.000
E21  25442000.367 7 133698596.888 7     -2697.926          47.000    25442004.875 8 102444362.395 8     -2067.269          51.000
E26  22613352.727 7 118833972.525 7       667.031          46.000    22613355.062 7  91054681.761 7       511.108          45.000
E33  26994853.516 7 141858893.826 7      2274.113          43.000    26994846.234 6 108697081.476 6      1742.472          38.000
> 2020 05 12 15 11  0.0000000  0 18        .000000000000
G10  22106695.383 8 116171510.039 8      2581.043          51.000    22106698.305 8  90523255.919 8      2011.202          51.000
G16  20495514.555 8 107704662.259 8      -496.941          49.000    20495514.055 8  83925695.038 8      -387.227          49.000
G20  20994751.398 8 110328198.411 8       431.324          50.000    20994750.727 8  85970079.524 8       336.097          48.000
G26  21432532.266 8 112628699.727 8     -2562.016          48.000    21432534.828 8  87762641.795 8     -1996.376          48.000
R08  22440529.242 7 120168042.042 7      3559.301          42.000    22440531.773 6  93464043.972 6      2768.345          38.000
R12  23327645.492 5 124612098.431 5     -4538.309          30.000
R13  20522072.453 6 109586719.452 6     -2379.402          39.000    20522077.055 7  85234117.965 7     -1850.646          46.000
R22  21625399.750 5 115437816.712 5     -2683.801          34.000    21625390.844 4  89784968.412 4     -2087.401          28.000
C05  39616236.898 5 206292140.940 5       -17.320          35.000
C11  23044218.367 5 119997281.207 5     -1699.824          35.000    23044221.344 5  92789514.221 5     -1314.454          34.000
C14  24196284.281 7 125996416.993 7      2732.789          47.000    24196285.734 7  97428462.568 7      2113.296          47.000
C21  25051646.445 5 130450482.727 5     -1080.613          30.000
C23  24475110.977 7 127448284.866 7     -2677.141          42.000
C28  22945131.992 5 119481312.062 5      1805.199          32.000
E13  24381606.047 8 128126214.421 8     -1679.785          48.000    24381608.633 8  98174653.723 8     -1287.045          49.000
E21  25457535.180 7 133780237.813 7     -2743.523          47.000    25457540.250 8 102506918.441 8     -2102.213          51.000
E26  22609676.156 7 118814653.134 7       622.277          46.000    22609679.062 7  91039878.587 7       476.747          45.000
E33  26981991.320 6 141791312.043 6      2232.773          41.000    26981990.992 6 108645298.106 6      1710.799          39.000
> 2020 05 12 15 11 30.0000000  0 16        .000000000000
G10  22091948.828 8 116094016.620 8      2580.945          51.000    22091951.891 8  90462871.439 8      2011.126          51.000
G16  20498357.945 8 107719604.054 8      -503.508          49.000    20498357.320 8  83937337.967 8      -392.344          49.000
G20  20992295.555 8 110315295.033 8       424.547          49.000    20992295.203 7  85960024.960 7       330.816          47.000
G21  22448557.500 5 117967962.514 5     -2337.742          33.000    22448552.273 5  91923067.739 5     -1821.617          31.000
G26  21447147.680 7 112705508.103 7     -2562.797          47.000    21447151.188 7  87822492.493 7     -1996.985          47.000
R08  22420572.961 6 120061177.263 6      3560.559          41.000    22420575.656 6  93380926.938 6      2769.326          38.000
R12  23353090.078 5 124747995.667 5     -4526.484          32.000
R13  20535456.992 6 109658192.376 6     -2389.723          39.000    20535462.008 7  85289707.984 7     -1858.673          45.000
R22  21640447.680 5 115518177.727 5     -2675.117          32.000
C11  23053977.695 6 120048095.159 6     -1692.168          38.000    23053983.133 5  92828806.676 5     -1308.715          32.000
C14  24180513.289 7 125914293.636 7      2737.664          47.000    24180512.461 7  97364959.609 7      2116.887          44.000
C23  24490508.102 6 127528471.950 6     -2672.934          38.000
E13  24391157.305 7 128176407.507 7     -1670.793          47.000    24391159.883 8  98213113.373 8     -1280.251          49.000
E21  25473170.484 7 133862404.144 7     -2738.543          47.000    25473175.680 8 102569877.070 8     -2098.355          51.000
E26  22606095.617 7 118795837.926 7       627.984          46.000    22606098.742 7  91025461.749 7       481.120          44.000
E33  26969205.836 6 141724133.183 6      2241.500          37.000    26969211.922 6 108593823.429 6      1717.531          40.000
> 2020 05 12 15 12  0.0000000  0 19        .000000000000
G10  22077246.977 8 116016757.312 8      2568.848          51.000    22077250.070 8  90402669.405 8      2001.699          51.000
G16  20501282.164 8 107734970.766 8      -521.812          49.000    20501281.531 8  83949312.012 8      -406.607          49.000
G20  20989921.297 8 110302819.287 8       406.141          48.000    20989921.000 7  85950303.603 7       316.473          46.000
G21  22461907.188 5 118038111.103 5     -2340.699          34.000
G26  21461810.906 8 112782565.159 8     -2574.980          48.000    21461814.812 8  87882537.007 8     -2006.478          49.000
R08  22400652.156 7 119954499.301 7      3550.359          42.000    22400654.234 6  93297955.267 6      2761.391          39.000
R12  23378514.008 5 124883799.126 5     -4527.676          33.000
R13  20548941.102 6 109730195.720 6     -2411.391          39.000    20548945.633 7  85345710.554 7     -1875.526          45.000
R22  21655477.945 4 115598410.861 4     -2678.203          28.000
R23  19701549.930 5 105389997.963 5       568.453          34.000
C05  39616310.016 5 206292520.988 5        -3.656          35.000
C11  23063737.062 6 120098909.085 6     -1696.371          37.000
C14  24164758.352 7 125832252.365 7      2730.941          47.000    24164754.773 7  97301520.184 7      2111.595          43.000
C21  25064139.078 4 130515541.794 4     -1097.551          29.000
C23  24505923.789 6 127608752.238 6     -2679.785          38.000
E13  24400700.703 7 128226558.030 7     -1673.516          47.000    24400702.984 8  98251540.393 8     -1282.247          48.000
E21  25488820.844 8 133944645.164 8     -2745.062          48.000    25488825.453 8 102632892.889 8     -2103.375          51.000
E26  22602525.727 7 118777077.454 7       621.953          46.000    22602528.273 7  91011086.825 7       476.567          44.000
E33  26956411.906 5 141656908.188 5      2239.395          35.000    26956422.633 6 108542313.399 6      1715.786          41.000
> 2020 05 12 15 12 30.0000000  0 18        .000000000000
G10  22062617.336 8 115939876.800 8      2557.004          51.000    22062620.086 8  90342762.548 8      1992.471          51.000
G16  20504314.266 8 107750904.670 8      -539.992          49.000    20504313.414 8  83961728.035 8      -420.773          49.000
G20  20987655.609 7 110290913.603 7       388.117          47.000    20987655.188 7  85941026.453 7       302.429          46.000
G21  22475278.008 5 118108374.681 5     -2343.680          34.000
G26  21476548.922 8 112860011.244 8     -2587.297          51.000    21476552.648 8  87942884.607 8     -2016.079          50.000
R08  22380793.789 6 119848157.935 6      3539.730          41.000    22380795.617 6  93215245.424 6      2753.127          38.000
R12  23403945.023 5 125019643.961 5     -4528.633          34.000
R13  20562550.992 6 109802870.457 6     -2432.812          40.000    20562554.797 7  85402235.326 7     -1892.187          45.000
C05  39616329.930 5 206292624.694 5        -2.469          34.000
C11  23073521.828 6 120149863.544 6     -1699.656          37.000    23073519.445 5  92907501.376 5     -1314.732          32.000
C14  24149046.578 7 125750436.634 7      2724.086          45.000    24149041.523 7  97238255.169 7      2106.394          45.000
C21  25070502.797 5 130548713.975 5     -1112.023          33.000
C23  24521386.523 6 127689264.240 6     -2686.977          40.000
C28  22913860.781 5 119318496.852 5      1804.188          31.000
E13  24410263.062 7 128276807.495 7     -1675.941          47.000    24410264.789 8  98290043.235 8     -1284.157          48.000
E21  25504512.570 8 134027101.441 8     -2751.375          50.000    25504516.125 8 102696073.633 8     -2108.223          51.000
E26  22598992.992 7 118758513.559 7       616.250          45.000    22598995.500 7  90996862.547 7       472.108          44.000
E33  26943635.344 5 141589761.431 5      2236.625          33.000    26943650.984 6 108490877.071 6      1713.742          41.000
> 2020 05 12 15 13  0.0000000  0 17        .000000000000
G10  22048063.867 8 115863396.532 8      2542.016          51.000    22048066.016 8  90283167.593 8      1980.794          51.000
G16  20507457.977 8 107767424.654 8      -560.980          50.000    20507457.031 8  83974600.746 8      -437.128          50.000
G20  20985502.273 8 110279597.739 8       366.754          49.000    20985501.914 7  85932208.931 7       285.782          46.000
G21  22488673.328 5 118178770.677 5     -2349.906          32.000
G26  21491364.609 8 112937863.350 8     -2602.348          51.000    21491367.727 8  88003548.540 8     -2027.803          51.000
R08  22361001.938 6 119742176.988 6      3526.070          41.000    22361004.719 6  93132815.922 6      2742.505          39.000
R12  23429386.523 5 125155545.702 5     -4531.672          31.000
R13  20576289.766 6 109876232.996 6     -2457.664          40.000    20576293.094 7  85459295.078 7     -1911.513          45.000
C11  23083336.797 6 120200977.132 6     -1706.855          37.000
C14  24133381.695 7 125668867.715 7      2714.219          45.000    24133377.281 7  97175180.933 7      2098.812          46.000
C21  25076962.664 5 130582358.840 5     -1129.633          34.000
C23  24536897.164 6 127770024.389 6     -2696.434          40.000
C28  22903486.688 5 119264486.325 5      1797.262          30.000
E13  24419847.773 7 128327174.159 7     -1681.363          45.000    24419849.000 7  98328635.868 7     -1288.290          47.000
E21  25520248.469 8 134109790.332 8     -2760.723          50.000    25520251.055 8 102759432.589 8     -2115.338          51.000
E26  22595500.891 7 118740164.812 7       607.473          45.000    22595504.133 7  90982803.136 7       465.517          45.000
E33  26930882.508 6 141522747.892 6      2231.215          37.000    26930899.977 7 108439528.992 7      1709.764          43.000
> 2020 05 12 15 13 30.0000000  0 18        .000000000000
G10  22033558.242 8 115787167.052 8      2527.246          51.000    22033559.484 8  90223768.050 8      1969.286          51.000
G16  20510684.164 8 107784378.625 8      -581.992          49.000    20510683.484 8  83987811.614 8      -453.500          49.000
