     3.02           OBSERVATION DATA    M (MIXED)           RINEX VERSION / TYPE
SAVERINEX           SC600               20200513 185930 LCL PGM / RUN BY / DATE
       G = GPS       R = GLONASS       C = COMPASS          COMMENT
       S = SBAS      J = QZSS          E = GALILEO          COMMENT
BEAN                                                        MARKER NAME
1                                                           MARKER NUMBER
GEODETIC                                                    MARKER TYPE
Unige DICCA         GTER                                    OBSERVER / AGENCY
SC60291900056       SC600               2.12(191226)        REC # / TYPE / VERS
                    HEMA45          NONE                    ANT # / TYPE
  4509407.8091   693652.4678  4442337.6214                  APPROX POSITION XYZ
        0.0000        0.0000        0.0000                  ANTENNA: DELTA H/E/N
G    8 C1C L1C D1C S1C C2Y L2Y D2Y S2Y                      SYS / # / OBS TYPES
R    8 C1C L1C D1C S1C C2P L2P D2P S2P                      SYS / # / OBS TYPES
C    8 C1I L1I D1I S1I C7I L7I D7I S7I                      SYS / # / OBS TYPES
E    8 C1C L1C D1C S1C C7Q L7Q D7Q S7Q                      SYS / # / OBS TYPES
DBHZ                                                        COMMENT
     30.000                                                 INTERVAL
  2020    05    13    16    00    0.0000000     GPS         TIME OF FIRST OBS
  2020    05    13    16    59   30.0000000     GPS         TIME OF LAST OBS
     0                                                      RCV CLOCK OFFS APPL
G L1C  0.00000                                              SYS / PHASE SHIFT
G L2Y  0.00000                                              SYS / PHASE SHIFT
R L1C  0.00000                                              SYS / PHASE SHIFT
R L2P  0.25000                                              SYS / PHASE SHIFT
C L1I  0.00000                                              SYS / PHASE SHIFT
C L7I  0.00000                                              SYS / PHASE SHIFT
E L1C  0.50000                                              SYS / PHASE SHIFT
E L7Q -0.25000                                              SYS / PHASE SHIFT
 12 R01  1 R02 -4 R07  5 R08  6 R10 -5 R12 -1 R13 -2 R14 -7 GLONASS SLOT / FRQ #
    R15  0 R17  4 R22 -3 R23  3                             GLONASS SLOT / FRQ #
 C1C   71.950 C2C   71.950 C2P   71.950                     GLONASS COD/PHS/BIS
    18                                                      LEAP SECONDS
*** Above antenna height is from mark to ANTENNA BOTTOM.    COMMENT
    17     4        0.0000        ANT MEASURE TYPE/HEIGT    COMMENT
    0.0000    0.0000    0.0458    0.0405    0.0000          COMMENT
                    BASE STATION                            COMMENT
                                                            END OF HEADER
> 2020 05 13 16 00  0.0000000  0 17        .000000000000
G10  21030408.375 8 110515592.237 8       848.895          51.000    21030410.344 8  86116060.667 8       661.476          51.000
G16  21385762.039 8 112382921.354 8     -2386.145          51.000    21385761.773 7  87571116.480 7     -1859.333          47.000
G18  24095804.008 5 126624304.322 5     -3168.953          33.000
G20  21343790.211 6 112162374.867 6     -1549.504          40.000
G21  23886179.227 4 125522718.993 4     -2571.992          29.000
G26  23330740.906 6 122603968.602 6     -3561.496          36.000    23330762.930 5  95535518.177 5     -2775.186          32.000
G27  20353112.055 8 106956324.142 8       587.758          48.000    20353113.945 8  83342585.688 8       457.993          48.000
R01  20724081.523 6 110782090.917 6       865.602          36.000
R08  22349409.078 4 119680090.858 4     -2247.566          27.000
R24  20086888.414 8 107413593.532 8     -1275.941          49.000    20086891.836 8  83543949.790 8      -992.402          48.000
C05  39621933.555 5 206321804.161 5       -13.492          35.000
C11  21882542.586 7 113948185.171 7       357.703          44.000    21882541.539 7  88111911.156 7       276.647          46.000
C12  23485126.484 5 122293188.512 5     -2021.984          31.000    23485127.117 5  94564853.423 5     -1563.650          34.000
C21  23170745.898 6 120656150.271 6       460.191          38.000
E03  27382657.016 6 143896882.419 6      2859.309          41.000    27382674.609 6 110258662.050 6      2190.923          38.000
E15  23528421.578 6 123642677.044 6       822.477          37.000    23528426.086 5  94739218.811 5       630.281          32.000
E30  24704236.703 7 129821630.566 7     -2906.859          43.000    24704245.055 7  99473715.441 7     -2227.460          47.000
> 2020 05 13 16 00 30.0000000  0 15        .000000000000
G10  21025624.398 8 110490452.624 8       835.004          51.000    21025626.422 8  86096471.372 8       650.652          51.000
G16  21399437.445 8 112454782.206 8     -2396.453          51.000    21399436.641 7  87627111.917 7     -1867.366          47.000
G20  21352692.531 5 112209155.426 5     -1561.480          30.000
G26  23351093.766 5 122710931.880 5     -3561.160          35.000    23351110.273 5  95618866.276 5     -2774.930          34.000
G27  20349803.047 8 106938934.609 8       579.684          50.000    20349804.742 8  83329035.406 8       451.702          50.000
R01  20719306.477 6 110756574.116 6       843.875          37.000
R14  22440050.359 5 119618095.899 5     -4006.980          35.000    22440051.352 5  93036302.446 5     -3116.540          35.000
R24  20094081.594 8 107452058.506 8     -1280.238          50.000    20094085.055 8  83573866.969 8      -995.741          48.000
C05  39622021.766 5 206322263.740 5        -8.547          34.000
C11  21880511.555 7 113937611.581 7       355.035          44.000    21880510.867 7  88103734.965 7       274.650          47.000
C12  23496801.492 5 122353971.386 5     -2021.812          30.000
C21  23168152.898 6 120642650.954 6       448.004          39.000
E03  27366347.445 6 143811172.403 6      2862.848          41.000    27366361.445 6 110192988.199 6      2193.652          40.000
E15  23523749.078 5 123618135.990 5       821.895          34.000    23523752.992 5  94720405.533 5       629.683          30.000
E30  24720857.000 6 129908970.603 6     -2907.527          41.000    24720866.828 7  99540638.289 7     -2227.974          47.000
> 2020 05 13 16 01  0.0000000  0 17        .000000000000
G10  21020909.375 8 110465675.227 8       813.000          51.000    21020911.492 8  86077164.327 8       633.506          51.000
G16  21413160.570 8 112526895.719 8     -2414.863          51.000    21413159.492 7  87683304.231 7     -1881.715          47.000
G20  21361651.211 5 112256233.744 5     -1580.750          35.000
G26  23371437.273 5 122817843.067 5     -3569.699          34.000    23371451.336 5  95702173.599 5     -2781.587          35.000
G27  20346529.375 8 106921730.385 8       563.469          50.000    20346530.703 8  83315629.513 8       439.067          50.000
R01  20714644.766 6 110731655.305 6       814.031          36.000
R02  22725288.938 5 121266503.210 5      4274.406          32.000    22725296.961 5  94318408.607 5      3324.538          35.000
R08  22374824.578 5 119816084.508 5     -2290.027          30.000
R14  22462621.883 5 119738418.716 5     -4017.973          33.000    22462624.836 5  93129886.726 5     -3125.096          34.000
R15  21051768.797 5 112494275.414 5     -1116.762          32.000
R23  22478634.086 5 120245510.796 5     -2825.266          30.000
R24  20101288.125 8 107490594.991 8     -1292.797          51.000    20101291.508 8  83603839.769 8     -1005.509          48.000
C11  21878485.320 7 113927063.068 7       344.426          44.000    21878484.883 7  88095578.208 7       266.250          46.000
C21  23165619.852 6 120629463.168 6       427.402          37.000
E03  27350006.617 7 143725300.053 7      2858.234          42.000    27350015.344 7 110127189.978 7      2190.064          45.000
E15  23519069.156 6 123593542.155 6       813.316          36.000    23519071.367 5  94701561.972 5       623.232          33.000
E30  24737470.117 6 129996278.997 6     -2916.719          36.000    24737482.375 7  99607536.954 7     -2234.829          45.000
> 2020 05 13 16 01 30.0000000  0 20        .000000000000
G10  21016330.875 8 110441615.319 8       794.121          51.000    21016332.562 8  86058416.347 8       618.796          51.000
G16  21426998.391 8 112599614.335 8     -2429.898          51.000    21426997.430 7  87739968.058 7     -1893.427          47.000
G20  21370734.008 5 112303963.158 5     -1597.461          35.000
G26  23391838.695 5 122925054.207 5     -3574.863          30.000    23391850.336 4  95785714.725 4     -2785.611          29.000
G27  20343358.617 8 106905067.121 8       550.445          50.000    20343359.734 8  83302645.164 8       428.918          50.000
R01  20710162.844 4 110707696.984 4       787.227          29.000    20710165.695 4  86105990.177 4       612.296          28.000
R02  22701284.680 6 121138403.923 6      4269.395          38.000    22701290.648 5  94218775.964 5      3320.640          35.000
R08  22387727.148 5 119885174.276 5     -2312.457          34.000
R14  22485264.875 5 119859140.387 5     -4026.500          33.000    22485273.047 5  93223781.164 5     -3131.728          33.000
R15  21058118.289 5 112528218.660 5     -1143.055          35.000
R17  20346452.688 5 108877950.757 5      1724.527          31.000
R23  22494488.039 5 120330371.663 5     -2829.961          33.000
R24  20108575.578 8 107529563.568 8     -1302.000          51.000    20108578.711 8  83634148.656 8     -1012.670          49.000
C05  39622150.859 5 206322935.858 5       -12.000          35.000
C11  21876531.625 7 113916891.451 7       336.832          44.000    21876531.195 7  88087712.878 7       260.484          46.000
C12  23520192.070 5 122475774.179 5     -2036.281          32.000
C21  23163214.219 5 120616938.733 5       410.066          34.000
E03  27333702.344 7 143639622.083 7      2856.906          42.000    27333708.562 7 110061540.734 7      2189.013          47.000
E15  23514450.664 6 123569266.013 6       808.020          36.000    23514452.789 5  94682960.743 5       619.072          35.000
E30  24754140.578 5 130083886.404 5     -2922.555          32.000    24754159.328 7  99674681.734 7     -2239.004          44.000
> 2020 05 13 16 02  0.0000000  0 19        .000000000000
G10  21011815.547 8 110417887.069 8       792.281          51.000    21011816.844 8  86039926.819 8       617.365          51.000
G16  21440877.281 8 112672549.557 8     -2427.906          51.000    21440876.492 7  87796800.678 7     -1891.875          47.000
G20  21379866.938 5 112351955.136 5     -1597.273          33.000    21379855.977 5  87546934.267 5     -1244.629          30.000
G26  23412224.453 4 123032068.242 4     -3563.152          29.000    23412233.688 5  95869182.262 5     -2776.488          30.000
G27  20340217.305 8 106888559.343 8       554.621          50.000    20340218.461 8  83289781.965 8       432.172          50.000
R02  22677264.391 7 121010221.503 7      4281.055          43.000    22677269.453 5  94119078.636 5      3329.715          34.000
R08  22400704.758 4 119954758.585 4     -2316.840          29.000
R14  22507905.227 6 119979864.038 6     -4017.348          37.000    22507923.219 4  93317677.260 4     -3124.604          28.000
R15  21064573.000 6 112562700.594 6     -1151.281          37.000
R23  22510333.414 5 120415102.707 5     -2815.547          32.000
R24  20115870.125 8 107568570.728 8     -1293.926          51.000    20115873.070 8  83664487.542 8     -1006.387          49.000
C05  39622185.570 5 206323115.948 5         4.766          35.000
C11  21874576.922 7 113906714.317 7       346.086          44.000    21874576.562 7  88079843.294 7       267.585          47.000
C12                                                                  23531906.852 5  94753225.631 5     -1565.321          35.000
C21  23160863.125 5 120604695.282 5       410.164          31.000
C22  25780367.227 5 134245108.125 5     -2273.750          32.000
E03  27317361.484 7 143553753.970 7      2872.102          43.000    27317366.867 8 109995745.777 8      2200.824          48.000
E15  23509818.164 5 123544916.832 5       819.586          35.000    23509821.914 6  94664303.576 6       627.941          36.000
E30  24770802.969 6 130171448.884 6     -2911.230          38.000    24770824.133 7  99741775.149 7     -2230.324          43.000
> 2020 05 13 16 02 30.0000000  0 18        .000000000000
G10  21007438.008 8 110394883.351 8       755.070          51.000    21007439.047 8  86022001.869 8       588.366          51.000
G16  21454871.617 8 112746091.616 8     -2461.246          51.000    21454870.992 7  87854106.162 7     -1917.854          46.000
G20  21389123.938 5 112400599.989 5     -1631.926          34.000
G21  23959545.227 5 125908288.628 5     -2575.168          34.000
G26  23432669.000 5 123139492.742 5     -3585.246          34.000    23432675.141 5  95952888.043 5     -2793.698          32.000
G27  20337180.305 8 106872600.396 8       523.137          51.000    20337181.547 8  83277346.427 8       407.639          51.000
R02  22653303.797 6 120882359.017 6      4257.094          41.000    22653305.711 5  94019630.135 5      3311.076          32.000
R14  22530621.969 6 120100983.324 6     -4043.656          37.000    22530647.758 3  93411911.024 3     -3145.069          23.000
R15  21071204.070 5 112598118.287 5     -1195.863          30.000
R23  22526226.094 5 120500102.850 5     -2837.730          32.000
R24  20123246.531 8 107608015.210 8     -1321.777          51.000    20123249.359 8  83695166.581 8     -1028.049          50.000
C05  39622250.609 5 206323455.293 5       -13.469          35.000
C11  21872695.906 7 113896920.842 7       320.273          44.000    21872695.812 8  88072270.342 8       247.683          48.000
C12                                                                  23543667.227 6  94800617.339 6     -1583.710          37.000
C22  25793590.477 5 134313967.204 5     -2303.496          33.000
E03  27301059.312 7 143468090.056 7      2852.215          44.000    27301064.703 8 109930107.278 8      2185.484          48.000
E15  23505245.875 6 123520886.771 6       796.070          36.000    23505252.094 6  94645890.946 6       609.754          36.000
E30  24787529.266 6 130259334.618 6     -2934.703          41.000    24787550.359 7  99809116.227 7     -2248.579          42.000
> 2020 05 13 16 03  0.0000000  0 17        .000000000000
G10  21003177.719 8 110372495.484 8       737.570          51.000    21003178.219 8  86004556.815 8       574.730          51.000
G16  21468960.375 8 112820129.192 8     -2474.676          51.000    21468959.641 7  87911797.760 7     -1928.319          46.000
G21  23974238.125 5 125985505.760 5     -2573.531          34.000
G26  23453149.969 5 123247104.237 5     -3588.504          32.000    23453152.297 5  96036741.050 5     -2796.240          32.000
G27  20334227.117 8 106857082.043 8       511.402          51.000    20334228.391 8  83265254.202 8       398.495          51.000
R02  22629384.102 6 120754710.159 6      4252.887          41.000    22629384.461 5  93920347.911 5      3307.810          31.000
R14  22553392.289 5 120222382.757 5     -4050.098          34.000
R15  21077985.922 5 112634390.560 5     -1221.035          33.000
R24  20130683.992 8 107647785.864 8     -1329.562          51.000    20130686.688 8  83726099.299 8     -1034.104          50.000
C05  39622325.180 5 206323843.229 5       -12.262          35.000
C11  21870867.875 7 113887403.190 7       314.109          44.000    21870868.242 8  88064910.699 8       242.853          48.000
C12  23555487.133 4 122659606.172 4     -2051.914          28.000
C21  23156533.883 5 120582165.270 5       359.359          33.000
C22  25806890.742 5 134383223.936 5     -2313.680          33.000
E03  27284775.188 7 143382523.124 7      2852.125          44.000    27284781.398 8 109864543.063 8      2185.344          49.000
E15  23500712.742 5 123497066.593 5       792.305          34.000    23500720.719 5  94627639.078 5       606.998          31.000
E30  24804296.734 7 130347432.532 7     -2938.680          43.000    24804317.477 6  99876619.853 6     -2251.790          41.000
> 2020 05 13 16 03 30.0000000  0 16        .000000000000
G10  20999018.641 8 110350639.157 8       725.805          51.000    20999019.273 8  85987525.973 8       565.565          51.000
G16  21483127.047 8 112894574.788 8     -2482.242          51.000    21483125.953 7  87969807.295 7     -1934.215          46.000
G26  23473650.547 6 123354817.089 6     -3586.129          38.000    23473649.328 6  96120673.058 6     -2794.386          37.000
G27  20331341.875 8 106841920.498 8       505.484          51.000    20331343.219 8  83253440.007 8       393.884          51.000
R01  20693667.203 4 110619579.831 4       686.410          29.000
R02  22605489.117 6 120627192.798 6      4254.445          39.000    22605488.531 5  93821167.938 5      3309.019          30.000
R08  22440482.828 5 120167776.218 5     -2392.195          33.000    22440486.555 4  93463831.473 4     -1860.599          25.000
R14  22576199.039 5 120343972.080 5     -4050.145          31.000
R23  22558072.828 5 120670456.922 5     -2836.180          33.000
R24  20138166.203 8 107687795.854 8     -1331.477          51.000    20138168.648 8  83757218.179 8     -1035.593          50.000
C05  39622393.078 5 206324197.727 5        -4.953          35.000
C11  21869076.938 7 113878077.868 7       313.637          45.000    21869077.773 8  88057699.769 8       242.557          49.000
C21  23154506.383 6 120571632.834 6       349.234          39.000
C22  25820250.648 5 134452792.281 5     -2317.789          31.000
E03  27268494.031 7 143296970.318 7      2857.523          44.000    27268501.188 8 109798989.663 8      2189.582          49.000
E30  24821088.008 7 130435655.817 7     -2936.750          44.000    24821107.766 6  99944219.533 6     -2250.237          38.000
> 2020 05 13 16 04  0.0000000  0 15        .000000000000
G10  20994957.320 8 110329296.967 8       699.648          51.000    20994958.445 8  85970895.756 8       545.184          51.000
G16  21497367.758 8 112969408.697 8     -2504.289          51.000    21497366.180 7  88028119.423 7     -1951.397          46.000
G26  23494164.922 6 123462610.899 6     -3597.512          37.000    23494162.195 6  96204668.183 6     -2803.262          36.000
G27  20328521.305 8 106827098.753 8       485.227          51.000    20328522.594 8  83241890.603 8       378.099          51.000
R01  20689922.852 5 110599550.475 5       651.879          30.000
R08  22453971.469 5 120240021.639 5     -2421.102          32.000    22453977.164 4  93520022.220 4     -1883.085          25.000
R23  22574020.656 5 120755737.792 5     -2846.961          34.000
R24  20145689.578 8 107728026.687 8     -1348.043          51.000    20145691.898 8  83788508.813 8     -1048.478          49.000
C05  39622451.117 5 206324498.917 5       -12.508          35.000
C11  21867319.984 7 113868927.568 7       298.863          46.000    21867320.930 8  88050624.185 8       231.109          50.000
C12  23579159.133 4 122782868.432 4     -2061.281          29.000    23579158.523 5  94943500.167 5     -1594.185          34.000
C21  23152571.328 6 120561561.658 6       324.727          41.000
C22  25833666.508 5 134522652.641 5     -2336.051          30.000
E03  27252213.602 7 143211415.831 7      2848.539          46.000    27252221.133 8 109733434.999 8      2182.710          50.000
E30  24837899.023 7 130523984.757 7     -2949.285          44.000    24837916.680 6 100011900.165 6     -2259.866          36.000
> 2020 05 13 16 04 30.0000000  0 18        .000000000000
G10  20991017.875 8 110308594.540 8       680.672          51.000    20991018.891 8  85954764.014 8       530.394          51.000
G16  21511705.664 8 113044753.892 8     -2518.617          51.000    21511703.703 7  88086829.922 7     -1962.559          46.000
G26  23514717.492 6 123570608.169 6     -3601.832          36.000    23514713.516 6  96288821.846 6     -2806.622          36.000
G27  20325789.453 8 106812742.917 8       471.887          51.000    20325790.578 8  83230704.242 8       367.704          51.000
R01  20686344.398 5 110580406.921 5       624.559          31.000
R02  22557767.234 5 120372570.347 5      4235.461          30.000    22557784.680 5  93623164.985 5      3294.250          35.000
R08  22467596.469 5 120312985.283 5     -2442.891          32.000    22467600.969 4  93576771.671 4     -1900.026          25.000
R15  21099172.305 5 112747546.262 5     -1297.457          34.000    21099171.945 4  87692556.257 4     -1009.139          28.000
R23  22589997.375 5 120841198.403 5     -2851.125          34.000
R24  20153278.117 8 107768605.504 8     -1357.160          51.000    20153280.281 8  83820070.111 8     -1055.569          49.000
C05  39622522.789 5 206324872.321 5       -12.590          35.000
C11  21865620.578 7 113860076.679 7       291.262          47.000    21865621.484 8  88043780.096 8       225.334          50.000
C12  23591060.844 5 122844814.489 5     -2067.535          32.000
C21  23150748.156 6 120552075.938 6       307.562          41.000
C22  25847162.109 5 134592927.023 5     -2347.758          30.000
E03  27235957.742 7 143125986.641 7      2846.832          47.000    27235965.031 8 109667976.352 8      2181.291          50.000
E15  23487272.422 5 123426444.310 5       775.977          35.000    23487276.766 6  94573530.605 6       594.801          36.000
E30  24854753.055 7 130612542.376 7     -2954.516          44.000    24854767.844 5 100079755.999 5     -2263.700          34.000
> 2020 05 13 16 05  0.0000000  0 19        .000000000000
G10  20987182.406 8 110288438.412 8       660.551          51.000    20987183.719 8  85939057.976 8       514.715          51.000
G16  21526122.227 8 113120514.142 8     -2534.398          50.000    21526120.312 7  88145863.835 7     -1974.856          46.000
G20  21436818.195 5 112651232.947 5     -1712.832          35.000
G26  23535289.477 5 123678712.629 5     -3607.410          34.000    23535284.391 5  96373059.083 5     -2810.966          34.000
G27  20323128.602 8 106798760.163 8       457.594          51.000    20323129.766 8  83219808.586 8       356.567          51.000
R01  20682912.688 5 110562054.892 5       596.648          34.000
R02  22533980.547 5 120245667.503 5      4227.434          31.000    22533985.164 5  93524413.070 5      3288.004          35.000
R08  22481338.555 5 120386568.401 5     -2465.000          31.000    22481341.148 4  93633988.978 4     -1917.225          26.000
R15  21106520.266 6 112786813.959 6     -1323.461          36.000
R23  22605989.648 5 120926742.696 5     -2854.535          34.000
R24  20160913.773 8 107809436.385 8     -1367.582          51.000    20160915.562 8  83851827.453 8     -1063.672          49.000
C05  39622590.406 5 206325225.055 5       -13.836          35.000
C11  21863960.836 8 113851432.761 8       282.445          48.000    21863961.609 8  88037096.076 8       218.347          50.000
C12  23602978.555 4 122906909.631 4     -2074.059          29.000
C21  23149021.133 7 120543083.235 7       289.148          44.000
C22  25860719.367 4 134663520.343 4     -2361.086          29.000
E03  27219708.453 8 143040590.991 8      2843.730          49.000    27219715.297 8 109602543.405 8      2178.896          50.000
E15  23482854.688 5 123403234.858 5       769.934          32.000    23482857.016 6  94555739.044 6       589.575          36.000
E30  24871631.539 7 130701233.037 7     -2960.809          42.000    24871641.930 5 100147713.774 5     -2268.716          34.000
> 2020 05 13 16 05 30.0000000  0 18        .000000000000
G10  20983495.891 8 110269065.378 8       638.895          51.000    20983497.680 8  85923962.133 8       497.840          51.000
G16  21540661.977 8 113196923.880 8     -2551.555          50.000    21540660.602 7  88205403.864 7     -1988.224          45.000
G20  21446675.305 6 112703030.895 6     -1732.094          36.000    21446674.812 5  87820545.616 5     -1349.690          34.000
G26  23555925.891 5 123787157.814 5     -3614.562          32.000    23555921.117 5  96457561.831 5     -2816.545          32.000
G27  20320583.914 8 106785387.668 8       441.656          51.000    20320585.055 8  83209388.470 8       344.148          51.000
R02  22510262.836 6 120119077.134 6      4219.191          36.000    22510261.828 5  93425954.076 5      3281.599          34.000
R14  22667915.766 5 120832745.231 5     -4088.973          32.000
R15  21114051.086 5 112827061.019 5     -1351.012          33.000
R23  22622041.961 5 121012610.955 5     -2861.977          34.000
R24  20168641.445 8 107850759.680 8     -1379.422          51.000    20168643.047 8  83883967.777 8     -1072.884          48.000
C05  39622699.094 5 206325790.628 5       -15.832          35.000
C11  21862385.805 8 113843230.234 8       272.176          48.000    21862386.281 8  88030753.380 8       210.521          50.000
C12  23614968.148 4 122969342.183 4     -2082.082          29.000    23614970.594 5  95087685.187 5     -1609.922          30.000
C21  23147433.711 6 120534817.916 6       269.324          41.000
C22  25874383.367 4 134734701.724 4     -2373.816          28.000
E03  27203510.859 8 142955467.173 8      2839.148          49.000    27203517.328 8 109537318.739 8      2175.457          50.000
E15                                                                  23478507.781 6  94538233.892 6       583.700          36.000
E30  24888578.984 6 130790291.070 6     -2968.414          40.000    24888583.203 6 100215953.024 6     -2274.496          36.000
> 2020 05 13 16 06  0.0000000  0 13        .000000000000
G10  20979884.992 8 110250089.824 8       624.598          51.000    20979887.000 8  85909176.002 8       486.699          51.000
G16  21555251.297 8 113273594.434 8     -2561.199          49.000    21555250.531 7  88265147.154 7     -1995.740          46.000
G20  21456590.758 5 112755138.480 5     -1743.047          32.000    21456589.961 4  87861148.991 4     -1358.221          28.000
G26  23576548.211 5 123895595.769 5     -3614.148          31.000    23576554.141 5  96542047.862 5     -2816.223          31.000
G27  20318082.125 8 106772240.488 8       433.199          51.000    20318083.133 8  83199143.908 8       337.558          51.000
R02  22486546.414 5 119992501.655 5      4217.113          33.000    22486539.750 5  93327506.619 5      3279.983          33.000
R24  20176387.719 8 107892182.157 8     -1383.680          51.000    20176389.195 8  83916185.238 8     -1076.195          48.000
C05  39622775.008 5 206326186.141 5       -11.797          35.000
C11  21860822.102 8 113835087.174 8       269.207          48.000    21860822.391 8  88024456.646 8       208.168          50.000
C21  23145912.875 6 120526897.723 6       257.027          40.000
E03  27187291.391 8 142870231.175 8      2841.762          48.000    27187297.961 8 109472008.106 8      2177.400          50.000
E15  23474156.180 6 123357516.127 6       760.664          38.000    23474157.195 6  94520719.268 6       583.179          37.000
E30  24905521.898 6 130879328.593 6     -2968.816          39.000    24905522.891 6 100284176.577 6     -2274.715          39.000
> 2020 05 13 16 06 30.0000000  0 13        .000000000000
G10  20976376.812 8 110231654.726 8       606.219          51.000    20976379.305 8  85894811.008 8       472.378          51.000
G16  21569917.289 8 113350666.334 8     -2574.922          48.000    21569917.156 7  88325203.172 7     -2006.433          47.000
G20  21466591.914 6 112807696.450 6     -1758.461          36.000    21466592.234 5  87902103.369 5     -1370.217          32.000
G27  20315650.516 8 106759462.146 8       420.586          51.000    20315651.547 8  83189186.754 8       327.726          51.000
R02  22462857.211 5 119866089.777 5      4211.035          32.000    22462850.258 6  93229186.450 6      3275.259          36.000
R15  21129473.992 5 112909487.495 5     -1396.531          33.000    21129484.695 4  87818516.484 4     -1086.179          26.000
R24  20184179.555 8 107933848.647 8     -1392.113          51.000    20184181.125 8  83948592.500 8     -1082.755          48.000
C05  39622845.461 5 206326552.381 5       -11.234          35.000
C11  21859296.992 8 113827145.435 8       262.223          49.000    21859297.281 8  88018315.581 8       202.683          51.000
C21  23144485.078 5 120519464.285 5       240.566          34.000
E03  27171077.477 7 142785027.631 7      2840.297          47.000    27171084.758 8 109406722.326 8      2176.325          51.000
E15  23469833.672 6 123334788.114 6       756.508          39.000    23469832.281 6  94503304.360 6       579.419          36.000
E30  24922486.867 6 130968486.202 6     -2973.023          37.000    24922486.906 6 100352492.162 6     -2278.142          40.000
> 2020 05 13 16 07  0.0000000  0 16        .000000000000
G10  20972966.500 8 110213733.490 8       585.551          51.000    20972969.117 8  85880846.409 8       456.273          51.000
G16  21584654.375 8 113428110.069 8     -2590.906          49.000    21584654.578 7  88385548.915 7     -2018.888          47.000
G20  21476673.750 5 112860675.904 5     -1775.918          35.000    21476673.961 5  87943386.044 5     -1383.826          31.000
G27  20313284.125 8 106747026.551 8       405.504          51.000    20313285.234 8  83179496.684 8       315.977          51.000
R02  22439192.688 6 119739818.735 6      4203.480          37.000    22439188.094 6  93130975.822 6      3269.377          39.000
R08  22537539.023 5 120687422.748 5     -2548.992          31.000    22537544.094 4  93868073.794 4     -1982.549          24.000
R14  22737037.914 5 121201196.964 5     -4104.836          33.000    22737039.703 5  94267607.413 5     -3192.653          30.000
R15  21137373.305 5 112951749.567 5     -1423.441          34.000    21137379.914 4  87851381.551 4     -1107.121          29.000
R24  20192011.711 8 107975731.270 8     -1403.027          51.000    20192013.586 8  83981167.862 8     -1091.243          48.000
C05  39622905.406 5 206326864.478 5       -12.680          35.000
C11  21857805.570 8 113819378.704 8       252.680          49.000    21857805.805 8  88012309.841 8       195.412          51.000
C12  23651007.156 4 123157001.450 4     -2095.227          28.000    23651012.539 5  95232814.447 5     -1618.736          32.000
C21  23143146.570 4 120512490.957 4       221.879          28.000
E03  27154864.969 7 142699831.531 7      2836.574          46.000    27154872.750 8 109341442.251 8      2173.434          51.000
E15  23465526.930 5 123312163.025 5       749.539          33.000    23465525.258 5  94485968.332 5       573.744          33.000
E30  24939468.727 6 131057735.074 6     -2980.066          36.000    24939468.984 6 100420877.623 6     -2283.083          41.000
> 2020 05 13 16 07 30.0000000  0 17        .000000000000
G10  20969683.070 8 110196478.774 8       566.129          51.000    20969685.711 8  85867401.179 8       441.139          51.000
G16  21599491.086 8 113506076.082 8     -2605.434          49.000    21599491.078 8  88446301.626 8     -2030.208          48.000
G20  21486864.359 6 112914227.266 6     -1792.676          37.000    21486864.383 5  87985114.354 5     -1396.899          31.000
G27  20311012.148 8 106735087.041 8       391.805          51.000    20311013.312 8  83170193.168 8       305.302          51.000
R02  22415583.133 6 119613847.856 6      4196.012          40.000    22415581.602 6  93032998.528 6      3263.568          39.000
R08  22551877.648 4 120764223.130 4     -2569.891          28.000    22551888.086 4  93927806.855 4     -1998.804          27.000
R14  22760159.984 6 121324480.748 6     -4112.043          38.000    22760169.562 5  94363494.717 5     -3198.256          31.000
R15  21145430.383 5 112994786.686 5     -1448.914          32.000    21145437.500 4  87884848.420 4     -1126.933          25.000
R23  22686296.531 5 121356357.760 5     -2872.141          35.000
R24  20199913.445 8 108017985.107 8     -1412.547          51.000    20199915.273 8  84014031.960 8     -1098.648          48.000
C05  39622983.773 5 206327272.666 5       -13.230          35.000
C11  21856376.812 8 113811938.304 8       244.664          50.000    21856376.930 8  88006556.461 8       189.111          51.000
C12  23663093.031 5 123219915.605 5     -2098.863          31.000
C21  23141936.875 5 120506136.055 5       203.980          35.000
E03  27138683.320 7 142614797.380 7      2833.758          46.000    27138691.406 8 109276286.286 8      2171.294          51.000
E15                                                                  23461263.938 5  94468790.706 5       569.982          31.000
E30  24956497.477 6 131147225.575 6     -2984.777          37.000    24956497.766 6 100489448.261 6     -2287.295          41.000
> 2020 05 13 16 08  0.0000000  0 15        .000000000000
G10  20966509.141 8 110179799.612 8       548.758          51.000    20966511.914 8  85854404.462 8       427.603          51.000
G16  21614409.422 8 113584470.614 8     -2617.988          49.000    21614409.008 8  88507388.251 8     -2039.991          48.000
G20  21497146.000 6 112968257.636 6     -1806.613          37.000    21497145.617 5  88027215.924 5     -1407.754          31.000
G26  23659264.102 5 124330271.521 5     -3628.914          31.000
G27  20308817.391 8 106723553.272 8       380.238          51.000    20308818.555 8  83161205.823 8       296.290          51.000
R02  22392012.039 6 119488088.166 6      4190.844          41.000    22392013.977 6  92935185.556 6      3259.551          40.000
R14  22783321.461 6 121447954.576 6     -4116.539          37.000    22783333.500 4  94459529.868 4     -3201.753          28.000
R15  21153650.703 5 113038664.289 5     -1471.957          35.000    21153648.539 4  87918972.066 4     -1144.868          26.000
R24  20207866.875 8 108060516.704 8     -1419.832          51.000    20207869.078 8  84047112.095 8     -1104.314          48.000
C05  39623063.180 5 206327686.338 5       -11.754          34.000
C11  21854993.344 8 113804734.466 8       238.590          49.000    21854993.461 8  88000985.985 8       184.568          51.000
C12  23675207.898 4 123283019.329 4     -2102.590          28.000    23675201.750 5  95330281.463 5     -1625.928          33.000
C21  23140805.266 5 120500295.572 5       188.160          35.000
E03  27122515.500 7 142529835.665 7      2833.324          47.000    27122523.641 8 109211185.830 8      2170.998          51.000
E30  24973554.906 6 131236864.597 6     -2988.391          36.000    24973555.219 6 100558132.628 6     -2289.506          40.000
> 2020 05 13 16 08 30.0000000  0 16        .000000000000
G10  20963436.258 8 110163651.178 8       527.914          51.000    20963439.023 8  85841821.282 8       411.362          51.000
G16  21629400.000 8 113663245.869 8     -2633.629          49.000    21629399.344 8  88568771.554 8     -2052.178          48.000
G20  21507509.734 6 113022719.387 6     -1823.941          37.000    21507509.602 5  88069655.699 5     -1421.247          30.000
G27  20306691.391 8 106712380.967 8       364.836          51.000    20306692.523 8  83152500.133 8       284.288          51.000
R01  20663226.836 5 110456785.320 5       405.473          32.000    20663226.211 4  85910837.129 4       315.365          25.000
R02  22368473.797 7 119362498.554 7      4181.855          43.000    22368478.117 6  92837504.833 6      3252.557          40.000
R14  22806510.070 6 121571568.652 6     -4124.586          37.000    22806523.875 4  94555674.160 4     -3208.008          28.000
R15  21161991.414 5 113083229.173 5     -1498.664          34.000
R23  22718545.703 4 121528898.954 4     -2878.793          27.000
R24  20215863.625 8 108103280.093 8     -1430.867          51.000    20215866.453 7  84080372.506 7     -1112.897          47.000
C05  39623135.094 5 206328060.740 5       -13.527          35.000
C11  21853646.586 8 113797722.651 8       229.066          49.000    21853646.891 8  87995563.998 8       177.159          51.000
C12                                                                  23687334.594 5  95379143.643 5     -1631.667          34.000
C21  23139774.078 6 120494931.735 6       169.293          41.000
E03  27106353.219 7 142444903.379 7      2829.164          46.000    27106361.250 8 109146107.909 8      2167.840          51.000
E30  24990631.867 5 131326604.861 5     -2994.375          35.000    24990631.391 6 100626894.617 6     -2294.364          38.000
> 2020 05 13 16 09  0.0000000  0 15        .000000000000
G10  20960470.336 8 110148065.587 8       509.113          51.000    20960473.258 8  85829676.674 8       396.715          51.000
G16  21644468.578 8 113742431.833 8     -2647.359          50.000    21644467.867 7  88630474.907 7     -2062.877          47.000
G20  21517961.555 5 113077642.947 5     -1839.371          34.000
G27  20304640.367 8 106701602.945 8       351.660          51.000    20304641.484 8  83144101.667 8       274.021          51.000
R01  20661018.578 5 110444990.691 5       378.258          31.000    20661021.609 4  85901649.471 4       294.197          27.000
R02  22344975.141 7 119237115.816 7      4174.879          43.000    22344980.867 6  92739985.015 6      3247.131          40.000
R14  22829729.344 5 121695350.734 5     -4130.070          33.000    22829746.164 4  94651971.553 4     -3212.277          28.000
R15  21170468.797 6 113128529.875 6     -1523.270          38.000
R24  20223909.875 8 108146307.271 8     -1439.699          51.000    20223912.742 7  84113838.087 7     -1119.766          46.000
C05  39623205.531 5 206328427.364 5       -13.461          35.000
C11  21852342.867 8 113790935.086 8       221.488          50.000    21852343.375 8  87990315.413 8       171.248          51.000
C12  23699505.070 5 123409505.698 5     -2114.445          31.000    23699498.617 5  95428119.539 5     -1635.582          31.000
C21  23138841.516 7 120490076.373 7       152.500          44.000
E03  27090202.523 7 142360034.369 7      2826.824          44.000    27090210.844 8 109081078.508 8      2165.966          51.000
E30  25007733.727 5 131416476.577 5     -2998.891          33.000    25007732.000 6 100695757.327 6     -2298.070          37.000
> 2020 05 13 16 09 30.0000000  0 17        .000000000000
G10  20957590.289 8 110132932.314 8       507.660          51.000    20957593.430 8  85817884.525 8       395.579          51.000
G16  21659593.469 8 113821915.481 8     -2643.555          49.000    21659593.148 7  88692410.225 7     -2059.913          45.000
G20  21528479.844 5 113132915.051 5     -1837.582          33.000
G27  20302643.484 8 106691109.335 8       355.949          51.000    20302644.492 8  83135924.817 8       277.363          51.000
R01  20658941.992 5 110433886.829 5       368.797          31.000    20658947.938 4  85893046.021 4       286.845          25.000
R02  22321496.102 7 119111831.805 7      4185.414          45.000    22321502.156 7  92642541.924 7      3255.325          42.000
R08  22610361.203 5 121077376.699 5     -2633.938          32.000
R14  22852957.852 5 121819183.874 5     -4117.137          31.000    22852977.117 4  94748285.765 4     -3202.220          29.000
R15  21179065.414 5 113174495.974 5     -1530.027          30.000
R24  20231984.633 8 108189485.398 8     -1430.797          51.000    20231987.211 7  84147421.060 7     -1112.842          45.000
C05  39623253.344 5 206328676.539 5         4.246          35.000
C11  21851061.320 8 113784262.478 8       231.238          50.000    21851061.852 8  87985155.735 8       178.760          51.000
C21  23137985.078 7 120485619.734 7       152.773          42.000
C22  25985661.695 5 135314154.731 5     -2442.008          32.000
E03  27074043.031 7 142275119.916 7      2841.891          43.000    27074051.625 8 109016014.234 8      2177.520          51.000
E15                                                                  23444497.359 5  94401298.208 5       566.627          34.000
E30  25024839.562 5 131506418.798 5     -2985.703          33.000    25024835.836 5 100764634.117 5     -2287.726          35.000
> 2020 05 13 16 10  0.0000000  0 17        .000000000000
G10  20954866.062 8 110118617.040 8       487.035          51.000    20954869.266 8  85806729.749 8       379.508          51.000
G16  21674844.070 8 113902059.670 8     -2659.082          48.000    21674843.906 7  88754860.241 7     -2072.012          44.000
G20  21539133.641 5 113188910.251 5     -1854.812          32.000
G21  24180244.703 5 127068019.018 5     -2564.965          34.000
G27  20300770.438 8 106681266.523 8       340.703          51.000    20300771.344 8  83128255.103 8       265.483          51.000
R01  20657067.000 5 110423861.804 5       340.062          30.000
R02  22298106.773 7 118987021.866 7      4176.184          45.000    22298112.867 7  92545467.600 7      3248.146          43.000
R14  22876265.398 5 121943434.306 5     -4124.746          34.000    22876287.062 4  94844927.033 4     -3208.133          29.000
R17  20188562.508 5 108033056.285 5      1603.484          34.000
R24  20240157.164 8 108233185.966 8     -1441.512          51.000    20240159.375 7  84181410.385 7     -1121.176          44.000
C05  39623348.133 5 206329170.889 5         2.934          35.000
C11  21849871.523 8 113778067.267 8       221.828          50.000    21849871.992 8  87980365.205 8       171.571          51.000
C21  23137275.477 7 120481924.241 7       133.777          43.000
C22  25999876.898 5 135388182.094 5     -2454.367          34.000
E03  27057943.859 7 142190527.583 7      2837.824          42.000    27057953.445 8 108951196.726 8      2174.556          50.000
E15                                                                  23440401.430 5  94384828.561 5       561.383          31.000
E30  25042019.008 5 131596694.901 5     -2992.047          31.000    25042013.438 5 100833803.615 5     -2292.371          34.000
> 2020 05 13 16 10 30.0000000  0 16        .000000000000
G10  20952198.562 8 110104599.900 8       451.301          51.000    20952201.734 8  85795807.310 8       351.663          51.000
G16  21690121.250 8 113982342.115 8     -2689.410          49.000    21690120.992 7  88817417.971 7     -2095.644          43.000
G20  21549823.773 5 113245085.007 5     -1886.582          34.000
G21  24194946.789 6 127145281.326 6     -2581.977          37.000
G27  20298922.461 8 106671555.384 8       310.500          51.000    20298923.281 8  83120687.976 8       241.948          51.000
R01  20655294.195 5 110414386.385 5       295.395          33.000
R02  22274708.359 7 118862161.801 7      4151.781          46.000    22274714.109 7  92448354.303 7      3229.163          44.000
R08  22640286.992 5 121237699.694 5     -2693.148          31.000
R24  20248328.273 8 108276879.512 8     -1467.523          51.000    20248330.164 7  84215394.242 7     -1141.407          44.000
C05  39623390.922 5 206329393.583 5       -13.902          34.000
C11  21848674.664 8 113771834.794 8       197.457          51.000    21848675.055 8  87975545.867 8       152.750          51.000
C21  23136613.594 7 120478474.686 7       100.086          45.000
C22  26014102.195 5 135462257.047 5     -2480.992          33.000
E03  27041808.164 7 142105739.256 7      2818.504          45.000    27041817.703 8 108886229.081 8      2159.528          48.000
E15                                                                  23436289.297 5  94368270.291 5       545.232          32.000
E30                                                                  25059167.047 5 100902865.987 5     -2309.057          34.000
> 2020 05 13 16 11  0.0000000  0 18        .000000000000
G10  20949677.758 8 110091352.225 8       432.918          51.000    20949680.562 8  85785484.444 8       337.339          51.000
G16  21705514.422 8 114063231.731 8     -2702.242          50.000    21705513.812 7  88880448.798 7     -2105.646          44.000
G20  21560639.617 4 113301918.844 4     -1900.543          27.000
G21  24209688.539 6 127222751.590 6     -2581.480          38.000
G26  23783951.891 5 124985507.502 5     -3651.434          31.000    23783947.227 5  97391290.231 5     -2845.273          33.000
G27  20297189.367 8 106662447.930 8       297.703          51.000    20297190.172 8  83113591.257 8       231.976          51.000
R02  22251391.203 8 118737734.905 8      4144.613          48.000    22251396.641 7  92351577.871 7      3223.588          44.000
R08  22655431.891 5 121318802.670 5     -2712.328          30.000
R14  22922919.773 5 122192109.326 5     -4151.398          34.000    22922927.648 5  95038311.747 5     -3228.865          31.000
R23  22799488.844 5 121961845.653 5     -2896.547          30.000
R24  20256587.500 8 108321045.249 8     -1475.809          51.000    20256588.867 7  84249745.368 7     -1147.851          42.000
C05  39623471.367 5 206329811.974 5       -13.188          35.000
C11  21847560.406 8 113766032.299 8       190.391          51.000    21847560.742 8  87971059.010 8       147.192          51.000
C21  23136088.953 7 120475737.921 7        83.559          42.000
C22  26028424.633 5 135536844.242 5     -2490.129          30.000
E03  27025726.977 7 142021227.989 7      2816.449          47.000    27025734.164 7 108821473.737 7      2158.115          46.000
E15                                                                  23432246.562 5  94351984.307 5       541.620          33.000
E30  25076388.195 5 131777310.714 5     -3016.512          35.000    25076385.320 5 100972180.592 5     -2311.709          34.000
> 2020 05 13 16 11 30.0000000  0 18        .000000000000
G10  20947259.742 8 110078644.202 8       413.547          51.000    20947261.961 8  85775582.095 8       322.244          51.000
G16  21720979.203 8 114144495.987 8     -2716.094          51.000    21720978.227 7  88943771.542 7     -2116.437          45.000
G21  24224426.109 5 127300198.678 5     -2582.379          33.000
G27  20295527.586 8 106653715.067 8       283.758          51.000    20295528.328 8  83106786.429 8       221.110          51.000
R01  20652286.625 5 110398254.815 5       240.488          31.000    20652292.195 4  85865373.714 4       187.046          27.000
R02  22228111.852 8 118613511.979 8      4136.293          48.000    22228117.766 7  92254960.078 7      3217.117          44.000
R14  22946299.445 5 122316725.742 5     -4156.586          35.000    22946301.992 5  95135235.645 5     -3232.900          30.000
R15  21214921.320 5 113366123.008 5     -1645.746          31.000
R23  22815732.461 4 122048784.174 4     -2899.707          29.000
R24  20264891.039 8 108365448.923 8     -1485.160          51.000    20264892.703 7  84284281.549 7     -1155.128          43.000
C05  39623545.859 5 206330199.730 5       -13.250          35.000
C11  21846484.938 8 113760432.448 8       182.184          51.000    21846485.359 8  87966728.844 8       140.900          51.000
C12  23760751.438 5 123728447.374 5     -2140.645          31.000    23760776.703 5  95674706.376 5     -1655.460          30.000
C21  23135656.984 6 120473486.129 6        65.785          39.000
C22  26042801.539 5 135611713.819 5     -2500.672          30.000
E03  27009655.445 8 141936765.859 8      2813.590          48.000    27009659.023 7 108756756.147 7      2155.715          44.000
E15                                                                  23428225.398 5  94335755.239 5       537.630          30.000
E30  25093617.133 6 131867869.647 6     -3021.246          36.000    25093620.914 5 101041569.831 5     -2315.220          34.000
> 2020 05 13 16 12  0.0000000  0 17        .000000000000
G10  20944951.188 8 110066511.657 8       393.520          51.000    20944952.625 8  85766128.185 8       306.639          51.000
G16  21736521.594 8 114226168.098 8     -2730.586          51.000    21736520.086 7  89007412.105 7     -2127.729          46.000
G26  23825668.844 4 125204734.195 4     -3657.637          28.000
G27  20293944.125 8 106645393.385 8       269.121          51.000    20293944.820 8  83100302.003 8       209.705          51.000
R01  20651013.133 5 110391473.209 5       212.059          32.000    20651010.141 5  85860039.093 5       164.931          30.000
R02  22204877.984 8 118489533.409 8      4126.996          48.000    22204884.367 6  92158532.336 6      3209.889          41.000
R14  22969705.836 6 122441495.244 6     -4162.586          36.000    22969707.992 5  95232278.550 5     -3237.570          30.000
R15  21224225.531 5 113415855.121 5     -1670.918          34.000
R24  20273245.867 8 108410126.761 8     -1495.254          51.000    20273248.133 7  84319030.973 7     -1162.975          43.000
C05  39623620.953 5 206330591.711 5       -14.371          34.000
C11  21845455.344 8 113755071.055 8       173.402          51.000    21845455.758 8  87962583.077 8       134.125          51.000
C12  23773096.461 5 123792734.903 5     -2147.004          31.000
C21  23135325.984 6 120471754.770 6        47.621          37.000
C22  26057239.781 4 135686884.656 4     -2513.402          28.000
E03  26993600.289 8 141852390.650 8      2809.672          49.000    26993600.328 7 108692105.147 7      2152.901          44.000
E15  23424243.703 6 123095240.806 6       695.004          37.000    23424232.789 4  94319678.386 4       532.033          29.000
E30  25110874.531 6 131958535.844 6     -3026.531          38.000    25110878.234 5 101111059.561 5     -2318.728          33.000
> 2020 05 13 16 12 30.0000000  0 16        .000000000000
G10  20942779.695 8 110055098.990 8       388.633          51.000    20942780.516 8  85757235.214 8       302.834          51.000
G16  21752168.406 8 114308390.151 8     -2729.551          51.000    21752166.617 8  89071481.207 8     -2126.923          48.000
G27  20292466.516 8 106637628.036 8       269.711          51.000    20292467.203 8  83094251.092 8       210.164          51.000
R01  20649913.523 4 110385621.080 4       199.340          28.000    20649913.102 5  85855480.742 5       155.042          31.000
R02  22181718.008 8 118365950.875 8      4133.391          49.000    22181724.578 6  92062412.666 6      3214.862          37.000
R08  22701549.836 4 121565756.031 4     -2758.570          29.000    22701548.461 4  94551140.336 4     -2145.552          27.000
R14  22993165.695 6 122566559.784 6     -4153.027          38.000    22993169.469 4  95329550.894 4     -3230.132          29.000
R24  20281679.266 8 108455225.094 8     -1489.742          50.000    20281681.898 7  84354107.454 7     -1158.688          42.000
C05  39623724.336 5 206331129.839 5         -.949          35.000
C11  21844499.148 8 113750091.595 8       179.699          51.000    21844499.477 8  87958732.633 8       139.055          51.000
C12  23785498.008 5 123857325.252 5     -2138.895          31.000
C21  23135122.594 5 120470686.938 5        44.301          32.000
C23  25090619.898 6 130653435.340 6     -1710.652          38.000
E03  26977589.328 8 141768248.660 8      2821.117          49.000    26977587.781 7 108627632.840 7      2161.605          45.000
E15  23420308.586 5 123074577.101 5       704.059          34.000    23420299.578 5  94303841.083 5       539.318          31.000
E30  25128184.516 6 132049499.507 6     -3016.273          40.000    25128185.789 5 101180758.922 5     -2311.084          34.000
> 2020 05 13 16 13  0.0000000  0 15        .000000000000
G10  20940691.984 8 110044126.589 8       356.602          51.000    20940692.641 8  85748685.323 8       277.871          51.000
G16  21767865.852 8 114390879.924 8     -2755.871          51.000    21767864.141 7  89135758.931 7     -2147.432          47.000
G27  20291041.688 8 106630140.149 8       243.180          51.000    20291042.320 8  83088416.373 8       189.491          51.000
R01  20648947.578 5 110380416.523 5       158.934          34.000    20648950.586 5  85851440.668 5       123.615          33.000
R02  22158580.234 8 118242483.725 8      4111.719          51.000    22158583.641 5  91966382.839 5      3198.013          34.000
R14  23016626.898 6 122691631.181 6     -4171.066          40.000    23016631.023 5  95426828.602 5     -3244.166          32.000
R15  21243275.867 5 113517608.520 5     -1718.516          30.000    21243272.094 5  88291466.972 5     -1336.620          31.000
R24  20290138.195 8 108500459.255 8     -1511.930          48.000    20290141.180 7  84389289.571 7     -1175.945          42.000
C05  39623802.703 5 206331536.949 5       -13.434          35.000
C11  21843563.195 8 113745217.265 8       158.879          51.000    21843563.414 8  87954963.501 8       122.843          51.000
C12  23797911.266 5 123921936.395 5     -2155.984          34.000
C23  25100584.805 6 130705325.555 6     -1735.223          36.000
E03  26961569.609 8 141684062.093 8      2805.156          50.000    26961568.406 7 108563126.362 7      2149.420          46.000
E15                                                                  23416375.102 5  94288026.955 5       525.484          35.000
E30  25145493.039 6 132140454.888 6     -3033.504          40.000    25145492.859 6 101250451.937 6     -2324.445          36.000
> 2020 05 13 16 13 30.0000000  0 16        .000000000000
G10  20938719.500 8 110033760.059 8       334.062          51.000    20938719.852 8  85740607.528 8       260.308          51.000
G16  21783644.953 8 114473800.545 8     -2772.730          50.000    21783643.562 7  89200372.394 7     -2160.569          47.000
G20  21616031.500 5 113593011.399 5     -1980.590          32.000
G27  20289701.289 8 106623096.182 8       226.164          51.000    20289701.984 8  83082927.567 8       176.232          51.000
R01  20648141.711 5 110376114.052 5       127.809          30.000    20648144.875 5  85848094.369 5        99.413          32.000
R02  22135496.945 8 118119305.066 8      4099.777          51.000    22135496.305 6  91870577.412 6      3188.722          38.000
R14  23040120.117 6 122816873.067 6     -4179.035          40.000    23040124.859 5  95524238.885 5     -3250.364          34.000
R24  20298653.805 7 108545997.105 7     -1524.371          47.000    20298657.305 6  84424707.917 6     -1185.622          41.000
C05  39623887.453 5 206331977.995 5       -16.746          35.000
C11  21842679.000 8 113740612.664 8       147.617          51.000    21842679.148 8  87951402.934 8       114.126          51.000
C12  23810355.867 4 123986770.847 4     -2165.594          28.000
C21  23134979.422 5 120469930.285 5        -6.258          31.000
C23  25110620.305 5 130757608.285 5     -1750.871          35.000
E03  26945573.219 8 141599998.551 8      2798.695          49.000    26945573.086 7 108498714.128 7      2144.485          46.000
E15                                                                  23412488.672 6  94272358.730 6       518.767          38.000
E30  25162831.617 6 132231565.713 6     -3041.066          40.000    25162830.812 6 101320264.070 6     -2330.201          37.000
> 2020 05 13 16 14  0.0000000  0 17        .000000000000
G10  20936856.406 8 110023968.989 8       318.520          51.000    20936856.484 8  85732978.142 8       248.197          51.000
G16  21799499.508 8 114557119.412 8     -2782.234          50.000    21799498.789 7  89265296.183 7     -2167.972          45.000
G27  20288439.766 8 106616466.614 8       215.891          51.000    20288440.531 8  83077761.666 8       168.226          51.000
R01  20647488.789 5 110372641.387 5       103.336          33.000    20647493.312 5  85845393.334 5        80.372          33.000
R02  22112462.969 8 117996388.258 8      4094.523          51.000    22112462.141 7  91774975.548 7      3184.632          42.000
R14  23063638.945 6 122942250.099 6     -4179.668          39.000    23063645.086 5  95621754.265 5     -3250.859          33.000
R15  21262839.594 4 113622168.518 4     -1766.020          28.000
R24  20307220.773 7 108591807.753 7     -1529.684          46.000    20307223.844 6  84460338.428 6     -1189.754          41.000
C05  39623972.797 5 206332423.450 5       -12.859          34.000
C11  21841840.852 8 113736248.236 8       143.234          51.000    21841840.969 8  87948028.065 8       110.740          51.000
C12  23822826.477 4 124051714.059 4     -2167.680          28.000
C14  25008328.812 6 130224930.629 6      3404.434          36.000    25008333.211 6 100698188.573 6      2632.500          39.000
C21  23135048.188 5 120470319.549 5       -19.742          34.000
C23  25120727.484 5 130810251.552 5     -1759.148          32.000
E03  26929594.562 8 141516029.781 8      2799.145          49.000    26929595.781 7 108434374.514 7      2144.826          46.000
E15  23408628.531 6 123013167.324 6       675.414          36.000    23408630.859 6  94256813.011 6       517.591          37.000
E30  25180193.750 6 132322799.643 6     -3041.391          40.000    25180193.000 6 101390170.543 6     -2330.581          37.000
> 2020 05 13 16 14 30.0000000  0 16        .000000000000
G10  20935095.883 8 110014717.527 8       298.945          51.000    20935096.273 8  85725769.237 8       232.944          51.000
G16  21815422.133 8 114640797.879 8     -2795.754          49.000    21815421.938 7  89330500.184 7     -2178.510          43.000
G27  20287250.469 8 106610216.267 8       201.566          51.000    20287251.055 8  83072891.274 8       157.065          51.000
R01  20646987.766 5 110369962.435 5        75.223          33.000    20646994.242 5  85843309.732 5        58.507          32.000
R02  22089471.188 8 117873700.729 8      4085.188          48.000    22089471.758 7  91679551.971 7      3177.371          45.000
R14  23087176.648 5 123067721.405 5     -4184.516          35.000    23087183.719 5  95719342.929 5     -3254.629          30.000
R15  21272840.297 4 113675576.769 4     -1789.617          28.000
R24  20315831.734 7 108637854.363 7     -1539.160          45.000    20315835.016 6  84496152.470 6     -1197.125          40.000
C05  39624051.977 5 206332835.736 5       -13.648          35.000
C11  21841042.062 8 113732088.747 8       134.766          51.000    21841042.078 8  87944811.690 8       104.218          51.000
C14  24988727.211 6 130122862.201 6      3400.875          36.000    24988731.750 6 100619262.344 6      2629.712          38.000
C21  23135202.719 4 120471193.171 4       -38.148          29.000
C23  25130898.453 4 130863217.512 4     -1770.418          29.000
E03  26913627.391 8 141432121.901 8      2795.359          48.000    26913629.305 7 108370081.530 7      2141.875          45.000
E15  23404790.062 5 122993002.583 5       669.891          33.000    23404792.766 6  94241362.064 6       513.062          37.000
E30  25197571.086 6 132414118.732 6     -3045.668          36.000    25197571.867 6 101460142.272 6     -2333.673          37.000
> 2020 05 13 16 15  0.0000000  0 16        .000000000000
G10  20933411.422 8 110005866.264 8       282.352          51.000    20933412.258 8  85718872.179 8       220.014          51.000
G16  21831386.422 8 114724693.984 8     -2806.184          49.000    21831385.586 6  89395873.758 6     -2186.640          39.000
G27  20286106.984 8 106604206.649 8       190.270          51.000    20286107.312 8  83068208.467 8       148.262          51.000
R01  20646607.297 6 110367935.267 6        50.328          36.000    20646614.133 5  85841733.106 5        39.144          30.000
R02  22066495.805 7 117751105.687 7      4078.789          45.000    22066498.586 7  91584200.302 7      3172.395          47.000
R14  23110707.242 4 123193070.441 4     -4185.027          28.000    23110714.398 4  95816891.708 4     -3255.033          29.000
