     3.02           OBSERVATION DATA    M (MIXED)           RINEX VERSION / TYPE
SAVERINEX           SC600               20200504 175930 LCL PGM / RUN BY / DATE
       G = GPS       R = GLONASS       C = COMPASS          COMMENT
       S = SBAS      J = QZSS          E = GALILEO          COMMENT
BEAN                                                        MARKER NAME
1                                                           MARKER NUMBER
GEODETIC                                                    MARKER TYPE
Unige DICCA         GTER                                    OBSERVER / AGENCY
SC60291900056       SC600               2.12(191226)        REC # / TYPE / VERS
                    HEMA45          NONE                    ANT # / TYPE
  4509407.8091   693652.4678  4442337.6214                  APPROX POSITION XYZ
        0.0000        0.0000        0.0000                  ANTENNA: DELTA H/E/N
G    8 C1C L1C D1C S1C C2Y L2Y D2Y S2Y                      SYS / # / OBS TYPES
R    8 C1C L1C D1C S1C C2P L2P D2P S2P                      SYS / # / OBS TYPES
C    8 C1I L1I D1I S1I C7I L7I D7I S7I                      SYS / # / OBS TYPES
E    8 C1C L1C D1C S1C C7Q L7Q D7Q S7Q                      SYS / # / OBS TYPES
DBHZ                                                        COMMENT
     30.000                                                 INTERVAL
  2020    05    04    15    00    0.0000000     GPS         TIME OF FIRST OBS
  2020    05    04    15    59   30.0000000     GPS         TIME OF LAST OBS
     0                                                      RCV CLOCK OFFS APPL
G L1C  0.00000                                              SYS / PHASE SHIFT
G L2Y  0.00000                                              SYS / PHASE SHIFT
R L1C  0.00000                                              SYS / PHASE SHIFT
R L2P  0.25000                                              SYS / PHASE SHIFT
C L1I  0.00000                                              SYS / PHASE SHIFT
C L7I  0.00000                                              SYS / PHASE SHIFT
E L1C  0.50000                                              SYS / PHASE SHIFT
E L7Q -0.25000                                              SYS / PHASE SHIFT
 12 R05  1 R06 -4 R07  5 R08  6 R09 -2 R10 -5 R11  0 R12 -1 GLONASS SLOT / FRQ #
    R13 -2 R21  4 R22 -3 R23  3                             GLONASS SLOT / FRQ #
 C1C   71.950 C2C   71.950 C2P   71.950                     GLONASS COD/PHS/BIS
    18                                                      LEAP SECONDS
*** Above antenna height is from mark to ANTENNA BOTTOM.    COMMENT
    17     4        0.0000        ANT MEASURE TYPE/HEIGT    COMMENT
    0.0000    0.0000    0.0458    0.0405    0.0000          COMMENT
                    BASE STATION                            COMMENT
                                                            END OF HEADER
> 2020 05 04 15 00  0.0000000  0 14        .000000000000
G10  23627736.492 6 124164592.649 6      3379.121          36.000    23627739.172 5  96751681.379 5      2633.084          34.000
G18  21223067.359 8 111528029.895 8     -2133.969          51.000    21223067.344 7  86904954.913 7     -1662.833          46.000
G20  21624680.453 8 113638498.957 8      2013.211          49.000    21624680.758 7  88549515.265 7      1568.739          45.000
G21  21549421.352 8 113242971.767 8     -1887.047          50.000    21549420.305 7  88241309.358 7     -1470.426          45.000
G26  20487519.797 8 107662649.326 8     -1149.367          51.000    20487522.461 8  83892959.530 8      -895.611          51.000
R12  21246813.492 8 113496639.882 8     -3828.023          49.000    21246818.008 8  88275161.545 8     -2977.352          48.000
R22  20424416.922 6 109026990.168 6     -2178.836          39.000    20424419.383 6  84798706.187 6     -1694.653          37.000
R24  23129335.367 5 123682940.673 5      3105.590          35.000
C05  39611476.961 5 206267354.632 5         2.516          34.000    39611480.312 5 159499016.491 5         2.422          35.000
C28  21606270.297 8 112509507.516 8      -371.512          51.000
E11  22785752.227 8 119739956.633 8       798.551          50.000    22785750.727 8  91748759.137 8       611.880          51.000
E12  22586578.867 8 118693294.022 8     -1684.398          51.000    22586578.992 8  90946815.373 8     -1290.622          51.000
E24  23022675.125 8 120984956.284 8     -2367.656          51.000    23022688.086 8  92702795.430 8     -1814.202          51.000
E36  26906999.094 7 141397281.868 7      2429.754          45.000    26907004.914 7 108343371.205 7      1861.777          47.000
> 2020 05 04 15 00 30.0000000  0 15        .000000000000
G10  23608436.391 5 124063167.914 5      3377.441          34.000    23608438.930 5  96672649.246 5      2631.776          34.000
G18  21235259.664 8 111592100.591 8     -2142.711          51.000    21235259.695 7  86954880.106 7     -1669.645          46.000
G20  21613207.734 8 113578212.670 8      2000.703          49.000    21613208.625 7  88502538.951 7      1558.989          45.000
G21  21560194.531 8 113299585.206 8     -1892.457          50.000    21560193.320 7  88285423.700 7     -1474.642          45.000
G26  20494107.148 8 107697265.576 8     -1163.801          51.000    20494110.078 8  83919933.206 8      -906.861          51.000
G27  22122000.039 5 116251893.507 5      2408.633          33.000
R06  22769829.969 4 121504175.087 4      -616.816          29.000
R12  21268326.438 8 113611562.812 8     -3838.859          49.000    21268331.945 7  88364546.018 7     -2985.780          47.000
R22  20436658.492 5 109092338.767 5     -2183.672          33.000    20436663.977 6  84849532.816 6     -1698.411          40.000
C05  39611436.438 5 206267142.884 5         5.754          35.000    39611439.766 6 159498853.139 6         4.410          36.000
C28  21608409.219 8 112520646.221 8      -376.395          51.000
E11  22781194.258 8 119716003.920 8       793.152          50.000    22781192.172 8  91730405.759 8       607.689          51.000
E12  22596184.984 8 118743774.490 8     -1686.340          51.000    22596185.234 8  90985495.197 8     -1292.137          51.000
E24  23036195.445 8 121056006.011 8     -2374.297          51.000    23036207.688 8  92757236.082 8     -1819.341          51.000
E36  26893115.438 7 141324325.720 7      2428.590          44.000    26893122.734 8 108287469.807 8      1860.772          48.000
> 2020 05 04 15 01  0.0000000  0 15        .000000000000
G10  23589194.031 5 123962065.460 5      3368.082          31.000    23589204.125 5  96593849.429 5      2624.486          33.000
G18  21247556.609 8 111656720.869 8     -2158.473          51.000    21247556.648 7  87005233.558 7     -1681.927          46.000
G20  21601861.383 8 113518589.461 8      1980.941          50.000    21601862.375 7  88456079.315 7      1543.591          45.000
G21  21571053.766 8 113356651.055 8     -1905.137          49.000    21571052.422 7  88329890.577 7     -1484.522          44.000
G26  20500832.195 8 107732605.015 8     -1185.344          51.000    20500835.031 8  83947470.405 8      -923.644          51.000
R06  22773402.477 5 121523210.161 5      -645.117          31.000
R12  21289956.148 8 113727104.731 8     -3856.957          50.000    21289961.383 7  88454411.906 7     -2999.859          47.000
R22  20448981.680 4 109158122.038 4     -2194.832          29.000    20448989.508 6  84900697.641 6     -1707.089          39.000
R23  20217403.789 5 108149464.715 5      1561.973          31.000
C05                                                                  39611437.719 6 159498844.797 6         1.290          36.000
C28  21610632.086 8 112532221.579 8      -388.527          51.000
E11  22776722.273 8 119692503.652 8       780.191          50.000    22776720.141 8  91712399.059 8       597.911          51.000
E12  22605857.531 8 118794604.044 8     -1695.457          51.000    22605857.586 8  91024442.504 8     -1299.149          51.000
E24  23049807.938 8 121127541.661 8     -2388.027          51.000    23049820.422 8  92812049.051 8     -1829.742          51.000
E36  26879293.242 7 141251693.514 7      2420.301          43.000    26879301.570 8 108231816.629 8      1854.489          48.000
> 2020 05 04 15 01 30.0000000  0 15        .000000000000
G10  23569957.094 5 123860978.508 5      3367.922          32.000    23569967.750 5  96515080.411 5      2624.358          32.000
G18  21259888.859 8 111721527.055 8     -2165.004          51.000    21259888.695 7  87055731.886 7     -1687.016          46.000
G20  21590573.086 8 113459269.804 8      1970.609          49.000    21590573.781 7  88409856.239 7      1535.543          46.000
G21  21581929.922 8 113413806.386 8     -1908.238          49.000    21581928.523 7  88374427.201 7     -1486.936          43.000
G26  20507626.000 8 107768305.506 8     -1197.617          51.000    20507628.555 8  83975288.952 8      -933.208          51.000
G27  22094599.484 5 116107920.692 5      2396.621          35.000
R06  22777066.898 4 121542792.626 4      -665.168          29.000
R12  21311632.953 8 113842893.982 8     -3865.406          51.000    21311637.430 7  88544470.146 7     -3006.427          47.000
R22  20461318.414 6 109223970.903 6     -2197.434          36.000    20461325.031 6  84951913.468 6     -1709.118          38.000
C05  39611401.984 5 206266964.039 5         6.715          34.000    39611405.305 6 159498714.454 6         5.093          36.000
C28  21612870.062 8 112543874.909 8      -391.355          51.000
E11  22772267.664 8 119669093.986 8       777.180          51.000    22772265.711 8  91694461.809 8       595.531          51.000
E12  22615527.516 8 118845420.109 8     -1695.246          51.000    22615527.219 8  91063379.467 8     -1298.961          51.000
E24  23063443.734 8 121199200.490 8     -2392.254          51.000    23063457.180 8  92866956.424 8     -1833.080          51.000
E36  26865464.188 7 141179024.038 7      2421.207          44.000    26865472.453 7 108176134.877 7      1855.324          47.000
> 2020 05 04 15 02  0.0000000  0 16        .000000000000
G10  23550772.242 6 123760156.957 6      3366.629          36.000    23550782.000 6  96436518.217 6      2623.347          37.000
G18  21272307.992 8 111786790.082 8     -2172.516          51.000    21272307.664 7  87106586.171 7     -1692.872          45.000
G20  21579395.031 8 113400528.907 8      1958.961          49.000    21579395.852 7  88364084.157 7      1526.463          46.000
G21  21592874.844 8 113471322.451 8     -1912.727          50.000    21592873.586 7  88419244.906 7     -1490.436          43.000
G26  20514540.258 8 107804639.476 8     -1211.086          51.000    20514542.602 8  84003601.122 8      -943.703          51.000
R12  21333407.508 8 113959204.424 8     -3875.020          51.000    21333411.383 7  88634933.752 7     -3013.907          47.000
R22  20473718.859 6 109290161.167 6     -2201.598          39.000    20473723.414 6  85003394.717 6     -1712.360          36.000
R23  20199993.742 5 108056327.558 5      1547.711          33.000
C05  39611391.164 5 206266907.769 5        10.590          34.000    39611394.586 5 159498671.341 5         8.080          35.000
C23  26255990.188 5 136721822.183 5     -3422.504          31.000
C27  23334757.609 5 121510190.006 5      2022.340          33.000
C28  21615174.883 8 112555876.316 8      -395.438          51.000
E11  22767882.297 8 119646047.515 8       772.812          51.000    22767880.469 8  91676802.825 8       592.128          51.000
E12  22625246.758 8 118896494.722 8     -1696.391          51.000    22625246.141 8  91102514.550 8     -1299.847          51.000
E24  23077154.766 8 121271254.247 8     -2397.953          50.000    23077169.461 8  92922166.408 8     -1837.330          51.000
E36  26851680.297 7 141106590.582 7      2420.934          43.000    26851687.477 7 108120633.974 7      1855.091          46.000
> 2020 05 04 15 02 30.0000000  0 16        .000000000000
G10  23531597.492 6 123659387.493 6      3355.727          40.000    23531605.898 6  96357996.667 6      2614.855          41.000
G18  21284772.492 8 111852291.630 8     -2189.504          51.000    21284772.352 7  87157626.317 7     -1706.107          45.000
G20  21568286.695 8 113342153.341 8      1937.531          50.000    21568287.406 7  88318596.709 7      1509.765          46.000
G21  21603847.023 8 113528981.039 8     -1926.492          49.000    21603846.359 7  88464173.668 7     -1501.163          43.000
G26  20521533.438 8 107841390.174 8     -1234.211          50.000    20521535.945 8  84032237.999 8      -961.726          50.000
R06  22784878.383 4 121584418.923 4      -717.785          29.000
R12  21355237.008 8 114075811.835 8     -3894.086          51.000    21355240.922 7  88725628.321 7     -3028.734          47.000
R22  20486141.070 6 109356471.150 6     -2214.250          36.000    20486143.062 5  85054969.075 5     -1722.194          34.000
C05  39611360.961 5 206266750.628 5         4.312          34.000    39611364.453 6 159498549.814 6         3.498          36.000
C23  26275738.172 5 136824645.695 5     -3427.391          35.000
C27  23323144.227 5 121449747.310 5      2011.898          34.000
C28  21617505.328 8 112568011.190 8      -408.895          51.000
E11  22763524.555 8 119623147.723 8       758.703          50.000    22763522.984 8  91659256.225 8       581.251          51.000
E12  22634973.867 8 118947610.681 8     -1706.758          51.000    22634973.234 8  91141681.312 8     -1307.737          51.000
E24  23090899.914 8 121343485.489 8     -2412.844          51.000    23090915.578 8  92977512.415 8     -1848.787          51.000
E36  26837900.281 7 141034177.238 7      2411.246          42.000    26837906.203 7 108065148.507 7      1847.542          46.000
> 2020 05 04 15 03  0.0000000  0 15        .000000000000
G10  23512459.922 6 123558812.695 6      3349.094          38.000    23512466.977 6  96279626.763 6      2609.686          39.000
G18  21297308.508 8 111918169.155 8     -2202.391          51.000    21297308.602 7  87208959.433 7     -1716.149          44.000
G20  21557274.711 8 113284284.277 8      1920.285          50.000    21557275.430 7  88273503.942 7      1496.326          47.000
G21  21614872.523 8 113586920.017 8     -1936.203          48.000    21614871.938 7  88509320.930 7     -1508.730          42.000
G26  20528632.242 8 107878696.486 8     -1253.102          51.000    20528634.898 8  84061307.819 8      -976.446          51.000
R06  22788987.258 5 121606352.205 5      -744.816          30.000
R12  21377147.461 8 114192854.399 8     -3908.926          51.000    21377151.734 7  88816661.369 7     -3040.279          47.000
C05  39611337.984 5 206266630.892 5         2.969          34.000    39611341.328 6 159498456.788 6         2.863          36.000
C23  26295488.266 5 136927487.340 5     -3429.027          33.000
C27  23311570.164 5 121389505.353 5      2004.617          33.000
C28  21619887.922 8 112580417.455 8      -418.234          51.000
E11  22759220.961 8 119600533.830 8       748.602          50.000    22759219.719 8  91641928.677 8       573.649          51.000
E12  22644735.188 8 118998906.573 8     -1713.141          51.000    22644734.836 8  91180985.955 8     -1312.717          51.000
E24  23104705.625 8 121416032.588 8     -2423.781          51.000    23104721.484 8  93033100.438 8     -1857.189          51.000
E36  26824150.984 7 140961923.936 7      2405.504          43.000    26824155.797 7 108009785.639 7      1843.157          46.000
> 2020 05 04 15 03 30.0000000  0 15        .000000000000
G10  23493355.070 5 123458420.549 5      3345.547          32.000    23493362.094 5  96201399.162 5      2606.920          32.000
G18  21309912.891 8 111984405.693 8     -2212.820          51.000    21309912.945 7  87260572.298 7     -1724.276          45.000
G20  21546356.695 8 113226909.207 8      1905.301          50.000    21546357.500 8  88228796.097 8      1484.650          48.000
G21  21625948.133 7 113645122.516 7     -1943.398          47.000    21625946.953 7  88554673.531 7     -1514.336          44.000
G26  20535834.227 8 107916542.867 8     -1269.320          51.000    20535836.719 8  84090798.492 8      -989.081          51.000
R06  22793242.094 5 121629063.816 5      -769.355          31.000
R12  21399135.875 8 114310312.687 8     -3921.086          51.000    21399140.609 7  88908017.756 7     -3049.737          47.000
R22  20511128.305 5 109489786.250 5     -2230.207          34.000    20511126.516 5  85158737.462 5     -1734.605          33.000
C05  39611319.164 5 206266532.398 5         3.773          35.000    39611322.609 6 159498381.063 6         2.873          36.000
C23  26315236.000 5 137030330.397 5     -3427.250          32.000
C28  21622319.711 8 112593079.974 8      -425.293          51.000
E11  22754968.977 8 119578190.466 8       741.305          50.000    22754967.898 8  91624808.445 8       568.088          51.000
E12  22654527.734 8 119050366.538 8     -1716.984          51.000    22654527.797 8  91220416.316 8     -1315.635          51.000
E24  23118568.492 8 121488879.409 8     -2432.211          51.000    23118583.922 8  93088918.106 8     -1863.639          51.000
E36  26810429.594 7 140889816.081 7      2402.203          45.000    26810433.617 7 107954534.213 7      1840.604          47.000
> 2020 05 04 15 04  0.0000000  0 16        .000000000000
G10  23474281.336 5 123358179.521 5      3337.098          32.000    23474290.391 5  96123295.249 5      2600.336          33.000
G18  21322582.828 8 112050986.215 8     -2225.609          51.000    21322582.930 7  87312453.210 7     -1734.241          45.000
G20  21535530.688 8 113170017.218 8      1887.773          50.000    21535531.422 7  88184464.689 7      1470.992          47.000
G21  21637071.117 7 113703574.132 7     -1953.055          47.000    21637069.812 7  88600220.254 7     -1521.861          44.000
G26  20543136.508 8 107954915.806 8     -1288.406          51.000    20543138.992 8  84120699.475 8     -1003.953          51.000
R12  21421199.039 8 114428169.860 8     -3935.746          50.000    21421204.281 7  88999684.354 7     -3061.139          47.000
R22  20523684.180 5 109556827.988 5     -2238.840          35.000    20523685.484 5  85210881.053 5     -1741.320          32.000
R24  22990949.742 5 122942911.544 5      3057.535          30.000    22990967.930 5  95622318.741 5      2378.083          32.000
C05  39611302.172 5 206266444.302 5         2.234          35.000    39611305.711 6 159498312.528 6         1.852          36.000
C23  26334982.562 5 137133159.843 5     -3428.020          35.000
C27  23288532.930 4 121269501.435 4      1992.852          29.000
C28  21624798.172 8 112605985.571 8      -434.793          51.000
E11  22750766.164 8 119556104.496 8       731.531          50.000    22750764.984 8  91607885.443 8       560.413          51.000
E12  22664348.852 8 119101976.727 8     -1723.371          51.000    22664349.242 8  91259961.783 8     -1320.523          51.000
E24  23132485.539 8 121562011.787 8     -2443.066          51.000    23132500.258 8  93144954.571 8     -1871.930          51.000
E36  26796733.562 7 140817841.073 7      2396.375          46.000    26796737.156 7 107899384.581 7      1836.273          47.000
> 2020 05 04 15 04 30.0000000  0 16        .000000000000
G10  23455235.086 6 123258084.959 6      3334.832          41.000    23455242.383 6  96045299.620 6      2598.573          41.000
G18  21335308.242 8 112117857.983 8     -2233.688          51.000    21335308.523 7  87364561.065 7     -1740.533          46.000
G20  21524787.180 8 113113559.824 8      1874.785          49.000    21524787.609 7  88140471.910 7      1460.872          47.000
G21  21648231.547 7 113762222.401 7     -1957.918          47.000    21648230.641 7  88645920.202 7     -1525.650          44.000
G26  20550529.008 8 107993764.015 8     -1302.723          51.000    20550531.648 8  84150970.772 8     -1015.109          51.000
R06  22802175.047 5 121676743.819 5      -818.312          30.000
R12  21443326.031 7 114546370.104 7     -3945.371          47.000    21443331.625 7  89091617.814 7     -3068.625          46.000
R24  22973811.961 6 122851249.034 6      3054.598          36.000    22973818.711 5  95551023.225 5      2375.798          31.000
C05  39611277.430 5 206266316.084 5         5.707          34.000    39611280.766 5 159498213.612 5         3.996          35.000
C23  26354717.148 5 137235923.521 5     -3424.500          34.000
C27  23277065.242 5 121209742.645 5      1990.320          31.000
C28  21627313.625 8 112619083.664 8      -439.598          51.000
E11  22746602.523 8 119534224.871 8       725.969          49.000    22746601.227 8  91591120.529 8       556.250          51.000
E12  22674188.688 8 119153685.503 8     -1725.094          51.000    22674189.273 8  91299582.784 8     -1321.843          50.000
E24  23146446.836 8 121635377.789 8     -2449.203          51.000    23146460.641 8  93201170.047 8     -1876.710          51.000
E36  26783053.305 7 140745948.575 7      2395.234          47.000    26783056.562 8 107844298.196 8      1835.312          48.000
> 2020 05 04 15 05  0.0000000  0 16        .000000000000
G10  23436223.359 7 123158171.622 7      3326.582          46.000    23436229.180 7  95967445.177 7      2592.145          46.000
G18  21348098.766 8 112185072.199 8     -2247.062          51.000    21348099.031 7  87416935.757 7     -1750.958          46.000
G20  21514136.766 8 113057592.721 8      1856.492          48.000    21514136.797 7  88096861.187 7      1446.617          46.000
G21  21659439.383 7 113821119.702 7     -1968.184          47.000    21659438.336 7  88691814.207 7     -1533.650          43.000
G26  20558022.133 8 108033140.080 8     -1322.145          51.000    20558024.609 8  84181653.383 8     -1030.242          51.000
R06  22806855.406 5 121701698.420 5      -845.883          30.000
R12  21465525.047 7 114664963.619 7     -3960.250          43.000    21465532.492 7  89183857.198 7     -3080.194          44.000
R22  20548912.898 5 109691492.170 5     -2252.488          30.000    20548923.250 5  85315652.267 5     -1751.935          33.000
R23  20149334.266 5 107785372.669 5      1468.469          34.000
R24  22956709.258 6 122759738.357 6      3046.102          37.000    22956708.633 4  95479848.306 4      2369.190          27.000
C05  39611254.969 5 206266198.597 5         2.887          35.000    39611258.312 5 159498122.127 5         2.223          35.000
C28  21629876.023 8 112632426.732 8      -449.711          51.000
E11  22742488.008 8 119512604.549 8       715.609          49.000    22742486.820 8  91574554.317 8       548.273          51.000
E12  22684057.227 8 119205545.221 8     -1732.027          51.000    22684057.727 8  91339319.439 8     -1327.102          50.000
E24  23160462.312 8 121709029.487 8     -2460.605          51.000    23160475.398 8  93257604.432 8     -1885.447          51.000
E36  26769398.930 7 140674192.187 7      2388.730          47.000    26769401.680 7 107789316.105 7      1830.359          47.000
> 2020 05 04 15 05 30.0000000  0 16        .000000000000
G10  23417244.508 8 123058431.202 8      3323.562          48.000    23417248.938 8  95889725.468 8      2589.792          48.000
G18  21360951.828 8 112252615.578 8     -2255.172          50.000    21360951.844 7  87469566.947 7     -1757.277          45.000
G20  21503578.164 8 113002106.695 8      1843.113          49.000    21503577.586 7  88053625.356 7      1436.192          45.000
G21  21670692.047 8 113880252.209 8     -1973.316          48.000    21670690.234 7  88737891.463 7     -1537.652          43.000
G26  20565613.586 8 108073032.088 8     -1336.535          51.000    20565616.133 8  84212738.043 8     -1041.456          51.000
R06  22811674.562 5 121727406.484 5      -867.066          33.000
R12  21487795.555 7 114783934.968 7     -3970.254          45.000    21487804.492 7  89276390.445 7     -3087.978          44.000
R22  20561591.086 5 109759158.197 5     -2256.984          35.000    20561599.758 5  85368276.689 5     -1755.435          31.000
R23  20141122.328 5 107741455.708 5      1458.934          32.000
R24  22939632.258 5 122668409.987 5      3042.668          35.000
C05  39611232.773 5 206266083.242 5         5.324          35.000    39611236.242 6 159498033.510 6         4.443          36.000
C28  21632483.219 8 112646003.319 8      -454.754          51.000
E11  22738420.891 8 119491231.914 8       710.168          50.000    22738419.797 8  91558177.896 8       544.155          51.000
E12  22693952.180 8 119257543.787 8     -1733.824          51.000    22693952.297 8  91379162.474 8     -1328.563          49.000
E24  23174529.734 8 121782954.411 8     -2467.000          51.000    23174542.398 8  93314248.153 8     -1890.293          51.000
E36  26755768.297 8 140602561.073 8      2387.344          48.000    26755770.297 7 107734429.976 7      1829.326          47.000
> 2020 05 04 15 06  0.0000000  0 15        .000000000000
G10  23398301.984 8 122958882.936 8      3314.324          50.000    23398304.281 8  95812155.544 8      2582.593          49.000
G18  21373870.180 8 112320502.394 8     -2269.445          49.000    21373870.242 7  87522465.767 7     -1768.399          45.000
G20  21493114.906 8 112947120.352 8      1823.746          51.000    21493113.391 7  88010778.867 7      1421.101          44.000
G21  21681992.258 7 113939634.313 7     -1984.484          47.000    21681990.141 7  88784163.210 7     -1546.351          44.000
G26  20573305.914 8 108113455.697 8     -1357.074          51.000    20573308.828 8  84244236.928 8     -1057.460          51.000
R06  22816637.938 5 121753884.378 5      -896.566          33.000
R12  21510141.289 7 114903296.724 7     -3985.973          47.000    21510149.516 7  89369227.284 7     -3100.204          43.000
R22  20574311.758 6 109827048.084 6     -2267.707          37.000    20574312.414 4  85421079.869 4     -1763.775          26.000
R24  22922590.406 5 122577281.133 5      3033.328          34.000
C05                                                                  39611217.266 5 159497957.408 5         1.510          35.000
C28  21635138.445 8 112659829.247 8      -465.844          51.000
E11  22734404.391 8 119470123.053 8       698.309          51.000    22734403.258 8  91542003.583 8       534.984          51.000
E12  22703876.477 8 119309696.542 8     -1741.832          51.000    22703875.984 8  91419123.656 8     -1334.665          49.000
E24  23188651.930 8 121857167.657 8     -2479.402          51.000    23188664.797 8  93371112.787 8     -1899.820          51.000
E36  26742164.625 8 140531071.832 8      2379.848          48.000    26742165.797 7 107679652.559 7      1823.457          47.000
> 2020 05 04 15 06 30.0000000  0 14        .000000000000
G10  23379396.555 8 122859531.199 8      3301.359          50.000    23379396.438 8  95734738.763 8      2572.494          50.000
G18  21386853.844 8 112388731.958 8     -2287.055          49.000    21386854.156 7  87575631.661 7     -1782.121          45.000
G20  21482747.430 8 112892636.709 8      1800.742          51.000    21482745.625 7  87968324.126 7      1403.176          45.000
G21  21693339.906 8 113999266.200 8     -1998.977          48.000    21693338.086 7  88830629.622 7     -1557.644          45.000
G26  20581099.625 8 108154411.606 8     -1381.105          51.000    20581102.477 8  84276150.614 8     -1076.186          51.000
R12  21532559.781 7 115023046.382 7     -4005.180          46.000    21532566.797 7  89462365.793 7     -3115.146          42.000
R22  20587073.172 5 109895168.041 5     -2281.727          33.000
R24  22905561.141 6 122486352.727 6      3020.480          36.000
C05                                                                  39611201.898 6 159497895.871 6        -3.682          36.000
C28  21637841.664 8 112673905.593 8      -480.266          51.000
E11  22730438.289 8 119449279.006 8       683.387          51.000    22730436.977 8  91526032.177 8       523.556          51.000
E12  22713830.328 8 119362003.995 8     -1753.191          51.000    22713829.203 8  91459203.377 8     -1343.298          48.000
E24  23202829.008 8 121931669.352 8     -2495.203          51.000    23202842.672 8  93428198.452 8     -1911.888          51.000
E36  26728588.047 7 140459726.240 7      2368.895          47.000    26728588.930 8 107624985.187 8      1815.118          48.000
> 2020 05 04 15 07  0.0000000  0 15        .000000000000
G10  23360523.305 8 122760349.435 8      3300.094          51.000    23360522.477 8  95657454.391 8      2571.505          51.000
G18  21399896.820 8 112457272.770 8     -2293.074          49.000    21399896.930 7  87629040.078 7     -1786.811          44.000
G20  21472470.461 8 112838628.615 8      1789.074          51.000    21472468.609 7  87926239.944 7      1394.084          46.000
G21  21704729.133 8 114059116.846 8     -2001.863          50.000    21704727.398 7  88877266.473 7     -1559.893          44.000
G26  20588989.039 8 108195869.574 8     -1393.332          51.000    20588991.930 8  84308455.514 8     -1085.716          51.000
G27  21946471.422 5 115329482.994 5      2321.199          34.000
R12  21555043.727 7 115143149.960 7     -4012.551          44.000    21555049.781 6  89555779.559 6     -3120.876          41.000
R22  20599869.844 5 109963486.287 5     -2284.242          32.000
R24  22888586.531 6 122395597.122 6      3018.934          37.000
C05                                                                  39611184.695 5 159497825.422 5         -.124          35.000
C28  21640587.258 8 112688202.798 8      -483.344          51.000
E11  22726516.539 8 119428669.881 8       679.992          49.000    22726515.125 8  91510240.771 8       521.009          51.000
E12  22723807.898 8 119414435.763 8     -1753.012          50.000    22723806.422 8  91499378.350 8     -1343.259          48.000
E24  23217055.125 8 122006428.754 8     -2499.387          51.000    23217069.539 8  93485481.609 8     -1915.144          51.000
E36  26715033.219 7 140388495.112 7      2369.184          47.000    26715034.438 8 107570405.558 8      1815.378          49.000
> 2020 05 04 15 07 30.0000000  0 17        .000000000000
G10  23341678.875 8 122661320.219 8      3295.777          49.000    23341678.438 8  95580288.824 8      2568.138          49.000
G18  21412994.727 8 112526102.298 8     -2301.824          48.000    21412994.445 7  87682673.466 7     -1793.629          43.000
G20  21462280.281 8 112785077.682 8      1774.754          51.000    21462278.352 7  87884511.982 7      1382.925          46.000
G21  21716155.938 8 114119164.291 8     -2007.488          49.000    21716154.000 7  88924056.662 7     -1564.277          45.000
G26  20596969.859 8 108237808.454 8     -1408.625          51.000    20596972.828 8  84341135.141 8     -1097.630          51.000
G27  21933222.094 5 115259853.838 5      2315.711          33.000
R06  22832363.039 5 121837822.328 5      -971.312          32.000
R12  21577588.438 6 115263582.529 6     -4022.688          41.000    21577594.453 6  89649449.244 6     -3128.760          41.000
R22  20612699.859 5 110031980.196 5     -2288.516          31.000
R24  22871641.859 5 122304992.955 5      3015.020          33.000    22871665.648 4  95126128.099 4      2345.015          26.000
C05  39611158.445 5 206265695.748 5         2.020          35.000    39611161.641 5 159497733.428 5         1.432          35.000
C27  23208900.086 5 120854849.005 5      1953.820          30.000
C28  21643371.438 8 112702700.285 8      -489.180          51.000
E11  22722635.375 8 119408274.988 8       673.574          49.000    22722633.953 8  91494613.508 8       516.130          51.000
E12  22733805.062 8 119466970.486 8     -1755.461          50.000    22733803.586 8  91539632.196 8     -1345.081          48.000
E24  23231326.430 8 122081424.199 8     -2506.395          51.000    23231340.984 8  93542945.622 8     -1920.478          51.000
E36  26701496.203 7 140317358.315 7      2366.957          46.000    26701498.109 8 107515898.203 8      1813.741          49.000
> 2020 05 04 15 08  0.0000000  0 12        .000000000000
G10  23322879.625 7 122562531.056 7      3288.270          47.000    23322880.125 7  95503310.302 7      2562.291          47.000
G18  21426163.203 8 112595303.050 8     -2313.305          48.000    21426162.766 6  87736596.119 6     -1802.578          41.000
G20  21452193.430 8 112732070.632 8      1757.277          51.000    21452191.406 7  87843207.801 7      1369.307          46.000
G21  21727635.797 8 114179490.851 8     -2016.020          49.000    21727633.977 7  88971064.357 7     -1570.924          45.000
G26  20605058.062 8 108280312.085 8     -1426.762          51.000    20605060.930 8  84374254.825 8     -1111.762          51.000
R12  21600209.625 6 115384425.988 6     -4035.703          40.000    21600216.766 7  89743438.587 7     -3138.877          42.000
C05  39611145.625 5 206265628.977 5          .742          35.000    39611148.906 5 159497681.772 5          .773          35.000
C28  21646210.039 8 112717481.542 8      -497.926          51.000
E11  22718811.109 8 119388178.501 8       664.305          50.000    22718809.562 8  91479214.898 8       508.995          50.000
E12  22743837.594 8 119519691.855 8     -1760.914          50.000    22743836.414 7  91580029.081 7     -1349.290          47.000
E24  23245658.875 8 122156738.972 8     -2516.211          51.000    23245672.992 8  93600654.307 8     -1928.021          51.000
E36  26687992.945 7 140246400.821 7      2361.836          46.000    26687995.617 8 107461528.220 8      1809.683          48.000
> 2020 05 04 15 08 30.0000000  0 16        .000000000000
G10  23304095.789 7 122463827.103 7      3296.281          45.000    23304097.508 7  95426398.140 7      2568.531          45.000
G18  21439371.867 7 112664715.182 7     -2309.457          47.000    21439371.500 6  87790683.468 6     -1799.577          41.000
G20  21442180.234 8 112679451.613 8      1755.188          51.000    21442178.633 7  87802205.988 7      1367.679          47.000
G21  21739138.297 8 114239937.277 8     -2009.160          49.000    21739136.812 7  89018165.464 7     -1565.579          46.000
G26  20613223.844 8 108323221.810 8     -1429.258          51.000    20613226.367 8  84407690.966 8     -1113.707          51.000
G27  21906833.719 5 115121171.831 5      2316.211          35.000
R12  21622878.078 7 115505515.870 7     -4032.387          42.000    21622885.195 6  89837619.629 6     -3136.301          41.000
R22  20638477.984 5 110169576.857 5     -2288.250          32.000    20638497.570 4  85687487.736 4     -1779.750          26.000
R24  22837864.938 6 122124301.838 6      3016.355          37.000    22837867.969 4  94985598.859 4      2346.054          28.000
C05  39611113.047 5 206265459.369 5        15.039          34.000    39611116.391 5 159497550.584 5        11.738          35.000
C27  23186449.242 5 120737953.002 5      1955.922          31.000
C28  21649072.688 8 112732389.852 8      -491.352          51.000
E11  22715013.547 8 119368222.260 8       670.668          49.000    22715011.906 8  91463923.759 8       513.981          50.000
E12  22753875.273 8 119572441.193 8     -1750.941          49.000    22753874.586 8  91620447.383 8     -1341.615          48.000
E24  23260021.734 8 122232214.006 8     -2510.750          51.000    23260035.336 8  93658485.769 8     -1923.789          51.000
E36  26674493.891 7 140175465.099 7      2371.910          45.000    26674496.977 8 107407174.914 8      1817.444          49.000
> 2020 05 04 15 09  0.0000000  0 17        .000000000000
G10  23285368.078 7 122365422.166 7      3274.578          45.000    23285371.766 7  95349718.970 7      2551.619          45.000
G18  21452660.562 7 112734547.486 7     -2335.199          46.000    21452660.078 7  87845098.230 7     -1819.639          42.000
G20  21432281.242 8 112627433.831 8      1723.453          50.000    21432280.375 8  87761672.669 8      1342.954          48.000
G21  21750703.445 8 114300712.986 8     -2031.723          50.000    21750702.133 7  89065523.145 7     -1583.161          46.000
G26  20621506.750 8 108366747.760 8     -1461.637          51.000    20621509.086 8  84441607.265 8     -1138.938          51.000
G27  21893703.445 6 115052195.228 6      2293.500          37.000
R12  21645633.930 7 115627062.491 7     -4059.598          45.000    21645639.102 6  89932155.850 6     -3157.468          39.000
R22  20651432.852 6 110238741.350 6     -2311.320          37.000    20651467.953 4  85741391.962 4     -1797.691          27.000
R24  22821036.805 6 122034307.413 6      2994.918          37.000    22821033.461 4  94915583.864 4      2329.387          26.000
C05  39611100.922 5 206265395.913 5         -.305          35.000    39611104.156 6 159497501.492 6         -.097          36.000
C27  23175260.383 5 120679748.226 5      1935.262          34.000
C28  21651999.688 8 112747633.828 8      -514.230          51.000
E11  22711282.688 8 119348616.759 8       647.219          49.000    22711280.938 8  91448901.399 8       495.951          50.000
E12  22763958.211 8 119625428.423 8     -1770.781          49.000    22763958.039 7  91661047.979 7     -1356.764          47.000
E24  23274454.570 8 122308058.863 8     -2534.812          51.000    23274468.086 8  93716600.595 8     -1942.274          51.000
E25  24057672.852 6 126423928.085 6       169.266          40.000    24057676.555 6  96870290.941 6       129.688          40.000
E36  26661039.469 7 140104762.273 7      2352.406          46.000    26661043.117 8 107353000.083 8      1802.472          49.000
> 2020 05 04 15 09 30.0000000  0 15        .000000000000
G10  23266684.211 7 122267245.261 7      3267.086          47.000    23266689.352 7  95273217.526 7      2545.781          47.000
G18  21466014.812 7 112804724.073 7     -2346.566          46.000    21466014.344 6  87899781.253 6     -1828.493          41.000
G20  21422482.883 8 112575944.857 8      1705.844          51.000    21422482.516 7  87721551.411 7      1329.229          47.000
G21  21762316.844 8 114361742.302 8     -2040.109          50.000    21762315.508 7  89113078.436 7     -1589.696          46.000
G26  20629892.438 8 108410815.243 8     -1479.699          51.000    20629894.953 8  84475945.524 8     -1153.012          51.000
R12  21668460.578 7 115748986.912 7     -4072.020          46.000    21668463.344 6  90026985.824 6     -3167.129          36.000
R22  20664434.117 6 110308140.414 6     -2318.711          37.000
R24  22804248.703 5 121944531.712 5      2986.570          33.000
C05  39611095.078 5 206265366.056 5        -1.285          35.000    39611098.422 6 159497478.990 6         -.716          36.000
C28  21654977.219 8 112763139.985 8      -522.836          51.000
E11  22707604.430 8 119329287.866 8       638.020          50.000    22707602.461 8  91434090.951 8       488.854          50.000
E12  22774072.344 8 119678578.812 8     -1775.992          49.000    22774072.445 7  91701773.597 7     -1360.810          47.000
E24  23288943.039 8 122384198.382 8     -2544.383          51.000    23288956.664 8  93774941.188 8     -1949.631          51.000
E25  24056739.258 6 126419030.462 6       154.062          39.000    24056741.359 6  96866538.171 6       117.997          39.000
E36  26647615.516 7 140034218.847 7      2347.180          47.000    26647619.969 8 107298947.386 8      1798.500          50.000
> 2020 05 04 15 10  0.0000000  0 16        .000000000000
G10  23248031.164 8 122169225.714 8      3265.375          48.000    23248036.875 8  95196838.718 8      2544.451          48.000
G18  21479420.070 7 112875169.186 7     -2351.969          45.000    21479419.938 6  87954673.527 6     -1832.703          41.000
G20  21412771.773 8 112524913.351 8      1694.020          51.000    21412771.516 7  87681786.591 7      1320.015          47.000
G21  21773964.164 8 114422949.837 8     -2042.547          50.000    21773962.742 7  89160772.596 7     -1591.598          45.000
G26  20638367.320 8 108455349.746 8     -1491.633          51.000    20638369.781 8  84510647.712 8     -1162.311          51.000
R12  21691342.766 7 115871209.914 7     -4078.309          46.000    21691343.539 6  90122048.015 6     -3172.024          36.000
R22  20677464.391 5 110377698.079 5     -2320.586          34.000
R24  22787479.562 4 121854922.364 4      2985.617          29.000
C05  39611081.609 5 206265295.414 5         2.812          35.000    39611085.156 6 159497424.702 6         2.960          36.000
C27  23152994.398 4 120563717.226 4      1928.445          27.000
C28  21657991.242 8 112778835.010 8      -525.672          51.000
E11  22703964.672 8 119310161.500 8       634.719          49.000    22703962.711 8  91419435.678 8       486.379          50.000
E12  22784203.508 8 119731817.815 8     -1775.512          48.000    22784203.664 7  91742567.125 7     -1360.418          47.000
E24  23303472.969 8 122460557.609 8     -2548.258          49.000    23303486.820 8  93833450.149 8     -1952.636          51.000
E25  24055880.938 6 126414517.795 6       144.559          41.000    24055880.438 6  96863080.411 6       110.742          40.000
E36  26634207.570 7 139963761.451 7      2347.863          46.000    26634213.016 8 107244960.619 8      1798.892          49.000
> 2020 05 04 15 10 30.0000000  0 16        .000000000000
G10  23229401.008 8 122071323.028 8      3258.246          49.000    23229406.422 8  95120550.991 8      2538.893          49.000
G18  21492867.570 7 112945837.284 7     -2362.344          44.000    21492867.766 6  88009739.589 6     -1840.787          41.000
G20  21403139.781 8 112474297.922 8      1677.273          50.000    21403139.711 8  87642345.997 8      1306.969          48.000
G21  21785636.836 8 114484290.491 8     -2049.922          50.000    21785635.602 7  89208570.500 7     -1597.342          46.000
G26  20646922.539 8 108500306.950 8     -1508.730          51.000    20646924.875 8  84545679.287 8     -1175.634          51.000
G27  21854541.867 5 114846395.112 5      2277.762          30.000
R12  21714271.531 7 115993683.766 7     -4089.785          47.000    21714272.477 6  90217305.331 6     -3180.950          39.000
R22  20690515.531 5 110447368.324 5     -2327.031          33.000
R24  22770738.984 5 121765362.344 5      2979.938          34.000
C05  39611052.273 5 206265142.934 5         3.176          34.000
C28  21661033.445 8 112794675.500 8      -533.531          51.000
E11  22700355.188 8 119291193.791 8       626.633          49.000    22700353.484 8  91404901.988 8       480.198          50.000
E12  22794343.133 8 119785101.111 8     -1779.906          48.000    22794343.172 7  91783394.576 7     -1363.863          47.000
E24  23318036.000 8 122537091.778 8     -2557.082          48.000    23318050.484 8  93892093.173 8     -1959.320          51.000
E25  24055087.430 6 126410347.142 6       130.195          39.000    24055087.742 6  96859884.702 6        99.988          41.000
E36  26620807.664 7 139893346.931 7      2343.418          45.000    26620814.078 8 107191006.680 8      1795.555          49.000
> 2020 05 04 15 11  0.0000000  0 17        .000000000000
G10  23210834.922 8 121973754.660 8      3251.266          51.000    23210839.930 8  95044523.765 8      2533.457          51.000
G16  20538826.242 6 107932260.455 6       729.324          38.000    20538824.008 5  84103028.338 5       568.308          33.000
G18  21506398.062 7 113016940.911 7     -2372.797          46.000    21506398.109 6  88065145.001 6     -1848.933          39.000
G20  21393628.156 8 112424314.804 8      1660.094          50.000    21393628.219 7  87603398.131 7      1293.583          47.000
G21  21797375.453 8 114545977.128 8     -2057.348          50.000    21797374.312 7  89256637.997 7     -1603.128          45.000
G26  20655598.266 8 108545900.533 8     -1525.895          51.000    20655600.859 8  84581206.742 8     -1189.009          51.000
R12  21737286.695 7 116116621.978 7     -4101.008          45.000    21737288.125 6  90312923.845 6     -3189.676          40.000
R22  20703628.727 5 110517367.889 5     -2333.824          33.000
R24  22754059.570 6 121676150.715 6      2972.645          37.000
C05  39611047.938 5 206265120.811 5         3.188          35.000    39611051.445 6 159497289.524 6         2.501          36.000
C27  23130857.688 5 120448430.409 5      1915.715          32.000
C28  21664144.461 8 112810873.709 8      -541.398          51.000
E11  22696816.852 8 119272598.981 8       618.074          49.000    22696815.289 8  91390654.027 8       473.589          50.000
E12  22804531.703 7 119838642.363 7     -1784.656          47.000    22804531.469 7  91824419.669 7     -1367.401          46.000
E24  23332673.219 8 122614014.092 8     -2565.984          48.000    23332688.414 8  93951033.651 8     -1966.186          51.000
E25  24054399.047 6 126406733.668 6       115.699          40.000    24054400.633 6  96857115.931 6        88.683          40.000
E36  26607456.867 7 139823190.124 7      2338.793          45.000    26607464.258 8 107137250.211 8      1792.032          50.000
> 2020 05 04 15 11 30.0000000  0 17        .000000000000
G10  23192294.445 8 121876319.793 8      3243.223          51.000    23192299.062 8  94968600.570 8      2527.190          51.000
G16  20534713.609 6 107910645.306 6       710.324          38.000    20534711.297 5  84086185.375 5       553.505          35.000
G18  21519972.359 7 113088274.235 7     -2383.820          45.000    21519972.195 6  88120729.364 6     -1857.525          39.000
G20  21384198.617 8 112374762.229 8      1642.258          51.000    21384198.500 7  87564785.758 7      1279.681          47.000
G21  21809140.836 8 114607804.557 8     -2065.672          50.000    21809139.555 7  89304815.197 7     -1609.614          44.000
G26  20664356.117 8 108591925.814 8     -1543.613          51.000    20664359.008 8  84617070.590 8     -1202.816          51.000
R12  21760347.969 6 116239813.519 6     -4112.766          40.000    21760350.586 6  90408739.434 6     -3198.818          41.000
R22  20716763.922 5 110587488.199 5     -2342.090          34.000
R24  22737398.039 6 121587051.477 6      2965.703          36.000
C05  39611029.727 5 206265025.753 5         2.215          35.000    39611033.305 6 159497216.033 6         1.661          36.000
C27  23119835.062 4 120391047.346 4      1909.238          29.000
C28  21667285.297 8 112827227.440 8      -550.039          51.000
E11  22693310.625 8 119254172.925 8       609.012          49.000    22693309.086 8  91376535.359 8       466.675          50.000
E12  22814730.266 7 119892236.864 7     -1789.656          47.000    22814729.766 7  91865485.569 7     -1371.274          45.000
E24  23347345.773 8 122691119.513 8     -2575.473          49.000    23347361.477 8  94010114.428 8     -1973.372          51.000
E25  24053777.938 6 126403474.056 6       100.340          38.000    24053779.625 6  96854618.327 6        77.105          41.000
E36  26594116.352 7 139753087.523 7      2333.457          45.000    26594124.539 8 107083535.283 8      1788.001          50.000
> 2020 05 04 15 12  0.0000000  0 18        .000000000000
G10  23173797.820 8 121779115.431 8      3241.391          51.000    23173801.992 8  94892856.964 8      2525.759          51.000
G16  20530707.406 6 107889590.652 6       697.574          38.000    20530704.000 5  84069779.079 5       543.558          35.000
G18  21533607.906 7 113159929.231 7     -2388.719          45.000    21533607.852 6  88176564.405 6     -1861.339          38.000
G20  21374869.375 8 112325736.322 8      1630.480          51.000    21374869.312 7  87526583.771 7      1270.504          47.000
G21  21820950.516 8 114669864.738 8     -2067.484          50.000    21820949.062 7  89353173.751 7     -1611.030          44.000
G26  20673214.062 8 108638475.993 8     -1555.332          51.000    20673217.008 8  84653343.455 8     -1211.947          51.000
R12  21783469.523 6 116363349.793 6     -4118.629          36.000    21783477.375 6  90504823.267 6     -3203.375          41.000
R22  20729939.156 5 110657823.267 5     -2342.766          33.000
R23  20040481.039 5 107203046.447 5      1308.340          34.000
R24  22720775.234 5 121498160.953 5      2964.562          34.000    22720777.578 4  94498605.891 4      2305.771          25.000
C05  39611015.531 5 206264951.521 5         7.039          34.000    39611019.336 6 159497159.952 6         5.621          36.000
C27  23108864.570 5 120333945.045 5      1909.504          32.000
C28  21670473.680 8 112843829.560 8      -552.520          51.000
E11  22689854.070 8 119236009.270 8       606.273          48.000    22689852.938 8  91362617.753 8       464.550          49.000
E12  22824956.727 7 119945977.881 7     -1788.789          46.000    22824956.062 7  91906663.734 7     -1370.613          45.000
E24  23362071.195 8 122768500.791 8     -2578.945          50.000    23362087.047 8  94069406.572 8     -1976.078          51.000
E25  24053242.195 6 126400663.045 6        91.543          38.000    24053244.773 6  96852464.408 6        69.862          41.000
E36  26580804.320 7 139683133.491 7      2334.316          45.000    26580812.602 8 107029934.205 8      1788.716          50.000
> 2020 05 04 15 12 30.0000000  0 19        .000000000000
G10  23155331.938 8 121682073.480 8      3229.742          51.000    23155335.789 8  94817239.915 8      2516.685          51.000
G16  20526794.359 6 107869026.672 6       674.941          37.000    20526792.180 6  84053755.244 6       525.925          37.000
G18  21547290.656 7 113231832.808 7     -2403.055          46.000    21547291.273 6  88232593.151 6     -1872.510          39.000
G20  21365627.156 8 112277167.755 8      1609.070          51.000    21365627.406 8  87488738.161 8      1253.821          48.000
G21  21832790.656 8 114732085.471 8     -2078.887          50.000    21832789.117 7  89401657.431 7     -1619.912          44.000
G26  20682158.273 8 108685479.099 8     -1576.598          51.000    20682161.172 8  84689969.241 8     -1228.521          51.000
R06  22893890.266 5 122166123.294 5     -1217.590          32.000
R12  21806644.039 6 116487154.616 6     -4132.973          37.000    21806654.977 6  90601115.899 6     -3214.537          41.000
R22  20743142.039 5 110728299.961 5     -2354.238          32.000
R23  20033196.898 5 107164064.827 5      1291.562          34.000
R24  22704180.047 5 121409407.069 5      2953.781          32.000    22704175.484 4  94429557.598 4      2297.391          26.000
C05  39610991.906 5 206264828.675 5         2.859          35.000    39610995.859 5 159497065.954 5         2.438          35.000
C27  23097892.727 5 120276847.624 5      1899.430          32.000
C28  21673695.961 8 112860609.351 8      -564.512          51.000
E11  22686433.773 8 119218036.666 8       593.867          48.000    22686433.172 8  91348846.557 8       454.930          49.000
E12  22835197.609 7 119999793.471 7     -1797.156          45.000    22835197.008 7  91947899.048 7     -1377.102          44.000
E24  23376835.375 8 122846085.529 8     -2591.684          50.000    23376851.078 8  94128854.606 8     -1985.856          51.000
E25  24052779.305 7 126398229.933 7        72.484          42.000    24052782.727 6  96850600.070 6        55.627          41.000
E36  26567507.352 7 139613257.279 7      2325.707          46.000    26567515.156 8 106976392.763 8      1782.068          49.000
> 2020 05 04 15 13  0.0000000  0 19        .000000000000
G10  23136917.719 8 121585304.288 8      3222.535          51.000    23136921.367 8  94741835.408 8      2511.069          51.000
G16  20522994.500 6 107849061.938 6       657.387          36.000    20522992.914 5  84038198.280 5       512.249          35.000
G18  21561040.828 7 113304090.362 7     -2413.047          45.000    21561041.742 6  88288897.720 6     -1880.299          37.000
G20  21356492.578 8 112229165.960 8      1592.070          51.000    21356493.125 7  87451334.190 7      1240.574          47.000
G21  21844681.438 8 114794572.141 8     -2085.852          51.000    21844679.805 7  89450348.331 7     -1625.339          43.000
G26  20691209.062 8 108733041.622 8     -1593.312          51.000    20691212.008 8  84727030.916 8     -1241.542          51.000
R06  22900810.852 5 122203042.280 5     -1242.195          32.000
R12  21829891.383 6 116611333.218 6     -4144.148          41.000    21829903.016 6  90697699.155 6     -3223.230          39.000
R22  20756391.617 5 110799025.378 5     -2360.156          34.000
R23  20025986.945 5 107125543.920 5      1281.031          31.000
R24  22687631.188 5 121320900.121 5      2947.375          33.000
C05  39610979.164 5 206264763.424 5         2.500          35.000    39610983.281 5 159497015.478 5         2.072          35.000
C27  23086971.141 5 120219975.734 5      1893.469          30.000
C28  21676972.758 8 112877672.993 8      -572.098          51.000
E11  22683070.508 8 119200362.155 8       585.469          49.000    22683070.023 8  91335303.722 8       448.693          49.000
E12  22845473.148 7 120053790.233 7     -1801.445          45.000    22845472.875 7  91989273.163 7     -1380.226          44.000
E24  23391658.367 8 122923979.819 8     -2600.156          50.000    23391673.727 8  94188539.814 8     -1992.301          51.000
E25  24052409.195 7 126396282.729 7        58.324          44.000    24052412.773 6  96849108.049 6        44.663          41.000
E36  26554245.930 7 139543566.631 7      2321.434          47.000    26554252.984 8 106922993.478 8      1778.782          49.000
> 2020 05 04 15 13 30.0000000  0 17        .000000000000
G10  23118546.844 8 121488763.729 8      3212.926          51.000    23118550.008 8  94666609.056 8      2503.582          51.000
G16  20519299.625 6 107829650.717 6       637.020          37.000    20519299.430 5  84023072.658 5       496.388          34.000
G18  21574848.914 7 113376652.733 7     -2425.074          45.000    21574849.633 6  88345439.811 6     -1889.665          37.000
G20  21347457.367 8 112181685.683 8      1572.883          51.000    21347458.117 7  87414336.574 7      1225.623          47.000
G21  21856613.711 8 114857276.538 8     -2094.957          51.000    21856612.047 7  89499208.870 7     -1632.437          43.000
G26  20700357.352 8 108781115.469 8     -1612.078          51.000    20700360.375 8  84764491.036 8     -1256.165          51.000
R12  21853199.867 7 116735833.654 7     -4156.547          42.000    21853210.477 6  90794532.766 6     -3232.870          36.000
R22  20769678.695 5 110869950.621 5     -2368.906          35.000
R24  22671106.180 5 121232611.629 5      2938.762          33.000    22671119.242 4  94292070.594 4      2285.704          28.000
C05  39610968.828 5 206264708.072 5          .625          35.000    39610972.555 6 159496973.427 6          .432          36.000
C27  23076079.656 5 120163201.341 5      1885.520          30.000
C28  21680295.250 8 112894973.476 8      -581.750          51.000
E11  22679754.977 8 119182938.215 8       575.609          49.000    22679754.492 8  91321952.907 8       441.060          49.000
E12  22855773.938 7 120107920.182 7     -1807.750          45.000    22855774.125 7  92030749.342 7     -1385.195          44.000
E24  23406531.086 8 123002135.244 8     -2610.652          51.000    23406546.156 8  94248425.104 8     -2000.400          51.000
E25  24052122.500 7 126394774.865 7        41.941          44.000    24052125.234 6  96847952.662 6        31.924          40.000
E36  26541010.891 8 139474014.684 8      2314.879          48.000    26541017.062 8 106869700.485 8      1773.774          49.000
> 2020 05 04 15 14  0.0000000  0 18        .000000000000
G10  23100212.688 8 121392416.559 8      3208.547          51.000    23100215.453 8  94591533.413 8      2500.169          51.000
G16  20515703.977 5 107810756.047 5       621.668          35.000    20515703.102 5  84008349.550 5       484.420          34.000
G18  21588707.523 7 113449479.778 7     -2431.848          46.000    21588707.750 6  88402188.116 6     -1894.946          36.000
G20  21338514.383 8 112134690.639 8      1558.809          51.000    21338515.297 7  87377717.063 7      1214.656          47.000
G21  21868579.797 8 114920158.533 8     -2098.691          50.000    21868578.258 7  89548207.809 7     -1635.344          44.000
G26  20709595.445 8 108829661.571 8     -1625.840          51.000    20709598.734 8  84802319.138 8     -1266.888          51.000
R06  22915055.766 5 122279048.237 5     -1290.746          33.000
R12  21876560.367 6 116860613.014 6     -4163.871          36.000    21876569.336 5  90891583.313 5     -3238.569          33.000
R22  20782995.352 4 110941035.581 4     -2371.848          29.000
R24  22654627.961 5 121144464.145 5      2936.469          33.000    22654643.219 4  94223511.204 4      2283.917          27.000
C05  39610953.148 5 206264626.884 5         3.648          34.000    39610956.930 6 159496908.654 6         2.628          36.000
C27  23065221.562 5 120106649.111 5      1882.203          33.000
C28  21683656.031 8 112912472.713 8      -586.336          51.000
E11  22676479.555 8 119165726.350 8       570.609          48.000    22676479.180 8  91308764.618 8       437.187          49.000
E12  22866092.562 7 120162144.307 7     -1808.793          44.000    22866093.000 7  92072297.672 7     -1385.889          43.000
E24  23421446.125 8 123080512.317 8     -2615.816          51.000    23421460.812 8  94308480.215 8     -2004.372          51.000
E25  24051912.086 7 126393668.688 7        30.426          44.000    24051913.227 6  96847105.031 6        23.409          39.000
E36  26527795.016 8 139404563.566 8      2313.637          48.000    26527800.273 8 106816484.780 8      1772.712          49.000
> 2020 05 04 15 14 30.0000000  0 17        .000000000000
G10  23081924.844 8 121296313.443 8      3200.434          51.000    23081927.805 8  94516647.958 8      2493.847          51.000
G16  20512216.008 6 107792426.814 6       602.695          38.000    20512214.695 6  83994066.985 6       469.633          37.000
G18  21602625.266 7 113522617.117 7     -2442.055          45.000    21602625.047 6  88459178.230 6     -1902.900          37.000
G20  21329673.086 8 112088230.627 8      1540.723          50.000    21329673.961 7  87341514.450 7      1200.563          45.000
G21  21880588.406 8 114983264.127 8     -2106.145          50.000    21880586.930 7  89597380.985 7     -1641.152          44.000
G26  20718932.430 8 108878726.629 8     -1643.078          51.000    20718935.961 8  84840551.626 8     -1280.324          51.000
R06  22922388.992 5 122318168.287 5     -1315.621          30.000
R22  20796350.141 4 111012308.921 4     -2378.336          28.000    20796360.266 4  86342950.825 4     -1849.817          28.000
R24  22638185.484 6 121056527.087 6      2928.438          37.000
C05  39610941.539 5 206264566.354 5         2.277          34.000    39610945.344 6 159496861.807 6         2.123          36.000
C27  23054399.289 5 120050285.410 5      1876.582          35.000
C28  21687064.000 8 112930217.690 8      -594.562          51.000
E11  22673253.711 8 119148773.957 8       561.645          49.000    22673252.820 8  91295775.132 8       430.375          48.000
E12  22876437.812 7 120216509.532 7     -1813.457          43.000    22876438.125 7  92113954.126 7     -1389.487          42.000
E24  23436412.273 8 123159157.410 8     -2624.875          51.000    23436426.406 8  94368740.690 8     -2011.319          51.000
E25  24051787.469 7 126393012.350 7        15.402          45.000    24051787.227 6  96846602.091 6        11.814          39.000
