     3.02           OBSERVATION DATA    M (MIXED)           RINEX VERSION / TYPE
SAVERINEX           SC600               20200502 065931 LCL PGM / RUN BY / DATE
       G = GPS       R = GLONASS       C = COMPASS          COMMENT
       S = SBAS      J = QZSS          E = GALILEO          COMMENT
BEAN                                                        MARKER NAME
1                                                           MARKER NUMBER
GEODETIC                                                    MARKER TYPE
Unige DICCA         GTER                                    OBSERVER / AGENCY
SC60291900056       SC600               2.12(191226)        REC # / TYPE / VERS
                    HEMA45          NONE                    ANT # / TYPE
  4509407.8091   693652.4678  4442337.6214                  APPROX POSITION XYZ
        0.0000        0.0000        0.0000                  ANTENNA: DELTA H/E/N
G    8 C1C L1C D1C S1C C2Y L2Y D2Y S2Y                      SYS / # / OBS TYPES
R    8 C1C L1C D1C S1C C2P L2P D2P S2P                      SYS / # / OBS TYPES
C    8 C1I L1I D1I S1I C7I L7I D7I S7I                      SYS / # / OBS TYPES
E    8 C1C L1C D1C S1C C7Q L7Q D7Q S7Q                      SYS / # / OBS TYPES
DBHZ                                                        COMMENT
     30.000                                                 INTERVAL
  2020    05    02    04    00    0.0000000     GPS         TIME OF FIRST OBS
  2020    05    02    04    59   30.0000000     GPS         TIME OF LAST OBS
     0                                                      RCV CLOCK OFFS APPL
G L1C  0.00000                                              SYS / PHASE SHIFT
G L2Y  0.00000                                              SYS / PHASE SHIFT
R L1C  0.00000                                              SYS / PHASE SHIFT
R L2P  0.25000                                              SYS / PHASE SHIFT
C L1I  0.00000                                              SYS / PHASE SHIFT
C L7I  0.00000                                              SYS / PHASE SHIFT
E L1C  0.50000                                              SYS / PHASE SHIFT
E L7Q -0.25000                                              SYS / PHASE SHIFT
 12 R01  1 R02 -4 R03  5 R08  6 R10 -5 R11  0 R12 -1 R13 -2 GLONASS SLOT / FRQ #
    R14 -7 R17  4 R18 -3 R23  3                             GLONASS SLOT / FRQ #
 C1C   71.950 C2C   71.950 C2P   71.950                     GLONASS COD/PHS/BIS
    18                                                      LEAP SECONDS
*** Above antenna height is from mark to ANTENNA BOTTOM.    COMMENT
    17     4        0.0000        ANT MEASURE TYPE/HEIGT    COMMENT
    0.0000    0.0000    0.0458    0.0405    0.0000          COMMENT
                    BASE STATION                            COMMENT
                                                            END OF HEADER
> 2020 05 02 04 00  0.0000000  0 17        .000000000000
G05  20671445.977 8 108629206.367 8      -874.316          50.000    20671445.641 8  84646102.869 8      -681.289          50.000
G28  21769402.930 8 114398978.200 8      2275.004          50.000    21769402.984 7  89142065.964 7      1772.727          45.000
G30  20566478.500 8 108077581.558 8     -1016.246          51.000    20566479.000 8  84216316.351 8      -791.880          51.000
R02  21046002.000 8 112305488.214 8     -2996.668          51.000    21046004.750 8  87348705.126 8     -2330.739          48.000
R03  19224234.180 8 102908867.723 8       520.324          50.000    19224235.578 8  80040225.343 8       404.697          48.000
R13  19162362.695 6 102325970.685 6       341.910          40.000    19162366.352 7  79586847.129 7       265.930          45.000
R14  21682543.844 6 115580187.609 6      3782.480          40.000    21682547.844 5  89895722.736 5      2941.929          35.000
C05  39781547.664 5 207152957.782 5         2.430          35.000    39781547.094 6 160183801.284 6         1.988          41.000
C14  24904859.945 7 129686112.443 7     -3102.719          42.000    24904860.062 8 100281521.119 8     -2399.355          51.000
C23  24977299.586 6 130063275.210 6      3036.750          38.000
C24  23431309.531 6 122012984.808 6     -2237.262          38.000
C25  21872536.141 8 113896098.593 8       867.191          51.000
E02  24715677.336 7 129881749.542 7      2437.953          47.000    24715681.531 8  99519856.422 8      1868.036          51.000
E03  23604355.977 8 124041716.233 8      -757.488          51.000    23604358.352 8  95044975.604 8      -580.431          51.000
E05  27081717.820 6 142315407.338 6     -2438.996          38.000
E24  25409322.133 6 133526877.786 6     -2604.770          39.000    25409333.281 6 102312857.096 6     -1995.794          39.000
E25  24014580.367 8 126197519.881 8      -281.055          51.000    24014583.094 8  96696856.402 8      -215.321          51.000
> 2020 05 02 04 00 30.0000000  0 18        .000000000000
G05  20676492.312 8 108655725.119 8      -892.188          50.000    20676491.828 8  84666766.823 8      -695.211          50.000
G28  21756455.203 8 114330937.787 8      2262.539          50.000    21756455.297 7  89089047.426 7      1763.017          44.000
G30  20572316.633 8 108108260.871 8     -1027.555          51.000    20572317.164 8  84240222.297 8      -800.692          51.000
R02  21062888.359 8 112395596.928 8     -3009.152          51.000    21062891.109 8  87418789.673 8     -2340.455          48.000
R03  19221372.922 8 102893551.040 8       502.176          50.000    19221374.211 8  80028312.375 8       390.581          48.000
R12  21368889.180 5 114148756.619 5     -3474.109          33.000    21368891.289 4  88782381.197 4     -2702.082          26.000
R13  19160510.625 6 102316081.955 6       318.738          41.000    19160514.258 7  79579155.907 7       247.911          45.000
R14  21661286.562 5 115466893.224 5      3771.355          34.000    21661292.047 6  89807604.867 6      2933.273          36.000
C05  39781533.148 5 207152882.104 5         3.570          35.000    39781532.625 6 160183742.753 6         3.208          41.000
C14  24922749.570 6 129779274.247 6     -3106.691          40.000    24922751.266 8 100353559.728 8     -2402.161          49.000
C23  24959819.469 6 129972258.919 6      3032.039          36.000
C24  23444220.938 6 122080219.641 6     -2244.652          37.000
C25  21867579.719 8 113870291.256 8       854.812          51.000
E02  24701784.375 8 129808746.479 8      2430.211          49.000    24701789.328 8  99463918.957 8      1862.092          51.000
E03  23608703.953 8 124064563.844 8      -764.344          51.000    23608706.172 8  95062482.194 8      -585.600          51.000
E05  27095654.164 6 142388642.464 6     -2441.922          38.000
E24  25424210.719 6 133605117.910 6     -2609.461          39.000    25424221.781 6 102372807.279 6     -1999.720          39.000
E25  24016223.727 8 126206155.913 8      -293.473          51.000    24016226.547 8  96703473.627 8      -224.833          51.000
> 2020 05 02 04 01  0.0000000  0 18        .000000000000
G05  20681649.703 8 108682827.456 8      -913.930          50.000    20681649.148 8  84687885.521 8      -712.153          50.000
G28  21743588.898 8 114263324.763 8      2245.797          50.000    21743588.203 7  89036361.907 7      1749.972          42.000
G30  20578228.766 8 108139329.241 8     -1042.867          51.000    20578228.906 8  84264431.402 8      -812.624          51.000
R02  21079853.594 8 112486127.305 8     -3025.469          51.000    21079856.492 8  87489202.180 8     -2353.142          48.000
R03  19218622.805 8 102878830.014 8       479.996          49.000    19218624.477 8  80016862.684 8       373.330          48.000
R12  21388435.344 5 114253183.464 5     -3488.023          31.000    21388440.047 4  88863602.202 4     -2712.901          26.000
R13  19158797.867 6 102306937.001 6       291.805          40.000    19158801.414 7  79572043.175 7       226.959          44.000
R14  21640099.578 6 115353970.055 6      3757.160          37.000    21640105.844 6  89719775.715 6      2922.239          39.000
C05  39781519.086 5 207152809.001 5         1.410          35.000    39781518.633 6 160183686.219 6          .988          41.000
C14  24940670.633 6 129872599.148 6     -3114.371          41.000    24940672.859 7 100425724.437 7     -2408.193          46.000
C23  24942374.805 5 129881427.321 5      3022.914          32.000
C24  23457184.250 6 122147722.032 6     -2255.797          36.000
C25  21862704.555 8 113844904.845 8       838.418          51.000
E02  24687946.805 8 129736028.846 8      2418.316          50.000    24687951.188 8  99408200.225 8      1852.969          51.000
E03  23613100.758 8 124087668.585 8      -775.211          51.000    23613102.656 8  95080185.789 8      -594.029          51.000
E05  27109614.141 5 142462002.013 5     -2448.156          35.000    27109626.938 5 109159238.210 5     -1875.680          30.000
E24  25439135.578 6 133683549.504 6     -2618.383          39.000    25439146.750 6 102432904.127 6     -2006.165          39.000
E25  24017947.805 8 126215215.776 8      -309.875          51.000    24017950.586 8  96710415.600 8      -237.425          51.000
> 2020 05 02 04 01 30.0000000  0 16        .000000000000
G05  20686923.680 8 108710541.941 8      -932.012          50.000    20686923.211 8  84709481.214 8      -726.243          51.000
G28  21730810.211 8 114196170.734 8      2232.906          50.000    21730807.844 6  88984034.096 6      1739.927          41.000
G30  20584220.250 8 108170814.853 8     -1054.273          51.000    20584220.281 8  84288965.633 8      -821.512          51.000
R02  21096903.039 8 112577107.751 8     -3037.969          51.000    21096906.078 8  87559964.756 8     -2362.865          48.000
R03  19215989.812 8 102864736.640 8       461.375          48.000    19215991.406 7  80005901.155 7       358.847          47.000
R13  19157229.953 6 102298565.622 6       268.355          40.000    19157233.320 7  79565532.106 7       208.721          45.000
R14  21618992.023 7 115241450.634 7      3745.992          43.000    21618996.812 7  89632260.633 7      2913.549          42.000
C05  39781511.219 5 207152767.778 5         2.711          35.000    39781510.742 6 160183654.288 6         2.253          41.000
C14  24958629.523 7 129966115.173 7     -3118.289          43.000    24958629.125 7 100498036.905 7     -2411.241          42.000
C24  23470204.328 6 122215519.483 6     -2262.945          38.000
C25  21857916.227 8 113819968.643 8       825.762          51.000
E02  24674169.938 8 129663627.474 8      2410.195          51.000    24674172.891 8  99352723.855 8      1846.767          51.000
E03  23617552.180 8 124111060.303 8      -782.438          51.000    23617553.594 8  95098109.278 8      -599.551          51.000
E05  27123603.094 5 142535496.152 5     -2451.242          31.000    27123606.344 5 109215559.594 5     -1878.045          33.000
E24  25454102.031 6 133762200.330 6     -2623.125          38.000    25454113.578 6 102493169.007 6     -2009.969          38.000
E25  24019758.312 8 126224728.381 8      -322.445          51.000    24019760.656 8  96717704.469 8      -247.077          51.000
> 2020 05 02 04 02  0.0000000  0 17        .000000000000
G05  20692296.688 8 108738776.241 8      -950.918          50.000    20692296.312 8  84731481.963 8      -740.975          50.000
G13  21301666.570 5 111941012.730 5      2018.719          31.000
G28  21718101.914 8 114129386.328 8      2218.738          50.000    21718097.398 6  88931994.323 6      1728.890          41.000
G30  20590273.398 8 108202624.558 8     -1066.941          51.000    20590273.789 8  84313752.426 8      -831.383          51.000
R02  21114018.750 8 112668444.006 8     -3051.617          49.000    21114022.047 7  87631004.012 7     -2373.483          45.000
R03  19213457.609 8 102851179.308 8       441.730          49.000    19213458.297 7  79995356.589 7       343.571          46.000
R13  19155789.266 6 102290873.354 6       243.840          40.000    19155792.664 7  79559549.231 7       189.650          45.000
R14  21597944.094 7 115129244.793 7      3733.762          47.000    21597948.219 7  89544989.408 7      2904.037          44.000
C05  39781491.945 5 207152667.319 5         3.387          35.000    39781491.461 6 160183576.619 6         2.374          41.000
C14  24976607.781 7 130059729.969 7     -3123.320          44.000    24976604.039 7 100570425.703 7     -2415.089          43.000
C23  24907593.219 5 129700386.350 5      3013.566          33.000
C24  23483263.289 6 122283519.132 6     -2271.227          40.000
C25  21853196.773 8 113795391.531 8       812.035          51.000
E02  24660435.961 8 129591451.792 8      2401.043          51.000    24660437.641 8  99297420.434 8      1839.757          51.000
E03  23622040.883 8 124134647.461 8      -790.621          51.000    23622041.773 8  95116182.529 8      -605.747          51.000
E24  25469092.297 6 133840976.899 6     -2629.188          37.000    25469104.391 6 102553530.221 6     -2014.647          38.000
E25  24021637.234 8 126234601.223 8      -336.234          51.000    24021639.219 8  96725269.380 8      -257.616          51.000
> 2020 05 02 04 02 30.0000000  0 16        .000000000000
G05  20697779.727 8 108767588.397 8      -970.871          51.000    20697779.156 8  84753933.006 8      -756.523          50.000
G28  21705475.375 8 114063032.207 8      2203.801          51.000    21705470.555 7  88880289.813 7      1717.247          43.000
G30  20596399.094 8 108234815.853 8     -1080.176          51.000    20596399.719 8  84338836.548 8      -841.695          51.000
R02  21131212.336 8 112760193.872 8     -3066.047          51.000    21131214.977 7  87702364.958 7     -2384.703          44.000
R03  19211036.172 8 102838219.785 8       421.195          48.000    19211037.250 7  79985276.952 7       327.596          46.000
R13  19154486.992 6 102283919.868 6       218.578          40.000    19154490.156 7  79554140.958 7       170.002          44.000
R14  21576966.945 8 115017414.780 8      3720.590          49.000    21576970.562 7  89458010.511 7      2893.792          46.000
C05  39781472.500 5 207152566.152 5         2.270          35.000    39781472.070 6 160183498.332 6         2.057          41.000
C14  24994615.719 7 130153500.568 7     -3129.148          42.000    24994611.461 7 100642934.992 7     -2419.599          44.000
C23  24890254.062 6 129610079.594 6      3006.051          37.000
C24  23496371.906 6 122351777.557 6     -2280.391          41.000
C25  21848557.398 8 113771231.743 8       797.551          51.000
E02  24646756.016 8 129519561.937 8      2390.746          51.000    24646756.906 8  99242336.031 8      1831.876          51.000
E03  23626577.906 8 124158489.292 8      -799.727          51.000    23626578.617 8  95134450.931 8      -612.783          51.000
E24  25484117.359 6 133919936.308 6     -2635.801          36.000    25484130.086 6 102614031.522 6     -2019.493          38.000
E25  24023595.727 8 126244892.501 8      -350.883          51.000    24023597.516 8  96733154.903 8      -268.807          51.000
> 2020 05 02 04 03  0.0000000  0 17        .000000000000
G05  20703376.445 8 108796998.675 8      -989.898          51.000    20703375.836 8  84776850.089 8      -771.349          50.000
G28  21692935.031 8 113997131.783 8      2189.488          51.000    21692931.469 7  88828938.820 7      1706.095          45.000
G30  20602600.961 8 108267408.273 8     -1092.719          51.000    20602601.766 8  84364233.243 8      -851.469          51.000
R02  21148488.102 8 112852377.340 8     -3079.723          51.000    21148489.562 7  87774063.175 7     -2395.340          45.000
R03  19208731.219 8 102825880.989 8       401.285          49.000    19208732.203 7  79975680.093 7       312.111          46.000
R13  19153326.883 6 102277725.566 6       194.105          39.000    19153330.148 7  79549323.160 7       150.971          45.000
R14  21556064.641 8 114905984.663 8      3708.082          49.000    21556067.461 7  89371342.653 7      2884.064          46.000
C05  39781456.773 5 207152484.814 5         2.863          35.000    39781456.492 6 160183435.423 6         2.021          41.000
C14  25012657.000 6 130247446.402 6     -3133.809          41.000    25012653.625 7 100715579.854 7     -2423.444          45.000
C23  24872950.961 6 129519980.082 6      3000.312          40.000
C24  23509533.633 6 122420313.610 6     -2288.777          41.000
C25  21844002.445 8 113747509.897 8       783.762          51.000
E02  24633134.562 8 129447980.107 8      2381.266          51.000    24633135.109 8  99187487.631 8      1824.588          51.000
E03  23631167.258 8 124182607.006 8      -808.199          51.000    23631168.070 8  95152930.710 8      -619.246          51.000
E05  27165686.258 6 142756633.692 6     -2463.090          36.000
E24  25499180.969 6 133999097.721 6     -2641.625          36.000    25499194.234 6 102674687.629 6     -2024.096          37.000
E25  24025637.727 8 126255622.470 8      -364.609          51.000    24025639.461 8  96741376.570 8      -279.361          51.000
> 2020 05 02 04 03 30.0000000  0 17        .000000000000
G05  20709084.031 8 108826991.662 8     -1009.238          51.000    20709083.289 8  84800221.214 8      -786.419          51.000
G28  21680478.766 8 113931672.973 8      2174.836          51.000    21680476.438 7  88777931.942 7      1694.680          45.000
G30  20608876.336 8 108300386.238 8     -1105.461          51.000    20608877.195 8  84389930.345 8      -861.398          51.000
R02  21165842.211 8 112944978.321 8     -3093.262          50.000    21165843.055 7  87846086.125 7     -2405.873          47.000
R03  19206540.086 8 102814150.325 8       381.152          49.000    19206540.516 7  79966556.255 7       296.449          45.000
R13  19152305.906 6 102272273.987 6       169.574          40.000    19152309.406 7  79545083.062 7       131.891          45.000
R14  21535234.352 8 114794942.568 8      3695.254          48.000    21535236.273 7  89284976.591 7      2874.086          45.000
C05  39781442.312 5 207152409.318 5         2.691          35.000    39781442.031 6 160183377.033 6         1.991          41.000
C14  25030728.992 7 130341552.076 7     -3139.273          42.000    25030726.453 7 100788348.282 7     -2427.425          45.000
C23  24855684.695 6 129430074.395 6      2993.996          39.000
C24  23522745.484 6 122489111.280 6     -2297.238          39.000
C25  21839528.750 8 113724211.750 8       769.805          51.000
E02  24619569.539 8 129376693.315 8      2371.566          51.000    24619569.906 8  99132865.287 8      1817.195          51.000
E03  23635806.461 8 124206986.637 8      -816.660          51.000    23635807.688 8  95171611.195 8      -625.738          51.000
E05  27179762.875 5 142830616.912 5     -2466.930          32.000    27179763.320 5 109441649.599 5     -1890.406          34.000
E24  25514280.023 5 134078446.242 5     -2647.957          34.000    25514293.852 6 102735486.301 6     -2028.652          36.000
E25  24027760.148 8 126266776.204 8      -378.434          51.000    24027762.023 8  96749922.947 8      -289.987          51.000
> 2020 05 02 04 04  0.0000000  0 18        .000000000000
G05  20714887.242 8 108857487.040 8     -1018.387          51.000    20714886.188 8  84823983.857 8      -793.548          51.000
G07  22584233.992 5 118680945.189 5     -2477.992          33.000
G28  21668091.789 8 113866577.458 8      2170.203          51.000    21668090.133 7  88727208.176 7      1691.067          45.000
G30  20615209.602 8 108333668.089 8     -1108.023          51.000    20615210.594 8  84415864.247 8      -863.395          51.000
R02  21183258.383 8 113037913.541 8     -3096.852          48.000    21183259.953 7  87918369.044 7     -2408.662          47.000
R03  19204447.398 8 102802947.829 8       371.230          50.000    19204447.828 7  79957843.191 7       288.735          46.000
R12  21507049.250 5 114886766.071 5     -3542.918          33.000
R13  19151409.031 6 102267483.564 6       155.145          39.000    19151412.344 7  79541357.174 7       120.668          45.000
R14  21514461.133 8 114684209.930 8      3692.461          48.000    21514463.398 7  89198851.196 7      2871.911          46.000
C05  39781413.648 5 207152260.034 5        12.336          35.000    39781413.383 7 160183261.540 7         9.775          42.000
C14  25048816.516 7 130435736.767 7     -3134.441          43.000    25048814.570 7 100861177.809 7     -2423.770          45.000
C23  24838441.094 6 129340284.288 6      2997.516          39.000
C24  23535991.477 6 122558089.266 6     -2295.961          39.000
C25  21835121.016 8 113701257.616 8       765.793          51.000
E02  24606045.930 8 129305622.481 8      2371.824          51.000    24606046.031 8  99078408.424 8      1817.345          51.000
E03  23640480.453 8 124231548.270 8      -815.289          51.000    23640482.023 8  95190431.151 8      -624.732          51.000
E24  25529398.828 5 134157895.733 5     -2643.613          34.000    25529413.375 6 102796364.721 6     -2025.778          36.000
E25  24029947.930 8 126278272.761 8      -382.434          51.000    24029949.656 8  96758731.997 8      -293.075          51.000
> 2020 05 02 04 04 30.0000000  0 18        .000000000000
G05  20720768.375 8 108888393.846 8     -1048.527          51.000    20720767.602 8  84848067.074 8      -817.034          51.000
G07  22598412.633 6 118755447.315 6     -2495.000          36.000    22598392.359 5  92536690.236 5     -1944.147          35.000
G28  21655757.461 8 113801758.584 8      2144.461          51.000    21655755.477 7  88676699.971 7      1671.012          44.000
G30  20621583.406 8 108367162.918 8     -1131.523          51.000    20621584.484 8  84441964.109 8      -881.707          51.000
R02  21200719.242 8 113131090.758 8     -3121.617          48.000    21200721.906 7  87990840.271 7     -2427.921          45.000
R03  19202436.688 8 102792183.916 8       339.758          51.000    19202437.367 7  79949471.225 7       264.256          46.000
R12  21526988.570 4 114993279.346 4     -3565.582          29.000
R13  19150618.664 6 102263262.638 6       119.633          39.000    19150621.977 7  79538074.236 7        93.048          45.000
R14  21493729.219 8 114573698.362 8      3668.508          49.000    21493732.398 7  89112897.719 7      2853.284          46.000
C05  39781353.688 5 207151947.179 5         1.391          35.000    39781353.516 6 160183020.366 6         1.516          41.000
C14  25066902.148 7 130529910.403 7     -3150.453          45.000    25066900.219 7 100933998.739 7     -2435.907          45.000
C23  24821202.938 6 129250522.078 6      2980.508          40.000
C24  23549254.891 6 122627157.032 6     -2314.984          39.000
C25  21830762.227 8 113678558.631 8       741.023          51.000
E02  24592546.766 8 129234679.323 8      2351.230          51.000    24592546.586 8  99024049.378 8      1801.649          51.000
E03  23645172.117 8 124256202.679 8      -834.781          51.000    23645174.031 8  95209322.169 8      -639.623          51.000
E24  25544520.109 5 134237359.025 5     -2660.609          32.000    25544535.430 5 102857252.883 5     -2038.583          35.000
E25  24032183.711 8 126290021.848 8      -407.270          51.000    24032185.344 8  96767734.538 8      -312.082          51.000
> 2020 05 02 04 05  0.0000000  0 18        .000000000000
G05  20726862.492 8 108920419.408 8     -1065.926          51.000    20726862.094 8  84873022.051 8      -830.592          51.000
G28  21643610.727 8 113737926.468 8      2131.574          51.000    21643607.516 7  88626960.672 7      1660.967          43.000
G30  20628132.203 8 108401577.327 8     -1142.270          51.000    20628133.023 8  84468780.536 8      -890.080          51.000
R02  21218360.398 8 113225227.400 8     -3133.359          50.000    21218363.297 7  88064057.660 7     -2437.060          44.000
R03  19200643.094 8 102782581.489 8       321.219          51.000    19200643.891 7  79942002.659 7       249.837          46.000
R12  21547079.086 5 115100631.711 5     -3573.555          34.000
R13  19150068.984 6 102260328.813 6        96.820          38.000    19150072.734 7  79535792.378 7        75.305          45.000
R14  21473174.344 8 114464128.778 8      3657.117          51.000    21473177.844 7  89027676.908 7      2844.424          45.000
C05  39781397.391 5 207152175.368 5         3.184          35.000    39781397.133 6 160183196.037 6         2.658          41.000
C14  25085120.438 7 130624773.180 7     -3153.590          47.000    25085118.203 7 101007352.603 7     -2438.450          46.000
C23  24804104.766 7 129161490.645 7      2975.797          42.000
C24  23562670.797 6 122697014.342 6     -2321.570          41.000
C25  21826586.797 8 113656816.197 8       728.859          51.000
E02  24579206.805 8 129164573.075 8      2343.156          51.000    24579206.242 8  98970331.612 8      1795.453          51.000
E03  23650016.227 8 124281658.125 8      -841.543          51.000    23650018.383 8  95228826.989 8      -644.822          51.000
E05  27222114.734 6 143053204.677 6     -2478.402          37.000    27222118.234 6 109612192.066 6     -1898.745          38.000
E24                                                                  25559794.320 5 102918692.032 5     -2041.789          35.000
E25  24034602.031 8 126302730.756 8      -419.426          51.000    24034603.781 8  96777472.527 8      -321.330          51.000
> 2020 05 02 04 05 30.0000000  0 19        .000000000000
G05  20732996.125 8 108952652.053 8     -1085.559          51.000    20732995.867 8  84898138.392 8      -845.893          51.000
G07  22626988.430 5 118905629.183 5     -2505.480          33.000
G28  21631478.094 8 113674171.662 8      2116.086          48.000    21631474.055 7  88577281.655 7      1648.901          42.000
G30  20634682.367 8 108435998.887 8     -1155.129          51.000    20634682.969 8  84495602.527 8      -900.103          51.000
R02  21236008.125 8 113319396.739 8     -3147.414          51.000    21236009.836 7  88137300.335 7     -2447.995          43.000
R03  19198893.023 8 102773214.164 8       300.395          51.000    19198893.875 7  79934716.931 7       233.640          46.000
R12  21567172.273 5 115207957.273 5     -3584.551          33.000
R13  19149587.000 6 102257756.227 6        71.816          38.000    19149590.844 7  79533791.451 7        55.857          45.000
R14  21452623.516 8 114354579.720 8      3643.453          51.000    21452626.062 7  88942472.083 7      2833.797          43.000
C05  39781371.391 5 207152039.852 5         3.156          35.000    39781370.898 6 160183090.460 6         2.350          41.000
C14  25103297.422 8 130719421.007 8     -3158.949          48.000    25103294.883 8 101080540.275 8     -2442.627          48.000
C23  24786973.531 7 129072288.274 7      2968.551          43.000
C24  23576065.016 6 122766756.578 6     -2330.414          41.000
C25  21822421.398 8 113635127.329 8       714.410          51.000
E02  24565852.602 8 129094393.844 8      2332.809          51.000    24565851.898 8  98916557.914 8      1787.525          51.000
E03  23654839.414 8 124307003.854 8      -850.758          51.000    23654841.492 8  95248247.730 8      -651.858          51.000
E05  27236267.898 6 143127581.278 6     -2482.852          37.000    27236270.773 6 109669181.878 6     -1902.463          37.000
E24                                                                  25575016.258 5 102979982.670 5     -2045.937          34.000
E25  24037029.445 8 126315487.662 8      -433.578          51.000    24037031.305 8  96787247.288 8      -332.204          51.000
> 2020 05 02 04 06  0.0000000  0 19        .000000000000
G05  20739246.969 8 108985501.701 8     -1103.883          50.000    20739246.992 8  84923735.488 8      -860.171          50.000
G07  22641307.148 5 118980858.387 5     -2510.020          30.000
G28  21619437.672 7 113610907.260 7      2101.922          42.000    21619433.914 7  88527984.750 7      1637.858          42.000
G30  20641311.805 8 108470837.149 8     -1166.887          51.000    20641312.680 8  84522749.223 8      -909.262          51.000
R02  21253739.961 8 113414015.001 8     -3160.105          51.000    21253741.250 7  88210892.199 7     -2457.863          46.000
R03  19197265.672 8 102764502.340 8       280.844          51.000    19197266.469 7  79927941.046 7       218.434          46.000
R12  21587331.180 5 115315638.101 5     -3593.785          34.000
R13  19149250.852 6 102255961.307 6        48.148          38.000    19149254.969 7  79532395.411 7        37.449          45.000
R14  21432155.008 8 114245470.461 8      3630.984          51.000    21432155.617 7  88857609.342 7      2824.099          42.000
C05  39781353.523 5 207151946.826 5         3.293          35.000    39781353.078 6 160183018.486 6         2.930          41.000
C14  25121510.891 8 130814259.812 8     -3163.223          48.000    25121508.844 8 101153875.620 8     -2445.965          51.000
C23  24769888.102 7 128983323.375 7      2962.801          44.000
C24  23589514.680 6 122836789.091 6     -2338.027          40.000
C25  21818344.375 8 113613899.095 8       701.199          51.000
E02  24552562.516 8 129024553.833 8      2323.648          51.000    24552561.820 8  98863044.131 8      1780.455          51.000
E03  23659720.070 8 124332651.100 8      -858.758          51.000    23659721.945 8  95267899.501 8      -657.988          51.000
E05  27250451.211 6 143202120.063 6     -2485.988          38.000    27250454.133 5 109726295.918 5     -1904.869          35.000
E24                                                                  25590278.906 5 103041438.563 5     -2050.448          33.000
E25  24039543.891 8 126328702.809 8      -446.742          51.000    24039546.211 8  96797373.175 8      -342.342          51.000
> 2020 05 02 04 06 30.0000000  0 18        .000000000000
G05  20745606.555 8 109018921.886 8     -1123.309          50.000    20745606.828 8  84949777.165 8      -875.305          50.000
G28  21607482.508 7 113548089.965 7      2086.715          44.000    21607480.469 7  88479036.188 7      1626.009          44.000
G30  20648011.547 8 108506045.138 8     -1179.613          51.000    20648012.789 8  84550184.019 8      -919.182          51.000
R02  21271546.188 8 113509033.580 8     -3173.781          49.000    21271548.977 8  88284795.511 8     -2468.497          48.000
R03  19195752.062 8 102756401.136 8       260.082          51.000    19195753.211 7  79921640.093 7       202.283          47.000
R12  21607547.812 5 115423624.231 5     -3604.457          33.000
R13  19149051.594 6 102254896.825 6        23.516          38.000    19149055.609 7  79531567.452 7        18.290          44.000
R14  21411760.430 8 114136757.698 8      3617.375          51.000    21411759.539 7  88773055.007 7      2813.514          42.000
C05  39781335.328 5 207151852.083 5         3.707          35.000    39781334.859 6 160182945.213 6         2.589          41.000
C14  25139751.742 7 130909243.017 7     -3168.309          46.000    25139750.711 8 101227322.620 8     -2449.880          51.000
C23  24752839.695 7 128894551.898 7      2955.934          43.000
C24  23603010.078 6 122907064.957 6     -2346.582          40.000
C25  21814347.094 8 113593086.086 8       687.047          51.000
E02  24539328.016 8 128955008.619 8      2313.496          51.000    24539327.891 8  98809756.230 8      1772.736          51.000
E03  23664649.508 8 124358554.525 8      -867.363          51.000    23664651.164 8  95287747.564 8      -664.588          51.000
E05  27264657.102 6 143276774.968 6     -2490.133          39.000    27264660.336 5 109783498.953 5     -1907.916          35.000
E24                                                                  25605573.375 5 103103023.277 5     -2054.841          32.000
E25  24042136.969 8 126342329.847 8      -460.867          51.000    24042139.758 8  96807814.658 8      -353.111          51.000
> 2020 05 02 04 07  0.0000000  0 17        .000000000000
G05  20752078.859 8 109052934.549 8     -1142.973          49.000    20752079.156 8  84976280.511 8      -890.628          50.000
G28  21595618.875 8 113485744.894 8      2070.777          50.000    21595617.594 7  88430455.585 7      1613.590          45.000
G30  20654785.766 8 108541644.393 8     -1192.477          51.000    20654787.062 8  84577923.676 8      -929.203          51.000
R02  21289430.039 7 113604474.418 7     -3187.668          45.000    21289435.570 8  88359027.297 8     -2479.297          49.000
R03  19194357.320 8 102748935.643 8       238.906          50.000    19194358.859 7  79915833.570 7       185.816          47.000
R13  19148993.023 6 102254584.537 6        -1.473          39.000    19148997.195 7  79531324.578 7        -1.145          44.000
R14  21391444.891 8 114028466.832 8      3603.281          51.000    21391443.273 7  88688828.823 7      2802.552          43.000
C05  39781321.109 5 207151778.294 5         2.914          35.000    39781320.711 6 160182888.114 6         2.120          41.000
C14  25158023.898 7 131004392.056 7     -3173.781          44.000    25158024.094 8 101300897.857 8     -2454.145          51.000
C23  24735832.977 7 128805997.740 7      2948.762          43.000
C24  23616555.750 6 122977605.020 6     -2355.125          40.000
C25  21810433.812 8 113572710.834 8       672.570          51.000
E02  24526153.859 8 128885782.305 8      2302.840          51.000    24526154.875 8  98756712.690 8      1764.481          51.000
E03  23669631.961 8 124384737.385 8      -876.828          51.000    23669633.477 8  95307809.742 8      -671.879          51.000
E05  27278888.352 5 143351568.548 5     -2494.914          33.000    27278892.984 5 109840808.255 5     -1911.206          33.000
E24                                                                  25620903.680 5 103164762.073 5     -2059.499          30.000
E25  24044812.797 8 126356390.932 8      -475.289          51.000    24044815.555 8  96818588.724 8      -364.224          51.000
> 2020 05 02 04 07 30.0000000  0 16        .000000000000
G05  20758673.625 8 109087591.349 8     -1165.285          50.000    20758673.695 8  85003285.800 8      -908.014          50.000
G28  21583856.227 8 113423926.817 8      2052.422          51.000    21583854.914 7  88382285.625 7      1599.290          47.000
G30  20661644.195 8 108577686.305 8     -1208.125          51.000    20661645.641 8  84606008.253 8      -941.396          51.000
R02  21307403.555 8 113700389.424 8     -3204.332          48.000    21307410.633 8  88433627.906 8     -2492.258          50.000
R03  19193091.734 8 102742161.218 8       214.855          50.000    19193093.477 8  79910564.565 8       167.110          48.000
R13  19149085.289 6 102255076.678 6       -29.027          40.000    19149089.266 7  79531707.360 7       -22.577          43.000
R14  21371219.062 8 113920654.423 8      3586.320          51.000    21371218.281 7  88604974.774 7      2789.360          45.000
C05  39781321.117 5 207151777.844 5        -1.094          35.000    39781320.641 6 160182887.734 6         -.574          41.000
C14  25176336.898 6 131099757.832 6     -3181.695          41.000    25176338.523 8 101374640.724 8     -2460.382          51.000
C23  24718878.188 7 128717714.423 7      2938.793          42.000
C24  23630162.086 6 123048459.774 6     -2366.348          39.000
C25  21806614.727 8 113552825.432 8       655.312          51.000
E02  24513050.766 8 128816928.890 8      2289.504          51.000    24513052.758 8  98703954.899 8      1754.307          51.000
E03  23674677.453 8 124411252.729 8      -888.762          51.000    23674679.094 8  95328126.670 8      -681.002          51.000
E05                                                                  27293160.203 5 109898246.070 5     -1917.509          32.000
E25  24047581.016 8 126370938.086 8      -492.340          51.000    24047583.477 8  96829735.215 8      -377.241          51.000
> 2020 05 02 04 08  0.0000000  0 16        .000000000000
G05  20765356.609 8 109122710.515 8     -1180.254          51.000    20765356.219 8  85030651.375 8      -919.678          51.000
G28  21572159.680 8 113362456.573 8      2041.359          51.000    21572158.125 7  88334386.718 7      1590.670          46.000
G30  20668552.242 8 108613988.377 8     -1216.215          51.000    20668553.852 8  84634295.556 8      -947.700          51.000
R02  21325433.062 8 113796593.105 8     -3213.512          51.000    21325439.375 8  88508453.022 8     -2499.395          49.000
R03  19191921.062 8 102735894.854 8       198.477          50.000    19191922.844 8  79905690.708 8       154.371          48.000
R13  19149294.055 6 102256188.956 6       -49.172          40.000    19149297.195 7  79532572.469 7       -38.245          43.000
R14  21351049.336 8 113813139.326 8      3576.953          49.000    21351050.469 7  88521351.935 7      2782.075          47.000
C05  39781300.570 5 207151671.212 5         3.973          35.000    39781300.211 6 160182805.252 6         2.827          41.000
C14  25194656.008 6 131195159.575 6     -3182.332          39.000    25194659.430 8 101448411.408 8     -2460.857          51.000
C23  24701940.727 6 128629523.571 6      2936.531          40.000
C24  23643794.781 6 123119448.023 6     -2370.641          37.000
C25  21802855.359 8 113533250.194 8       645.449          51.000
E02  24499984.758 8 128748268.485 8      2283.570          51.000    24499987.367 8  98651344.996 8      1749.752          51.000
E03  23679751.867 8 124437919.763 8      -893.242          51.000    23679753.633 8  95348559.838 8      -684.462          51.000
E05  27307427.734 6 143501494.772 6     -2502.305          36.000    27307429.969 5 109955709.222 5     -1916.913          34.000
E25  24050407.109 8 126385789.388 8      -501.887          51.000    24050409.562 8  96841114.781 8      -384.530          51.000
> 2020 05 02 04 08 30.0000000  0 16        .000000000000
G05  20772149.578 8 109158406.396 8     -1199.539          51.000    20772148.797 8  85058466.339 8      -934.706          51.000
G28  21560551.234 8 113301451.800 8      2025.672          50.000    21560549.875 8  88286850.549 8      1578.449          48.000
G30  20675531.656 8 108650664.656 8     -1228.711          51.000    20675533.109 8  84662874.456 8      -957.437          51.000
R02  21343538.531 8 113893200.912 8     -3227.059          50.000    21343543.672 7  88583592.411 7     -2509.934          46.000
R03  19190868.062 8 102730255.865 8       177.512          49.000    19190869.625 8  79901304.835 8       138.065          49.000
R13  19149640.203 6 102258036.603 6       -73.691          41.000    19149642.812 7  79534009.552 7       -57.316          43.000
R14  21330958.031 8 113706040.945 8      3562.965          48.000    21330961.086 8  88438053.195 8      2771.195          48.000
C05  39781281.703 6 207151572.920 6         2.910          36.000    39781281.344 6 160182729.207 6         2.314          41.000
C14  25213005.055 6 131290710.344 6     -3187.387          39.000    25213008.664 8 101522297.300 8     -2464.747          49.000
C23  24685041.695 6 128541540.811 6      2929.477          37.000
C24  23657475.016 5 123190682.222 5     -2379.164          35.000
C25  21799177.969 8 113514099.261 8       631.316          51.000
E02  24486978.008 8 128679917.678 8      2273.133          51.000    24486980.695 8  98598972.312 8      1741.796          51.000
E03  23684877.242 8 124464854.165 8      -902.367          51.000    23684879.047 8  95369197.879 8      -691.409          51.000
E05  27321724.766 6 143576613.869 6     -2506.125          38.000    27321724.234 6 110013267.971 6     -1920.385          36.000
E25  24053312.961 8 126401059.554 8      -515.965          51.000    24053315.422 8  96852815.286 8      -395.401          51.000
> 2020 05 02 04 09  0.0000000  0 17        .000000000000
G05  20779055.383 8 109194695.559 8     -1219.484          51.000    20779054.305 8  85086743.607 8      -950.248          51.000
G07  22727897.719 6 119435854.715 6     -2544.652          36.000
G28  21549034.500 8 113240932.382 8      2009.375          49.000    21549034.047 8  88239692.583 8      1565.747          48.000
G30  20682585.414 8 108687731.402 8     -1242.004          51.000    20682586.703 8  84691757.626 8      -967.795          51.000
R02  21361722.578 8 113990229.166 8     -3241.148          50.000    21361726.195 7  88659058.770 7     -2520.893          43.000
R03  19189935.328 7 102725263.884 7       155.637          47.000    19189937.398 8  79897422.159 8       121.048          49.000
R13  19150127.500 6 102260637.510 6       -99.168          40.000    19150129.797 7  79536032.486 7       -77.131          43.000
R14  21310948.453 8 113599379.703 8      3548.215          48.000    21310952.820 8  88355094.420 8      2759.720          48.000
C05  39781267.688 5 207151500.374 5         2.055          35.000    39781267.469 6 160182673.071 6         1.698          41.000
C14  25231386.594 6 131386426.436 6     -3193.301          40.000    25231389.352 7 101596310.969 7     -2469.121          47.000
C23  24668183.352 5 128453784.737 5      2922.062          34.000
C24  23671204.453 5 123262178.217 5     -2387.273          35.000
C25  21795585.469 8 113495389.966 8       616.383          51.000
E02  24474033.953 8 128611895.311 8      2262.109          51.000    24474035.922 8  98546851.297 8      1733.287          51.000
E03  23690056.844 8 124492073.915 8      -911.934          51.000    23690058.867 8  95390054.556 8      -698.721          51.000
E05  27336047.680 6 143651875.104 6     -2510.629          38.000    27336046.281 6 110070935.539 6     -1923.992          37.000
E25  24056301.672 8 126416765.429 8      -530.738          51.000    24056303.828 8  96864849.629 8      -406.634          51.000
> 2020 05 02 04 09 30.0000000  0 17        .000000000000
G05  20786065.461 8 109231532.672 8     -1236.582          51.000    20786063.922 8  85115447.846 8      -963.570          51.000
G07  22742435.930 5 119512239.239 5     -2548.207          35.000    22742437.812 5  93126470.782 5     -1985.622          35.000
G28  21537601.492 8 113180855.336 8      1995.430          48.000    21537602.062 7  88192879.292 7      1554.877          47.000
G30  20689704.648 8 108725142.344 8     -1252.367          51.000    20689705.961 8  84720909.003 8      -975.871          51.000
R02  21379976.047 8 114087631.065 8     -3252.496          49.000    21379978.453 7  88734815.666 7     -2529.722          45.000
R03  19189116.148 8 102720874.647 8       136.609          48.000    19189117.359 8  79894008.327 8       106.252          49.000
R13  19150746.508 6 102263943.976 6      -121.602          40.000    19150748.906 7  79538604.186 7       -94.579          43.000
R14  21291012.578 8 113493112.869 8      3535.988          49.000    21291017.422 7  88272442.407 7      2750.213          47.000
C05  39781250.281 5 207151409.130 5         4.070          35.000    39781250.000 6 160182602.507 6         2.891          41.000
C14  25249792.047 7 131482261.887 7     -3196.039          42.000    25249792.938 7 101670416.941 7     -2471.356          45.000
C23  24651362.078 5 128366212.074 5      2916.371          35.000
C24  23684975.094 6 123333889.744 6     -2393.707          36.000
C25  21792069.117 8 113477077.535 8       604.215          51.000
E02  24461144.062 8 128544157.717 8      2253.562          51.000    24461144.992 8  98494948.461 8      1726.705          51.000
E03  23695282.383 8 124519534.415 8      -918.961          51.000    23695284.555 8  95411095.711 8      -704.121          51.000
E05  27350388.156 6 143727233.042 6     -2513.266          40.000    27350387.688 6 110128677.251 6     -1925.674          38.000
E25  24059364.641 8 126432861.312 8      -542.680          51.000    24059366.641 8  96877182.827 8      -415.808          51.000
> 2020 05 02 04 10  0.0000000  0 16        .000000000000
G05  20793178.344 8 109268910.228 8     -1254.742          51.000    20793176.562 8  85144573.212 8      -977.721          51.000
G28  21526252.109 8 113121216.557 8      1980.852          48.000    21526253.328 7  88146407.492 7      1543.521          46.000
G30  20696887.961 8 108762890.005 8     -1263.676          51.000    20696889.344 8  84750322.751 8      -984.685          51.000
R02  21398296.953 8 114185398.558 8     -3264.672          48.000    21398300.328 7  88810856.989 7     -2539.189          47.000
R03  19188407.867 7 102717083.479 7       116.527          47.000    19188408.844 8  79891059.658 8        90.632          49.000
R13  19151496.461 6 102267949.044 6      -144.879          40.000    19151498.992 7  79541719.246 7      -112.684          43.000
R14  21271150.641 8 113387236.871 8      3522.980          51.000    21271153.844 7  88190094.449 7      2740.099          45.000
C05  39781227.969 5 207151293.136 5         4.508          35.000    39781227.781 6 160182512.766 6         3.604          41.000
C14  25268219.086 6 131578209.308 6     -3199.719          41.000    25268217.977 7 101744609.492 7     -2474.280          43.000
C23  24634578.445 6 128278817.757 6      2910.637          39.000
C24  23698786.266 6 123405808.936 6     -2400.738          38.000
C25  21788627.758 8 113459155.648 8       591.109          51.000
E02  24448307.398 8 128476699.886 8      2244.230          51.000    24448307.195 8  98443259.985 8      1719.674          51.000
E03  23700552.719 8 124547229.805 8      -926.801          51.000    23700554.836 8  95432316.846 8      -710.143          51.000
E05  27364745.242 6 143802681.146 6     -2516.199          40.000    27364746.086 6 110186488.132 6     -1927.970          40.000
E25  24062500.594 8 126449340.295 8      -555.340          51.000    24062502.742 8  96889809.563 8      -425.469          51.000
> 2020 05 02 04 10 30.0000000  0 17        .000000000000
G05  20800396.531 8 109306842.057 8     -1274.059          51.000    20800394.742 8  85174130.473 8      -992.773          51.000
G07  22771585.633 5 119665473.423 5     -2558.133          34.000    22771586.266 5  93245838.116 5     -1993.350          32.000
G28  21514989.977 8 113062033.231 8      1964.609          49.000    21514990.773 7  88100290.615 7      1530.867          45.000
G30  20704138.016 8 108800988.260 8     -1276.266          51.000    20704139.281 8  84780009.683 8      -994.493          51.000
R02  21416688.359 7 114283545.275 7     -3278.465          44.000    21416693.422 8  88887193.315 8     -2549.917          48.000
R03  19187814.641 8 102713907.368 8        95.090          49.000    19187815.828 8  79888589.346 8        73.959          49.000
R13  19152379.656 6 102272666.491 6      -169.438          39.000    19152382.391 7  79545388.380 7      -131.785          43.000
R14  21251365.977 8 113281769.615 8      3508.230          51.000    21251367.164 7  88108064.414 7      2728.624          45.000
C05  39781203.891 5 207151167.580 5         3.344          35.000    39781203.703 6 160182415.623 6         3.008          41.000
C14  25286670.094 6 131674282.557 6     -3204.836          40.000    25286666.875 6 101818899.401 6     -2478.276          41.000
C23  24617833.281 6 128191618.238 6      2902.781          39.000
C24  23712639.812 6 123477949.172 6     -2409.098          37.000
C25  21785264.180 8 113441639.225 8       576.641          51.000
E02  24435526.914 8 128409538.324 8      2233.227          51.000    24435525.742 8  98391798.528 8      1711.165          49.000
E03  23705870.688 8 124575175.714 8      -936.262          51.000    23705872.844 8  95453729.929 8      -717.383          51.000
E05  27379122.297 6 143878234.433 6     -2520.699          38.000    27379124.562 7 110244379.584 7     -1931.600          42.000
E25  24065712.055 8 126466216.890 8      -569.668          51.000    24065714.523 8  96902740.976 8      -436.529          51.000
> 2020 05 02 04 11  0.0000000  0 17        .000000000000
G05  20807723.047 8 109345343.531 8     -1292.496          51.000    20807721.219 8  85204131.634 8     -1007.140          51.000
G07  22786204.727 6 119742300.884 6     -2563.102          36.000    22786213.727 5  93305735.336 5     -1997.246          34.000
G28  21503818.344 8 113003324.090 8      1949.438          51.000    21503818.500 7  88054543.259 7      1519.042          45.000
G30  20711457.547 8 108839452.231 8     -1287.828          51.000    20711458.570 8  84809981.590 8     -1003.502          51.000
R02  21435152.461 7 114382086.641 7     -3290.918          43.000    21435160.086 8  88963836.561 8     -2559.603          48.000
R03  19187340.000 8 102711364.496 8        74.629          49.000    19187340.625 8  79886611.583 8        58.048          48.000
R13  19153399.242 6 102278112.120 6      -193.195          39.000    19153401.961 7  79549623.876 7      -150.266          44.000
R14  21231661.789 8 113176730.369 8      3494.562          51.000    21231662.625 7  88026367.247 7      2717.993          47.000
C05                                                                  39781180.961 6 160182323.824 6         3.244          41.000
C14  25305146.820 6 131770496.540 6     -3208.980          36.000    25305143.250 7 101893298.185 7     -2481.469          43.000
C23  24601129.547 6 128104630.914 6      2897.055          38.000
C24  23726537.562 5 123550324.997 5     -2416.398          31.000
C25  21781981.414 8 113424544.360 8       563.172          51.000
E02  24422806.000 8 128342690.667 8      2223.441          51.000    24422803.938 8  98340577.599 8      1703.733          48.000
E03  23711239.398 8 124603388.886 8      -944.441          51.000    23711241.805 8  95475347.800 8      -723.660          51.000
E05  27393521.734 6 143953909.009 6     -2524.008          38.000    27393526.188 7 110302363.901 7     -1933.929          42.000
E25  24069002.305 8 126483506.722 8      -582.836          51.000    24069004.734 8  96915989.028 8      -446.571          51.000
> 2020 05 02 04 11 30.0000000  0 17        .000000000000
G05  20815154.383 8 109384396.507 8     -1311.133          51.000    20815152.891 8  85234562.514 8     -1021.662          51.000
G07  22800852.477 6 119819271.833 6     -2568.719          37.000    22800839.828 5  93365626.445 5     -2001.599          31.000
G28  21492734.172 8 112945073.364 8      1933.965          51.000    21492733.430 7  88009153.105 7      1506.989          43.000
G30  20718842.938 8 108878262.864 8     -1299.535          51.000    20718844.047 8  84840223.638 8     -1012.625          51.000
R02  21453688.320 7 114481002.573 7     -3303.426          45.000    21453696.906 7  89040771.245 7     -2569.328          47.000
R03  19186980.062 8 102709438.551 8        53.840          50.000    19186980.500 8  79885113.610 8        41.875          48.000
R13  19154551.414 6 102284266.098 6      -216.922          39.000    19154554.711 7  79554410.321 7      -168.717          44.000
R14  21212034.469 8 113072103.823 8      3480.625          49.000    21212035.664 7  87944991.034 7      2707.153          47.000
C05  39781156.305 6 207150919.487 6         4.527          36.000    39781156.117 6 160182223.763 6         3.298          41.000
C14  25323645.453 5 131866832.519 5     -3213.289          35.000    25323643.930 7 101967791.307 7     -2484.870          45.000
C23  24584463.148 6 128017839.564 6      2889.816          37.000
C24  23740478.992 5 123622897.075 5     -2424.578          32.000
C25  21778775.797 8 113407853.225 8       549.562          51.000
E02  24410141.461 8 128276140.418 8      2213.164          51.000    24410138.938 8  98289584.572 8      1695.840          48.000
E03  23716655.805 8 124631851.959 8      -953.156          51.000    23716658.320 8  95497157.144 8      -730.317          51.000
E05  27407940.578 6 144029686.806 6     -2527.828          37.000    27407946.547 6 110360427.394 6     -1936.817          40.000
E25  24072367.695 8 126501191.350 8      -596.285          51.000    24072369.867 8  96929539.570 8      -456.906          51.000
> 2020 05 02 04 12  0.0000000  0 16        .000000000000
G05  20822691.023 8 109424003.850 8     -1329.176          51.000    20822690.242 8  85265425.349 8     -1035.724          51.000
G28  21481738.188 8 112887287.108 8      1918.707          51.000    21481736.992 7  87964124.861 7      1495.096          43.000
G30  20726294.766 8 108917422.575 8     -1310.824          51.000    20726296.039 8  84870737.680 8     -1021.421          51.000
R02  21472296.680 8 114580295.284 8     -3315.727          49.000    21472304.008 7  89117998.933 7     -2578.895          46.000
R03  19186736.648 8 102708134.886 8        33.445          50.000    19186736.891 8  79884099.656 8        26.013          48.000
R13  19155837.047 6 102291131.460 6      -240.543          40.000    19155840.211 7  79559750.041 7      -187.089          44.000
R14  21192485.500 8 112967896.343 8      3466.879          48.000    21192487.039 8  87863940.741 8      2696.461          48.000
C05  39781130.320 6 207150784.289 6         4.734          36.000    39781130.000 6 160182118.391 6         3.897          41.000
C14  25342169.008 5 131963292.949 5     -3217.312          35.000    25342168.875 7 102042380.595 7     -2487.501          46.000
C23  24567835.609 6 127931248.925 6      2883.215          40.000
C24  23754464.008 5 123695707.604 5     -2430.512          35.000
C25  21775648.383 8 113391569.317 8       536.344          51.000
E02  24397534.273 8 128209892.470 8      2203.562          51.000    24397532.148 8  98238823.179 8      1688.471          49.000
E03  23722120.648 8 124660568.947 8      -961.125          51.000    23722123.031 8  95519161.041 8      -736.384          51.000
E05  27422379.828 6 144105571.170 6     -2530.652          36.000    27422386.477 6 110418572.556 6     -1939.209          40.000
E25  24075808.688 8 126519273.676 8      -608.957          51.000    24075810.898 8  96943394.843 8      -466.588          51.000
> 2020 05 02 04 12 30.0000000  0 17        .000000000000
G05  20830334.219 8 109464170.467 8     -1348.207          50.000    20830334.023 8  85296723.992 8     -1050.551          50.000
G07  22830210.984 5 119973574.472 5     -2577.707          32.000
G28  21470831.719 8 112829973.336 8      1902.543          49.000    21470830.398 7  87919464.763 7      1482.501          44.000
G30  20733814.031 8 108956936.344 8     -1323.117          51.000    20733815.242 8  84901527.612 8     -1031.003          51.000
R02  21490977.727 8 114679969.715 8     -3328.914          51.000    21490982.461 7  89195523.428 7     -2589.158          45.000
R03  19186610.641 8 102707461.456 8        11.816          51.000    19186611.031 7  79883575.853 7         9.191          47.000
R13  19157256.773 6 102298713.203 6      -264.664          39.000    19157259.898 7  79565646.940 7      -205.847          45.000
R14  21173016.648 7 112864116.848 7      3452.039          46.000    21173018.367 7  87783223.355 7      2684.919          47.000
C05  39781104.117 5 207150647.499 5         4.137          35.000    39781103.742 6 160182012.609 6         3.437          41.000
C14  25360718.602 5 132059882.872 5     -3222.121          35.000    25360718.414 7 102117069.989 7     -2491.289          47.000
C23  24551248.633 7 127844866.458 7      2875.781          42.000
C24  23768490.477 6 123768741.104 6     -2438.395          37.000
C25  21772600.531 8 113375698.634 8       522.039          51.000
E02  24384986.336 8 128143954.389 8      2192.629          51.000    24384985.008 8  98188299.205 8      1680.135          51.000
E03  23727635.070 8 124689546.544 8      -970.312          51.000    23727637.281 8  95541364.627 8      -743.510          51.000
E05  27436840.961 6 144181568.210 6     -2535.316          36.000    27436848.328 6 110476803.933 6     -1942.427          40.000
E25  24079326.430 8 126537759.249 8      -622.926          51.000    24079328.750 8  96957559.117 8      -477.361          51.000
> 2020 05 02 04 13  0.0000000  0 17        .000000000000
G05  20838083.227 8 109504891.188 8     -1368.441          51.000    20838083.273 8  85328454.419 8     -1066.318          51.000
G07  22844961.383 6 120051050.689 6     -2584.883          36.000
G28  21460014.523 8 112773129.869 8      1884.992          49.000    21460013.477 7  87875171.148 7      1468.825          45.000
G30  20741399.555 8 108996798.711 8     -1336.535          51.000    20741400.641 8  84932589.202 8     -1041.456          51.000
R02  21509729.086 8 114780020.027 8     -3343.250          51.000    21509731.203 7  89273340.192 7     -2600.312          43.000
R03  19186601.969 8 102707415.375 8       -10.895          51.000    19186602.430 7  79883539.994 7        -8.474          47.000
R13  19158810.039 6 102307006.493 6      -290.297          39.000    19158813.297 7  79572097.279 7      -225.786          44.000
R14  21153626.000 7 112760763.801 7      3436.047          45.000    21153629.023 7  87702837.597 7      2672.478          46.000
C05  39781077.023 6 207150507.277 6         2.867          36.000    39781076.727 6 160181903.376 6         2.338          41.000
C14  25379292.133 5 132156596.764 5     -3228.098          33.000    25379291.789 8 102191855.288 8     -2495.916          48.000
C23  24534701.055 7 127758689.306 7      2867.305          44.000
C24  23782557.836 6 123841991.680 6     -2447.219          37.000
C25  21769631.062 8 113360236.927 8       506.637          51.000
E02  24372497.391 8 128078323.242 8      2180.703          51.000    24372497.078 8  98138010.420 8      1670.961          51.000
E03  23733198.352 8 124718780.989 8      -980.691          51.000    23733200.656 8  95563765.022 8      -751.430          51.000
E05  27451323.445 6 144257673.420 6     -2540.695          38.000    27451330.773 6 110535118.251 6     -1946.776          41.000
E25  24082919.797 8 126556643.216 8      -638.031          51.000    24082921.836 8  96972028.633 8      -488.899          51.000
> 2020 05 02 04 13 30.0000000  0 17        .000000000000
G05  20845942.508 8 109546191.120 8     -1385.316          50.000    20845942.750 8  85360636.178 8     -1079.470          50.000
G07  22859725.336 5 120128634.483 5     -2588.445          34.000    22859741.719 5  93606808.701 5     -2016.980          34.000
G28  21449292.539 8 112716785.196 8      1870.750          51.000    21449291.562 7  87831266.192 7      1457.724          46.000
G30  20749056.188 8 109037034.667 8     -1346.578          51.000    20749057.234 8  84963941.888 8     -1049.282          51.000
R02  21528554.828 8 114880471.404 8     -3354.125          51.000    21528555.203 6  89351468.927 6     -2608.767          41.000
R03  19186715.688 8 102708025.114 8       -30.367          51.000    19186715.984 7  79884014.215 7       -23.619          46.000
R13  19160500.992 6 102316035.338 6      -312.102          39.000    19160503.695 7  79579119.693 7      -242.746          44.000
R14  21134321.148 8 112657866.203 8      3423.121          48.000    21134324.758 7  87622806.097 7      2662.428          45.000
C05  39781054.008 6 207150386.676 6         4.426          36.000    39781053.766 7 160181810.878 7         3.425          42.000
C14                                                                  25397893.750 8 102266755.606 8     -2497.852          48.000
C23  24518197.680 7 127672744.769 7      2861.762          45.000
C24  23796670.539 5 123915483.857 5     -2453.125          34.000
C25  21766744.938 8 113345209.922 8       494.523          51.000
