     3.02           OBSERVATION DATA    M (MIXED)           RINEX VERSION / TYPE
SAVERINEX           SC600               20200502 175930 LCL PGM / RUN BY / DATE
       G = GPS       R = GLONASS       C = COMPASS          COMMENT
       S = SBAS      J = QZSS          E = GALILEO          COMMENT
BEAN                                                        MARKER NAME
1                                                           MARKER NUMBER
GEODETIC                                                    MARKER TYPE
Unige DICCA         GTER                                    OBSERVER / AGENCY
SC60291900056       SC600               2.12(191226)        REC # / TYPE / VERS
                    HEMA45          NONE                    ANT # / TYPE
  4509407.8091   693652.4678  4442337.6214                  APPROX POSITION XYZ
        0.0000        0.0000        0.0000                  ANTENNA: DELTA H/E/N
G    8 C1C L1C D1C S1C C2Y L2Y D2Y S2Y                      SYS / # / OBS TYPES
R    8 C1C L1C D1C S1C C2P L2P D2P S2P                      SYS / # / OBS TYPES
C    4 C1I L1I D1I S1I                                      SYS / # / OBS TYPES
E    8 C1C L1C D1C S1C C7Q L7Q D7Q S7Q                      SYS / # / OBS TYPES
DBHZ                                                        COMMENT
     30.000                                                 INTERVAL
  2020    05    02    15    00    0.0000000     GPS         TIME OF FIRST OBS
  2020    05    02    15    59   30.0000000     GPS         TIME OF LAST OBS
     0                                                      RCV CLOCK OFFS APPL
G L1C  0.00000                                              SYS / PHASE SHIFT
G L2Y  0.00000                                              SYS / PHASE SHIFT
R L1C  0.00000                                              SYS / PHASE SHIFT
R L2P  0.25000                                              SYS / PHASE SHIFT
C L1I  0.00000                                              SYS / PHASE SHIFT
E L1C  0.50000                                              SYS / PHASE SHIFT
E L7Q -0.25000                                              SYS / PHASE SHIFT
 13 R04  6 R05  1 R06 -4 R07  5 R09 -2 R10 -7 R11  0 R16 -1 GLONASS SLOT / FRQ #
    R18 -3 R19  3 R20  2 R21  4 R22 -3                      GLONASS SLOT / FRQ #
 C1C   71.950 C2C   71.950 C2P   71.950                     GLONASS COD/PHS/BIS
    18                                                      LEAP SECONDS
*** Above antenna height is from mark to ANTENNA BOTTOM.    COMMENT
    17     4        0.0000        ANT MEASURE TYPE/HEIGT    COMMENT
    0.0000    0.0000    0.0458    0.0405    0.0000          COMMENT
                    BASE STATION                            COMMENT
                                                            END OF HEADER
> 2020 05 02 15 00  0.0000000  0 14        .000000000000
G10  23946966.227 6 125842158.368 6      3447.008          39.000    23946973.289 6  98058846.228 6      2685.980          37.000
G18  21069174.914 8 110719348.652 8     -1968.719          48.000    21069174.891 7  86274808.348 7     -1534.067          45.000
G20  21825408.109 8 114693330.560 8      2257.305          49.000    21825402.969 7  89371431.783 7      1758.942          43.000
G21  21373223.695 8 112317075.867 8     -1732.137          50.000    21373222.492 8  87519846.412 8     -1349.720          48.000
G26  20392787.789 8 107164831.448 8      -855.609          51.000    20392790.047 8  83505059.973 8      -666.709          51.000
R04  22898464.188 5 122620246.575 5      -411.223          30.000    22898468.406 4  95371305.877 4      -319.840          29.000
R10  21068230.312 8 112305521.145 8     -3659.324          49.000
R21  20030565.945 5 107187596.632 5      1183.258          34.000
C27  25334209.258 5 131921863.664 5     -2653.605          32.000
C29  22733221.359 4 118377871.266 4      1667.750          29.000
C30  21837477.023 8 113713546.359 8      -954.734          51.000
E13  23548779.398 8 123749690.810 8     -1127.473          51.000    23548780.961 8  94821271.000 8      -863.899          51.000
E21  24138821.492 8 126850361.140 8     -1688.566          51.000    24138824.055 8  97197031.361 8     -1293.840          51.000
E26  23192794.617 8 121878963.673 8      1410.488          49.000    23192798.625 8  93387786.261 8      1080.728          51.000
> 2020 05 02 15 00 30.0000000  0 14        .000000000000
G10  23927295.906 6 125738795.331 6      3443.340          36.000    23927305.961 6  97978303.752 6      2683.125          36.000
G18  21080448.750 7 110778593.522 7     -1981.586          47.000    21080449.148 7  86320973.178 7     -1544.093          46.000
G20  21812559.852 8 114625815.386 8      2243.031          48.000    21812555.562 7  89318822.580 7      1747.817          44.000
G21  21383137.078 8 112369170.866 8     -1741.516          49.000    21383135.695 8  87560439.933 8     -1357.022          49.000
G26  20397721.586 8 107190759.023 8      -873.434          51.000    20397723.320 8  83525263.266 8      -680.601          51.000
R04  22900833.805 5 122632956.737 5      -437.527          30.000    22900842.750 5  95381193.731 5      -340.299          30.000
R10  21088866.875 8 112415521.575 8     -3674.680          49.000
R11  19987589.078 5 106807653.987 5       603.309          33.000
R21  20023967.844 5 107152288.179 5      1170.887          34.000
C27  25349494.750 5 132001471.275 5     -2654.805          30.000
C30  21842996.906 8 113742289.464 8      -962.129          51.000
E13  23555234.078 8 123783610.375 8     -1134.332          51.000    23555235.352 8  94847261.322 8      -869.178          51.000
E21  24148494.383 8 126901190.884 8     -1700.645          51.000    24148496.156 8  97235978.789 8     -1303.073          51.000
E26  23184764.164 8 121836760.399 8      1402.570          50.000    23184768.555 8  93355448.701 8      1074.700          51.000
> 2020 05 02 15 01  0.0000000  0 13        .000000000000
G10  23907642.047 4 125635524.924 4      3439.512          29.000    23907653.719 5  97897833.501 5      2680.145          31.000
G18  21091793.320 8 110838209.811 8     -1993.812          48.000    21091793.492 7  86367427.419 7     -1553.620          45.000
G20  21799790.406 8 114558716.681 8      2229.102          48.000    21799787.438 7  89266537.893 7      1736.962          44.000
G21  21393102.750 8 112421540.494 8     -1750.688          51.000    21393101.445 8  87601247.438 8     -1364.172          49.000
G26  20402754.820 8 107217208.597 8      -890.781          51.000    20402756.758 8  83545873.290 8      -694.115          51.000
R04  22903355.922 5 122646432.204 5      -462.047          35.000    22903357.422 4  95391674.118 4      -359.370          29.000
R10  21109587.453 8 112525970.908 8     -3689.609          49.000
R11  19984274.891 5 106789943.145 5       576.625          31.000
C27  25364783.938 5 132081096.226 5     -2655.094          35.000
C30  21848556.945 8 113771241.253 8      -969.035          51.000
E13  23561726.266 8 123817727.090 8     -1141.074          51.000    23561727.414 8  94873402.695 8      -874.327          51.000
E21  24158234.320 8 126952373.898 8     -1712.543          51.000    24158235.727 8  97275196.911 8     -1312.148          51.000
E26  23176777.328 8 121794787.484 8      1394.727          50.000    23176781.922 8  93323287.640 8      1068.669          51.000
> 2020 05 02 15 01 30.0000000  0 12        .000000000000
G18  21103195.250 8 110898127.620 8     -2006.188          48.000    21103195.305 7  86414116.607 7     -1563.263          45.000
G20  21787088.438 8 114491969.063 8      2215.086          49.000    21787086.312 7  89214526.774 7      1726.044          45.000
G21  21403107.500 8 112474115.443 8     -1759.746          51.000    21403106.469 8  87642214.935 8     -1371.231          49.000
G26  20407874.609 8 107244112.069 8      -908.199          51.000    20407876.766 8  83566837.005 8      -707.688          51.000
R04  22906002.742 5 122660596.430 5      -487.477          35.000    22906004.781 5  95402690.676 5      -379.151          30.000
R10  21130378.352 8 112636796.558 8     -3704.383          48.000
R11  19981096.945 6 106772974.749 6       549.258          38.000
C27  25380064.781 5 132160671.015 5     -2655.414          32.000
C30  21854143.922 8 113800333.976 8      -975.980          51.000
E13  23568242.906 8 123851972.093 8     -1147.480          51.000    23568244.102 8  94899642.359 8      -879.223          51.000
E21  24168028.312 8 127003841.582 8     -1724.164          51.000    24168029.773 8  97314633.151 8     -1321.083          51.000
E26  23168821.156 8 121752977.005 8      1387.137          50.000    23168826.008 8  93291251.031 8      1062.919          51.000
> 2020 05 02 15 02  0.0000000  0 12        .000000000000
G18  21114686.844 8 110958515.980 8     -2017.852          49.000    21114686.961 7  86461172.470 7     -1572.352          44.000
G20  21774486.656 8 114425745.896 8      2201.516          51.000    21774485.227 7  89162924.340 7      1715.467          46.000
G21  21413183.320 8 112527064.088 8     -1768.371          51.000    21413182.297 8  87683473.608 8     -1377.952          48.000
G26  20413113.383 8 107271640.337 8      -925.141          51.000    20413115.281 8  83588287.612 8      -720.889          51.000
R04  22908808.219 5 122675623.157 5      -512.199          32.000    22908810.883 4  95414378.118 4      -398.377          28.000
R10  21151271.133 7 112748167.986 7     -3718.562          47.000
R11  19978093.406 5 106756923.998 5       522.898          34.000
C27  25395369.578 4 132240364.817 4     -2656.066          27.000
C30  21859790.367 8 113829736.720 8      -982.406          51.000
E13  23574816.344 8 123886515.547 8     -1153.531          51.000    23574817.547 8  94926110.712 8      -883.919          51.000
E21  24177908.766 8 127055764.278 8     -1735.492          51.000    24177910.562 8  97354418.037 8     -1329.775          51.000
E26  23160928.469 8 121711500.026 8      1379.895          50.000    23160932.961 8  93259469.981 8      1057.340          51.000
> 2020 05 02 15 02 30.0000000  0 12        .000000000000
G10  23848812.234 6 125326362.309 6      3425.914          38.000    23848817.195 6  97656916.238 6      2669.546          38.000
G18  21126255.055 8 111019307.288 8     -2035.082          49.000    21126255.102 7  86508542.296 7     -1585.778          44.000
G20  21761972.977 8 114359984.400 8      2182.254          51.000    21761972.172 7  89111681.646 7      1700.461          46.000
G21  21423317.578 8 112580319.779 8     -1782.391          50.000    21423316.211 8  87724971.530 8     -1388.876          48.000
G26  20418458.445 8 107299727.567 8      -947.586          51.000    20418460.422 8  83610173.776 8      -738.379          51.000
R04  22911761.172 4 122691445.489 4      -543.301          29.000    22911764.633 4  95426684.478 4      -422.561          25.000
R10  21172252.125 7 112860014.613 7     -3738.129          44.000
R11  19975247.781 6 106741725.403 6       490.094          36.000
C30  21865483.789 8 113859383.989 8      -994.336          51.000
E13  23581433.867 8 123921290.868 8     -1165.102          51.000    23581435.023 8  94952756.729 8      -892.734          51.000
E21  24187863.203 8 127108075.572 8     -1752.234          51.000    24187865.422 8  97394500.697 8     -1342.606          51.000
E26  23153086.477 8 121670290.880 8      1367.102          49.000    23153090.328 8  93227894.163 8      1047.501          51.000
> 2020 05 02 15 03  0.0000000  0 13        .000000000000
G10  23829252.156 6 125223581.685 6      3424.082          40.000    23829257.680 6  97576827.504 6      2668.116          41.000
G18  21137895.492 8 111080478.374 8     -2045.176          48.000    21137895.375 7  86556208.066 7     -1593.643          44.000
G20  21749543.523 8 114294665.872 8      2169.938          51.000    21749543.078 7  89060784.114 7      1690.860          47.000
G21  21433505.906 8 112633859.572 8     -1789.285          49.000    21433504.367 8  87766690.831 8     -1394.248          49.000
G26  20423905.820 8 107328352.418 8      -963.043          51.000    20423908.102 8  83632478.840 8      -750.423          51.000
R04  22914859.789 5 122708041.693 5      -565.723          32.000
R10  21193317.766 7 112972311.696 7     -3750.840          44.000
R11  19972558.461 5 106727358.561 5       465.453          31.000
C29  22676253.141 5 118081251.062 5      1626.578          33.000
C30  21871220.062 8 113889254.397 8      -999.352          51.000
E13  23588091.344 8 123956276.025 8     -1169.566          51.000    23588092.531 8  94979563.538 8      -896.152          51.000
E21  24197887.438 8 127160753.610 8     -1761.930          51.000    24197889.977 8  97434864.375 8     -1350.062          51.000
E26  23145290.820 8 121629328.448 8      1361.488          48.000    23145294.180 8  93196507.391 8      1043.176          50.000
> 2020 05 02 15 03 30.0000000  0 14        .000000000000
G10  23809703.602 6 125120860.265 6      3422.480          41.000    23809709.156 6  97496784.921 6      2666.871          41.000
G18  21149595.492 8 111141962.595 8     -2055.473          49.000    21149595.242 7  86604117.834 7     -1601.667          43.000
G20  21737186.133 8 114229728.010 8      2157.434          51.000    21737186.141 7  89010183.229 7      1681.120          47.000
G21  21443735.594 8 112687617.414 8     -1796.281          49.000    21443734.367 8  87808580.057 8     -1399.700          49.000
G26  20429443.383 8 107357449.942 8      -978.570          51.000    20429445.445 8  83655152.232 8      -762.522          51.000
R04  22918089.805 5 122725345.670 5      -589.586          33.000
R10  21214455.094 7 113084989.350 7     -3762.938          43.000
R11  19970032.258 5 106713796.903 5       439.770          30.000
C29  22666890.672 5 118032489.377 5      1622.051          34.000
C30  21876986.781 8 113919283.428 8     -1004.305          51.000
E13  23594776.328 8 123991405.478 8     -1174.117          51.000    23594777.594 8  95006480.905 8      -899.660          51.000
E21  24207969.023 8 127213732.982 8     -1771.770          51.000    24207971.828 8  97475458.948 8     -1357.557          51.000
E26  23137530.031 8 121588548.118 8      1355.629          49.000    23137533.094 8  93165260.131 8      1038.690          50.000
E27  27494694.516 5 144485593.676 5     -3189.746          34.000
> 2020 05 02 15 04  0.0000000  0 13        .000000000000
G10  23790184.312 6 125018291.364 6      3415.367          40.000    23790190.617 6  97416861.168 6      2661.325          40.000
G18  21161371.938 8 111203848.125 8     -2070.539          50.000    21161371.500 7  86652340.307 7     -1613.410          43.000
G20  21724918.547 8 114165263.672 8      2139.922          49.000    21724918.766 7  88959951.285 7      1667.472          46.000
G21  21454023.570 8 112741681.484 8     -1808.219          50.000    21454022.594 8  87850707.893 8     -1409.002          49.000
G26  20435087.945 8 107387110.101 8      -999.023          51.000    20435089.664 8  83678264.040 8      -778.460          51.000
R04  22921470.828 6 122743448.713 6      -617.684          36.000
R10  21235680.297 7 113198135.280 7     -3780.273          44.000
C29  22657563.938 4 117983957.872 4      1613.457          29.000
C30  21882801.023 8 113949560.092 8     -1014.352          51.000
E13  23601505.758 8 124026768.518 8     -1183.719          51.000    23601506.977 8  95033577.253 8      -907.017          51.000
E21  24218125.094 8 127267103.148 8     -1786.500          51.000    24218128.242 8  97516352.958 8     -1368.954          51.000
E26  23129821.836 8 121548040.026 8      1344.633          50.000    23129824.375 8  93134221.477 8      1030.318          51.000
E27  27512919.297 5 144581366.695 5     -3194.273          32.000
> 2020 05 02 15 04 30.0000000  0 13        .000000000000
G10  23770670.180 6 124915750.770 6      3414.113          39.000    23770677.641 6  97336959.493 6      2660.351          39.000
G18  21173200.188 8 111266005.890 8     -2079.863          50.000    21173199.844 7  86700774.907 7     -1620.673          44.000
G20  21712716.641 7 114101148.113 7      2127.934          46.000    21712718.000 7  88909991.115 7      1658.130          46.000
G21  21464345.336 8 112795922.631 8     -1814.430          50.000    21464344.188 8  87892973.694 8     -1413.841          49.000
G26  20440815.086 8 107417205.556 8     -1013.742          51.000    20440816.539 8  83701715.030 8      -789.929          51.000
R04  22924977.773 5 122762221.406 5      -640.711          34.000    22924981.570 4  95481726.461 4      -498.334          28.000
R10  21256969.930 7 113311616.719 7     -3791.719          46.000
C27  25471963.156 5 132639211.846 5     -2659.871          33.000
C29  22648304.875 4 117935654.408 4      1608.996          29.000
C30  21888638.555 8 113979958.013 8     -1018.609          51.000
E13  23608255.234 8 124062237.118 8     -1187.473          51.000    23608256.266 8  95060754.492 8      -909.825          51.000
E21  24228331.352 8 127320736.273 8     -1795.512          51.000    24228334.617 8  97557448.446 8     -1375.788          51.000
E26  23122141.672 8 121507677.053 8      1339.617          50.000    23122143.531 8  93103294.039 8      1026.457          51.000
> 2020 05 02 15 05  0.0000000  0 11        .000000000000
G10  23751203.461 6 124813457.461 6      3402.660          41.000    23751211.453 6  97257250.489 6      2651.427          41.000
G18  21185120.930 8 111328649.754 8     -2099.250          50.000    21185120.773 7  86749588.306 7     -1635.779          45.000
G20  21700622.852 7 114037599.705 7      2105.691          46.000    21700624.906 7  88860472.837 7      1640.798          45.000
G21  21474741.641 8 112850555.416 8     -1830.645          49.000    21474740.539 8  87935544.698 8     -1426.473          49.000
G26  20446665.797 8 107447951.906 8     -1038.789          51.000    20446667.227 8  83725673.211 8      -809.446          51.000
R10  21278363.188 8 113425648.958 8     -3813.352          48.000
C27  25487303.391 5 132719091.699 5     -2668.285          33.000
C30  21894540.461 8 114010690.688 8     -1032.996          51.000
E13  23615065.688 8 124098026.314 8     -1201.305          51.000    23615066.609 8  95088177.402 8      -920.540          51.000
E21  24238628.648 8 127374847.440 8     -1814.668          51.000    24238631.711 8  97598910.239 8     -1390.451          51.000
E26  23114530.023 8 121467675.053 8      1324.387          48.000    23114531.539 8  93072643.204 8      1014.775          51.000
> 2020 05 02 15 05 30.0000000  0 12        .000000000000
G10  23731761.617 7 124711291.750 7      3405.836          42.000    23731769.641 7  97177640.884 7      2653.898          42.000
G18  21197110.453 8 111391655.079 8     -2103.871          51.000    21197110.438 7  86798683.346 7     -1639.380          45.000
G20  21688615.305 8 113974497.984 8      2098.293          49.000    21688616.484 7  88811302.715 7      1635.037          42.000
G21  21485188.883 8 112905456.062 8     -1832.047          50.000    21485188.133 8  87978324.442 8     -1427.569          49.000
G26  20452616.703 8 107479226.113 8     -1048.820          51.000    20452618.258 8  83750042.711 8      -817.263          51.000
R10  21299835.406 8 113540103.612 8     -3819.637          48.000
R11  19961401.680 5 106667701.676 5       329.461          31.000    19961407.727 4  82963775.339 4       256.250          28.000
C27  25502646.992 5 132798994.224 5     -2662.305          31.000
C30  21900483.180 8 114041636.121 8     -1032.715          51.000
E13  23621913.609 8 124134012.502 8     -1200.445          51.000    23621914.586 8  95115751.236 8      -919.831          51.000
E21  24248993.344 8 127429313.222 8     -1819.008          51.000    24248996.047 8  97640643.747 8     -1393.818          51.000
E26  23106963.500 8 121427911.450 8      1323.859          49.000    23106965.203 8  93042175.003 8      1014.407          51.000
> 2020 05 02 15 06  0.0000000  0 13        .000000000000
G10  23712308.211 7 124609062.438 7      3399.863          42.000    23712315.719 7  97097981.718 7      2649.247          43.000
G18  21209131.422 8 111454825.640 8     -2117.152          50.000    21209131.391 7  86847907.157 7     -1649.726          45.000
G20  21676656.805 8 113911651.485 8      2081.867          51.000    21676656.023 6  88762331.479 6      1622.237          41.000
G21  21495649.734 8 112960427.834 8     -1842.289          50.000    21495648.953 8  88021159.582 8     -1435.550          49.000
G26  20458631.016 8 107510833.727 8     -1067.828          51.000    20458632.844 8  83774672.010 8      -832.074          51.000
R04  22936386.148 6 122823244.602 6      -718.078          36.000
R10  21321348.312 7 113654779.784 7     -3835.043          46.000
C27  25517957.594 5 132878726.593 5     -2663.402          31.000
C30  21906429.586 8 114072601.552 8     -1041.113          51.000
E13  23628761.805 8 124170000.671 8     -1208.324          51.000    23628763.008 8  95143326.584 8      -925.847          51.000
E21  24259388.203 8 127483938.648 8     -1832.246          51.000    24259390.648 8  97682499.577 8     -1403.890          51.000
E26  23099405.273 8 121388192.036 8      1314.477          48.000    23099407.516 8  93011740.632 8      1007.187          51.000
E27  27585895.320 5 144964857.707 5     -3201.516          31.000
> 2020 05 02 15 06 30.0000000  0 14        .000000000000
G10  23692909.711 7 124507118.278 7      3397.078          43.000    23692916.156 7  97018544.768 7      2647.077          43.000
G18  21221249.195 8 111518505.241 8     -2127.461          51.000    21221249.109 7  86897527.636 7     -1657.762          45.000
G20  21664813.148 8 113849408.323 8      2068.348          51.000    21664810.930 7  88713830.379 7      1611.703          42.000
G21  21506189.641 8 113015815.258 8     -1849.477          49.000    21506188.633 8  88064318.599 8     -1441.151          48.000
G26  20464774.375 8 107543120.208 8     -1083.773          51.000    20464776.703 8  83799830.286 8      -844.499          51.000
R04  22940476.836 4 122845151.648 4      -741.633          29.000    22940479.375 4  95546279.850 4      -576.829          26.000
R10  21342966.031 7 113770024.207 7     -3847.246          42.000
R11  19958027.234 5 106649645.290 5       273.727          30.000
C27  25533302.203 4 132958602.251 4     -2663.012          28.000
C29  22611535.578 4 117744199.126 4      1583.430          28.000
C30  21912445.648 8 114103929.224 8     -1046.637          51.000
E13  23635676.055 8 124206335.721 8     -1213.227          51.000    23635677.383 8  95171167.732 8      -929.630          51.000
E21  24269878.562 8 127539068.733 8     -1842.402          50.000    24269881.406 8  97724742.098 8     -1411.681          51.000
E26  23091920.984 7 121348862.556 7      1308.180          47.000    23091923.961 8  92981605.062 8      1002.410          51.000
> 2020 05 02 15 07  0.0000000  0 14        .000000000000
G10  23673530.414 7 124405273.525 7      3392.508          42.000    23673535.664 7  96939185.296 7      2643.519          42.000
G18  21233427.672 8 111582503.167 8     -2139.211          51.000    21233427.555 7  86947396.128 7     -1666.918          45.000
G20  21653048.555 8 113787582.017 8      2053.246          51.000    21653046.047 7  88665654.097 7      1599.935          43.000
G21  21516772.258 8 113071427.675 8     -1858.188          49.000    21516771.312 8  88107652.967 8     -1447.938          48.000
G26  20471010.922 8 107575896.416 8     -1101.469          50.000    20471013.805 8  83825370.158 8      -858.287          50.000
R10  21364653.875 7 113885641.335 7     -3860.719          43.000
R21  19944748.141 4 106728448.098 4      1004.430          29.000    19944751.727 4  83011006.841 4       781.220          24.000
R22  23488534.227 6 125383395.715 6      3169.379          38.000    23488550.414 5  97520445.607 5      2465.076          32.000
C27  25548643.898 5 133038495.859 5     -2663.008          30.000
C29  22602426.414 4 117696765.549 4      1577.645          27.000
C30  21918495.492 8 114135431.702 8     -1053.727          51.000
E13  23642620.383 8 124242828.034 8     -1219.699          51.000    23642621.688 8  95199129.375 8      -934.635          51.000
E21  24280428.758 8 127594513.901 8     -1854.043          50.000    24280432.297 8  97767226.054 8     -1420.657          51.000
E26  23084474.602 7 121309734.208 7      1300.191          46.000    23084478.430 8  92951623.636 8       996.340          51.000
> 2020 05 02 15 07 30.0000000  0 13        .000000000000
G10  23654181.461 6 124303588.589 6      3386.816          41.000    23654185.258 6  96859950.351 6      2639.081          41.000
G18  21245677.281 8 111646874.755 8     -2151.918          51.000    21245677.305 7  86997555.788 7     -1676.819          45.000
G20  21641374.250 8 113726232.562 8      2037.086          51.000    21641372.344 7  88617849.373 7      1587.340          44.000
G21  21527408.352 8 113127320.827 8     -1867.812          50.000    21527407.406 7  88151206.063 7     -1455.438          47.000
G26  20477351.859 8 107609219.345 8     -1119.805          51.000    20477354.883 8  83851336.077 8      -872.575          51.000
R10  21386424.953 8 114001686.186 8     -3875.145          48.000
R11  19955228.844 5 106634764.645 5       217.895          34.000
R22  23470738.742 6 125288408.563 6      3163.230          38.000    23470753.781 5  97446566.818 5      2460.296          32.000
C27  25563993.289 5 133118427.185 5     -2665.250          31.000
C30  21924589.750 8 114167165.461 8     -1061.613          51.000
E13  23649605.398 8 124279534.085 8     -1227.129          51.000    23649606.680 8  95227254.778 8      -940.223          51.000
E21  24291049.828 8 127650330.699 8     -1866.734          50.000    24291053.992 8  97809994.777 8     -1430.406          51.000
E26  23077077.383 7 121270864.394 7      1291.441          47.000    23077081.852 8  92921840.325 8       989.423          50.000
> 2020 05 02 15 08  0.0000000  0 15        .000000000000
G10  23634857.703 6 124202038.497 6      3383.035          39.000    23634859.258 6  96780820.609 6      2636.143          38.000
G18  21257992.242 8 111711589.993 8     -2162.602          51.000    21257992.273 7  87047983.249 7     -1685.144          46.000
G20  21629785.273 8 113665334.340 8      2022.719          50.000    21629784.477 7  88570396.253 7      1576.148          45.000
G21  21538092.281 8 113183465.310 8     -1875.270          50.000    21538091.234 7  88194954.991 7     -1461.249          46.000
G26  20483791.648 8 107643060.614 8     -1136.215          51.000    20483794.523 8  83877705.904 8      -885.362          51.000
R04  22953589.617 5 122915392.820 5      -817.797          32.000
R10  21408270.648 8 114118126.033 8     -3887.492          50.000
R11  19954077.641 5 106628624.708 5       190.879          33.000
R21  19933644.547 5 106668964.246 5       978.605          32.000
R22  23452974.562 6 125193580.440 6      3158.730          37.000    23452986.562 5  97372811.769 5      2456.796          31.000
C27  25579346.109 5 133198372.045 5     -2664.898          31.000
C30  21930722.992 8 114199102.346 8     -1067.633          51.000
E13  23656625.461 8 124316425.001 8     -1232.477          51.000    23656626.914 8  95255521.856 8      -944.383          51.000
E21  24301736.359 8 127706490.337 8     -1877.387          51.000    24301740.805 8  97853026.176 8     -1438.556          51.000
E26  23069723.938 7 121232225.145 7      1284.410          47.000    23069729.133 8  92892233.614 8       984.120          50.000
> 2020 05 02 15 08 30.0000000  0 14        .000000000000
G10  23615559.906 6 124100625.242 6      3377.547          36.000    23615559.797 6  96701797.438 6      2631.855          36.000
G18  21270372.000 8 111776645.864 8     -2174.152          51.000    21270371.750 7  87098676.136 7     -1694.145          45.000
G20  21618282.117 8 113604888.451 8      2007.152          49.000    21618282.281 7  88523295.596 7      1564.018          45.000
G21  21548823.492 8 113239858.489 8     -1883.992          50.000    21548822.445 7  88238897.722 7     -1468.046          46.000
G26  20490329.836 8 107677418.852 8     -1154.070          50.000    20490332.828 8  83904478.553 8      -899.276          51.000
R10  21430189.109 8 114234956.364 8     -3900.863          50.000
R11  19953081.664 5 106623309.181 5       163.469          35.000    19953103.734 4  82929243.796 4       127.139          28.000
R21  19928196.266 5 106639805.429 5       965.195          33.000
R22  23435241.531 5 125098911.721 5      3152.770          34.000    23435249.133 5  97299180.643 5      2452.157          30.000
C27  25594700.500 5 133278329.239 5     -2665.656          33.000
C30  21936894.898 8 114231241.000 8     -1074.824          51.000
E13  23663680.375 8 124353498.955 8     -1238.938          51.000    23663682.023 8  95283929.169 8      -949.310          51.000
E21  24312488.195 8 127762991.018 8     -1889.180          51.000    24312492.125 8  97896318.855 8     -1447.472          51.000
E26  23062414.500 7 121193815.369 7      1276.375          47.000    23062420.102 8  92862802.729 8       978.088          50.000
> 2020 05 02 15 09  0.0000000  0 13        .000000000000
G10  23596286.367 5 123999347.417 5      3373.082          35.000    23596287.508 6  96622879.676 6      2628.373          36.000
G18  21282815.234 8 111842035.977 8     -2186.078          51.000    21282815.039 7  87149629.450 7     -1703.437          45.000
G20  21606865.008 8 113544893.063 8      1991.543          49.000    21606865.273 7  88476545.946 7      1551.852          45.000
G21  21559600.953 8 113296494.372 8     -1892.691          50.000    21559599.766 7  88283029.554 7     -1474.824          45.000
G26  20496965.555 8 107712289.137 8     -1171.422          51.000    20496968.734 8  83931650.176 8      -912.796          50.000
R10  21452178.266 8 114352168.017 8     -3914.059          49.000
R11  19952241.250 6 106618814.333 6       135.172          36.000    19952253.086 4  82925742.856 4       105.131          26.000
C27  25610056.727 5 133358294.206 5     -2666.027          32.000
C29  22566381.633 5 117509101.530 5      1549.449          32.000
C30  21943104.547 8 114263576.630 8     -1081.848          51.000
E13  23670769.242 8 124390750.596 8     -1245.422          51.000    23670770.914 8  95312472.616 8      -954.254          51.000
E21  24323304.172 8 127819827.411 8     -1900.816          51.000    24323307.062 8  97939868.777 8     -1456.533          51.000
E26  23055148.414 7 121155630.539 7      1268.422          47.000    23055153.820 8  92833544.237 8       971.791          50.000
> 2020 05 02 15 09 30.0000000  0 13        .000000000000
G10  23577044.539 6 123898242.754 6      3367.219          36.000    23577048.352 5  96544096.900 5      2623.810          35.000
G18  21295328.305 8 111907793.044 8     -2197.918          51.000    21295328.375 7  87200868.715 7     -1712.666          44.000
G20  21595541.016 8 113485385.357 8      1975.523          49.000    21595540.969 7  88430176.331 7      1539.372          44.000
G21  21570430.914 8 113353406.294 8     -1901.648          50.000    21570429.617 7  88327376.492 7     -1481.804          45.000
G26  20503705.344 8 107747705.806 8     -1189.543          51.000    20503708.406 8  83959247.562 8      -926.917          51.000
R10  21474244.312 8 114469793.125 8     -3927.574          48.000
R11  19951560.844 5 106615176.066 5       107.082          33.000    19951564.898 4  82922877.154 4        83.280          25.000
C27  25625422.633 5 133438301.044 5     -2667.488          32.000
C29  22557473.078 4 117462711.997 4      1542.520          29.000
C30  21949358.500 8 114296143.310 8     -1089.348          51.000
E13  23677898.266 8 124428213.823 8     -1252.184          51.000    23677900.000 8  95341178.200 8      -959.486          51.000
E21  24334190.570 8 127877033.450 8     -1912.914          51.000    24334192.484 8  97983701.944 8     -1465.718          51.000
E26  23047931.766 8 121117705.444 8      1259.988          48.000    23047936.984 8  92804484.758 8       965.422          50.000
> 2020 05 02 15 10  0.0000000  0 12        .000000000000
G10  23557833.094 6 123797291.509 6      3363.125          37.000    23557838.266 6  96465433.656 6      2620.617          37.000
G18  21307906.602 8 111973892.297 8     -2207.785          51.000    21307906.680 7  87252374.606 7     -1720.352          44.000
G20  21584305.906 8 113426344.546 8      1961.328          49.000    21584305.609 7  88384170.558 7      1528.311          45.000
G21  21581308.516 8 113410569.058 8     -1908.496          49.000    21581307.156 7  88371918.904 7     -1487.140          43.000
G26  20510544.789 8 107783645.586 8     -1205.590          51.000    20510547.500 8  83987252.578 8      -939.421          51.000
R10  21496382.773 8 114587804.152 8     -3938.848          48.000
R11  19951036.711 6 106612371.946 6        80.801          40.000    19951038.125 5  82920696.186 5        62.845          30.000
C27  25640792.758 5 133518327.997 5     -2666.629          32.000
C30  21955652.477 8 114328918.025 8     -1094.914          51.000
E13  23685062.859 8 124465864.979 8     -1256.965          51.000    23685064.688 8  95370027.778 8      -963.195          51.000
E21  24345142.781 8 127934585.493 8     -1923.039          51.000    24345144.125 8  98027800.229 8     -1473.506          51.000
E26  23040760.078 8 121080017.258 8      1253.438          48.000    23040764.648 8  92775606.803 8       960.459          49.000
> 2020 05 02 15 10 30.0000000  0 13        .000000000000
G10  23538676.500 6 123696619.694 6      3359.246          39.000    23538680.969 6  96386988.169 6      2617.597          39.000
G18  21320573.109 8 112040454.839 8     -2218.055          51.000    21320573.047 7  87304241.502 7     -1728.357          44.000
G20  21573183.641 8 113367896.107 8      1946.797          50.000    21573183.602 7  88338626.355 7      1516.988          45.000
G21  21592257.039 8 113468104.212 8     -1915.738          50.000    21592255.828 7  88416751.491 7     -1492.783          43.000
G26  20517506.914 8 107820231.145 8     -1221.980          51.000    20517509.375 8  84015760.788 8      -952.196          51.000
R10  21518616.547 7 114706322.117 7     -3950.539          47.000
R11  19950691.641 5 106610527.319 5        54.418          31.000    19950693.547 4  82919261.460 4        42.319          28.000
C27  25656189.320 5 133598494.852 5     -2666.734          34.000
C29  22539836.758 5 117370744.972 5      1531.598          33.000
C30  21962009.758 8 114362022.464 8     -1100.660          51.000
E13  23692286.492 8 124503826.342 8     -1262.184          51.000    23692288.281 8  95399115.038 8      -967.152          51.000
E21  24356183.852 8 127992605.824 8     -1933.508          51.000    24356185.172 8  98072257.323 8     -1481.513          51.000
E26  23033656.945 8 121042689.081 8      1246.539          49.000    23033660.000 7  92747004.680 7       955.218          47.000
> 2020 05 02 15 11  0.0000000  0 14        .000000000000
G10  23519492.797 6 123595802.852 6      3352.039          37.000    23519495.547 6  96308429.677 6      2611.985          37.000
G18  21333246.086 8 112107051.005 8     -2231.375          51.000    21333246.070 7  87356134.607 7     -1738.734          45.000
G20  21562093.211 8 113309614.618 8      1928.926          49.000    21562093.125 7  88293212.214 7      1503.059          46.000
G21  21603194.938 8 113525582.607 8     -1925.961          49.000    21603194.180 7  88461539.829 7     -1500.749          43.000
G26  20524510.078 8 107857034.342 8     -1241.422          51.000    20524512.586 8  84044438.570 8      -967.342          51.000
R10  21540862.703 7 114824909.362 7     -3965.172          44.000
R11  19950445.867 5 106609208.107 5        24.578          33.000    19950445.586 5  82918211.467 5        19.116          31.000
R22  23347037.422 4 124628055.180 4      3124.668          29.000
C27  25671531.828 4 133678378.593 4     -2669.031          29.000
C29  22530957.812 5 117324608.963 5      1522.609          31.000
C30  21968348.906 8 114395032.521 8     -1109.625          51.000
E13  23699487.695 8 124541669.397 8     -1270.438          51.000    23699489.430 8  95428111.657 8      -973.458          51.000
E21  24367232.078 8 128050665.868 8     -1946.945          51.000    24367233.914 8  98116744.851 8     -1491.833          51.000
E26  23026541.039 8 121005293.161 8      1236.691          50.000    23026542.109 7  92718350.667 7       947.571          46.000
> 2020 05 02 15 11 30.0000000  0 13        .000000000000
G10  23500376.766 5 123495331.500 5      3349.496          34.000    23500375.539 5  96230140.454 5      2610.000          35.000
G18  21346017.844 8 112174166.461 8     -2239.609          51.000    21346017.836 7  87408432.345 7     -1745.150          44.000
G20  21551127.594 8 113251990.124 8      1916.090          50.000    21551127.695 7  88248310.015 7      1493.057          46.000
G21  21614214.539 8 113583490.429 8     -1931.219          48.000    21614213.875 7  88506662.817 7     -1504.846          43.000
G26  20531647.445 8 107894542.227 8     -1255.789          51.000    20531649.766 8  84073665.473 8      -978.537          51.000
R04  22989122.125 4 123105705.485 4      -990.691          28.000    22989134.844 4  95748934.716 4      -770.538          24.000
R10  21563212.109 6 114944056.125 6     -3974.383          40.000
R11  19950390.055 5 106608889.434 5         -.527          35.000    19950393.594 5  82918008.980 5         -.413          31.000
C29  22522213.727 4 117279119.498 4      1519.512          27.000
C30  21974762.703 8 114428430.976 8     -1113.543          51.000
E13  23706759.016 8 124579880.918 8     -1273.547          51.000    23706760.922 8  95457390.601 8      -975.820          51.000
E21  24378380.352 8 128109252.367 8     -1955.352          51.000    24378382.891 8  98161635.776 8     -1498.200          51.000
E26  23019504.930 8 120968317.086 8      1231.820          50.000    23019504.656 7  92690018.372 7       943.952          46.000
> 2020 05 02 15 12  0.0000000  0 12        .000000000000
G10  23481308.617 5 123395109.057 5      3346.113          32.000    23481302.891 5  96152045.330 5      2607.367          33.000
G18  21358869.000 8 112241699.666 8     -2247.742          50.000    21358868.844 7  87461055.605 7     -1751.487          44.000
G20  21540268.641 8 113194925.316 8      1903.141          50.000    21540268.953 7  88203843.941 7      1482.967          47.000
G21  21625296.469 7 113641726.573 7     -1936.453          47.000    21625295.438 7  88552041.633 7     -1508.921          44.000
G26  20538900.195 8 107932654.834 8     -1270.371          51.000    20538902.156 8  84103363.596 8      -989.900          51.000
R04  22994780.125 5 123135986.365 5     -1013.352          31.000
R10  21585647.930 7 115063658.492 7     -3983.750          42.000
R11  19950501.188 5 106609512.408 5       -25.438          30.000    19950512.383 5  82918493.706 5       -19.779          32.000
C30  21981232.125 8 114462118.898 8     -1117.547          51.000
E13  23714081.414 8 124618360.589 8     -1276.949          51.000    23714083.617 8  95486875.014 8      -978.436          51.000
E21  24389609.742 8 128168264.945 8     -1963.988          51.000    24389613.203 8  98206853.204 8     -1504.895          51.000
E26  23012529.789 8 120931661.369 8      1226.676          50.000    23012528.719 7  92661931.559 7       940.037          47.000
> 2020 05 02 15 12 30.0000000  0 13        .000000000000
G10  23462236.625 6 123294889.768 6      3334.453          37.000    23462231.195 6  96073952.609 6      2598.284          38.000
G18  21371751.758 8 112309399.567 8     -2265.543          49.000    21371751.711 7  87513808.771 7     -1765.358          45.000
G20  21529469.219 8 113138173.445 8      1880.488          50.000    21529469.328 7  88159621.706 7      1465.316          46.000
G21  21636393.156 7 113700040.275 7     -1950.961          47.000    21636392.055 7  88597480.885 7     -1520.226          44.000
G26  20546220.477 8 107971122.543 8     -1294.168          51.000    20546222.383 8  84133338.416 8     -1008.446          51.000
R04  23000548.094 5 123166859.725 5     -1045.633          32.000    23000556.477 4  95796501.802 4      -813.264          27.000
R10  21608123.023 7 115183459.430 7     -4002.773          43.000
R11  19950740.328 5 106610718.186 5       -60.309          33.000    19950747.727 4  82919468.880 4       -46.907          29.000
R21  19887167.453 5 106420287.945 5       863.328          33.000
C30  21987709.531 8 114495849.133 8     -1131.043          51.000
E13  23721407.266 8 124656858.469 8     -1289.645          51.000    23721409.789 8  95516373.387 8      -988.193          51.000
E21  24400872.828 8 128227453.626 8     -1982.000          51.000    24400877.297 8  98252205.572 8     -1518.654          51.000
E26  23005568.070 8 120895076.923 8      1212.199          50.000    23005567.039 7  92633899.345 7       928.879          47.000
> 2020 05 02 15 13  0.0000000  0 12        .000000000000
G10  23443225.633 7 123195001.902 7      3326.883          44.000    23443223.086 7  95996118.063 7      2592.379          44.000
G18  21384727.828 8 112377589.425 8     -2278.145          49.000    21384728.117 7  87566943.733 7     -1775.175          44.000
G20  21518791.398 8 113082062.168 8      1862.715          49.000    21518791.344 7  88115898.642 7      1451.466          45.000
G21  21647566.258 7 113758755.163 7     -1960.855          47.000    21647565.492 7  88643232.760 7     -1527.939          44.000
G26  20553669.938 8 108010270.060 8     -1313.250          51.000    20553671.891 8  84163842.935 8     -1023.312          51.000
R10  21630696.680 7 115303784.860 7     -4016.711          42.000
R11  19951173.805 6 106613045.951 6       -89.691          36.000    19951184.938 5  82921268.220 5       -69.757          30.000
R21  19882374.023 4 106394598.541 4       848.988          29.000
C30  21994256.930 8 114529943.694 8     -1139.555          51.000
E13  23728798.398 8 124695699.036 8     -1297.375          51.000    23728801.109 8  95546134.336 8      -994.119          51.000
E21  24412231.461 8 128287142.818 8     -1995.000          51.000    24412236.523 8  98297941.444 8     -1528.609          51.000
E26  22998681.500 8 120858888.930 8      1202.688          50.000    22998681.117 7  92606170.896 7       921.504          47.000
> 2020 05 02 15 13 30.0000000  0 14        .000000000000
G10  23424218.820 7 123095136.016 7      3324.645          46.000    23424219.242 7  95918300.599 7      2590.638          46.000
G18  21397737.367 8 112445954.786 8     -2285.406          48.000    21397737.641 7  87620215.443 7     -1780.833          44.000
G20  21508176.414 8 113026280.931 8      1850.109          49.000    21508176.016 7  88072432.766 7      1441.644          45.000
G21  21658755.938 7 113817557.245 7     -1965.203          46.000    21658755.055 7  88689052.568 7     -1531.327          43.000
G26  20561189.438 8 108049784.294 8     -1327.062          51.000    20561191.320 8  84194633.223 8     -1034.075          51.000
R04  23012537.945 5 123231079.510 5     -1092.930          34.000    23012542.047 5  95846408.735 5      -850.056          31.000
R10  21653308.195 6 115424313.652 6     -4024.949          40.000
R11  19951726.742 6 106615992.105 6      -114.070          36.000    19951740.133 5  82923579.710 5       -88.721          30.000
R22  23259646.852 5 124161573.955 5      3097.238          32.000    23259646.164 4  96570109.768 4      2408.972          27.000
C29  22487566.594 5 117098646.665 5      1491.188          31.000
C30  22000814.930 8 114564092.535 8     -1142.949          51.000
E13  23736195.156 8 124734568.966 8     -1299.961          51.000    23736197.922 8  95575917.779 8      -996.026          51.000
E21  24423625.961 8 128347019.133 8     -2002.789          51.000    24423631.000 8  98343820.695 8     -1534.602          51.000
E26  22991811.047 8 120822784.870 8      1198.270          50.000    22991811.617 8  92578506.743 8       918.113          48.000
> 2020 05 02 15 14  0.0000000  0 13        .000000000000
G10  23405271.555 8 122995578.720 8      3317.988          49.000    23405273.984 8  95840723.609 8      2585.452          49.000
G18  21410833.938 8 112514777.366 8     -2297.066          48.000    21410833.961 7  87673843.429 7     -1789.922          43.000
G20  21497678.930 8 112971116.034 8      1833.176          50.000    21497677.875 7  88029447.150 7      1428.449          44.000
G21  21670015.922 7 113876728.362 7     -1973.871          47.000    21670014.250 7  88735159.916 7     -1538.081          45.000
G26  20568832.484 8 108089948.294 8     -1344.988          51.000    20568834.727 8  84225929.831 8     -1048.043          51.000
R04  23018750.750 5 123264301.899 5     -1119.246          30.000    23018756.953 4  95872275.913 4      -870.522          29.000
R10  21676010.391 6 115545329.997 6     -4037.438          38.000
R11  19952465.109 5 106619934.266 5      -142.688          34.000    19952473.281 5  82926645.833 5      -110.976          32.000
R22  23242268.695 5 124068807.984 5      3089.891          32.000    23242274.922 4  96497988.047 4      2403.248          27.000
C30  22007437.297 8 114598576.417 8     -1150.453          51.000
E13  23743651.336 8 124773751.041 8     -1306.523          51.000    23743654.008 8  95605940.404 8     -1001.093          51.000
E21  24435109.844 8 128407365.307 8     -2014.648          51.000    24435114.445 8  98390059.957 8     -1543.653          51.000
E26  22985010.797 8 120787048.287 8      1189.766          50.000    22985011.969 8  92551124.181 8       911.689          49.000
> 2020 05 02 15 14 30.0000000  0 14        .000000000000
G10  23386325.742 8 122896023.282 8      3313.609          50.000    23386327.812 8  95763148.107 8      2582.039          50.000
G18  21423958.156 8 112583745.401 8     -2306.176          48.000    21423957.992 7  87727584.745 7     -1797.020          42.000
G20  21487240.328 8 112916259.610 8      1818.504          51.000    21487239.148 7  87986701.906 7      1417.016          45.000
G21  21681287.039 7 113935957.269 7     -1980.016          47.000    21681285.031 7  88781312.295 7     -1542.869          44.000
G26  20576539.906 8 108130451.775 8     -1360.652          51.000    20576542.586 8  84257490.955 8     -1060.249          51.000
R04  23025071.211 4 123298181.625 4     -1142.523          28.000
R10  21698742.867 5 115666515.512 5     -4047.785          33.000
R11  19953325.789 5 106624531.995 5      -169.117          35.000    19953333.383 5  82930221.822 5      -131.536          33.000
R22  23224901.984 5 123976083.714 5      3086.113          32.000    23224910.336 4  96425863.682 4      2400.319          28.000
C27  25779244.844 4 134239289.709 4     -2671.984          29.000
C30  22014064.992 8 114633088.103 8     -1155.656          51.000
E13  23751107.820 8 124812934.746 8     -1311.004          51.000    23751110.383 8  95635964.278 8     -1004.565          51.000
E21  24446623.914 8 128467870.670 8     -2024.387          51.000    24446627.805 8  98436421.195 8     -1551.124          51.000
E26  22978221.641 8 120751369.470 8      1183.484          50.000    22978223.180 8  92523785.896 8       906.859          49.000
> 2020 05 02 15 15  0.0000000  0 13        .000000000000
G10  23367431.172 8 122796734.033 8      3305.598          51.000    23367432.312 8  95685780.029 8      2575.796          50.000
G18  21437159.344 7 112653118.137 7     -2318.730          47.000    21437159.062 7  87781641.403 7     -1806.803          42.000
G20  21476910.641 8 112861974.967 8      1800.410          51.000    21476909.430 7  87944402.223 7      1402.920          46.000
G21  21692618.422 7 113995503.631 7     -1989.773          47.000    21692616.750 7  88827712.063 7     -1550.473          44.000
G26  20584361.758 8 108171555.292 8     -1379.672          51.000    20584364.508 8  84289519.673 8     -1075.069          51.000
R10  21721557.766 6 115788130.921 6     -4060.336          37.000
R11  19954358.398 5 106630038.145 5      -199.074          33.000    19954362.906 5  82934514.453 5      -154.839          32.000
R22  23207586.422 4 123883671.827 4      3078.375          26.000
C27  25794640.125 5 134319456.808 5     -2673.203          30.000
C30  22020747.648 8 114667886.125 8     -1164.266          51.000
E13  23758614.242 8 124852380.513 8     -1318.801          51.000    23758616.680 8  95666188.942 8     -1010.492          51.000
E21  24458217.508 8 128528795.539 8     -2037.340          51.000    24458220.656 8  98483103.866 8     -1561.085          51.000
E26  22971492.898 8 120716009.619 8      1173.766          49.000    22971495.023 8  92496691.997 8       899.379          49.000
> 2020 05 02 15 15 30.0000000  0 13        .000000000000
G10  23348584.523 8 122697693.968 8      3300.652          51.000    23348585.656 8  95608606.069 8      2571.940          51.000
G18  21450433.359 7 112722873.576 7     -2327.922          46.000    21450432.766 6  87835996.266 6     -1813.965          40.000
G20  21466686.398 8 112808244.778 8      1785.227          50.000    21466685.078 7  87902534.579 7      1391.086          46.000
G21  21704005.969 8 114055345.852 8     -1996.293          49.000    21704004.398 7  88874342.354 7     -1555.553          42.000
G26  20592293.805 8 108213238.200 8     -1395.676          51.000    20592296.891 8  84321999.851 8     -1087.540          51.000
R10  21744451.008 6 115910152.708 6     -4070.781          40.000
R11  19955560.102 5 106636503.642 5      -225.301          33.000    19955565.445 5  82939513.745 5      -175.234          34.000
R22  23190300.977 5 123791406.326 5      3073.969          33.000
C27  25810049.305 4 134399699.305 4     -2672.934          28.000
C30  22027481.391 8 114702950.340 8     -1169.793          51.000
E13  23766166.547 8 124892067.482 8     -1323.453          51.000    23766168.898 8  95696598.436 8     -1014.051          51.000
E21  24469886.531 8 128590118.973 8     -2047.297          51.000    24469889.312 8  98530091.916 8     -1568.711          51.000
E26  22964820.531 7 120680948.605 7      1167.211          47.000    22964823.906 8  92469827.075 8       894.374          50.000
> 2020 05 02 15 16  0.0000000  0 13        .000000000000
G10  23329758.094 8 122598758.988 8      3294.418          50.000    23329759.602 8  95531513.957 8      2567.082          50.000
G18  21463751.898 7 112792862.617 7     -2338.527          45.000    21463751.102 6  87890533.139 6     -1822.232          41.000
G20  21456539.664 8 112754923.449 8      1768.875          50.000    21456538.227 7  87860985.519 7      1378.344          46.000
G21  21715421.703 8 114115335.354 8     -2003.684          49.000    21715419.914 7  88921087.394 7     -1561.312          44.000
G26  20600307.773 8 108255352.698 8     -1412.715          51.000    20600311.078 8  84354816.328 8     -1100.817          50.000
R10  21767391.727 7 116032427.633 7     -4081.512          42.000
R11  19956905.859 6 106643674.502 6      -253.000          37.000    19956905.609 5  82945091.539 5      -196.781          33.000
R22  23173043.039 5 123699263.327 5      3068.418          34.000
C27  25825447.500 4 134479880.946 4     -2673.270          28.000
C30  22034238.258 8 114738134.602 8     -1176.512          51.000
E13  23773736.578 8 124931847.690 8     -1329.219          51.000    23773738.789 8  95727079.367 8     -1018.465          51.000
E21  24481603.195 8 128651692.816 8     -2058.301          51.000    24481606.016 8  98577271.860 8     -1577.077          51.000
E26  22958177.078 8 120646039.189 8      1159.574          48.000    22958181.641 8  92443078.334 8       888.478          50.000
> 2020 05 02 15 16 30.0000000  0 13        .000000000000
G10  23310986.141 7 122500111.273 7      3286.418          47.000    23310987.906 7  95454645.661 7      2560.848          47.000
G18  21477148.516 7 112863262.387 7     -2350.441          45.000    21477148.023 6  87945390.083 6     -1831.513          41.000
G20  21446505.258 8 112702192.463 8      1750.852          50.000    21446503.844 7  87819896.443 7      1364.300          47.000
G21  21726899.219 8 114175649.415 8     -2012.906          49.000    21726897.484 7  88968085.358 7     -1568.495          45.000
G26  20608438.102 8 108298077.255 8     -1431.312          51.000    20608441.203 8  84388108.172 8     -1115.308          51.000
R10  21790412.820 7 116155133.111 7     -4094.098          44.000
R11  19958423.406 5 106651779.781 5      -282.445          34.000    19958423.422 5  82951395.649 5      -219.683          33.000
R22  23155833.008 5 123607408.033 5      3060.645          32.000
C29  22436747.961 5 116834026.182 5      1449.801          34.000
C30  22041052.180 8 114773616.110 8     -1184.746          51.000
E13  23781358.234 8 124971899.490 8     -1336.586          51.000    23781360.242 8  95757768.393 8     -1024.164          51.000
E21  24493401.828 8 128713695.281 8     -2070.891          51.000    24493404.680 8  98624780.232 8     -1586.825          51.000
E26  22951596.898 8 120611460.550 8      1150.113          48.000    22951601.906 8  92416583.017 8       881.187          50.000
> 2020 05 02 15 17  0.0000000  0 13        .000000000000
G10  23292240.172 7 122401604.337 7      3279.273          44.000    23292242.734 7  95377887.032 7      2555.278          44.000
G18  21490594.312 7 112933921.322 7     -2361.426          44.000    21490594.406 6  88000449.010 6     -1840.072          41.000
G20  21436555.180 8 112649904.737 8      1733.625          51.000    21436554.188 7  87779152.765 7      1350.877          47.000
G21  21738409.594 8 114236136.731 8     -2020.980          49.000    21738408.172 7  89015218.318 7     -1574.790          46.000
G26  20616656.133 8 108341261.579 8     -1448.934          51.000    20616658.883 8  84421758.291 8     -1129.039          51.000
G27  21898470.852 6 115077249.823 6      2297.617          38.000    21898474.289 5  89670584.028 5      1790.339          32.000
R10  21813484.867 7 116278113.514 7     -4105.918          43.000
R11  19960085.742 5 106660666.636 5      -311.227          34.000    19960084.883 5  82958307.548 5      -242.071          30.000
R22  23138645.648 5 123515659.141 5      3054.387          34.000
C30  22047894.562 8 114809246.346 8     -1192.027          51.000
E13  23789002.898 8 125012072.560 8     -1343.000          51.000    23789004.773 8  95788550.336 8     -1029.043          51.000
E21  24505253.781 8 128775975.878 8     -2082.582          51.000    24505256.477 8  98672501.703 8     -1595.772          51.000
E26  22945051.023 7 120577063.066 7      1141.594          47.000    22945056.008 8  92390226.495 8       874.731          49.000
> 2020 05 02 15 17 30.0000000  0 14        .000000000000
G10  23273524.617 7 122303265.660 7      3275.117          44.000    23273529.367 7  95301259.465 7      2552.039          43.000
G16  20550988.164 5 107996177.233 5       784.477          34.000    20550985.320 5  84152865.338 5       611.287          32.000
G18  21504093.797 7 113004861.986 7     -2369.359          46.000    21504094.102 6  88055727.445 6     -1846.254          39.000
G20  21426694.398 8 112598086.326 8      1719.488          51.000    21426693.570 7  87738774.804 7      1339.864          47.000
G21  21749957.273 8 114296820.559 8     -2026.066          49.000    21749956.023 7  89062504.409 7     -1578.753          45.000
G26  20624965.875 8 108384929.477 8     -1463.684          51.000    20624968.672 8  84455785.190 8     -1140.536          51.000
R10  21836611.656 6 116401389.466 6     -4114.113          41.000
R11  19961899.078 5 106670359.826 5      -336.305          34.000    19961897.570 5  82965846.701 5      -261.573          30.000
R22  23121485.648 5 123424056.984 5      3051.352          32.000    23121477.242 4  95996457.837 4      2373.273          25.000
C29  22420113.836 5 116747418.963 5      1438.191          32.000
C30  22054770.016 8 114845049.201 8     -1196.270          51.000
E13  23796675.070 8 125052390.442 8     -1346.348          51.000    23796676.961 8  95819443.247 8     -1031.545          51.000
E21  24517163.461 8 128838558.039 8     -2091.051          51.000    24517165.367 8  98720454.235 8     -1602.171          51.000
E26  22938544.062 7 120542871.021 7      1136.434          47.000    22938549.234 8  92364027.412 8       870.708          49.000
> 2020 05 02 15 18  0.0000000  0 15        .000000000000
G10  23254850.383 7 122205135.886 7      3265.012          47.000    23254855.516 7  95224794.762 7      2544.168          47.000
G16  20546562.094 5 107972922.888 5       763.844          34.000    20546562.984 5  84134745.033 5       595.200          32.000
G18  21517653.867 7 113076120.080 7     -2383.156          45.000    21517653.977 6  88111253.205 6     -1857.005          40.000
G20  21416930.617 8 112546777.050 8      1699.215          51.000    21416929.664 7  87698793.558 7      1324.064          46.000
G21  21761549.188 8 114357737.046 8     -2037.117          50.000    21761547.812 7  89109971.792 7     -1587.364          45.000
G26  20633374.711 8 108429117.833 8     -1484.125          51.000    20633377.516 8  84490217.636 8     -1156.461          51.000
R04  23073333.805 5 123556599.507 5     -1318.988          35.000    23073332.086 4  96099599.470 4     -1025.877          27.000
R10  21859798.602 6 116524995.650 6     -4128.348          37.000
R11  19963871.195 6 106680897.598 6      -368.164          37.000    19963870.289 4  82974042.800 4      -286.347          29.000
R22  23104360.602 5 123332640.595 5      3041.562          31.000    23104360.555 5  95925362.863 5      2365.666          30.000
C29  22411852.453 5 116704397.331 5      1426.980          30.000
C30  22061685.797 8 114881061.784 8     -1206.422          51.000
E13  23804381.859 8 125092890.100 8     -1355.551          51.000    23804383.797 8  95850475.444 8     -1038.654          51.000
E21  24529137.547 8 128901478.536 8     -2105.547          51.000    24529138.148 8  98768665.979 8     -1613.302          51.000
E26  22932083.555 8 120508922.119 8      1125.016          49.000    22932088.742 8  92338014.625 8       862.061          49.000
> 2020 05 02 15 18 30.0000000  0 14        .000000000000
G10  23236219.555 8 122107228.568 8      3266.434          50.000    23236223.508 8  95148503.446 8      2545.279          50.000
G16  20542242.781 5 107950226.736 5       753.469          35.000    20542244.961 4  84117056.653 4       587.122          24.000
G18  21531275.938 7 113147704.063 7     -2385.039          45.000    21531275.969 6  88167032.935 6     -1858.469          38.000
G20  21407266.039 8 112495989.564 8      1690.816          50.000    21407265.133 7  87659218.900 7      1317.522          46.000
G21  21773186.969 8 114418894.697 8     -2035.926          50.000    21773185.492 7  89157627.088 7     -1586.436          44.000
G26  20641884.750 8 108473836.386 8     -1492.844          51.000    20641887.258 8  84525063.253 8     -1163.255          51.000
G27  21859271.602 5 114871251.350 5      2284.172          33.000    21859253.625 5  89510019.334 5      1779.874          33.000
R10  21883047.523 6 116648938.635 6     -4130.270          36.000
R11  19966004.148 5 106692290.548 5      -387.227          32.000    19966002.859 5  82982903.993 5      -301.185          31.000
