     3.02           OBSERVATION DATA    M (MIXED)           RINEX VERSION / TYPE
SAVERINEX           SC600               20200513 105931 LCL PGM / RUN BY / DATE
       G = GPS       R = GLONASS       C = COMPASS          COMMENT
       S = SBAS      J = QZSS          E = GALILEO          COMMENT
BEAN                                                        MARKER NAME
1                                                           MARKER NUMBER
GEODETIC                                                    MARKER TYPE
Unige DICCA         GTER                                    OBSERVER / AGENCY
SC60291900056       SC600               2.12(191226)        REC # / TYPE / VERS
                    HEMA45          NONE                    ANT # / TYPE
  4509407.8091   693652.4678  4442337.6214                  APPROX POSITION XYZ
        0.0000        0.0000        0.0000                  ANTENNA: DELTA H/E/N
G    8 C1C L1C D1C S1C C2Y L2Y D2Y S2Y                      SYS / # / OBS TYPES
R    8 C1C L1C D1C S1C C2P L2P D2P S2P                      SYS / # / OBS TYPES
C    4 C1I L1I D1I S1I                                      SYS / # / OBS TYPES
E    8 C1C L1C D1C S1C C7Q L7Q D7Q S7Q                      SYS / # / OBS TYPES
DBHZ                                                        COMMENT
     30.000                                                 INTERVAL
  2020    05    13    08    00    0.0000000     GPS         TIME OF FIRST OBS
  2020    05    13    08    59   30.0000000     GPS         TIME OF LAST OBS
     0                                                      RCV CLOCK OFFS APPL
G L1C  0.00000                                              SYS / PHASE SHIFT
G L2Y  0.00000                                              SYS / PHASE SHIFT
R L1C  0.00000                                              SYS / PHASE SHIFT
R L2P  0.25000                                              SYS / PHASE SHIFT
C L1I  0.00000                                              SYS / PHASE SHIFT
E L1C  0.50000                                              SYS / PHASE SHIFT
E L7Q -0.25000                                              SYS / PHASE SHIFT
 14 R01  1 R05  1 R06 -4 R07  5 R08  6 R09 -2 R10 -7 R11  0 GLONASS SLOT / FRQ #
    R16 -1 R17  4 R18 -3 R19  3 R20  2 R21  4               GLONASS SLOT / FRQ #
 C1C   71.950 C2C   71.950 C2P   71.950                     GLONASS COD/PHS/BIS
    18                                                      LEAP SECONDS
*** Above antenna height is from mark to ANTENNA BOTTOM.    COMMENT
    17     4        0.0000        ANT MEASURE TYPE/HEIGT    COMMENT
    0.0000    0.0000    0.0458    0.0405    0.0000          COMMENT
                    BASE STATION                            COMMENT
                                                            END OF HEADER
> 2020 05 13 08 00  0.0000000  0 14        .000000000000
G12  20301909.102 8 106687252.231 8      1088.883          51.000    20301907.773 8  83132916.219 8       848.477          51.000
G15  23910535.539 5 125650709.631 5     -3674.621          32.000    23910533.164 5  97909686.290 5     -2863.338          33.000
G17  24008639.812 5 126166222.645 5     -2837.770          33.000    24008636.852 5  98311339.029 5     -2211.252          32.000
G24  20223272.250 8 106273983.715 8      -616.418          51.000    20223272.367 8  82810918.195 8      -480.326          51.000
G25  22076622.867 6 116013441.279 6      2660.859          37.000
R10  20022234.875 7 106729755.152 7     -1193.246          47.000
C21  25272287.859 7 131599489.882 7     -2748.703          46.000
C29  22866965.203 8 119074319.461 8      1429.742          51.000
C30  24376252.102 5 126933541.415 5     -1631.625          31.000
E03  24807107.242 6 130362236.695 6      -915.723          40.000    24807103.867 5  99887939.395 5      -701.610          31.000
E05  26298111.109 6 138197544.584 6     -2946.719          40.000    26298118.227 7 105891575.368 7     -2258.001          44.000
E11  26183315.688 6 137594237.478 6      2904.469          39.000    26183316.047 6 105429378.539 6      2225.535          41.000
E24  22944791.266 6 120575685.490 6     -1598.414          39.000    22944811.141 5  92389219.699 5     -1225.016          34.000
E25  23749143.828 6 124802576.866 6       598.508          40.000    23749147.766 7  95627956.962 7       458.480          42.000
> 2020 05 13 08 00 30.0000000  0 14        .000000000000
G12  20295742.516 8 106654847.958 8      1073.434          51.000    20295741.891 8  83107665.338 8       836.442          51.000
G17  24024874.383 5 126251534.620 5     -2848.277          30.000    24024872.531 5  98377815.885 5     -2219.431          32.000
G19  22012796.109 5 115678023.550 5     -1816.086          32.000
G24  20226840.461 8 106292734.965 8      -631.691          51.000    20226840.602 8  82825529.553 8      -492.227          51.000
G25  22061471.227 5 115933818.413 5      2650.012          32.000
R08  22440579.180 4 120168281.184 4     -4004.320          29.000
R10  20028987.297 7 106765749.001 7     -1204.465          47.000
C21  25288147.578 7 131682082.695 7     -2755.555          46.000
C29  22858782.445 8 119031710.101 8      1412.855          51.000
E03  24812386.883 6 130389970.009 6      -931.016          41.000    24812378.961 5  99909168.598 5      -713.193          30.000
E05  26314955.508 6 138286063.352 6     -2952.652          41.000    26314964.547 7 105959401.411 7     -2262.248          43.000
E11  26166754.258 7 137507194.603 7      2900.418          42.000    26166748.477 6 105362683.407 6      2222.341          40.000
E24  22953936.711 6 120623745.440 6     -1603.109          37.000    22953956.156 5  92426044.887 5     -1228.832          34.000
E25  23745752.656 5 124784758.375 5       591.891          35.000    23745757.602 6  95614303.825 6       453.293          40.000
> 2020 05 13 08 01  0.0000000  0 12        .000000000000
G12  20289638.961 8 106622772.569 8      1053.094          51.000    20289638.195 8  83082671.526 8       820.593          51.000
G17  24041145.000 5 126337073.750 5     -2863.797          31.000    24041144.445 5  98444447.109 5     -2231.533          32.000
G24  20230470.930 8 106311813.782 8      -651.992          51.000    20230471.180 8  82840396.161 8      -508.046          51.000
G25  22046350.078 4 115854368.351 4      2633.398          29.000
R10  20035776.688 8 106801939.269 8     -1220.348          48.000
C21  25304021.695 7 131764747.318 7     -2767.094          45.000
C29  22850671.844 8 118989477.148 8      1391.020          51.000
E03  24817727.336 6 130418024.195 6      -950.973          40.000    24817717.477 5  99930662.756 5      -729.027          31.000
E05  26331807.156 6 138374619.147 6     -2962.895          40.000    26331817.906 6 106027255.834 6     -2270.318          41.000
E11  26150192.336 7 137420152.117 7      2890.816          43.000    26150185.234 6 105295988.630 6      2214.936          41.000
E24  22963084.922 6 120671817.201 6     -1613.023          39.000    22963103.008 5  92462879.015 5     -1235.953          33.000
E25  23742375.344 6 124767019.990 6       579.648          37.000    23742380.883 6  95600712.107 6       443.991          39.000
> 2020 05 13 08 01 30.0000000  0 11        .000000000000
G12  20283628.359 8 106591185.195 8      1045.629          51.000    20283626.750 8  83058057.970 8       814.776          51.000
G19  22033726.312 5 115788018.601 5     -1853.402          33.000
G24  20234193.500 8 106331377.568 8      -659.414          51.000    20234194.102 8  82855640.658 8      -513.829          51.000
R10  20042633.328 8 106838487.181 8     -1223.301          49.000
C21  25319939.469 7 131847637.940 7     -2765.977          44.000
C29  22842664.102 8 118947778.759 8      1381.879          51.000
E03  24823156.250 6 130446556.824 6      -958.152          36.000    24823150.945 5  99952526.406 5      -734.181          33.000
E05  26348695.484 6 138463368.359 6     -2960.777          39.000    26348707.523 6 106095258.443 6     -2268.567          39.000
E11  26133660.602 7 137333270.411 7      2894.227          47.000    26133653.852 6 105229417.001 6      2217.627          41.000
E24  22972265.555 6 120720058.557 6     -1609.875          36.000    22972281.312 5  92499843.114 5     -1233.786          32.000
E25  23739044.805 6 124749519.837 6       580.270          39.000    23739048.688 6  95587302.837 6       444.775          39.000
> 2020 05 13 08 02  0.0000000  0 10        .000000000000
G12  20277698.172 8 106560021.980 8      1025.945          51.000    20277696.266 8  83033774.931 8       799.438          51.000
G24  20237996.312 8 106351362.799 8      -678.961          51.000    20237997.211 8  82871213.561 8      -529.060          51.000
R10  20049544.719 8 106875327.296 8     -1238.699          49.000
C21  25335888.062 7 131930688.659 7     -2776.680          45.000
C29  22834747.141 8 118906552.964 8      1360.605          51.000
E03  24828662.180 5 130475503.163 5      -977.520          34.000    24828662.203 5  99974706.065 5      -749.137          35.000
E05  26365607.977 6 138552245.157 6     -2970.164          38.000    26365622.008 6 106163358.883 6     -2276.265          36.000
E11  26117146.914 7 137246487.682 7      2885.270          46.000    26117141.344 7 105162921.153 7      2210.749          44.000
E24  22981465.742 6 120768405.153 6     -1618.965          37.000    22981477.570 5  92536887.832 5     -1240.146          32.000
E25  23735747.750 6 124732193.626 6       569.078          38.000    23735750.414 6  95574026.923 6       435.921          40.000
> 2020 05 13 08 02 30.0000000  0 15        .000000000000
G12  20271811.836 8 106529090.207 8      1023.461          51.000    20271810.273 8  83009672.278 8       797.502          51.000
G17  24090291.625 5 126595328.206 5     -2880.312          32.000
G19  22055064.859 6 115900149.268 6     -1885.047          36.000
G24  20241842.883 8 106371577.560 8      -681.359          51.000    20241844.203 8  82886965.325 8      -530.926          51.000
G25  22001315.523 5 115617686.067 5      2619.664          32.000    22001316.562 5  90091719.176 5      2041.291          32.000
R09  22356415.531 5 119381957.351 5     -2823.039          33.000    22356419.922 5  92852687.821 5     -2195.697          31.000
R10  20056473.977 8 106912263.682 8     -1236.516          49.000
R11  20683807.375 5 110527967.423 5      2017.402          34.000
C21  25351830.555 7 132013706.450 7     -2770.207          44.000
C29  22826884.664 8 118865610.639 8      1356.438          51.000
E03  24834212.125 6 130504670.154 6      -979.629          36.000    24834214.047 6  99997054.805 6      -750.442          36.000
E05  26382508.109 6 138641055.560 6     -2962.773          36.000    26382525.539 5 106231495.414 5     -2270.500          32.000
E11  26100615.359 7 137159613.768 7      2893.703          45.000    26100612.680 7 105096355.481 7      2217.349          46.000
E24  22990648.805 6 120816664.460 6     -1610.539          37.000    22990658.133 5  92573852.690 5     -1233.969          32.000
E25  23732446.711 6 124714848.917 6       574.688          37.000    23732449.625 6  95560736.859 6       440.309          41.000
> 2020 05 13 08 03  0.0000000  0 13        .000000000000
G12  20266028.336 8 106498697.389 8      1005.559          51.000    20266027.070 8  82985989.580 8       783.552          51.000
G17  24106779.117 6 126681969.146 6     -2892.980          36.000    24106778.594 5  98713221.095 5     -2254.270          35.000
G19  22065900.828 5 115957088.611 5     -1907.797          30.000
G24  20245791.766 8 106392329.665 8      -699.117          51.000    20245793.461 8  82903135.788 8      -544.767          51.000
R09  22372313.180 6 119466823.585 6     -2831.082          36.000    22372311.602 4  92918695.119 4     -2201.950          29.000
R10  20063479.711 8 106949608.560 8     -1250.023          50.000
R11  20672513.539 5 110467633.783 5      2005.898          31.000
C21  25367825.242 7 132096993.355 7     -2779.172          45.000
C29  22819135.445 8 118825257.745 8      1336.773          51.000
E03  24839863.977 6 130534364.556 6      -997.066          37.000    24839863.828 5 100019807.705 5      -764.183          35.000
E11  26084124.320 7 137072958.364 7      2886.551          42.000    26084124.680 7 105029957.212 7      2211.614          45.000
E24  22999873.656 5 120865143.474 5     -1617.703          35.000    22999883.211 5  92610997.870 5     -1239.691          33.000
E25  23729200.812 6 124697792.965 6       565.312          39.000    23729203.945 6  95547667.987 6       433.323          41.000
> 2020 05 13 08 03 30.0000000  0 16        .000000000000
G12  20260284.289 8 106468512.896 8       998.355          51.000    20260283.469 8  82962469.224 8       777.939          51.000
G15  24057652.430 5 126423824.083 5     -3685.039          33.000
G17  24123279.281 6 126768674.765 6     -2895.477          38.000    24123278.633 6  98780783.884 6     -2256.219          38.000
G19  22076799.281 5 116014391.391 5     -1919.711          34.000
G24  20249780.047 8 106413288.475 8      -706.383          51.000    20249781.820 8  82919467.307 8      -550.428          51.000
G25  21971532.906 5 115461159.991 5      2603.496          32.000    21971516.445 5  89969695.535 5      2028.704          33.000
R09  22388191.523 5 119551604.299 5     -2828.734          30.000
R10  20070499.211 8 106987026.391 8     -1252.867          51.000
R21  22805988.945 6 122039453.883 6      4371.832          38.000    22805994.836 5  94919591.799 5      3400.314          31.000
C21  25383808.812 7 132180219.444 7     -2777.562          46.000
C29  22811436.711 8 118785168.153 8      1327.613          51.000
C30  24444048.766 6 127286564.397 6     -1726.469          36.000
E03  24845553.398 6 130564255.144 6     -1003.836          37.000    24845549.836 6 100042710.814 6      -769.391          36.000
E11  26067611.156 6 136986193.013 6      2889.625          39.000    26067614.469 7 104963474.637 7      2214.191          45.000
E24  23009077.258 6 120913511.246 6     -1614.527          36.000    23009087.148 5  92648058.894 5     -1236.911          32.000
E25  23725947.797 6 124680695.176 6       566.125          40.000    23725950.422 6  95534567.027 6       434.030          41.000
> 2020 05 13 08 04  0.0000000  0 14        .000000000000
G12  20254660.844 8 106438962.539 8       971.617          51.000    20254660.156 8  82939442.961 8       757.101          51.000
G15  24078729.305 5 126534579.067 5     -3699.363          33.000    24078734.688 5  98598373.463 5     -2882.606          31.000
G17  24139872.094 6 126855868.433 6     -2917.457          38.000    24139871.508 6  98848726.939 6     -2273.346          37.000
G19  22087850.555 6 116072449.841 6     -1950.930          36.000
G24  20253888.719 8 106434903.696 8      -733.016          51.000
R10  20077613.359 8 107024948.662 8     -1275.363          51.000
R21  22781530.156 6 121908575.096 6      4353.336          38.000    22781535.438 5  94817797.321 5      3385.931          30.000
C21  25399861.586 7 132263803.967 7     -2794.840          47.000
C29  22803869.633 8 118745764.905 8      1299.273          51.000
C30  24454072.992 6 127338753.391 6     -1753.094          36.000
E03  24851359.836 6 130594766.803 6     -1030.469          36.000    24851354.797 6 100066089.787 6      -789.323          36.000
E11  26051158.250 6 136899745.639 6      2873.398          38.000    26051164.312 7 104897235.730 7      2201.827          44.000
E24  23018340.469 5 120962195.293 5     -1630.660          33.000    23018350.266 5  92685360.658 5     -1249.617          31.000
E25  23722767.734 6 124663980.861 6       547.922          39.000    23722770.023 6  95521759.933 6       419.875          40.000
> 2020 05 13 08 04 30.0000000  0 15        .000000000000
G12  20249110.867 8 106409797.410 8       957.363          50.000    20249110.062 8  82916716.861 8       745.997          50.000
G17  24156509.875 6 126943299.129 6     -2926.348          39.000    24156509.266 6  98916854.685 6     -2280.274          39.000
G24  20258071.000 8 106456879.631 8      -747.215          51.000    20258071.914 8  82953413.691 8      -582.245          51.000
G25  21941957.555 5 115305761.007 5      2572.105          30.000
R10  20084774.867 8 107063123.167 8     -1285.160          51.000
R11  20638868.797 5 110287881.370 5      1977.844          34.000
R21  22757099.523 6 121777835.135 6      4347.270          38.000    22757100.758 5  94716110.730 5      3381.213          33.000
C21  25415935.266 7 132347498.027 7     -2799.840          47.000
C29  22796387.203 8 118706803.023 8      1283.082          51.000
C30  24464173.797 5 127391339.279 5     -1767.766          34.000
E03  24857236.531 6 130625649.977 6     -1043.723          37.000    24857231.953 6 100089753.567 6      -799.900          37.000
E05  26450387.188 6 138997734.695 6     -2988.570          37.000
E11  26034720.680 7 136813369.686 7      2869.500          42.000    26034725.477 6 104831051.608 6      2198.860          40.000
E24  23027616.281 5 121010942.398 5     -1634.336          32.000    23027627.086 5  92722709.385 5     -1252.460          33.000
E25  23719612.664 6 124647401.288 6       541.914          38.000    23719615.094 6  95509056.143 6       415.266          39.000
> 2020 05 13 08 05  0.0000000  0 15        .000000000000
G12  20243666.492 8 106381187.052 8       951.453          51.000    20243665.516 8  82894423.082 8       741.392          51.000
G17  24173224.414 6 127031134.106 6     -2927.621          38.000    24173223.625 6  98985297.450 6     -2281.269          38.000
G24  20262358.461 8 106479409.400 8      -753.238          51.000    20262359.344 8  82970969.349 8      -586.939          51.000
G25  21927287.219 6 115228657.071 6      2570.602          36.000    21927281.828 5  89788558.273 5      2003.054          33.000
R10  20092015.820 8 107101721.748 8     -1286.566          51.000
R11  20627764.570 5 110228503.758 5      1977.941          33.000    20627761.188 4  85733284.437 4      1538.399          27.000
R21  22732728.484 5 121647411.425 5      4349.371          34.000    22732727.688 6  94614670.221 6      3382.850          37.000
C21  25432061.391 7 132431467.405 7     -2796.590          47.000
C29  22789022.375 8 118668452.151 8      1275.109          51.000
C30  24474382.898 5 127444488.581 5     -1773.254          30.000
E03  24863215.953 6 130657073.909 6     -1049.500          38.000    24863212.891 6 100113831.615 6      -804.010          38.000
E05  26467439.406 6 139087350.257 6     -2983.941          39.000
E11  26018331.320 7 136727237.130 7      2874.211          44.000    26018332.625 6 104765053.976 6      2202.368          41.000
E24  23036937.969 5 121059925.207 5     -1629.379          33.000    23036950.672 5  92760244.882 5     -1248.512          34.000
E25  23716515.547 6 124631126.128 6       544.594          40.000    23716517.055 5  95496585.611 5       417.086          35.000
> 2020 05 13 08 05 30.0000000  0 17        .000000000000
G12  20238272.109 8 106352838.817 8       936.797          51.000    20238270.773 8  82872333.546 8       729.972          51.000
G17  24189957.680 6 127119092.120 6     -2937.000          38.000
G19  22121657.594 6 116250063.453 6     -1999.219          38.000
G24  20266695.508 8 106502200.517 8      -767.895          51.000    20266696.719 8  82988728.633 8      -598.359          51.000
G25  21912639.578 6 115151660.756 6      2560.398          38.000    21912632.766 6  89728561.218 6      1995.122          38.000
R09  22452097.250 5 119892937.702 5     -2851.887          30.000    22452098.891 4  93250077.034 4     -2218.140          27.000
R10  20099280.430 8 107140446.980 8     -1296.840          51.000
R11  20616677.102 5 110169253.438 5      1970.090          30.000
R21  22708357.781 5 121517047.013 5      4342.453          34.000    22708360.859 6  94513248.169 6      3377.467          40.000
C21  25448183.461 7 132515419.492 7     -2801.902          45.000
C29  22781719.180 8 118630423.419 8      1258.488          51.000
C30  24484641.172 4 127497952.777 4     -1789.391          29.000
E03  24869242.883 6 130688744.981 6     -1063.887          39.000    24869240.508 6 100138099.050 6      -814.836          39.000
E05  26484482.766 6 139176919.519 6     -2988.516          39.000    26484481.539 5 106642025.194 5     -2289.710          34.000
E11  26001932.734 7 136641057.368 7      2869.602          43.000    26001933.883 7 104699020.302 7      2198.600          42.000
E24                                                                  23046262.750 5  92797731.690 5     -1251.661          34.000
E25  23713420.930 6 124614862.527 6       538.094          39.000    23713418.805 5  95484110.850 5       412.740          32.000
> 2020 05 13 08 06  0.0000000  0 16        .000000000000
G12  20232960.672 8 106324926.555 8       924.082          51.000    20232959.188 8  82850583.727 8       720.064          51.000
G17  24206746.219 6 127207316.786 6     -2944.410          37.000    24206746.766 6  99122573.642 6     -2294.346          37.000
G24  20271115.391 8 106525427.330 8      -780.418          51.000    20271116.578 8  83006827.420 8      -608.118          51.000
G25  21898048.477 6 115074962.813 6      2552.699          38.000    21898039.406 6  89668796.543 6      1989.110          38.000
R09  22468124.898 5 119978511.325 5     -2855.438          33.000    22468124.031 4  93316640.652 4     -2220.896          27.000
R10  20106602.039 8 107179475.827 8     -1305.078          51.000
R11  20605640.156 5 110110296.971 5      1964.574          31.000
R21  22684026.289 6 121386850.275 6      4337.504          39.000    22684029.234 6  94411984.084 6      3373.614          40.000
C21  25464334.227 7 132599524.075 7     -2805.023          45.000
C29  22774511.312 8 118592890.512 8      1243.777          51.000
C30  24494985.109 5 127551816.412 5     -1801.609          31.000
E03  24875349.328 6 130720836.346 6     -1075.820          40.000    24875347.742 6 100162688.518 6      -824.177          39.000
E05  26501550.102 6 139266614.620 6     -2991.074          39.000    26501553.883 6 106710752.524 6     -2291.823          36.000
E11  25985558.367 7 136555006.632 7      2867.309          42.000    25985559.000 6 104633085.328 6      2196.861          41.000
E24                                                                  23055597.648 5  92835306.792 5     -1253.373          34.000
E25  23710360.953 6 124598784.204 6       533.391          39.000    23710356.008 5  95471779.136 5       409.052          32.000
> 2020 05 13 08 06 30.0000000  0 16        .000000000000
G12  20227748.602 8 106297536.735 8       908.805          51.000    20227746.984 8  82829241.013 8       708.159          51.000
G15  24184282.352 4 127089259.987 4     -3701.965          29.000    24184279.055 4  99030575.436 4     -2884.654          28.000
G17  24223603.641 6 127295906.526 6     -2954.902          36.000    24223604.883 5  99191604.552 5     -2302.524          35.000
G24  20275634.523 8 106549176.087 8      -795.805          51.000    20275635.859 8  83025332.916 8      -620.108          51.000
G25  21883517.070 5 114998692.714 5      2541.422          31.000    21883518.602 5  89609352.477 5      1980.323          31.000
R09  22484201.203 5 120064340.783 5     -2859.980          34.000    22484200.688 5  93383396.828 5     -2224.432          32.000
R10  20113997.016 8 107218895.476 8     -1315.953          51.000
R21  22659748.766 5 121256950.476 5      4329.285          35.000    22659753.625 6  94310950.930 6      3367.222          39.000
C21  25480530.305 7 132683864.530 7     -2810.867          46.000
C29  22767415.586 8 118555940.459 8      1226.410          51.000
C30  24505430.555 4 127606205.978 4     -1817.473          29.000
E03  24881550.875 6 130753433.706 6     -1090.195          38.000    24881550.180 6 100187665.708 6      -835.467          38.000
E05  26518657.383 6 139356520.258 6     -2995.844          38.000    26518666.352 6 106779641.203 6     -2295.535          37.000
E11  25969225.406 7 136469173.641 7      2861.707          45.000    25969225.781 7 104567317.245 7      2192.799          46.000
E24  23064953.789 5 121207147.692 5     -1640.117          35.000    23064968.688 5  92873036.275 5     -1256.938          31.000
E25  23707353.094 6 124582977.622 6       527.035          38.000    23707348.820 5  95459667.599 5       403.859          35.000
> 2020 05 13 08 07  0.0000000  0 16        .000000000000
G12  20222599.719 8 106270478.545 8       899.691          51.000    20222597.711 8  82808156.716 8       701.058          51.000
G15  24205418.039 5 127200327.943 5     -3698.020          31.000    24205411.906 5  99117121.764 5     -2881.586          32.000
G17  24240493.867 6 127384668.221 6     -2958.465          36.000    24240496.102 6  99260769.437 6     -2305.297          36.000
G19  22156344.438 5 116432426.332 5     -2048.578          33.000
G24  20280216.766 8 106573256.946 8      -804.984          51.000    20280218.453 8  83044097.191 8      -627.261          51.000
R08  22735762.836 5 121748979.777 5     -4094.953          30.000
R09  22500279.352 5 120150225.786 5     -2858.875          30.000    22500286.633 4  93450199.160 4     -2223.576          27.000
R10  20121429.109 8 107258512.335 8     -1320.582          51.000
R21  22635480.914 5 121127029.573 5      4327.621          31.000    22635493.016 6  94209961.771 6      3365.928          36.000
C21  25496735.078 7 132768249.502 7     -2810.277          46.000
C29  22760395.578 8 118519385.576 8      1215.098          51.000
E03  24887811.594 6 130786345.652 6     -1099.039          39.000    24887812.641 6 100212883.928 6      -842.052          38.000
E05  26535768.078 6 139446444.110 6     -2994.500          37.000    26535780.656 6 106848543.788 6     -2294.397          38.000
E11  25952898.547 7 136383370.027 7      2863.160          45.000    25952899.516 7 104501571.650 7      2193.790          47.000
E24  23074326.898 6 121256398.313 6     -1638.305          36.000
E25  23704360.930 6 124567252.006 6       525.965          38.000    23704358.781 6  95447618.105 6       403.060          37.000
> 2020 05 13 08 07 30.0000000  0 16        .000000000000
G12  20217519.859 8 106243784.045 8       879.734          51.000    20217517.555 8  82787355.809 8       685.507          51.000
G15  24226553.930 5 127311389.459 5     -3706.023          35.000    24226548.000 5  99203663.095 5     -2887.817          31.000
G17  24257422.648 5 127473631.779 5     -2972.750          34.000    24257425.609 5  99330091.662 5     -2316.429          35.000
G24  20284868.328 8 106597702.306 8      -825.023          51.000    20284870.414 8  83063145.502 8      -642.878          51.000
R08  22758734.836 5 121872009.333 5     -4107.855          32.000
R09  22516371.805 4 120236168.215 4     -2870.723          29.000    22516376.164 4  93517037.577 4     -2232.796          29.000
R10  20128904.352 8 107298359.247 8     -1336.168          51.000
R11  20572786.031 4 109934729.411 4      1939.496          28.000
R21  22611258.273 5 120997384.594 5      4315.438          30.000    22611267.477 5  94109125.184 5      3356.445          33.000
C21  25512954.328 7 132852708.377 7     -2820.598          47.000
C29  22753458.109 8 118483259.189 8      1193.062          51.000
C30  24526521.602 5 127716033.464 5     -1846.406          31.000
E03  24894139.281 6 130819603.686 6     -1118.555          39.000    24894141.930 6 100238367.339 6      -856.919          38.000
E05  26552887.859 6 139536416.565 6     -3004.098          36.000    26552902.875 6 106917483.692 6     -2301.593          38.000
E11  25936583.594 7 136297630.182 7      2852.688          46.000    25936584.750 8 104435874.866 8      2185.852          48.000
E25  23701389.766 5 124551639.441 5       514.703          35.000    23701389.820 6  95435655.257 6       394.170          37.000
> 2020 05 13 08 08  0.0000000  0 14        .000000000000
G12  20212570.031 8 106217772.972 8       861.871          51.000    20212567.781 8  82767087.433 8       671.588          51.000
G15  24247748.609 5 127422761.401 5     -3711.535          31.000    24247743.922 4  99290446.262 4     -2892.108          28.000
G17  24274450.000 5 127563095.219 5     -2985.363          32.000    24274454.008 5  99399818.198 5     -2326.260          33.000
G24  20289650.227 8 106622831.919 8      -842.840          50.000    20289652.516 8  83082727.008 8      -656.758          50.000
R08  22781797.469 5 121995502.770 5     -4117.637          34.000    22781790.461 4  94885358.604 4     -3202.606          26.000
R10  20136483.453 8 107338759.876 8     -1349.637          51.000
R21  22587129.438 6 120868211.722 6      4304.012          39.000    22587130.789 4  94008657.271 4      3347.565          28.000
C21  25529248.359 7 132937555.457 7     -2828.480          46.000
C29  22746663.703 8 118447879.250 8      1172.953          51.000
C30  24537231.977 4 127771805.220 4     -1865.082          29.000
E03  24900594.508 6 130853526.633 6     -1135.719          40.000    24900598.094 6 100264360.165 6      -870.319          38.000
E05  26570076.953 5 139626696.507 5     -3011.133          33.000    26570094.852 6 106986704.448 6     -2307.330          38.000
E11  25920341.047 7 136212275.962 7      2845.062          43.000    25920343.656 7 104370473.612 7      2179.926          47.000
E25  23698499.703 5 124536456.456 5       504.906          33.000    23698501.977 6  95424023.880 6       386.777          37.000
> 2020 05 13 08 08 30.0000000  0 16        .000000000000
G12  20207627.625 8 106191799.769 8       853.590          51.000    20207625.883 8  82746848.571 8       665.135          51.000
G15  24268878.680 5 127533796.470 5     -3706.629          35.000    24268872.742 5  99376967.071 5     -2888.282          32.000
G17  24291453.203 5 127652448.232 5     -2987.078          32.000    24291457.539 5  99469457.666 5     -2327.590          31.000
G24  20294439.609 8 106648000.380 8      -851.156          51.000    20294441.883 8  83102338.810 8      -663.239          51.000
R08  22804821.336 5 122118797.734 5     -4117.988          32.000    22804817.000 4  94981254.549 4     -3202.886          27.000
R09  22548658.555 5 120408543.606 5     -2876.508          35.000    22548664.133 4  93651128.960 4     -2237.284          27.000
R10  20144043.641 8 107379059.929 8     -1353.348          51.000
R11  20551078.734 4 109818719.981 4      1926.023          29.000
R21  22562959.305 7 120738861.161 7      4302.848          43.000
C21  25545493.898 7 133022148.935 7     -2827.008          46.000
C29  22739890.086 8 118412607.612 8      1162.453          51.000
C30  24547950.062 5 127827617.703 5     -1872.387          31.000
E03  24907054.117 6 130887468.420 6     -1143.086          38.000    24907056.547 6 100290367.458 6      -875.868          37.000
E05  26587213.039 5 139716751.983 5     -3008.902          33.000    26587232.992 6 107055710.295 6     -2305.352          37.000
E11  25904048.852 7 136126664.434 7      2846.246          43.000    25904052.250 7 104304875.119 7      2180.926          46.000
E25  23695571.203 6 124521062.876 6       505.230          39.000    23695573.570 6  95412229.551 6       386.879          38.000
> 2020 05 13 08 09  0.0000000  0 16        .000000000000
G12  20202805.930 8 106166461.407 8       840.570          50.000    20202804.242 8  82727104.401 8       654.990          50.000
G15  24290057.953 6 127645089.345 6     -3707.199          36.000    24290052.477 5  99463688.718 5     -2888.727          35.000
G17  24308545.445 5 127742267.683 5     -2995.148          32.000    24308550.102 5  99539447.606 5     -2333.879          31.000
G24  20299350.188 8 106673805.091 8      -864.203          51.000    20299352.461 8  83122446.373 8      -673.402          51.000
G25  21811648.375 5 114621006.038 5      2496.043          32.000
R08  22827920.016 5 122242498.618 5     -4124.090          31.000    22827914.469 4  95077466.238 4     -3207.632          26.000
R09  22564843.086 6 120494960.160 6     -2879.535          36.000    22564858.797 4  93718342.105 4     -2239.623          27.000
R10  20151698.555 8 107419864.669 8     -1361.992          51.000
R21  22538868.000 7 120609945.490 7      4296.551          42.000    22538878.656 4  93807853.156 4      3341.762          28.000
C21  25561803.984 7 133107078.028 7     -2830.156          46.000
C29  22733251.039 8 118378037.112 8      1147.125          51.000
C30  24558790.125 5 127884064.695 5     -1885.395          34.000
E03  24913629.883 5 130922025.189 5     -1155.516          33.000    24913631.273 6 100316846.000 6      -885.670          37.000
E05  26604410.367 5 139807119.287 5     -3011.188          34.000    26604430.086 6 107124957.377 6     -2307.100          38.000
E11  25887821.023 7 136041394.784 7      2843.434          42.000    25887825.508 7 104239538.607 7      2178.582          47.000
E25  23692716.742 6 124506054.493 6       500.586          40.000    23692718.883 6  95400729.603 6       383.623          40.000
> 2020 05 13 08 09 30.0000000  0 14        .000000000000
G12  20198069.242 8 106141570.785 8       835.762          49.000    20198067.477 8  82707709.105 8       651.243          49.000
G15  24311250.719 5 127756450.619 5     -3699.527          33.000    24311245.266 5  99550463.687 5     -2882.749          31.000
G24  20304346.367 8 106700059.222 8      -869.176          51.000    20304348.625 8  83142904.124 8      -677.280          51.000
G25  21797448.281 5 114546391.095 5      2495.969          34.000    21797445.164 5  89256891.778 5      1944.914          33.000
R09  22581054.336 5 120581531.742 5     -2874.484          34.000
R10  20159412.625 8 107460984.486 8     -1362.227          51.000
R21  22514821.648 6 120481278.960 6      4298.434          41.000    22514830.117 5  93707779.190 5      3343.226          33.000
C21  25578142.055 7 133192154.868 7     -2824.984          45.000
C29  22726711.461 8 118343983.701 8      1139.812          51.000
C30  24569715.297 5 127940955.692 5     -1890.168          30.000
E03                                                                  24920286.562 6 100343651.923 6      -888.708          37.000
E05  26621633.023 5 139897618.698 5     -3004.824          35.000    26621651.102 6 107194301.052 6     -2302.601          38.000
E11  25871623.852 7 135956282.348 7      2847.590          44.000    25871628.148 7 104174322.536 7      2181.976          44.000
E25  23689898.352 6 124491243.265 6       504.047          37.000    23689902.125 6  95389380.740 6       386.134          41.000
> 2020 05 13 08 10  0.0000000  0 12        .000000000000
G12  20193404.828 8 106117059.447 8       806.195          49.000    20193403.383 8  82688609.337 8       628.204          49.000
G17  24342875.648 4 127922674.080 4     -3018.441          29.000    24342879.508 4  99680018.237 4     -2352.026          28.000
G24  20309414.992 8 106726693.867 8      -898.816          51.000    20309416.922 8  83163658.392 8      -700.376          51.000
R10  20167172.734 8 107502349.931 8     -1387.652          51.000
R21  22490809.602 7 120352796.482 7      4274.812          43.000    22490816.516 5  93607848.313 5      3324.851          34.000
C21  25594494.609 7 133277309.246 7     -2844.293          44.000
C29  22720258.562 8 118310380.662 8      1107.938          51.000
C30  24580712.273 5 127998218.236 5     -1919.242          32.000
E03  24927009.891 5 130992327.087 5     -1188.785          34.000    24927011.922 6 100370732.052 6      -910.768          38.000
E05  26638866.680 5 139988173.903 5     -3023.934          34.000    26638881.914 6 107263687.490 6     -2317.265          36.000
E11  25855444.844 7 135871260.740 7      2828.125          43.000    25855447.906 7 104109176.077 7      2166.945          45.000
E25  23687102.867 6 124476560.567 6       482.707          37.000    23687109.664 6  95378130.361 6       369.899          41.000
> 2020 05 13 08 10 30.0000000  0 12        .000000000000
G12  20188843.891 8 106093092.544 8       786.555          48.000    20188843.297 8  82669933.837 8       612.900          48.000
G24  20314587.750 8 106753875.840 8      -918.484          51.000    20314589.461 8  83184839.145 8      -715.702          51.000
R10  20175010.242 8 107544128.547 8     -1402.879          51.000
R21  22466865.062 7 120224671.030 7      4261.500          45.000    22466870.516 6  93508195.182 6      3314.500          37.000
C21  25610892.812 7 133362702.735 7     -2853.773          43.000
C29  22713923.984 8 118277393.288 8      1086.008          51.000
C30  24591811.484 5 128056020.580 5     -1938.699          33.000
E03  24933835.898 6 131028191.603 6     -1207.480          40.000    24933837.453 6 100398212.665 6      -925.206          38.000
E05                                                                  26656153.734 5 107333242.211 5     -2323.807          34.000
E11  25839315.078 7 135786497.808 7      2817.609          44.000    25839317.312 7 104044227.905 7      2158.947          44.000
E24  23140503.664 6 121604157.813 6     -1676.773          37.000    23140518.734 5  93177259.871 5     -1284.812          35.000
E25  23684364.320 6 124462171.944 6       471.137          37.000    23684372.180 6  95367105.283 6       361.249          40.000
> 2020 05 13 08 11  0.0000000  0 13        .000000000000
G12  20184277.250 8 106069095.751 8       780.758          48.000    20184277.164 8  82651235.052 8       608.383          48.000
G24  20319755.125 8 106781029.240 8      -924.445          51.000    20319756.711 8  83205997.608 8      -720.347          51.000
G25  21755124.688 6 114323949.370 6      2453.336          37.000    21755123.445 5  89083602.082 5      1911.690          34.000
R10  20182815.938 8 107585737.819 8     -1404.234          49.000
R21  22442879.648 7 120096322.416 7      4261.801          47.000    22442884.039 6  93408368.513 6      3314.737          39.000
C21  25627227.727 7 133447763.649 7     -2849.352          43.000
C29  22707598.211 8 118244453.526 8      1077.551          51.000
C30  24602903.930 5 128113788.914 5     -1944.418          33.000
E03  24940653.609 6 131064003.377 6     -1212.637          41.000    24940653.578 6 100425652.830 6      -929.082          40.000
E05                                                                  26673357.281 5 107402523.708 5     -2319.731          32.000
E11  25823125.641 7 135701421.270 7      2821.359          45.000    25823126.414 7 103979039.401 7      2161.902          44.000
E24  23149970.344 6 121653896.719 6     -1671.918          38.000    23149982.375 5  93215371.451 5     -1280.990          35.000
E25  23681573.820 6 124447502.869 6       473.871          39.000    23681580.539 6  95355865.283 6       363.186          40.000
> 2020 05 13 08 11 30.0000000  0 15        .000000000000
G12  20179902.078 8 106046103.805 8       769.043          48.000    20179901.648 8  82633319.243 8       599.254          48.000
G19  22266034.664 5 117008811.560 5     -2213.336          33.000
G24  20325114.406 8 106809190.813 8      -936.070          51.000    20325115.734 8  83227941.673 8      -729.405          51.000
G25  21741186.680 6 114250717.636 6      2445.746          37.000    21741196.711 6  89026538.305 6      1905.773          37.000
R09  22646121.586 5 120929022.015 5     -2902.934          33.000
R10  20190786.703 8 107628227.248 8     -1411.332          49.000
R21  22419050.742 7 119968809.468 7      4256.301          46.000    22419055.375 7  93309191.834 7      3310.459          42.000
C21  25643695.836 7 133533515.502 7     -2850.703          42.000
C29  22701478.547 8 118212588.371 8      1063.500          51.000
C30  24614186.672 4 128172528.060 4     -1955.941          28.000
E03  24947657.039 6 131100796.849 6     -1223.406          41.000    24947656.094 6 100453845.240 6      -937.349          39.000
E05                                                                  26690688.859 5 107472323.907 5     -2320.024          32.000
E11  25807074.766 7 135617068.801 7      2818.898          47.000    25807074.961 7 103914405.730 7      2159.866          45.000
E24  23159564.914 6 121704318.759 6     -1672.695          37.000    23159574.500 5  93254006.502 5     -1281.604          34.000
E25  23678926.523 6 124433588.600 6       470.852          38.000    23678932.203 6  95345203.669 6       360.788          40.000
> 2020 05 13 08 12  0.0000000  0 13        .000000000000
G02  24554413.602 5 129034315.415 5      2470.805          34.000    24554413.023 5 100546214.224 5      1925.299          31.000
G12  20175553.156 8 106023249.595 8       751.996          49.000    20175552.594 8  82615510.787 8       585.971          49.000
G24  20330500.352 8 106837492.928 8      -953.371          51.000    20330501.430 8  83249995.249 8      -742.887          51.000
R09  22662437.992 5 121016161.636 5     -2909.809          30.000
R10  20198757.820 8 107670717.533 8     -1424.074          48.000
R21  22395213.844 7 119841253.760 7      4244.797          45.000    22395218.656 7  93209981.861 7      3301.509          42.000
C21  25660131.117 6 133619096.466 6     -2857.281          41.000
C29  22695400.516 8 118180939.636 8      1043.723          51.000
E03  24954681.148 6 131137703.902 6     -1239.656          41.000    24954679.188 6 100482124.696 6      -949.837          39.000
E05                                                                  26707985.531 5 107541990.055 5     -2325.573          31.000
E11  25790997.500 7 135532575.289 7      2811.332          47.000    25790996.492 7 103849663.949 7      2154.164          45.000
E24  23169125.570 6 121754556.392 6     -1679.141          37.000    23169131.992 5  93292500.230 5     -1286.794          34.000
E25  23676256.539 5 124419567.701 5       462.180          31.000    23676262.398 6  95334455.804 6       353.779          40.000
> 2020 05 13 08 12 30.0000000  0 13        .000000000000
G12  20171282.078 8 106000804.727 8       753.844          48.000    20171281.898 8  82598021.300 8       587.411          48.000
G24  20335964.578 8 106866207.012 8      -951.535          51.000    20335965.391 8  83272369.842 8      -741.459          51.000
R09  22678775.000 4 121103417.373 4     -2897.715          27.000
R10  20206780.898 7 107713484.476 7     -1417.402          47.000
R21  22371420.750 7 119713936.501 7      4252.539          44.000    22371426.133 7  93110957.327 7      3307.530          43.000
C21  25676584.359 6 133704773.347 6     -2845.266          38.000
C29  22689416.000 8 118149777.598 8      1042.969          51.000
C30  24636874.273 5 128290667.803 5     -1971.094          31.000
E03  24961777.789 6 131174995.304 6     -1236.871          41.000    24961775.664 6 100510698.600 6      -947.834          39.000
E05                                                                  26725299.938 5 107611706.846 5     -2315.543          31.000
E11  25774945.484 7 135448214.668 7      2822.117          47.000    25774943.867 7 103785024.024 7      2162.422          46.000
E24  23178701.805 6 121804881.042 6     -1666.531          38.000    23178708.617 5  93331060.654 5     -1276.767          34.000
E25                                                                  23673623.125 6  95323829.796 6       361.806          39.000
> 2020 05 13 08 13  0.0000000  0 14        .000000000000
G12  20167078.344 7 105978714.901 7       741.363          47.000    20167078.375 7  82580808.440 7       577.689          47.000
G17  24446927.297 5 128469463.818 5     -3046.430          33.000    24446924.984 5 100106090.156 5     -2373.841          31.000
G24  20341496.875 8 106895279.261 8      -964.035          51.000    20341497.469 8  83295023.525 8      -751.196          51.000
G25  21699530.586 5 114031790.184 5      2430.492          32.000    21699542.711 5  88856021.168 5      1893.884          32.000
R10  20214845.367 7 107756472.047 7     -1425.520          46.000
R21  22347662.492 7 119586806.754 7      4245.672          44.000    22347668.406 7  93012078.653 7      3302.189          44.000
C21  25693043.633 5 133790489.661 5     -2846.969          34.000
C29  22683514.852 8 118119049.431 8      1027.895          51.000
C30  24648325.531 5 128350298.604 5     -1982.371          31.000
E03  24968935.734 6 131212615.821 6     -1248.695          40.000    24968934.484 6 100539524.641 6      -956.739          41.000
E05                                                                  26742619.227 5 107681436.195 5     -2316.618          33.000
E11  25758907.969 8 135363934.722 8      2819.082          48.000    25758906.180 7 103720445.942 7      2160.019          44.000
E24  23188283.977 6 121855238.092 6     -1668.090          37.000    23188293.211 5  93369645.897 5     -1278.135          34.000
E25  23670999.359 6 124391934.403 6       467.637          38.000    23671003.352 6  95313283.846 6       358.594          39.000
> 2020 05 13 08 13 30.0000000  0 14        .000000000000
G12  20162988.422 8 105957222.435 8       706.211          48.000    20162988.094 8  82564061.044 8       550.294          48.000
G17  24464444.836 5 128561512.517 5     -3074.984          34.000    24464442.422 4 100177791.361 4     -2396.104          24.000
G24  20347143.414 8 106924952.337 8      -999.516          51.000    20347143.898 8  83318145.386 8      -778.846          51.000
G25  21685783.969 5 113959555.963 5      2399.809          33.000    21685797.641 5  88799734.826 5      1869.984          33.000
R08  23037237.836 5 123363342.485 5     -4181.043          35.000
R10  20222997.617 7 107799927.080 7     -1456.730          45.000
R21  22323986.859 7 119460116.846 7      4215.137          45.000    22323993.125 7  92913542.063 7      3278.443          44.000
C21  25709555.680 5 133876483.766 5     -2871.586          30.000
C29  22677743.453 8 118088997.025 8       989.996          51.000
E03  24976201.836 6 131250807.371 6     -1282.941          41.000    24976203.062 7 100568788.269 7      -983.033          43.000
E05                                                                  26759987.578 5 107751367.002 5     -2334.613          35.000
E11  25742932.258 8 135279980.789 8      2792.539          48.000    25742929.852 7 103656117.619 7      2139.807          43.000
E24  23197918.203 6 121905870.438 6     -1692.559          36.000    23197928.992 5  93408442.039 5     -1297.054          33.000
E25  23668447.594 6 124378518.518 6       441.086          37.000    23668449.273 6  95303004.110 6       338.065          39.000
> 2020 05 13 08 14  0.0000000  0 16        .000000000000
G02  24498149.344 5 128738627.699 5      2455.445          34.000
G12  20158947.391 8 105935985.841 8       701.137          49.000    20158946.688 8  82547513.059 8       546.343          49.000
G17  24481973.328 6 128653626.787 6     -3074.156          36.000    24481971.773 6 100249568.602 6     -2395.449          36.000
G24  20352839.414 8 106954885.612 8     -1004.551          51.000    20352839.953 8  83341469.996 8      -782.767          51.000
G25  21672063.633 4 113887454.764 4      2398.094          29.000    21672078.047 4  88743552.108 4      1868.648          26.000
R08  23060622.281 5 123488580.301 5     -4176.586          34.000    23060642.711 4  96046752.163 4     -3248.459          26.000
R09  22727941.828 6 121365908.557 6     -2921.352          36.000
R10  20231172.336 7 107843503.311 7     -1457.105          45.000
R21  22300329.688 7 119333523.755 7      4215.555          45.000    22300335.703 7  92815080.795 7      3278.768          43.000
C21  25726060.742 5 133962415.185 5     -2865.500          35.000
C29  22672037.391 8 118059283.280 8       982.352          51.000
E03  24983511.969 6 131289227.846 6     -1286.949          41.000    24983515.523 7 100598227.289 7      -986.014          44.000
E05                                                                  26777340.547 6 107821236.475 6     -2329.578          37.000
E11  25726953.961 8 135196013.818 8      2796.746          49.000    25726950.156 6 103591779.336 6      2143.090          40.000
E24  23207539.477 6 121956436.609 6     -1687.203          36.000    23207550.602 5  93447187.470 5     -1292.508          32.000
E25  23665895.234 5 124365108.860 5       444.586          34.000    23665896.523 6  95292729.125 6       340.663          39.000
> 2020 05 13 08 14 30.0000000  0 15        .000000000000
G02  24484155.195 5 128665090.924 5      2447.625          35.000    24484156.836 5 100258501.036 5      1907.240          30.000
G12  20154993.008 8 105915204.726 8       684.590          49.000    20154992.086 8  82531319.986 8       533.447          49.000
G17  24499552.383 6 128746003.857 6     -3084.438          36.000    24499552.266 5 100321550.614 5     -2403.464          35.000
G24  20358622.805 8 106985278.466 8     -1021.383          51.000    20358623.625 8  83365152.705 8      -795.883          51.000
R08  23084041.508 5 123613995.464 5     -4184.082          34.000    23084059.461 4  96144297.228 4     -3254.289          27.000
R09  22744371.047 5 121453651.298 5     -2928.555          32.000
R10  20239407.922 7 107887402.968 7     -1469.375          43.000
R21  22276729.992 7 119207235.670 7      4203.816          46.000    22276735.055 7  92716856.762 7      3269.638          43.000
C21  25742590.594 6 134048479.478 6     -2871.426          40.000
C29  22666434.766 8 118030107.248 8       963.039          51.000
E03  24990903.945 7 131328076.068 7     -1302.562          42.000    24990909.055 7 100627994.063 7      -998.070          44.000
E05  26794713.156 6 140807169.143 6     -3046.027          37.000    26794715.016 6 107891196.371 6     -2333.843          38.000
E11  25711011.148 7 135112235.797 7      2788.934          47.000    25711004.422 6 103527585.865 6      2136.843          40.000
E24  23217187.406 5 122007142.123 5     -1692.605          33.000    23217198.312 5  93486036.108 5     -1297.339          32.000
E25  23663380.078 5 124351904.973 5       435.980          34.000    23663383.289 6  95282611.919 6       334.117          38.000
> 2020 05 13 08 15  0.0000000  0 14        .000000000000
G02  24470196.125 6 128591731.984 6      2441.746          37.000    24470194.289 5 100201353.219 5      1902.662          34.000
G12  20151120.922 8 105894855.861 8       670.738          48.000    20151119.758 8  82515463.726 8       522.653          48.000
G17  24517176.242 5 128838618.441 5     -3091.914          35.000    24517176.531 5 100393717.754 5     -2409.293          33.000
G24  20364489.211 8 107016107.991 8     -1035.371          51.000    20364490.469 8  83389175.676 8      -806.783          51.000
R08  23107489.328 5 123739560.157 5     -4187.824          30.000    23107506.852 4  96241946.617 4     -3257.197          26.000
R10  20247699.641 7 107931602.714 7     -1478.684          42.000
R21  22253183.898 8 119081233.454 8      4194.895          48.000    22253187.922 7  92618855.087 7      3262.699          44.000
C21  25759140.203 6 134134651.283 6     -2874.652          41.000
C29  22660931.102 8 118001447.004 8       946.340          51.000
E03  24998372.867 7 131367327.909 7     -1315.449          42.000    24998378.820 7 100658070.130 7     -1007.989          44.000
E05  26812106.867 6 140898565.854 6     -3048.441          38.000    26812106.211 6 107961227.551 6     -2335.768          39.000
E11  25695100.242 7 135028625.794 7      2783.754          47.000    25695093.148 6 103463521.157 6      2133.141          41.000
E24  23226857.578 5 122057958.659 5     -1695.531          32.000    23226865.922 5  93524964.015 5     -1299.613          32.000
E25  23660902.234 6 124338883.837 6       430.441          36.000    23660904.781 6  95272634.646 6       330.112          36.000
> 2020 05 13 08 15 30.0000000  0 14        .000000000000
G02  24456269.945 5 128518543.440 5      2437.270          35.000    24456267.383 5 100144319.259 5      1899.174          30.000
G12  20147328.930 7 105874928.725 7       657.719          47.000    20147327.617 7  82499936.080 7       512.508          47.000
G17  24534842.992 5 128931457.944 5     -3097.246          34.000    24534843.055 5 100466060.154 5     -2413.442          32.000
G24  20370436.797 8 107047363.906 8     -1048.348          51.000    20370438.156 8  83413530.924 8      -816.894          51.000
G25  21631268.008 5 113673082.677 5      2367.969          35.000    21631285.820 5  88576433.906 5      1845.177          34.000
R10  20256045.305 6 107976091.749 6     -1487.250          41.000
R21  22229690.305 8 118955511.483 8      4186.574          48.000    22229694.000 7  92521071.403 7      3256.227          45.000
C21  25775707.289 7 134220917.902 7     -2876.641          42.000
C29  22655524.797 8 117973293.394 8       930.594          51.000
E03  25005916.492 7 131406972.194 7     -1327.359          43.000    25005922.289 7 100688446.902 7     -1017.020          42.000
E05  26829514.820 6 140990043.690 6     -3050.047          39.000    26829513.281 6 108031320.892 6     -2337.148          39.000
E11  25679219.781 7 134945206.858 7      2779.477          47.000    25679217.859 7 103399562.081 7      2129.744          42.000
E24                                                                  23236552.125 5  93563969.235 5     -1301.197          32.000
E25  23658458.164 6 124326035.111 6       426.113          38.000    23658458.359 5  95262789.475 5       326.215          34.000
> 2020 05 13 08 16  0.0000000  0 17        .000000000000
G02  24442342.180 6 128445349.784 6      2434.059          36.000    24442336.453 5 100087281.317 5      1896.672          32.000
G12  20143583.172 7 105855245.220 7       646.133          47.000    20143581.992 7  82484598.280 7       503.480          47.000
G17  24552518.625 5 129024342.194 5     -3102.188          32.000    24552518.031 5 100538437.396 5     -2417.298          32.000
G24  20376431.672 8 107078868.141 8     -1060.113          51.000    20376432.930 8  83438079.669 8      -826.062          51.000
G25  21617752.844 5 113602052.058 5      2360.090          32.000    21617768.172 5  88521085.316 5      1839.031          32.000
R09  22793781.422 5 121717516.545 5     -2937.344          31.000
R10  20264411.812 6 108020690.047 6     -1494.227          40.000
R11  20393937.008 4 108979014.354 4      1810.188          28.000
R21  22206215.344 7 118829893.103 7      4179.613          47.000    22206219.266 7  92423368.257 7      3250.810          46.000
C21  25792257.719 7 134307100.635 7     -2876.957          42.000
C29  22650182.133 8 117945471.059 8       916.180          51.000
C30  24718698.938 5 128716763.437 5     -2073.738          32.000
E03  25013500.992 7 131446829.939 7     -1337.922          43.000    25013506.594 7 100718987.242 7     -1025.140          42.000
E05  26846903.320 6 141081422.842 6     -3049.930          39.000    26846902.375 6 108101338.623 6     -2337.028          39.000
E11  25663336.758 7 134861741.109 7      2776.773          46.000    25663337.789 7 103335607.833 7      2127.628          44.000
E24                                                                  23246224.172 5  93602911.328 5     -1301.834          31.000
E25  23656012.891 6 124313180.724 6       422.535          37.000    23656010.477 5  95252939.955 5       324.009          35.000
> 2020 05 13 08 16 30.0000000  0 14        .000000000000
G02  24428481.445 6 128372509.391 6      2414.000          36.000    24428476.570 5 100030522.679 5      1881.048          35.000
G12  20139951.297 8 105836159.971 8       618.254          48.000    20139949.945 8  82469726.651 8       481.756          48.000
G24  20382541.414 8 107110975.687 8     -1088.340          51.000    20382542.836 8  83463098.516 8      -848.057          51.000
G25  21604327.500 5 113531501.424 5      2335.324          31.000    21604341.844 5  88466110.644 5      1819.727          30.000
R10  20272866.680 6 108065757.332 6     -1518.293          40.000
R21  22182827.258 7 118704744.391 7      4155.586          46.000    22182831.992 7  92326030.380 7      3232.122          44.000
C21  25808858.508 6 134393548.740 6     -2893.633          41.000
C29  22644970.383 8 117918332.623 8       885.262          51.000
C30  24730699.312 5 128779253.202 5     -2100.113          34.000
E03  25021193.586 7 131487255.085 7     -1364.949          43.000    25021199.367 7 100749962.334 7     -1045.930          43.000
E05  26864340.336 6 141173059.571 6     -3066.566          40.000    26864341.750 6 108171571.421 6     -2349.602          40.000
E11  25647518.609 7 134778616.766 7      2757.090          46.000    25647520.227 7 103271915.157 7      2112.593          45.000
E24  23255971.625 5 122210939.644 5     -1716.051          35.000    23255950.406 5  93642072.032 5     -1315.294          33.000
E25  23653632.375 5 124300675.377 5       403.316          35.000    23653630.016 6  95243358.000 6       308.846          36.000
> 2020 05 13 08 17  0.0000000  0 13        .000000000000
G02  24414646.398 5 128299807.576 5      2419.465          35.000    24414641.586 5  99973875.778 5      1885.300          33.000
G12  20136391.961 8 105817455.275 8       615.355          49.000    20136390.062 8  82455151.545 8       479.498          49.000
G17  24588054.422 5 129211097.256 5     -3120.465          30.000
G24  20388724.625 8 107143469.080 8     -1091.367          51.000    20388726.258 8  83488418.029 8      -850.416          51.000
R10  20281368.016 6 108111072.948 6     -1516.699          40.000
R21  22159486.508 7 118579848.575 7      4156.984          47.000    22159491.641 7  92228889.216 7      3233.210          44.000
C21  25825468.000 6 134480044.186 6     -2885.680          40.000
C29  22639848.719 8 117891663.514 8       879.215          51.000
C30  24742768.742 5 128842097.793 5     -2102.969          33.000
E03  25028952.359 7 131528029.064 7     -1366.734          42.000    25028959.289 7 100781204.724 7     -1047.283          44.000
E05  26881784.789 6 141264732.533 6     -3058.199          39.000    26881786.406 6 108241810.258 6     -2343.370          40.000
E11  25631724.234 7 134695618.505 7      2762.520          46.000    25631726.055 7 103208319.110 7      2116.700          47.000
E25  23651276.859 6 124288301.714 6       408.340          39.000    23651276.148 6  95233876.886 6       312.893          37.000
> 2020 05 13 08 17 30.0000000  0 15        .000000000000
G02  24400852.633 6 128227325.719 6      2406.305          38.000    24400849.648 5  99917396.428 5      1875.049          31.000
G12  20132919.969 8 105799209.520 8       594.871          49.000    20132918.047 8  82440934.081 8       463.536          49.000
G24  20394996.242 8 107176427.118 8     -1111.992          50.000    20394997.852 8  83514099.611 8      -866.487          50.000
G25  21577641.914 5 113391275.803 5      2320.363          32.000    21577657.977 5  88356881.196 5      1808.069          30.000
R10  20289930.695 6 108156716.844 6     -1532.875          37.000
R11  20363734.242 5 108817618.024 5      1775.711          31.000    20363720.641 3  84635869.719 3      1381.109          23.000
R21  22136209.984 8 118455290.472 8      4140.426          48.000    22136214.711 7  92132010.789 7      3220.334          44.000
C21  25842100.742 6 134566662.763 6     -2894.848          39.000
C29  22634832.273 8 117865542.797 8       856.012          50.000
C30  24754921.695 5 128905369.581 5     -2122.254          33.000
E03  25036792.234 6 131569229.779 6     -1386.219          40.000    25036800.352 7 100812774.099 7     -1062.323          44.000
