     3.02           OBSERVATION DATA    M (MIXED)           RINEX VERSION / TYPE
SAVERINEX           SC600               20200512 085930 LCL PGM / RUN BY / DATE
       G = GPS       R = GLONASS       C = COMPASS          COMMENT
       S = SBAS      J = QZSS          E = GALILEO          COMMENT
BEAN                                                        MARKER NAME
1                                                           MARKER NUMBER
GEODETIC                                                    MARKER TYPE
Unige DICCA         GTER                                    OBSERVER / AGENCY
SC60291900056       SC600               2.12(191226)        REC # / TYPE / VERS
                    HEMA45          NONE                    ANT # / TYPE
  4509407.8091   693652.4678  4442337.6214                  APPROX POSITION XYZ
        0.0000        0.0000        0.0000                  ANTENNA: DELTA H/E/N
G    8 C1C L1C D1C S1C C2Y L2Y D2Y S2Y                      SYS / # / OBS TYPES
R    8 C1C L1C D1C S1C C2P L2P D2P S2P                      SYS / # / OBS TYPES
C    8 C1I L1I D1I S1I C7I L7I D7I S7I                      SYS / # / OBS TYPES
E    8 C1C L1C D1C S1C C7Q L7Q D7Q S7Q                      SYS / # / OBS TYPES
DBHZ                                                        COMMENT
     30.000                                                 INTERVAL
  2020    05    12    06    00    0.0000000     GPS         TIME OF FIRST OBS
  2020    05    12    06    59   30.0000000     GPS         TIME OF LAST OBS
     0                                                      RCV CLOCK OFFS APPL
G L1C  0.00000                                              SYS / PHASE SHIFT
G L2Y  0.00000                                              SYS / PHASE SHIFT
R L1C  0.00000                                              SYS / PHASE SHIFT
R L2P  0.25000                                              SYS / PHASE SHIFT
C L1I  0.00000                                              SYS / PHASE SHIFT
C L7I  0.00000                                              SYS / PHASE SHIFT
E L1C  0.50000                                              SYS / PHASE SHIFT
E L7Q -0.25000                                              SYS / PHASE SHIFT
 13 R03  5 R04  6 R05  1 R06 -4 R07  5 R09 -2 R10 -7 R14 -7 GLONASS SLOT / FRQ #
    R15  0 R16 -1 R17  4 R18 -3 R19  3                      GLONASS SLOT / FRQ #
 C1C   71.950 C2C   71.950 C2P   71.950                     GLONASS COD/PHS/BIS
    18                                                      LEAP SECONDS
*** Above antenna height is from mark to ANTENNA BOTTOM.    COMMENT
    17     4        0.0000        ANT MEASURE TYPE/HEIGT    COMMENT
    0.0000    0.0000    0.0458    0.0405    0.0000          COMMENT
                    BASE STATION                            COMMENT
                                                            END OF HEADER
> 2020 05 12 06 00  0.0000000  0 16        .000000000000
G13  20941606.273 8 110048870.739 8     -2039.254          51.000    20941605.961 8  85752352.838 8     -1589.032          49.000
G15  20376785.570 8 107080723.435 8      -638.375          51.000    20376783.445 8  83439524.475 8      -497.435          51.000
G19  23071110.375 7 121239518.921 7      2923.004          47.000    23071108.656 6  94472334.849 6      2277.665          41.000
R06  19977881.281 8 106605800.903 8     -2542.562          48.000
R09  21002239.477 4 112150848.499 4      2373.625          29.000    21002236.023 4  87228390.379 4      1846.150          28.000
R15  23419171.781 4 125144952.780 4     -3497.020          26.000
R16  19734278.719 5 105416971.303 5     -1568.465          34.000    19734280.680 4  81990986.984 4     -1219.914          29.000
R17  22809986.625 4 122060844.458 4       564.449          29.000
C05  39771563.648 5 207100966.974 5        23.762          34.000    39771557.844 5 160143582.661 5        17.700          35.000
C21  23617836.594 8 122984280.268 8     -2694.309          49.000
C26  22167688.531 5 115432955.968 5      1375.062          34.000
E02  23572942.461 8 123876644.233 8     -1089.605          51.000    23572943.820 8  94918529.133 8      -834.898          51.000
E03  27384292.555 5 143905427.807 5     -3064.105          34.000    27384300.648 6 110265213.305 6     -2347.953          38.000
E08  22003746.500 8 115630462.605 8     -1530.707          51.000    22003745.664 8  88599952.622 8     -1172.873          51.000
E25                                                                  27401579.336 5 110334789.990 5     -2021.292          35.000
E30  22907203.695 8 120378139.913 8      1459.594          51.000    22907205.977 8  92237790.176 8      1118.375          51.000
> 2020 05 12 06 00 30.0000000  0 14        .000000000000
G13  20953275.359 8 110110191.037 8     -2044.559          51.000    20953274.750 8  85800134.876 8     -1593.159          49.000
G15  20380468.344 8 107100076.723 8      -647.715          51.000    20380466.336 8  83454604.937 8      -504.713          51.000
G19  23054441.008 8 121151918.562 8      2921.168          48.000    23054438.172 6  94404074.797 6      2276.238          40.000
R06  19992225.148 8 106682339.231 8     -2555.879          48.000
R16  19743108.430 5 105464133.892 5     -1571.215          34.000    19743111.688 5  82027669.016 5     -1222.059          30.000
R17  22806881.281 5 122044200.151 5       548.293          33.000
C05                                                                  39771412.250 5 160142995.664 5        24.554          34.000
C21  23633372.539 8 123065182.432 8     -2695.203          50.000
C26  22159776.477 6 115391746.893 6      1376.172          39.000
E02  23579171.633 8 123909378.364 8     -1088.594          51.000    23579172.844 8  94943611.122 8      -834.105          51.000
E03                                                                  27401789.531 6 110335629.863 6     -2343.290          36.000
E08  22012504.859 8 115676487.673 8     -1533.559          51.000    22012503.945 8  88635218.580 8     -1175.076          51.000
E25                                                                  27416625.477 5 110395371.865 5     -2014.393          34.000
E30  22898882.883 8 120334411.162 8      1459.742          51.000    22898883.648 8  92204283.750 8      1118.507          51.000
> 2020 05 12 06 01  0.0000000  0 15        .000000000000
G13  20965011.562 8 110171864.172 8     -2065.328          51.000    20965010.500 8  85848191.868 8     -1609.347          48.000
G15  20384241.867 8 107119906.499 8      -672.586          51.000    20384239.836 8  83470056.704 8      -524.093          51.000
G19  23037819.492 7 121064569.648 7      2903.730          47.000    23037816.141 7  94336010.748 7      2262.647          42.000
R06  20006680.117 8 106759471.453 8     -2584.664          49.000
R09  20975650.266 5 112008784.264 5      2355.020          33.000    20975645.219 5  87117946.480 5      1831.679          30.000
R16  19751989.320 5 105511572.597 5     -1590.105          34.000    19751992.805 4  82064565.758 4     -1236.749          29.000
R17  22803904.461 5 122028251.868 5       516.465          35.000    22803901.609 4  94910896.256 4       401.695          26.000
C05  39771258.094 5 207099376.582 5        25.562          35.000
C21  23648952.133 8 123146306.699 8     -2711.461          51.000
C26  22151895.031 6 115350698.242 6      1362.285          38.000
E02  23585431.664 8 123942274.471 8     -1102.871          51.000    23585432.867 8  94968817.224 8      -845.042          51.000
E03                                                                  27419281.305 5 110406053.070 5     -2350.368          34.000
E08  22021316.516 8 115722791.756 8     -1551.727          51.000    22021315.406 8  88670698.326 8     -1189.027          51.000
E25                                                                  27431660.695 5 110455907.538 5     -2019.969          34.000
E30  22890596.711 8 120290869.839 8      1444.688          51.000    22890596.680 8  92170920.944 8      1106.980          51.000
> 2020 05 12 06 01 30.0000000  0 14        .000000000000
G12  23974741.430 5 125988132.284 5      3768.227          32.000    23974740.211 5  98172574.800 5      2936.283          33.000
G13  20976861.430 8 110234135.570 8     -2089.621          51.000    20976859.930 8  85896715.030 8     -1628.276          48.000
G15  20388152.922 8 107140458.745 8      -700.980          51.000    20388150.750 8  83486071.434 8      -546.219          51.000
G17  22598578.508 5 118756344.782 5      1132.578          31.000    22598582.406 5  92537396.015 5       882.531          30.000
G19  23021292.984 7 120977721.578 7      2882.707          46.000    23021289.234 6  94268336.997 6      2246.268          41.000
R06  20021292.453 8 106837444.643 8     -2617.098          49.000
R09  20962472.961 4 111938435.247 4      2334.473          27.000
R17  22801097.711 5 122013240.071 5       480.293          33.000
C21  23664621.258 8 123227894.913 8     -2731.211          51.000
C26  22144089.398 5 115310054.130 5      1343.762          35.000
E02  23591769.188 8 123975577.740 8     -1120.855          51.000    23591770.469 8  94994335.307 8      -858.867          51.000
E03                                                                  27436823.195 4 110476714.711 4     -2359.635          29.000
E08  22030227.984 8 115769620.522 8     -1573.668          51.000    22030226.898 8  88706580.093 8     -1205.827          51.000
E30  22882392.875 8 120247762.278 8      1425.645          51.000    22882393.148 8  92137890.461 8      1092.356          51.000
> 2020 05 12 06 02  0.0000000  0 16        .000000000000
G12  23953191.188 6 125874882.395 6      3775.523          36.000    23953189.133 6  98084328.171 6      2941.966          37.000
G13  20988778.641 8 110296761.311 8     -2091.238          51.000    20988776.758 7  85945514.304 7     -1629.536          47.000
G15  20392155.109 8 107161490.387 8      -706.992          51.000    20392152.812 8  83502459.726 8      -550.903          51.000
G17  22592111.070 5 118722345.646 5      1127.746          31.000    22592118.164 5  92510938.114 5       878.769          30.000
G19  23004816.383 7 120891135.028 7      2884.105          46.000    23004812.773 7  94200867.004 7      2247.358          43.000
R06  20036015.477 8 106916009.415 8     -2626.527          48.000
R09  20949346.078 5 111868325.789 5      2334.453          31.000    20949340.062 4  87008676.796 4      1815.680          27.000
R16  19769996.344 5 105607790.037 5     -1610.324          31.000    19769998.117 4  82139405.110 4     -1252.471          28.000
R17  22798419.641 5 121998919.003 5       467.980          34.000    22798420.438 5  94888065.829 5       363.985          30.000
C05  39770989.406 5 207097976.782 5        27.707          34.000
C21  23680332.547 8 123309704.265 8     -2728.457          51.000
C26  22136314.531 5 115269573.800 5      1348.543          34.000
E02  23598137.703 8 124009044.169 8     -1116.121          51.000    23598139.094 8  95019978.411 8      -855.189          51.000
E03  27454351.734 5 144273591.600 5     -3070.387          34.000
E08  22039192.961 8 115816730.455 8     -1572.844          51.000    22039192.125 8  88742677.287 8     -1205.208          51.000
E30  22874225.938 8 120204845.524 8      1429.445          51.000    22874226.781 8  92105006.174 8      1095.325          51.000
> 2020 05 12 06 02 30.0000000  0 15        .000000000000
G12  23931659.445 6 125761725.950 6      3767.898          38.000    23931653.719 6  97996154.424 6      2936.034          36.000
G13  21000765.133 8 110359751.397 8     -2108.180          51.000    21000763.062 7  85994597.488 7     -1642.737          47.000
G15  20396250.445 8 107183012.260 8      -728.082          51.000    20396248.336 8  83519230.006 8      -567.337          51.000
G17  22585731.578 5 118688829.962 5      1107.555          34.000    22585741.141 5  92484824.945 5       863.027          32.000
G19  22988392.055 7 120804824.080 7      2869.945          46.000    22988389.188 7  94133611.778 7      2236.324          43.000
R06  20050850.188 7 106995173.537 7     -2651.352          46.000
R16  19779080.695 5 105656313.407 5     -1624.605          31.000    19779080.945 4  82177119.510 4     -1263.579          27.000
R17  22795874.953 6 121985306.956 6       439.906          36.000    22795877.383 5  94877485.079 5       342.149          35.000
C05  39770836.719 5 207097181.869 5        24.879          34.000    39770831.203 5 160140656.366 5        19.298          34.000
C21  23696087.547 8 123391743.495 8     -2741.016          51.000
C26  22128573.711 5 115229268.356 5      1337.852          34.000
E02  23604539.148 8 124042683.711 8     -1126.723          51.000    23604540.547 8  95045754.161 8      -863.285          51.000
E03  27471897.500 5 144365795.564 5     -3075.707          33.000
E08  22048213.398 8 115864131.963 8     -1587.441          51.000    22048212.836 8  88778997.905 8     -1216.306          51.000
E30  22866097.695 8 120162130.612 8      1417.980          51.000    22866099.227 8  92072276.572 8      1086.487          51.000
> 2020 05 12 06 03  0.0000000  0 14        .000000000000
G12  23910156.594 6 125648722.981 6      3761.602          40.000    23910149.391 4  97908100.250 4      2931.118          28.000
G13  21012831.930 8 110423163.163 8     -2123.340          51.000    21012829.766 7  86044009.226 7     -1654.551          46.000
G15  20400450.117 8 107205082.202 8      -747.305          51.000    20400448.305 8  83536427.354 8      -582.315          51.000
G19  22972031.773 7 120718850.789 7      2857.539          46.000    22972029.859 7  94066619.622 7      2226.657          44.000
R06  20065807.250 7 107074993.331 7     -2674.211          45.000
R09  20923245.703 6 111728976.577 6      2308.465          36.000    20923251.891 5  86900328.490 5      1795.473          30.000
R16  19788228.711 5 105705178.681 5     -1637.305          34.000    19788232.148 4  82215125.791 4     -1273.465          28.000
R17  22793476.477 6 121972467.952 6       412.871          37.000    22793476.391 5  94867487.744 5       321.122          34.000
C05  39770683.492 5 207096384.186 5        24.195          34.000    39770678.000 5 160140039.545 5        18.821          34.000
C21  23711896.680 8 123474067.954 8     -2751.395          51.000
C26  22120875.945 5 115189195.184 5      1329.215          30.000
E02  23610984.469 8 124076553.410 8     -1135.410          51.000    23610985.594 8  95071706.254 8      -869.969          51.000
E08  22057300.258 8 115911882.525 8     -1600.039          51.000    22057299.938 8  88815585.985 8     -1226.001          51.000
E30  22858018.812 8 120119675.663 8      1408.254          51.000    22858020.742 8  92039746.172 8      1079.064          51.000
> 2020 05 12 06 03 30.0000000  0 14        .000000000000
G12  23888684.711 6 125535883.496 6      3758.578          40.000    23888677.711 5  97820173.536 5      2928.759          31.000
G13  21024980.562 8 110487004.110 8     -2135.121          51.000    21024978.156 7  86093755.396 7     -1663.731          45.000
G15  20404755.719 8 107227708.420 8      -763.406          51.000    20404754.180 8  83554058.171 8      -594.862          51.000
G19  22955737.914 7 120633226.555 7      2848.320          46.000    22955736.711 7  93999899.447 7      2219.470          43.000
R06  20080889.102 7 107155474.320 7     -2693.438          47.000
R09  20910291.922 5 111659822.370 5      2299.359          31.000    20910292.430 4  86846506.354 4      1788.388          26.000
R16  19797442.383 5 105754392.805 5     -1646.414          34.000    19797445.094 4  82253403.448 4     -1280.544          26.000
R17  22791215.953 5 121960386.273 5       389.750          35.000    22791216.141 4  94858090.792 4       303.136          29.000
C05  39770531.398 5 207095592.212 5        26.344          34.000    39770525.852 5 160139426.159 5        20.485          34.000
C21  23727761.586 8 123556684.007 8     -2758.664          50.000
C26  22113223.367 5 115149370.084 5      1323.523          32.000
E02  23617474.977 8 124110660.695 8     -1140.652          51.000    23617475.812 8  95097840.399 8      -874.015          51.000
E08  22066454.789 8 115959990.024 8     -1609.316          51.000    22066454.938 8  88852447.559 8     -1233.101          51.000
E30  22849991.000 8 120077489.180 8      1401.992          51.000    22849992.938 8  92007421.496 8      1074.257          51.000
> 2020 05 12 06 04  0.0000000  0 13        .000000000000
G12  23867245.844 6 125423217.524 6      3751.812          40.000    23867238.320 3  97732381.870 3      2923.481          23.000
G13  21037212.164 8 110551281.023 8     -2150.781          51.000    21037209.680 7  86143841.238 7     -1675.936          44.000
G15  20409168.586 8 107250898.350 8      -783.367          51.000    20409167.352 8  83572128.240 8      -610.416          51.000
G19  22939512.531 7 120547962.014 7      2835.168          45.000    22939511.852 7  93933459.573 7      2209.225          43.000
R06  20096096.562 8 107236621.067 8     -2716.973          48.000
R16  19806722.047 5 105803961.128 5     -1659.449          30.000    19806724.742 4  82291973.633 4     -1290.677          24.000
R17  22789108.039 5 121949046.887 5       363.039          31.000
C05  39770381.773 5 207094813.355 5        24.629          34.000    39770376.141 5 160138823.929 5        18.909          34.000
C21  23743683.867 8 123639596.836 8     -2769.645          51.000
C26  22105620.578 6 115109786.219 6      1314.160          37.000
E02  23624011.844 8 124145011.922 8     -1150.062          51.000    23624012.641 8  95124161.462 8      -881.247          51.000
E08  22075678.188 8 116008461.273 8     -1622.777          51.000    22075679.016 8  88889587.830 8     -1243.406          51.000
E30  22842015.820 8 120035578.605 8      1391.496          51.000    22842017.836 8  91975308.213 8      1066.211          51.000
> 2020 05 12 06 04 30.0000000  0 14        .000000000000
G12  23845838.820 6 125310719.079 6      3748.215          38.000
G13  21049525.086 8 110615985.094 8     -2162.836          51.000    21049522.617 7  86194259.933 7     -1685.330          45.000
G15  20413687.164 8 107274644.079 8      -799.734          51.000    20413686.375 8  83590631.396 8      -623.173          51.000
G17  22561186.109 6 118559832.548 6      1041.316          37.000    22561190.742 6  92384303.113 6       811.415          37.000
G19  22923354.844 7 120463053.514 7      2825.301          44.000    22923354.516 7  93867297.169 7      2201.536          42.000
R06  20111426.781 8 107318422.508 8     -2736.449          48.000
R09  20884591.359 5 111522560.903 5      2277.426          35.000
R16  19816066.453 5 105853866.215 5     -1668.762          33.000
C05  39770233.141 5 207094039.184 5        26.922          34.000    39770227.609 5 160138226.054 5        20.751          34.000
C21  23759661.891 8 123722796.812 8     -2777.047          51.000
C26  22098066.148 6 115070443.068 6      1308.438          39.000
E02  23630593.508 8 124179598.480 8     -1155.703          51.000    23630594.391 8  95150662.840 8      -885.521          51.000
E08  22084969.102 8 116057288.025 8     -1632.430          51.000    22084970.391 8  88927000.514 8     -1250.766          51.000
E30  22834091.812 8 119993936.359 8      1384.715          51.000    22834093.992 8  91943400.516 8      1061.045          51.000
> 2020 05 12 06 05  0.0000000  0 14        .000000000000
G12  23824448.102 5 125198305.103 5      3744.496          33.000
G13  21061902.570 8 110681029.888 8     -2174.590          51.000    21061900.625 7  86244944.154 7     -1694.486          45.000
G15  20418295.102 8 107298859.693 8      -815.762          51.000    20418294.734 8  83609500.674 8      -635.658          51.000
G19  22907249.320 7 120378418.235 7      2816.027          45.000    22907248.742 6  93801347.647 6      2194.307          41.000
G24  21403627.477 5 112476811.097 5      2110.289          35.000    21403614.266 5  87644236.300 5      1644.384          33.000
R06  20126862.508 7 107400788.786 7     -2755.625          47.000
R09  20871818.406 6 111454361.026 6      2268.328          36.000
R16  19825458.781 5 105904035.140 5     -1677.223          33.000    19825459.156 4  82369810.564 4     -1304.507          24.000
C05  39770069.547 5 207093186.988 5        28.980          34.000    39770063.938 5 160137567.070 5        22.585          34.000
C21  23775678.523 8 123806196.907 8     -2784.016          51.000
C26  22090543.508 6 115031255.996 6      1303.074          41.000
E02  23637203.492 8 124214333.689 8     -1161.020          51.000    23637204.336 8  95177278.123 8      -889.624          51.000
E08  22094311.266 8 116106384.020 8     -1641.715          50.000    22094312.586 8  88964619.539 8     -1257.973          51.000
E30  22826202.703 8 119952476.826 8      1378.195          51.000    22826204.922 8  91911632.820 8      1056.005          51.000
> 2020 05 12 06 05 30.0000000  0 15        .000000000000
G12  23803109.539 4 125086171.355 4      3740.508          29.000
G13  21074370.102 8 110746550.920 8     -2187.738          49.000    21074369.500 7  86295999.510 7     -1704.731          46.000
G15  20423018.531 8 107323681.089 8      -833.352          51.000    20423018.102 8  83628842.005 8      -649.365          51.000
G17  22549485.102 5 118498344.605 5      1010.191          35.000    22549483.672 5  92336362.690 5       787.159          34.000
G19  22891221.922 7 120294196.146 7      2804.598          42.000    22891221.562 6  93735720.075 6      2185.401          41.000
G24  21391619.648 5 112413719.511 5      2102.090          30.000
R06  20142428.938 7 107483855.835 7     -2776.207          44.000
R09  20859122.586 5 111386558.135 5      2257.652          32.000
R16  19834923.547 5 105954596.470 5     -1687.477          32.000    19834928.391 4  82409138.563 4     -1312.479          28.000
C05  39769916.703 5 207092390.803 5        30.102          34.000    39769910.969 5 160136950.460 5        22.974          34.000
C21  23791758.914 8 123889930.139 8     -2792.488          51.000
C26  22083076.461 6 114992360.247 6      1295.965          37.000
E02  23643867.422 8 124249352.864 8     -1167.910          51.000    23643868.188 8  95204110.981 8      -894.913          51.000
E08  22103730.250 8 116155885.043 8     -1652.695          49.000    22103731.375 8  89002548.915 8     -1266.342          51.000
E30  22818374.117 8 119911336.372 8      1370.109          51.000    22818376.141 8  91880109.607 8      1049.839          51.000
> 2020 05 12 06 06  0.0000000  0 16        .000000000000
G12  23781783.367 5 124974113.461 5      3731.840          32.000
G13  21086908.500 8 110812443.522 8     -2204.121          50.000    21086908.930 7  86347344.423 7     -1717.494          46.000
G15  20427837.531 8 107349004.661 8      -854.020          51.000    20427836.750 8  83648574.655 8      -665.470          51.000
G17  22543777.359 5 118468331.963 5       990.156          34.000    22543777.969 5  92313010.322 5       771.547          35.000
G19  22875253.320 6 120210287.119 6      2790.090          39.000    22875253.719 6  93670336.434 6      2174.099          39.000
G24  21379649.461 5 112350822.912 5      2091.109          32.000
G28  22725407.445 5 119422794.733 5     -2771.902          34.000
R06  20158105.617 7 107567514.557 7     -2799.883          43.000
R16  19844442.602 5 106005443.590 5     -1701.414          35.000    19844443.328 4  82448686.307 4     -1323.325          29.000
R17  22782070.094 5 121911451.984 5       262.609          34.000    22782073.094 5  94820027.420 5       204.255          31.000
C05  39769754.812 5 207091548.338 5        27.527          34.000    39769749.172 5 160136298.994 5        21.286          34.000
C21  23807882.844 8 123973891.777 8     -2803.996          51.000
C26  22075642.641 4 114953663.265 4      1284.137          27.000
E02  23650565.406 8 124284551.491 8     -1177.801          51.000    23650566.102 8  95231081.344 8      -902.504          51.000
E08  22113206.625 8 116205686.957 8     -1666.594          49.000    22113207.516 8  89040708.842 8     -1277.036          51.000
E30  22810586.023 8 119870411.547 8      1358.961          51.000    22810587.938 8  91848751.640 8      1041.276          51.000
> 2020 05 12 06 06 30.0000000  0 14        .000000000000
G12  23760483.750 5 124862183.168 5      3722.211          33.000
G13  21099521.562 8 110878724.661 8     -2222.586          51.000    21099521.766 7  86398992.062 7     -1731.885          47.000
G15  20432755.305 8 107374847.758 8      -876.871          51.000    20432754.352 8  83668712.115 8      -683.276          51.000
G17  22538169.922 6 118438837.635 6       968.445          36.000    22538166.789 5  92290027.669 5       754.627          35.000
G19  22859349.555 7 120126712.004 7      2773.312          43.000    22859349.320 6  93605212.958 6      2161.026          39.000
R06  20173896.891 7 107651780.120 7     -2825.793          46.000
R09  20833902.016 5 111251856.108 5      2227.027          30.000
R16  19854017.156 4 106056592.388 4     -1717.512          29.000    19854018.109 5  82488468.676 5     -1335.842          31.000
R17  22780659.969 5 121903914.500 5       231.871          31.000    22780661.898 5  94814164.975 5       180.341          30.000
C05  39769587.453 5 207090677.027 5        22.484          34.000    39769581.719 5 160135625.257 5        17.495          33.000
C21  23824052.828 8 124058097.103 8     -2817.551          49.000
E02  23657300.727 8 124319946.159 8     -1189.801          51.000    23657301.195 8  95258201.922 8      -911.689          51.000
E08  22122744.320 8 116255806.733 8     -1682.691          51.000    22122744.758 8  89079112.308 8     -1289.320          51.000
E30  22802842.211 8 119829719.954 8      1345.820          51.000    22802843.594 8  91817572.380 8      1031.198          51.000
> 2020 05 12 06 07  0.0000000  0 15        .000000000000
G12  23739246.320 5 124750582.416 5      3722.301          34.000
G13  21112244.203 8 110945580.328 8     -2230.898          51.000    21112243.984 7  86451087.369 7     -1738.362          46.000
G15  20437807.438 8 107401397.010 8      -889.547          51.000    20437806.539 8  83689399.824 8      -693.153          51.000
G17  22532687.695 5 118410052.296 5       956.188          30.000
G19  22843546.602 7 120043660.967 7      2766.773          45.000    22843544.727 6  93540497.878 6      2155.930          40.000
R06  20189837.789 7 107736839.090 7     -2841.145          47.000
R16  19863682.078 4 106108223.164 4     -1722.359          29.000    19863685.188 5  82528630.905 5     -1339.613          31.000
R17  22779431.633 5 121897326.203 5       211.477          33.000    22779428.359 5  94809019.782 5       164.476          31.000
C05  39769450.086 5 207089961.267 5        28.816          34.000    39769444.477 5 160135072.573 5        22.168          34.000
C21  23840304.055 8 124142729.317 8     -2820.922          48.000
C26  22060925.633 4 114877028.955 4      1270.727          27.000
E02  23664108.844 8 124355722.908 8     -1191.730          51.000    23664109.031 8  95285615.269 8      -913.162          51.000
E03  27630418.367 5 145198829.514 5     -3094.770          32.000
E08  22132378.461 8 116306430.747 8     -1688.668          51.000    22132378.516 8  89117902.135 8     -1293.858          51.000
E30  22795178.570 8 119789448.657 8      1342.598          51.000    22795179.688 8  91786715.156 8      1028.738          51.000
> 2020 05 12 06 07 30.0000000  0 14        .000000000000
G12  23718022.117 5 124639052.661 5      3711.949          34.000    23718033.391 5  97121363.001 5      2892.428          31.000
G13  21125026.234 8 111012748.542 8     -2247.781          51.000    21125025.398 7  86503426.176 7     -1751.521          47.000
G15  20442944.312 8 107428391.178 8      -910.914          51.000    20442943.203 8  83710434.230 8      -709.803          51.000
G19  22827794.562 7 119960876.908 7      2751.562          47.000    22827791.562 6  93475990.901 6      2144.078          40.000
R06  20205876.867 7 107822423.662 7     -2865.266          47.000
R16  19873393.211 5 106160078.952 5     -1735.668          32.000    19873389.398 4  82568968.420 4     -1349.970          28.000
R17  22778318.062 5 121891394.114 5       183.375          30.000    22778321.148 5  94804405.885 5       142.619          31.000
C05  39769293.250 5 207089144.807 5        24.996          34.000    39769287.406 5 160134440.206 5        19.474          34.000
C21  23856587.367 8 124227527.796 8     -2833.055          48.000
C26  22053632.383 4 114839052.416 4      1259.895          28.000
E02  23670939.750 8 124391619.804 8     -1202.215          51.000    23670940.047 8  95313120.684 8      -921.157          51.000
E03  27648097.117 5 145291729.863 5     -3099.625          34.000
E08  22142058.953 8 116357297.471 8     -1703.250          51.000    22142058.875 8  89156877.925 8     -1305.091          51.000
E30  22787545.141 8 119749336.792 8      1330.797          51.000    22787546.828 8  91755980.084 8      1019.654          51.000
> 2020 05 12 06 08  0.0000000  0 12        .000000000000
G13  21137903.000 8 111080415.155 8     -2267.477          51.000    21137901.422 7  86556153.355 7     -1766.868          47.000
G15  20448201.391 8 107456016.954 8      -935.125          51.000    20448200.078 8  83731960.831 8      -728.666          51.000
G19  22812129.172 8 119878549.895 8      2732.938          49.000    22812125.500 6  93411840.018 6      2129.565          39.000
R06  20222048.703 7 107908720.302 7     -2892.145          46.000
R16  19883178.227 4 106212351.144 4     -1753.215          28.000    19883175.008 4  82609602.475 4     -1363.612          26.000
C05  39769152.391 5 207088411.717 5        19.219          34.000    39769146.547 5 160133872.345 5        15.209          34.000
C21  23872938.938 8 124312675.489 8     -2847.629          49.000
C26  22046404.273 5 114801393.413 5      1245.918          33.000
E02  23677828.828 8 124427822.708 8     -1215.539          51.000    23677829.484 8  95340860.580 8      -931.366          51.000
E03  27665802.359 5 145384772.167 5     -3107.738          33.000
E08  22151820.828 8 116408593.083 8     -1720.660          51.000    22151820.969 8  89196182.334 8     -1318.437          51.000
E30  22779977.266 8 119709571.176 8      1316.195          51.000    22779980.109 8  91725510.321 8      1008.459          51.000
> 2020 05 12 06 08 30.0000000  0 12        .000000000000
G13  21150837.336 8 111148384.974 8     -2279.320          51.000    21150835.719 7  86609116.811 7     -1776.097          47.000
G15  20453541.391 8 107484079.346 8      -951.430          51.000    20453540.180 8  83753827.628 8      -741.377          51.000
G19  22796513.789 7 119796489.104 7      2722.215          47.000    22796510.359 6  93347896.618 6      2121.209          40.000
G28  22805031.555 5 119841249.187 5     -2812.008          33.000
R06  20238315.930 7 107995527.959 7     -2910.977          45.000
C05  39768990.703 5 207087569.608 5        20.863          34.000
C21  23889321.195 8 124397977.704 8     -2854.660          51.000
C26  22039198.328 5 114763862.506 5      1240.488          34.000
E02  23684739.008 8 124464136.237 8     -1221.062          51.000    23684739.766 8  95368685.234 8      -935.652          51.000
E03  27683498.508 5 145477765.834 5     -3107.957          33.000
E08  22161626.812 8 116460122.535 8     -1730.289          51.000    22161627.547 8  89235665.913 8     -1325.809          51.000
E30  22772438.672 8 119669957.441 8      1309.227          51.000    22772442.125 8  91695156.946 8      1003.108          51.000
> 2020 05 12 06 09  0.0000000  0 12        .000000000000
G13  21163834.891 8 111216688.147 8     -2275.102          51.000    21163834.086 8  86662340.024 8     -1772.809          48.000
G15  20458970.359 8 107512609.126 8      -951.562          51.000    20458969.469 8  83776058.619 8      -741.477          51.000
G19  22780954.938 7 119714728.624 7      2727.688          45.000    22780951.930 6  93284187.176 6      2125.471          40.000
G28  22821063.133 5 119925480.803 5     -2800.648          35.000
R06  20254684.102 7 108082875.496 7     -2913.270          45.000
R17  22775851.523 5 121878141.096 5       119.250          32.000    22775858.148 4  94794137.163 4        92.744          27.000
C05  39768813.938 5 207086648.469 5        39.172          34.000
C21  23905739.055 8 124483463.173 8     -2845.312          51.000
C26  22032020.531 5 114726488.639 5      1250.465          33.000
E02  23691676.016 8 124500590.598 8     -1210.223          51.000    23691676.625 8  95396617.798 8      -927.334          51.000
E08  22171482.875 8 116511916.423 8     -1723.641          51.000    22171484.250 8  89275352.124 8     -1320.700          51.000
E30  22764935.555 8 119630526.860 8      1318.527          51.000    22764938.672 8  91664943.905 8      1010.321          51.000
> 2020 05 12 06 09 30.0000000  0 13        .000000000000
G13  21176922.117 8 111285463.098 8     -2303.383          51.000    21176921.930 8  86715930.923 8     -1794.844          48.000
G15  20464514.898 8 107541745.501 8      -984.309          51.000    20464514.219 8  83798762.282 8      -766.994          51.000
G19  22765479.203 6 119633411.351 6      2699.488          41.000    22765477.383 6  93220823.112 6      2103.500          40.000
G28  22837126.570 5 120009905.008 5     -2822.027          32.000
R06  20271179.633 7 108170901.495 7     -2948.551          46.000
R16  19912817.578 4 106370692.975 4     -1779.836          29.000
R17  22775319.742 5 121875271.041 5        78.238          32.000    22775319.219 4  94791904.963 4        60.858          27.000
C05  39768648.805 5 207085788.587 5        24.875          34.000
C21  23922218.367 8 124569268.018 8     -2868.590          51.000
C26  22024898.852 5 114689410.164 5      1228.531          32.000
E02  23698666.227 8 124537324.283 8     -1232.168          51.000    23698666.758 8  95424764.385 8      -944.150          51.000
E08  22181415.289 8 116564113.541 8     -1749.691          51.000    22181417.227 8  89315347.293 8     -1340.703          51.000
E30  22757494.109 8 119591418.888 8      1295.133          51.000    22757496.391 8  91634978.070 8       992.383          51.000
> 2020 05 12 06 10  0.0000000  0 11        .000000000000
G13  21190138.281 8 111354914.724 8     -2322.125          51.000    21190138.320 8  86770049.102 8     -1809.448          48.000
G15  20470214.047 8 107571693.871 8     -1007.609          51.000    20470213.203 8  83822098.672 8      -785.150          51.000
G17  22501792.156 5 118247723.411 5       841.863          33.000
G19  22750128.273 6 119552746.233 6      2681.906          39.000    22750127.547 6  93157967.203 6      2089.794          39.000
R06  20287841.680 8 108259811.546 8     -2974.215          48.000
C05  39768534.484 5 207085194.133 5        19.941          34.000
C21  23938797.727 8 124655593.984 8     -2882.004          51.000
C26  22017872.117 5 114652837.238 5      1214.930          30.000
E02  23705748.570 8 124574542.118 8     -1244.340          51.000    23705749.219 8  95453281.932 8      -953.467          51.000
E08  22191463.406 8 116616919.004 8     -1766.039          51.000    22191465.547 8  89355808.601 8     -1353.214          51.000
E30  22750153.055 8 119552839.369 8      1281.508          51.000    22750154.844 8  91605417.148 8       981.994          51.000
> 2020 05 12 06 10 30.0000000  0 12        .000000000000
G13  21203371.203 8 111424453.251 8     -2327.613          51.000    21203371.367 8  86824234.973 8     -1813.725          48.000
G15  20475955.680 8 107601865.321 8     -1017.676          51.000    20475954.664 8  83845608.893 8      -792.994          51.000
G17  22496970.875 5 118222380.338 5       832.082          32.000
G19  22734789.805 6 119472148.379 6      2677.438          37.000    22734790.539 6  93095163.620 6      2086.309          36.000
R06  20304557.375 8 108349004.298 8     -2986.164          49.000
R17  22774723.188 6 121872126.648 6        29.484          36.000    22774725.211 5  94789437.587 5        22.929          31.000
C05  39768358.914 5 207084279.887 5        27.258          34.000
C21  23955364.219 8 124741855.642 8     -2882.387          51.000
C26  22010833.359 5 114616174.457 5      1215.008          35.000
E02  23712810.781 8 124611654.482 8     -1243.516          51.000    23712811.633 8  95481718.677 8      -952.866          51.000
E08  22201515.156 8 116669743.464 8     -1769.336          51.000    22201517.469 8  89396284.463 8     -1355.737          51.000
E30  22742800.227 8 119514199.627 8      1280.781          51.000    22742802.062 8  91575810.090 8       981.336          51.000
> 2020 05 12 06 11  0.0000000  0 12        .000000000000
G13  21216712.789 8 111494562.940 8     -2343.605          51.000    21216713.211 7  86878865.895 7     -1826.186          47.000
G15  20481831.891 8 107632744.351 8     -1038.184          51.000    20481830.844 8  83869670.453 8      -808.974          51.000
G19  22719557.914 6 119392106.144 6      2661.840          41.000    22719559.523 6  93032792.963 6      2074.161          39.000
G28  22885575.156 5 120264508.705 5     -2838.961          31.000
R06  20321417.641 8 108438969.315 8     -3008.652          49.000
R17  22774639.547 4 121871703.326 4         1.652          29.000    22774645.344 4  94789108.210 4         1.279          27.000
C05  39768214.477 5 207083527.613 5        25.449          34.000
C21  23972009.586 8 124828531.527 8     -2893.188          51.000
C26  22003871.445 5 114579908.684 5      1204.609          33.000
E02  23719945.055 8 124649145.501 8     -1253.035          51.000    23719945.961 8  95510445.551 8      -960.139          51.000
E08  22211662.844 8 116723071.410 8     -1783.004          51.000    22211665.031 8  89437146.101 8     -1366.213          51.000
E30  22735528.438 8 119475984.824 8      1269.668          51.000    22735530.016 8  91546528.618 8       972.907          51.000
> 2020 05 12 06 11 30.0000000  0  9        .000000000000
G13  21230156.609 8 111565210.865 8     -2351.293          51.000    21230156.945 7  86933916.184 7     -1832.179          47.000
G15  20487836.477 8 107664298.463 8     -1050.371          51.000    20487835.352 8  83894258.044 8      -818.471          51.000
G19  22704427.234 7 119312590.827 7      2654.547          44.000    22704428.648 7  92970833.048 7      2068.481          42.000
R06  20338415.281 8 108529670.994 8     -3022.680          48.000
C05  39768094.938 5 207082904.938 5        31.219          34.000
C21  23988727.203 8 124915587.903 8     -2895.758          49.000
E02  23727145.195 8 124686982.323 8     -1254.363          51.000    23727146.031 8  95539437.396 8      -961.124          51.000
E08  22221900.617 8 116776870.200 8     -1788.508          51.000    22221902.031 8  89478368.535 8     -1370.418          51.000
E30  22728331.703 8 119438163.066 8      1266.801          51.000    22728332.430 8  91517548.316 8       970.651          51.000
> 2020 05 12 06 12  0.0000000  0 12        .000000000000
G13  21243555.773 8 111635624.070 8     -2365.559          51.000    21243555.445 7  86988783.583 7     -1843.292          45.000
G15  20493822.664 8 107695755.428 8     -1069.273          51.000    20493821.445 8  83918769.952 8      -833.200          51.000
G19  22689251.039 7 119232833.771 7      2640.457          45.000    22689251.414 6  92908684.715 6      2057.499          41.000
G28  22918021.430 5 120434989.905 5     -2846.676          35.000
R06  20355402.844 7 108620321.730 7     -3043.438          47.000
R16  19963437.789 5 106641160.957 5     -1825.949          35.000    19963438.844 5  82943100.347 5     -1420.186          33.000
R17  22774851.875 5 121872783.665 5       -45.402          35.000    22774855.227 5  94789976.017 5       -35.313          33.000
C05  39767853.766 5 207081649.088 5        30.055          34.000
C21  24005369.609 7 125002257.660 7     -2904.707          47.000
E02  23734264.047 8 124724392.028 8     -1262.227          51.000    23734264.938 8  95568101.965 8      -967.134          51.000
E08  22232081.203 8 116830367.190 8     -1800.520          51.000    22232081.672 8  89519359.719 8     -1379.634          51.000
E30  22721062.828 8 119399962.397 8      1257.355          51.000    22721062.672 8  91488277.673 8       963.476          51.000
> 2020 05 12 06 12 30.0000000  0 13        .000000000000
G13  21257141.445 8 111707017.065 8     -2393.848          51.000    21257140.664 7  87044414.448 7     -1865.339          45.000
G15  20500021.508 8 107728330.549 8     -1102.242          51.000    20500020.484 8  83944153.149 8      -858.890          51.000
G19  22674260.477 7 119154054.149 7      2611.742          44.000    22674260.766 7  92847298.046 7      2035.124          43.000
R06  20372610.906 7 108712153.544 7     -3078.488          45.000
R09  20688025.188 5 110472890.805 5      2083.117          31.000    20688013.609 5  85923314.165 5      1620.208          32.000
R16  19973764.516 5 106696324.612 5     -1850.590          30.000    19973765.758 5  82986005.360 5     -1439.348          33.000
R17  22775221.672 6 121874769.518 6       -86.906          36.000    22775226.445 4  94791520.636 4       -67.588          28.000
C05  39767722.023 5 207080962.787 5        15.977          34.000
C21  24022168.180 7 125089743.376 7     -2927.551          46.000
C26  21983187.664 5 114472215.289 5      1172.277          33.000
E02  23741532.766 8 124762589.420 8     -1284.172          51.000    23741533.859 8  95597370.094 8      -983.964          51.000
E08  22242435.609 8 116884777.484 8     -1826.711          51.000    22242435.586 8  89561050.723 8     -1399.694          51.000
E30  22713952.906 8 119362598.579 8      1233.750          51.000    22713952.781 8  91459648.276 8       945.356          51.000
> 2020 05 12 06 13  0.0000000  0 13        .000000000000
G12  23486857.695 5 123424268.887 5      3648.516          33.000    23486849.070 5  96174719.527 5      2842.996          32.000
G13  21270790.648 8 111778744.497 8     -2393.633          51.000    21270789.781 7  87100305.895 7     -1865.171          45.000
G15  20506310.172 8 107761378.838 8     -1106.652          51.000    20506309.477 8  83969905.054 8      -862.327          51.000
G19  22659333.500 7 119075610.854 7      2611.957          45.000    22659333.578 7  92786173.446 7      2035.294          43.000
R06  20389916.984 7 108804507.661 7     -3084.191          45.000
R16  19984136.219 5 106751724.774 5     -1847.836          32.000    19984137.977 5  83029094.478 5     -1437.200          33.000
R17  22775726.328 5 121877466.265 5       -98.699          32.000
C05  39767577.422 5 207080209.697 5        29.160          33.000
C21  24039000.523 7 125177404.303 7     -2922.125          45.000
C26  21976407.148 6 114436888.682 6      1177.426          38.000
E02  23748828.531 8 124800929.071 8     -1277.508          51.000    23748829.727 8  95626747.221 8      -978.882          51.000
E08  22252840.891 8 116939455.853 8     -1824.270          51.000    22252840.820 8  89602947.134 8     -1397.841          51.000
E30  22706879.297 8 119325427.165 8      1238.680          51.000    22706879.875 8  91431166.299 8       949.103          51.000
> 2020 05 12 06 13 30.0000000  0 13        .000000000000
G12  23466054.648 5 123314951.946 5      3641.250          33.000    23466048.172 5  96089537.587 5      2837.341          34.000
G13  21284501.109 8 111850793.222 8     -2408.098          51.000    21284500.406 7  87156447.747 7     -1876.440          46.000
G15  20512686.305 8 107794887.477 8     -1125.719          51.000    20512686.000 8  83996015.684 8      -877.183          51.000
G19  22644468.742 7 118997494.857 7      2597.445          45.000    22644468.211 7  92725303.820 7      2023.983          42.000
R06  20407319.445 8 108897368.756 8     -3105.023          48.000
R16  19994549.086 5 106807347.664 5     -1858.836          34.000    19994552.516 5  83072356.707 5     -1445.761          33.000
R17  22776361.008 5 121880902.147 5      -125.953          34.000    22776363.133 4  94796264.236 4       -97.954          28.000
C05  39767417.461 5 207079376.782 5        28.961          33.000
C21  24055864.977 7 125265226.154 7     -2931.113          46.000
C26  21969654.531 6 114401717.163 6      1168.953          37.000
E02  23756148.859 8 124839397.794 8     -1285.594          51.000    23756149.984 8  95656223.241 8      -985.059          51.000
E08  22263294.562 8 116994389.418 8     -1836.527          51.000    22263294.562 8  89645039.080 8     -1407.203          51.000
E30  22699839.844 8 119288435.913 8      1228.871          51.000    22699841.164 8  91402822.363 8       941.579          51.000
> 2020 05 12 06 14  0.0000000  0 13        .000000000000
G13  21298284.109 8 111923224.469 8     -2422.727          51.000    21298284.023 7  87212887.683 7     -1887.842          47.000
G15  20519161.844 8 107828918.468 8     -1145.047          51.000    20519161.891 8  84022533.336 8      -892.244          51.000
G19  22629678.938 7 118919772.210 7      2582.086          46.000    22629677.578 7  92664740.707 7      2012.015          42.000
G28  22983388.242 5 120778525.586 5     -2872.969          32.000
R06  20424828.586 7 108990796.825 7     -3125.789          47.000
R16  20005014.594 5 106863255.175 5     -1870.234          32.000    20005020.133 5  83115840.407 5     -1454.624          32.000
R17  22777140.438 4 121885061.593 4      -153.746          28.000    22777139.828 5  94799499.343 5      -119.580          33.000
C05  39767254.016 5 207078525.885 5        26.531          34.000
C21  24072773.180 7 125353268.960 7     -2940.293          47.000
C26  21962939.273 5 114366763.084 5      1159.117          30.000
E02  23763505.492 8 124878057.327 8     -1293.750          51.000    23763506.594 8  95685845.469 8      -991.273          51.000
E08  22273808.461 8 117049640.106 8     -1848.879          51.000    22273808.500 8  89687374.023 8     -1416.685          51.000
E30  22692846.578 8 119251687.535 8      1218.977          51.000    22692848.203 8  91374664.507 8       934.039          51.000
> 2020 05 12 06 14 30.0000000  0 14        .000000000000
G13  21312141.391 8 111996047.452 8     -2432.973          50.000    21312142.078 7  87269632.853 7     -1895.826          46.000
G15  20525738.734 8 107863481.583 8     -1160.086          50.000    20525738.883 8  84049465.641 8      -903.963          50.000
G17  22462214.938 5 118039735.193 5       691.293          31.000
G19  22614966.758 7 118842456.207 7      2571.211          46.000    22614964.617 7  92604494.509 7      2003.544          42.000
G24  21183636.781 5 111320761.802 5      1949.035          33.000
G28  22999798.867 5 120864762.586 5     -2875.539          30.000
R06  20442445.047 7 109084798.849 7     -3142.066          46.000
R16  20015534.414 5 106919455.634 5     -1877.238          34.000    20015541.750 4  83159551.905 4     -1460.077          29.000
R17  22778055.055 4 121889972.089 4      -176.688          28.000
C21  24089725.961 8 125441540.467 8     -2945.238          49.000
C26  21956267.141 5 114332036.525 5      1154.445          32.000
E02  23770900.203 8 124916916.787 8     -1297.648          51.000    23770901.312 8  95715620.892 8      -994.323          51.000
E08  22284384.180 8 117105217.254 8     -1857.086          51.000    22284384.617 8  89729959.100 8     -1422.923          51.000
E30  22685901.336 8 119215192.070 8      1213.270          51.000    22685903.062 8  91346700.451 8       929.657          51.000
> 2020 05 12 06 15  0.0000000  0 14        .000000000000
G12  23403870.258 5 122988197.189 5      3604.500          33.000
G13  21326101.789 8 112069411.021 8     -2464.086          50.000    21326102.719 7  87326799.287 7     -1920.070          47.000
G15  20532445.297 8 107898725.890 8     -1195.707          50.000    20532445.312 8  84076928.727 8      -931.720          50.000
G19  22600360.828 7 118765699.722 7      2539.539          45.000    22600357.469 6  92544684.321 6      1978.862          40.000
R06  20460196.117 7 109179523.868 7     -3179.160          44.000
R09  20629954.836 5 110162806.440 5      2023.160          30.000
R16  20026138.383 6 106976100.182 6     -1905.227          36.000    20026143.703 4  83203608.662 4     -1481.846          26.000
R17  22779151.555 4 121895842.731 4      -221.828          29.000    22779158.102 5  94807894.101 5      -172.530          32.000
C05  39766951.758 5 207076952.554 5        11.574          34.000
C21  24106750.922 8 125530187.132 8     -2970.559          49.000
C26  21949668.969 5 114297686.126 5      1128.961          32.000
E02  23778361.375 8 124956125.202 8     -1322.410          51.000    23778362.312 8  95745663.696 8     -1013.293          51.000
E08  22295050.320 8 117161270.076 8     -1886.020          51.000    22295051.305 8  89772908.658 8     -1445.132          51.000
E30  22679032.695 8 119179099.440 8      1186.719          51.000    22679034.570 8  91319045.069 8       909.271          51.000
> 2020 05 12 06 15 30.0000000  0 13        .000000000000
G12  23383252.445 5 122879844.126 5      3621.980          34.000    23383266.578 5  95750547.599 5      2822.325          34.000
G13  21340146.305 8 112143215.318 8     -2452.848          51.000    21340147.289 7  87384309.114 7     -1911.310          47.000
G15  20539262.836 8 107934552.128 8     -1189.211          51.000    20539262.672 8  84104845.258 8      -926.658          51.000
G19  22585842.781 7 118689407.536 7      2549.910          42.000    22585838.797 6  92485235.934 6      1986.946          38.000
R06  20478062.188 7 109274867.438 7     -3173.418          42.000
R16  20036806.273 5 107033086.115 5     -1890.512          34.000    20036810.695 4  83247930.979 4     -1470.398          28.000
R17  22780407.133 5 121902498.469 5      -222.016          31.000    22780409.180 4  94813048.914 4      -172.676          29.000
C05  39766822.711 5 207076280.027 5        36.727          34.000
C21  24123828.570 8 125619108.824 8     -2954.109          50.000
C26  21943125.711 5 114263613.943 5      1145.293          31.000
E02  23785869.945 8 124995582.711 8     -1304.793          51.000    23785870.727 8  95775897.369 8      -999.779          51.000
E08  22305788.250 8 117217698.930 8     -1872.617          51.000    22305789.461 8  89816146.343 8     -1434.883          51.000
E30  22672222.180 8 119143310.747 8      1202.477          51.000    22672224.234 8  91291622.564 8       921.396          51.000
> 2020 05 12 06 16  0.0000000  0 15        .000000000000
G12  23362625.117 6 122771438.114 6      3606.605          37.000    23362638.547 6  95666075.436 6      2810.345          37.000
G13  21354216.992 8 112217156.051 8     -2475.168          51.000    21354217.555 7  87441925.252 7     -1928.702          47.000
G15  20546133.648 8 107970657.193 8     -1216.277          51.000    20546133.336 8  84132979.033 8      -947.749          51.000
G17  22450916.148 5 117980360.500 5       633.926          32.000
G19  22571354.438 6 118613280.210 6      2526.746          37.000    22571351.547 6  92425915.922 6      1968.887          36.000
R06  20495986.391 7 109370519.165 7     -3201.957          43.000
R09  20607185.281 5 110041202.148 5      2015.598          34.000
R16  20047480.039 5 107090104.266 5     -1909.574          34.000    20047483.305 5  83292269.433 5     -1485.224          30.000
R17  22781752.203 6 121909703.583 6      -257.000          37.000    22781758.469 5  94818652.707 5      -199.889          31.000
C05  39766644.211 5 207075350.642 5        27.301          34.000
C21  24140900.992 8 125708003.367 8     -2970.867          50.000
C26  21936579.828 5 114229520.336 5      1128.742          35.000
E02  23793368.055 8 125034985.605 8     -1320.637          51.000    23793368.875 8  95806089.193 8     -1011.875          51.000
E08  22316540.094 8 117274200.283 8     -1892.719          51.000    22316541.180 8  89859439.564 8     -1450.250          51.000
E30  22665412.242 8 119107523.227 8      1184.832          51.000    22665414.453 8  91264200.954 8       907.837          51.000
> 2020 05 12 06 16 30.0000000  0 14        .000000000000
G12  23342063.656 6 122663374.674 6      3598.262          37.000    23342075.641 6  95581870.211 6      2803.837          36.000
G13  21368388.445 8 112291626.287 8     -2489.344          51.000    21368388.484 7  87499953.978 7     -1939.751          47.000
G15  20553132.398 8 108007433.699 8     -1235.242          51.000    20553131.469 8  84161636.034 8      -962.526          51.000
G19  22556972.562 6 118537714.791 6      2511.492          38.000    22556971.633 6  92367033.710 6      1957.007          37.000
R06  20514044.062 7 109466875.158 7     -3221.789          46.000
R09  20595894.953 4 109980924.931 4      2002.387          29.000
R16  20058235.016 6 107147553.331 6     -1920.402          36.000    20058237.617 5  83336951.993 5     -1493.649          30.000
R17  22783268.547 5 121917849.793 5      -284.340          33.000    22783273.562 5  94825019.948 5      -221.153          33.000
C05  39766491.391 5 207074555.101 5        26.918          34.000
C21  24158042.320 8 125797258.667 8     -2979.324          49.000
C26  21930103.602 6 114195795.501 6      1119.977          36.000
E02  23800930.547 8 125074726.647 8     -1328.492          51.000    23800931.414 8  95836540.125 8     -1017.936          51.000
E08  22327380.742 8 117331167.077 8     -1904.766          51.000    22327381.031 8  89903089.412 8     -1459.529          51.000
E30  22658677.477 8 119072130.571 8      1174.984          51.000    22658679.773 8  91237081.900 8       900.298          51.000
> 2020 05 12 06 17  0.0000000  0 14        .000000000000
G12  23321536.492 5 122555498.410 5      3591.852          32.000    23321550.656 5  95497810.699 5      2798.836          32.000
G13  21382630.367 8 112366467.084 8     -2501.824          51.000    21382629.859 7  87558271.413 7     -1949.476          46.000
G15  20560228.953 8 108044723.746 8     -1252.496          51.000    20560227.414 8  84190693.208 8      -975.971          51.000
G19  22542670.570 7 118462556.525 7      2497.586          42.000    22542669.062 6  92308468.861 6      1946.171          36.000
R06  20532203.617 7 109563771.755 7     -3239.926          47.000
R09  20584669.430 5 109920969.722 5      1992.023          35.000
R16  20069040.273 5 107205271.011 5     -1929.023          35.000    20069041.711 5  83381843.487 5     -1500.352          30.000
R17  22784925.000 5 121926708.195 5      -310.137          32.000    22784925.203 5  94831905.277 5      -241.217          31.000
C05  39766334.328 5 207073737.004 5        26.578          34.000
C21  24175221.992 7 125886716.392 7     -2986.246          47.000
C26  21923668.258 5 114162283.365 5      1112.109          35.000
E02  23808527.266 8 125114647.299 8     -1334.578          51.000    23808528.109 8  95867128.667 8     -1022.611          51.000
E08  22338279.945 8 117388440.931 8     -1915.172          51.000    22338278.891 8  89946974.528 8     -1467.445          50.000
E30  22651987.648 8 119036975.071 8      1166.973          51.000    22651989.562 8  91210144.567 8       894.192          51.000
> 2020 05 12 06 17 30.0000000  0 13        .000000000000
G13  21396932.961 8 112441626.338 8     -2504.102          51.000    21396932.102 7  87616837.024 7     -1951.248          45.000
G15  20567413.125 8 108082475.343 8     -1259.492          51.000    20567411.531 8  84220110.041 8      -981.422          51.000
G19  22528437.461 7 118387757.459 7      2493.961          43.000    22528435.875 6  92250183.936 6      1943.349          38.000
R06  20550453.656 7 109661153.750 7     -3247.406          46.000
R09  20573492.188 5 109861283.666 5      1991.836          34.000
R16  20079885.094 5 107263204.095 5     -1927.777          35.000    20079887.383 5  83426902.546 5     -1499.385          31.000
R17  22786726.242 5 121936303.185 5      -325.223          30.000    22786723.148 4  94839370.833 4      -252.951          29.000
C05  39766163.578 5 207072847.424 5        37.441          34.000
C21  24192429.703 7 125976323.858 7     -2982.969          45.000
C26  21917264.531 6 114128933.501 6      1115.336          36.000
E02  23816148.297 8 125154695.711 8     -1330.520          51.000    23816149.242 8  95897815.111 8     -1019.477          51.000
E08  22349227.531 8 117445970.144 8     -1915.406          51.000    22349225.180 8  89991055.300 8     -1467.601          50.000
E30  22645333.305 8 119002005.812 8      1169.051          51.000    22645334.367 8  91183349.946 8       895.820          51.000
> 2020 05 12 06 18  0.0000000  0 12        .000000000000
G13  21411289.273 8 112517069.162 8     -2526.199          51.000    21411288.664 7  87675623.616 7     -1968.470          46.000
G15  20574678.414 8 108120654.669 8     -1286.520          51.000    20574677.062 8  84249860.154 8     -1002.483          51.000
G19  22514266.750 7 118313287.912 7      2470.098          43.000    22514264.586 6  92192155.748 6      1924.751          37.000
R06  20568786.359 7 109758983.373 7     -3275.191          44.000
R16  20090763.953 6 107321316.636 6     -1947.234          38.000    20090766.648 5  83472101.185 5     -1514.516          32.000
R17  22788639.883 5 121946567.504 5      -359.988          30.000    22788644.070 4  94847354.556 4      -279.994          28.000
C05  39765972.289 5 207071851.776 5        28.480          33.000
C21  24209658.375 7 126066045.559 7     -2999.324          43.000
C26  21910884.188 5 114095712.743 5      1099.023          32.000
E02  23823786.969 8 125194837.241 8     -1346.234          51.000    23823788.125 8  95928572.910 8     -1031.497          51.000
E08  22360216.734 8 117503720.244 8     -1935.328          51.000    22360214.172 8  90035305.331 8     -1482.914          50.000
E30  22638708.273 8 118967189.093 8      1151.418          51.000    22638708.523 8  91156672.208 8       882.261          51.000
> 2020 05 12 06 18 30.0000000  0 12        .000000000000
G13  21425737.930 8 112592997.665 8     -2537.129          50.000    21425737.594 7  87734788.660 7     -1976.984          46.000
G15  20582063.602 8 108159463.969 8     -1302.160          51.000    20582062.578 8  84280101.156 8     -1014.667          51.000
G19  22500198.016 7 118239353.830 7      2457.387          43.000    22500195.367 5  92134544.757 5      1914.847          35.000
G28  23132244.344 5 121560733.518 5     -2918.820          35.000    23132248.883 5  94722691.037 5     -2274.405          33.000
R06  20587240.484 7 109857462.930 7     -3291.574          44.000
R16  20101714.984 5 107379813.619 5     -1954.301          35.000    20101718.180 5  83517598.812 5     -1520.012          33.000
R17  22790720.023 4 121957712.232 4      -383.785          29.000    22790726.258 4  94856022.743 4      -298.500          27.000
C21  24226947.336 7 126156080.543 7     -3004.363          44.000
C26  21904566.633 5 114062822.461 5      1093.426          32.000
E02  23831481.797 8 125235274.090 8     -1350.828          51.000    23831483.055 8  95959556.991 8     -1035.041          51.000
E08  22371286.023 8 117561893.530 8     -1944.141          50.000    22371284.531 8  90079879.644 8     -1489.663          51.000
E30  22632150.820 8 118932727.946 8      1144.762          51.000    22632151.031 8  91130266.925 8       877.155          51.000
