     3.02           OBSERVATION DATA    M (MIXED)           RINEX VERSION / TYPE
SAVERINEX           SC600               20200513 125931 LCL PGM / RUN BY / DATE
       G = GPS       R = GLONASS       C = COMPASS          COMMENT
       S = SBAS      J = QZSS          E = GALILEO          COMMENT
BEAN                                                        MARKER NAME
1                                                           MARKER NUMBER
GEODETIC                                                    MARKER TYPE
Unige DICCA         GTER                                    OBSERVER / AGENCY
SC60291900056       SC600               2.12(191226)        REC # / TYPE / VERS
                    HEMA45          NONE                    ANT # / TYPE
  4509407.8091   693652.4678  4442337.6214                  APPROX POSITION XYZ
        0.0000        0.0000        0.0000                  ANTENNA: DELTA H/E/N
G    8 C1C L1C D1C S1C C2Y L2Y D2Y S2Y                      SYS / # / OBS TYPES
R    8 C1C L1C D1C S1C C2P L2P D2P S2P                      SYS / # / OBS TYPES
C    8 C1I L1I D1I S1I C7I L7I D7I S7I                      SYS / # / OBS TYPES
E    8 C1C L1C D1C S1C C7Q L7Q D7Q S7Q                      SYS / # / OBS TYPES
DBHZ                                                        COMMENT
     30.000                                                 INTERVAL
  2020    05    13    10    00    0.0000000     GPS         TIME OF FIRST OBS
  2020    05    13    10    59   30.0000000     GPS         TIME OF LAST OBS
     0                                                      RCV CLOCK OFFS APPL
G L1C  0.00000                                              SYS / PHASE SHIFT
G L2Y  0.00000                                              SYS / PHASE SHIFT
R L1C  0.00000                                              SYS / PHASE SHIFT
R L2P  0.25000                                              SYS / PHASE SHIFT
C L1I  0.00000                                              SYS / PHASE SHIFT
C L7I  0.00000                                              SYS / PHASE SHIFT
E L1C  0.50000                                              SYS / PHASE SHIFT
E L7Q -0.25000                                              SYS / PHASE SHIFT
 13 R01  1 R06 -4 R07  5 R08  6 R09 -2 R10 -5 R11  0 R12 -1 GLONASS SLOT / FRQ #
    R16 -1 R19  3 R20  2 R21  4 R22 -3                      GLONASS SLOT / FRQ #
 C1C   71.950 C2C   71.950 C2P   71.950                     GLONASS COD/PHS/BIS
    18                                                      LEAP SECONDS
*** Above antenna height is from mark to ANTENNA BOTTOM.    COMMENT
    17     4        0.0000        ANT MEASURE TYPE/HEIGT    COMMENT
    0.0000    0.0000    0.0458    0.0405    0.0000          COMMENT
                    BASE STATION                            COMMENT
                                                            END OF HEADER
> 2020 05 13 10 00  0.0000000  0 11        .000000000000
G12  20908198.695 7 109873321.045 7     -1746.414          43.000    20908197.477 7  85615565.071 7     -1360.842          44.000
G24  23187539.188 7 121851335.771 7     -3406.062          45.000    23187545.383 7  94949095.246 7     -2654.075          46.000
G25  20149840.031 7 105888126.750 7        64.039          47.000    20149840.344 7  82510229.810 7        49.898          47.000
G29  21196306.898 8 111387349.075 8      2325.461          50.000    21196306.477 8  86795345.263 8      1812.047          50.000
R11  19547137.078 8 104453995.328 8      -634.633          51.000    19547139.125 8  81242000.459 8      -493.603          49.000
R21  19599856.305 8 104882760.191 8      -380.309          51.000    19599858.500 8  81575602.968 8      -295.796          48.000
R22  20983309.195 8 112010330.675 8      3778.723          51.000    20983315.023 7  87119218.979 7      2939.010          46.000
C26  21370757.914 8 111283162.072 8       360.227          51.000
E11  23553427.938 6 123774127.633 6       429.586          41.000    23553428.484 6  94839908.694 6       329.507          37.000
E25  23828390.266 8 125219032.515 8      -731.988          51.000    23828392.562 8  95947060.746 8      -560.835          51.000
E36  25356597.961 8 133249830.407 8      2833.457          49.000    25356601.953 7 102100549.264 7      2171.084          47.000
> 2020 05 13 10 00 30.0000000  0 11        .000000000000
G12  20918182.219 7 109925784.812 7     -1754.527          42.000    20918181.297 7  85656445.933 7     -1367.164          42.000
G24  23206992.195 7 121953558.933 7     -3412.004          47.000    23206998.883 7  95028749.646 7     -2658.704          47.000
G25  20149495.859 7 105886318.645 7        53.215          47.000    20149496.469 7  82508820.907 7        41.466          47.000
G29  21183060.719 8 111317742.423 8      2311.660          49.000    21183060.820 8  86741106.339 8      1801.294          49.000
R11  19550732.641 8 104473208.336 8      -649.629          51.000    19550735.031 8  81256943.894 8      -505.267          49.000
R21  19602054.352 8 104894521.574 8      -407.113          51.000    19602056.758 8  81584750.692 8      -316.644          48.000
R22  20962107.266 8 111897148.242 8      3763.434          51.000    20962110.797 7  87031188.254 7      2927.118          45.000
C26  21368705.195 8 111272472.269 8       349.094          51.000
E11  23551007.273 7 123761403.542 7       415.312          43.000    23551006.711 5  94830159.117 5       318.173          35.000
E25  23832575.820 8 125241027.859 8      -737.715          51.000    23832578.492 8  95963914.313 8      -565.259          51.000
E36  25340432.148 8 133164877.268 8      2826.738          50.000    25340434.898 8 102035455.357 8      2165.915          48.000
> 2020 05 13 10 01  0.0000000  0 13        .000000000000
G12  20928363.547 7 109979288.035 7     -1778.578          42.000    20928362.844 7  85698136.731 7     -1385.905          42.000
G24  23226630.469 8 122056752.921 8     -3434.172          48.000    23226636.797 8  95109160.524 8     -2675.978          48.000
G25  20149365.250 8 105885632.037 8        26.109          48.000    20149366.094 8  82508285.866 8        20.342          48.000
G29  21170044.852 8 111249345.385 8      2281.504          50.000    21170045.625 8  86687809.965 8      1777.795          50.000
G32  22489852.383 6 118184968.316 6     -1509.852          39.000    22489845.766 6  92092149.487 6     -1176.508          37.000
R11  19554564.008 8 104493680.798 8      -681.152          51.000    19554566.453 8  81272866.910 8      -529.785          49.000
R21  19604554.070 8 104907898.411 8      -450.559          51.000    19604556.578 8  81595154.922 8      -350.434          48.000
R22  20941142.414 8 111785233.289 8      3731.469          49.000    20941143.898 7  86944143.348 7      2902.253          44.000
C26  21366867.992 8 111262904.967 8       321.840          51.000
C29  23638362.750 5 123091193.316 5     -2325.918          35.000
E11  23548820.297 7 123749907.562 7       384.375          44.000    23548820.055 6  94821350.582 6       294.437          36.000
E25  23836944.320 8 125263984.432 8      -759.426          51.000    23836947.219 8  95981504.392 8      -581.901          51.000
E36  25324454.570 8 133080914.636 8      2804.004          49.000    25324457.680 8 101971120.395 8      2148.513          50.000
> 2020 05 13 10 01 30.0000000  0 15        .000000000000
G02  22942355.703 5 120562906.539 5      -366.410          33.000
G06  23967692.273 5 125951073.546 5     -1796.902          33.000    23967696.750 5  98143706.314 5     -1400.187          33.000
G12  20938474.062 6 110032420.356 6     -1773.949          41.000    20938473.086 6  85739538.536 6     -1382.295          41.000
G24  23246185.031 8 122159506.567 8     -3426.484          49.000    23246190.469 8  95189228.262 8     -2669.991          49.000
G25  20149179.828 8 105884657.269 8        28.621          48.000    20149180.867 8  82507526.296 8        22.302          48.000
G29  21156991.625 8 111180750.017 8      2281.125          51.000    21156992.625 8  86634359.040 8      1777.500          51.000
G32  22498451.734 6 118230157.942 6     -1512.621          38.000    22498446.688 6  92127362.118 6     -1178.669          36.000
R11  19558362.789 8 104513980.307 8      -682.641          51.000    19558365.172 8  81288655.403 8      -530.943          49.000
R21  19607087.289 8 104921454.090 8      -463.605          50.000    19607089.844 8  81605698.218 8      -360.582          48.000
R22  20920146.766 8 111673157.689 8      3729.602          48.000    20920147.359 7  86856973.459 7      2900.804          44.000
C26  21364978.289 8 111253064.245 8       323.906          51.000
C29  23651720.164 4 123160771.696 4     -2323.547          27.000
E11  23546598.180 7 123738230.145 7       383.324          43.000    23546599.711 6  94812403.033 6       293.878          37.000
E25  23841227.570 8 125286492.881 8      -751.594          51.000    23841230.422 8  95998751.105 8      -575.891          51.000
E36  25308397.609 8 132996534.701 8      2810.879          49.000    25308401.750 8 101906465.665 8      2153.736          51.000
> 2020 05 13 10 02  0.0000000  0 14        .000000000000
G02  22944502.406 5 120574173.320 5      -386.824          34.000
G06  23978004.078 5 126005256.046 5     -1816.602          35.000    23978006.695 6  98185926.392 6     -1415.537          36.000
G12  20948629.047 6 110085786.368 6     -1785.410          38.000    20948628.180 6  85781122.410 6     -1391.232          39.000
G24  23265770.445 8 122262423.365 8     -3435.805          49.000    23265774.570 8  95269423.145 8     -2677.253          49.000
G25  20149054.656 8 105883999.548 8        14.180          48.000    20149055.844 8  82507013.794 8        11.049          49.000
G29  21144016.227 8 111112562.539 8      2263.543          51.000    21144017.086 8  86581225.955 8      1763.803          51.000
G32  22507138.172 5 118275817.161 5     -1532.289          33.000    22507141.031 5  92162940.613 5     -1194.004          32.000
R11  19562244.406 8 104534722.975 8      -701.445          51.000    19562246.961 8  81304788.573 8      -545.569          49.000
R21  19609768.891 8 104935803.712 8      -494.105          51.000    19609771.523 8  81616859.037 8      -384.304          48.000
R22  20899236.703 7 111561539.911 7      3710.301          47.000    20899237.906 7  86770159.680 7      2885.789          45.000
C26  21363151.438 8 111243550.752 8       309.113          51.000
E11  23544456.797 7 123726976.758 7       365.684          44.000    23544456.688 6  94803780.326 6       280.109          37.000
E25  23845540.727 8 125309158.755 8      -760.762          51.000    23845543.570 8  96016118.459 8      -582.933          51.000
E36  25292377.078 8 132912344.550 8      2800.629          50.000    25292382.047 8 101841956.330 8      2145.927          51.000
> 2020 05 13 10 02 30.0000000  0 15        .000000000000
G02  22946739.898 5 120585926.992 5      -377.266          30.000
G06  23988403.680 6 126059903.247 6     -1806.668          38.000    23988405.859 6  98228508.583 6     -1407.796          38.000
G12  20958825.172 6 110139368.400 6     -1766.965          40.000    20958824.562 6  85822874.583 6     -1376.856          39.000
G24  23285382.891 7 122365483.964 7     -3414.988          47.000    23285385.766 7  95349730.067 7     -2661.030          47.000
G25  20148986.539 8 105883641.780 8        29.699          48.000    20148987.891 8  82506735.022 8        23.142          48.000
G29  21131115.562 8 111044767.170 8      2275.996          51.000    21131115.953 8  86528398.420 8      1773.503          51.000
G32  22515911.500 5 118321926.493 5     -1521.820          35.000    22515917.961 5  92198869.922 5     -1185.831          34.000
R11  19566205.844 8 104555892.325 8      -689.703          51.000    19566208.742 8  81321253.604 8      -536.436          49.000
R21  19612595.477 8 104950928.484 8      -494.000          51.000    19612598.141 8  81628622.743 8      -384.222          48.000
R22  20878409.703 7 111450366.231 7      3721.410          47.000    20878412.461 7  86683691.323 7      2894.430          46.000
C26  21361384.312 8 111234348.462 8       324.023          51.000
C29  23678631.875 5 123300752.015 5     -2319.742          32.000
E11  23542392.844 7 123716130.468 7       377.180          44.000    23542391.555 6  94795469.528 6       289.059          40.000
E25  23849880.562 8 125331965.183 8      -739.797          51.000    23849883.555 8  96033593.493 8      -566.851          51.000
E36  25276389.922 8 132828328.818 8      2820.316          51.000    25276395.258 8 101777580.658 8      2161.025          51.000
> 2020 05 13 10 03  0.0000000  0 15        .000000000000
G02  22949040.945 6 120598021.961 6      -421.887          36.000
G06  23998865.570 6 126114880.915 6     -1851.512          39.000    23998868.797 6  98271348.342 6     -1442.736          39.000
G12  20969037.445 6 110193033.344 6     -1803.531          39.000    20969036.805 6  85864691.373 6     -1405.349          38.000
G24  23304996.766 7 122468554.993 7     -3449.227          46.000    23304998.508 7  95430045.121 7     -2687.709          45.000
G25  20148950.281 8 105883451.657 8        -9.902          49.000    20148952.023 8  82506586.868 8        -7.716          49.000
G29  21118264.594 8 110977232.795 8      2233.336          51.000    21118264.578 8  86475774.266 8      1740.262          51.000
G32  22524745.719 5 118368351.490 5     -1565.938          35.000    22524751.250 5  92235045.383 5     -1220.208          35.000
R11  19570222.164 8 104577354.568 8      -733.957          51.000    19570225.250 8  81337946.436 8      -570.855          49.000
R21  19615541.336 8 104966692.397 8      -549.758          51.000    19615543.773 8  81640883.572 8      -427.586          48.000
R22  20857641.656 8 111339506.336 8      3676.398          48.000    20857646.000 7  86597467.031 7      2859.421          47.000
C26  21359651.961 8 111225327.192 8       284.391          51.000
C29  23692131.930 5 123371016.482 5     -2358.348          35.000
E11  23540381.008 7 123705559.107 7       334.461          43.000    23540380.812 6  94787369.420 6       256.290          41.000
E25  23854222.086 8 125354780.224 8      -774.027          51.000    23854225.227 8  96051075.125 8      -593.053          51.000
E36  25260411.211 8 132744357.049 8      2784.961          51.000    25260416.609 8 101713238.686 8      2133.925          51.000
> 2020 05 13 10 03 30.0000000  0 15        .000000000000
G02  22951492.102 5 120610900.239 5      -437.188          32.000    22951489.898 5  93982513.181 5      -340.666          31.000
G06  24009474.680 6 126170633.444 6     -1865.574          39.000    24009479.203 6  98314791.883 6     -1453.694          39.000
G12  20979350.000 6 110247226.256 6     -1809.375          38.000    20979349.375 6  85906919.607 6     -1409.903          39.000
G24  23324696.773 7 122572080.636 7     -3452.461          45.000    23324697.305 7  95510714.451 7     -2690.232          45.000
G25  20149030.992 8 105883875.221 8       -18.445          50.000    20149032.984 8  82506916.916 8       -14.373          50.000
G29  21105548.000 8 110910406.464 8      2221.551          51.000    21105547.898 8  86423701.826 8      1731.079          51.000
G32  22533724.789 6 118415536.200 6     -1579.766          39.000    22533730.656 6  92271812.693 6     -1230.986          39.000
R11  19574378.266 8 104599563.990 8      -746.809          51.000    19574381.172 8  81355220.434 8      -580.851          48.000
R21  19618691.391 8 104983548.469 8      -574.027          51.000    19618693.727 8  81653993.872 8      -446.463          48.000
R22  20837018.453 8 111229416.971 8      3662.797          49.000    20837023.477 7  86511842.007 7      2848.845          46.000
C26  21358039.344 8 111216929.872 8       275.332          51.000
C29  23705736.891 5 123441854.486 5     -2364.836          34.000
E11  23538506.414 7 123695708.876 7       322.309          42.000    23538506.562 6  94779821.835 6       246.865          41.000
E25  23858650.211 8 125378050.201 8      -777.238          51.000    23858653.234 8  96068905.361 8      -595.534          51.000
E36  25244526.164 8 132660877.098 8      2780.367          51.000    25244531.109 8 101649273.566 8      2130.453          51.000
> 2020 05 13 10 04  0.0000000  0 14        .000000000000
G06  24020174.195 6 126226861.246 6     -1882.512          36.000    24020179.328 5  98358605.715 5     -1466.892          35.000
G12  20989706.195 6 110301648.838 6     -1818.891          36.000    20989705.320 5  85949326.792 5     -1417.320          35.000
G24  23344425.867 7 122675760.574 7     -3458.961          43.000    23344425.734 7  95591503.963 7     -2695.294          43.000
G25  20149171.805 8 105884614.715 8       -30.320          51.000    20149173.867 8  82507493.144 8       -23.626          51.000
G29  21092909.172 8 110843991.948 8      2206.598          50.000    21092909.500 8  86371950.243 8      1719.424          50.000
G32  22542791.484 6 118463180.678 6     -1596.160          41.000    22542797.656 6  92308938.211 6     -1243.764          41.000
R11  19578617.477 8 104622218.433 8      -762.961          51.000    19578620.523 8  81372840.551 8      -593.414          48.000
R21  19621988.562 8 105001191.996 8      -601.664          51.000    19621990.680 8  81667716.628 8      -467.961          48.000
R22  20816483.906 8 111119799.166 8      3645.691          51.000    20816488.531 7  86426583.735 7      2835.538          46.000
C26  21356489.969 8 111208862.327 8       262.988          51.000
C29  23719395.570 5 123512969.199 5     -2375.918          30.000
E11  23536712.281 6 123686282.138 6       306.594          40.000    23536712.445 7  94772598.746 7       235.006          42.000
E25  23863108.164 8 125401477.673 8      -783.926          51.000    23863110.977 8  96086856.273 8      -600.700          51.000
E36  25228678.320 8 132577592.963 8      2772.559          51.000    25228682.531 8 101585458.491 8      2124.455          51.000
> 2020 05 13 10 04 30.0000000  0 13        .000000000000
G06  24030995.641 5 126283729.851 5     -1917.145          34.000    24030999.953 5  98402918.878 5     -1493.879          32.000
G12  21000137.711 5 110356468.077 5     -1844.035          35.000    21000137.062 5  85992043.050 5     -1436.914          35.000
G24  23364215.875 7 122779760.882 7     -3482.191          43.000    23364214.961 7  95672543.062 7     -2713.399          42.000
G25  20149404.539 8 105885837.604 8       -58.875          51.000    20149406.453 8  82508446.042 8       -45.877          51.000
G29  21080380.648 8 110778157.698 8      2174.648          50.000    21080381.617 8  86320650.823 8      1694.531          50.000
G32  22551977.180 7 118511450.150 7     -1629.328          43.000    22551982.602 6  92346550.742 6     -1269.609          40.000
R11  19582972.141 8 104645488.899 8      -796.254          51.000    19582975.148 8  81390939.786 8      -619.309          48.000
R21  19625464.516 8 105019791.935 8      -646.285          51.000    19625466.539 8  81682183.264 8      -502.663          49.000
R22  20796070.484 8 111010827.099 8      3611.375          51.000    20796073.836 7  86341827.692 7      2808.847          46.000
C26  21355036.031 8 111201291.390 8       234.016          51.000
E11  23535031.047 6 123677446.399 6       274.496          39.000    23535030.906 6  94765828.516 6       210.514          41.000
E25  23867627.977 8 125425230.349 8      -807.250          51.000    23867630.805 8  96105056.377 8      -618.548          51.000
E36  25212899.719 8 132494673.905 8      2747.824          51.000    25212903.094 8 101521923.170 8      2105.434          49.000
> 2020 05 13 10 05  0.0000000  0 14        .000000000000
G06  24041875.055 5 126340898.243 5     -1903.191          32.000    24041877.547 5  98447465.605 5     -1483.009          30.000
G12  21010580.047 6 110411343.593 6     -1822.301          41.000    21010579.867 6  86034803.162 6     -1419.972          41.000
G24  23384002.117 7 122883740.296 7     -3457.812          43.000    23384000.633 7  95753565.878 7     -2694.402          43.000
G25  20149664.680 8 105887204.678 8       -40.262          51.000    20149666.445 8  82509511.301 8       -31.370          51.000
G29  21067898.836 8 110712565.692 8      2190.113          51.000    21067899.859 8  86269540.182 8      1706.582          51.000
G32  22561217.094 7 118560003.221 7     -1615.484          44.000    22561222.273 6  92384384.330 6     -1258.813          37.000
R11  19587377.875 8 104669031.406 8      -781.449          51.000    19587380.508 8  81409250.595 8      -607.794          48.000
R21  19629054.508 8 105039001.561 8      -642.609          51.000    19629056.328 8  81697124.074 8      -499.807          49.000
R22  20775713.883 8 110902159.584 8      3624.902          51.000    20775716.445 7  86257308.540 7      2819.372          47.000
C26  21353613.188 8 111193881.867 8       251.969          51.000
C29  23746890.930 5 123656301.020 5     -2382.539          33.000
E11  23533398.289 5 123668862.735 5       289.355          35.000    23533396.820 6  94759251.356 6       221.801          40.000
E25  23872145.352 8 125448969.356 8      -783.324          51.000    23872148.172 8  96123245.990 8      -600.224          51.000
E36  25197126.102 8 132411782.579 8      2770.273          51.000    25197128.328 8 101458409.102 8      2122.683          48.000
> 2020 05 13 10 05 30.0000000  0 13        .000000000000
G12  21021099.594 6 110466624.703 6     -1849.223          37.000    21021099.375 5  86077879.314 5     -1440.953          35.000
G24  23403851.195 7 122988047.356 7     -3482.426          45.000    23403850.453 7  95834844.055 7     -2713.579          45.000
G25  20150018.820 8 105889065.718 8       -70.289          51.000    20150020.602 8  82510961.453 8       -54.771          51.000
G29  21055530.367 8 110647566.946 8      2156.637          51.000    21055530.891 8  86218891.834 8      1680.496          51.000
G32  22570577.305 7 118609187.472 7     -1650.223          44.000    22570581.086 7  92422709.762 7     -1285.888          43.000
R11  19591901.289 8 104693202.173 8      -816.184          51.000    19591903.781 8  81428050.056 8      -634.809          49.000
R21  19632824.750 8 105059175.373 8      -688.504          51.000    19632826.250 8  81712814.831 8      -535.500          49.000
R22  20755481.297 8 110794155.856 8      3588.906          51.000    20755483.914 8  86173305.671 8      2791.375          48.000
C26  21352288.031 8 111186981.260 8       221.398          51.000
C29  23760736.508 5 123728405.558 5     -2410.730          34.000
E11  23531886.656 5 123660900.979 5       255.547          33.000    23531878.242 6  94753135.279 6       196.180          40.000
E25  23876726.883 8 125473044.800 8      -808.234          51.000    23876729.492 8  96141693.393 8      -619.293          51.000
E36  25181424.305 8 132329270.527 8      2744.035          51.000    25181425.828 8 101395185.650 8      2102.563          48.000
> 2020 05 13 10 06  0.0000000  0 14        .000000000000
G12  21031595.125 5 110521779.656 5     -1846.301          33.000    21031594.695 5  86120857.243 5     -1438.679          34.000
G24  23423661.070 7 123092148.552 7     -3476.258          45.000    23423662.031 7  95915961.824 7     -2708.775          45.000
G25  20150365.938 8 105890889.726 8       -70.121          51.000    20150367.859 8  82512382.754 8       -54.640          51.000
G29  21043174.109 8 110582631.576 8      2153.598          51.000    21043173.820 8  86168292.867 8      1678.128          51.000
G32  22579956.227 7 118658469.731 7     -1654.156          44.000    22579960.062 7  92461111.518 7     -1288.956          44.000
R11  19596441.266 8 104717461.998 8      -820.152          51.000    19596444.070 8  81446918.772 8      -637.899          49.000
R21  19636673.625 8 105079771.301 8      -703.633          51.000    19636675.016 8  81728833.894 8      -547.270          49.000
R22  20735272.562 8 110686280.087 8      3583.656          51.000    20735275.438 8  86089402.342 8      2787.291          48.000
C26  21350959.609 8 111180064.249 8       221.047          51.000
C29  23774569.523 5 123800428.763 5     -2407.965          31.000
E11                                                                  23530372.789 6  94747073.557 6       193.666          38.000
E24  25761326.367 5 135376634.891 5     -2284.688          35.000
E25  23881271.430 8 125496925.934 8      -802.527          51.000    23881273.883 8  96159991.908 8      -614.947          51.000
E36  25165693.648 8 132246608.542 8      2747.938          50.000    25165695.516 8 101331847.264 8      2105.661          49.000
> 2020 05 13 10 06 30.0000000  0 11        .000000000000
G24  23443629.992 7 123197085.949 7     -3500.109          45.000    23443632.695 7  95997731.183 7     -2727.358          45.000
G25  20150904.586 8 105893719.921 8       -99.246          51.000    20150906.570 8  82514588.103 8       -77.335          51.000
G29  21031028.555 8 110518803.956 8      2120.867          51.000    21031027.445 8  86118557.069 8      1652.624          51.000
G32  22589551.477 7 118708891.006 7     -1688.035          43.000    22589555.688 7  92500400.797 7     -1315.355          43.000
R11  19601196.539 8 104742872.454 8      -854.227          51.000    19601199.273 8  81466682.439 8      -664.401          49.000
R21  19640799.633 8 105101849.976 8      -748.680          51.000    19640801.023 8  81746006.207 8      -582.306          50.000
R22  20715287.102 8 110579595.834 8      3548.129          50.000    20715289.820 8  86006425.739 8      2759.656          49.000
C26  21349826.797 8 111174165.519 8       191.316          51.000
E11  23529082.656 6 123646176.067 6       219.570          41.000    23529078.383 6  94741865.577 6       168.320          38.000
E25  23885977.594 8 125521656.385 8      -826.863          51.000    23885979.945 8  96178941.199 8      -633.565          51.000
E36  25150133.156 8 132164841.619 8      2722.367          50.000    25150136.273 8 101269194.718 8      2086.000          51.000
> 2020 05 13 10 07  0.0000000  0 13        .000000000000
G06  24086413.578 5 126574963.901 5     -1980.191          32.000    24086412.914 5  98629821.219 5     -1543.009          32.000
G12  21052912.805 6 110633799.744 6     -1867.445          40.000    21052910.945 6  86208154.765 6     -1455.152          40.000
G24  23463558.906 7 123301812.466 7     -3492.305          46.000    23463562.750 7  96079336.213 7     -2721.279          46.000
G25  20151435.867 8 105896511.551 8       -97.402          51.000    20151437.766 8  82516763.389 8       -75.898          51.000
G29  21018894.758 8 110455040.393 8      2119.316          51.000    21018893.359 8  86068871.181 8      1651.415          51.000
G32  22599164.211 7 118759404.180 7     -1690.266          45.000    22599167.969 7  92539761.706 7     -1317.087          44.000
R11  19605968.469 8 104768371.669 8      -856.555          51.000    19605971.070 8  81486515.150 8      -666.209          49.000
R21  19645003.406 8 105124345.990 8      -761.820          51.000    19645004.906 8  81763503.107 8      -592.527          49.000
R22  20695325.828 7 110473045.415 7      3544.547          47.000    20695329.250 8  85923553.179 8      2756.870          50.000
C26  21348690.852 8 111168250.654 8       192.406          51.000
E11  23527801.750 7 123639448.613 7       218.363          42.000    23527798.352 6  94736710.856 6       166.874          36.000
E25  23890646.578 8 125546191.607 8      -819.512          51.000    23890648.914 8  96197740.887 8      -627.953          51.000
E36  25134544.695 8 132082926.773 8      2727.973          51.000    25134549.148 8 101206428.816 8      2090.289          51.000
> 2020 05 13 10 07 30.0000000  0 15        .000000000000
G06  24097736.273 5 126634458.467 5     -1980.535          34.000    24097734.398 5  98676180.563 5     -1543.274          32.000
G12  21063569.016 6 110689803.103 6     -1860.695          38.000    21063566.836 6  86251793.794 6     -1449.889          38.000
G24  23483483.516 7 123406516.985 7     -3482.219          45.000    23483488.109 7  96160924.143 7     -2713.417          46.000
G25  20151995.961 8 105899454.877 8       -93.207          51.000    20151997.742 8  82519056.886 8       -72.629          51.000
G29  21006808.977 8 110391532.394 8      2120.078          49.000    21006808.109 8  86019384.423 8      1652.009          49.000
G32  22608830.219 7 118810197.333 7     -1690.293          45.000    22608832.789 6  92579340.795 6     -1317.114          41.000
R11  19610793.273 8 104794153.971 8      -856.496          51.000    19610796.117 8  81506568.033 8      -666.164          49.000
R12  20310273.648 6 108493831.216 6      2390.605          37.000
R21  19649320.922 8 105147451.182 8      -772.719          51.000    19649322.711 8  81781473.803 8      -601.003          49.000
R22  20675425.852 8 110366825.509 8      3542.613          49.000    20675430.750 8  85840937.680 8      2755.366          50.000
C26  21347588.180 8 111162509.095 8       195.871          51.000
C29  23816603.438 5 124019252.250 5     -2427.324          30.000
E11  23526570.562 7 123632981.045 7       218.902          45.000    23526567.805 5  94731755.163 5       167.617          35.000
E25  23895314.562 8 125570722.259 8      -810.156          51.000    23895316.938 8  96216537.083 8      -620.754          51.000
E36  25118964.703 8 132001056.073 8      2735.656          50.000    25118970.125 8 101143696.746 8      2096.218          51.000
> 2020 05 13 10 08  0.0000000  0 17        .000000000000
G02  22977927.070 5 120749821.574 5      -594.270          34.000
G06  24109172.891 5 126694564.442 5     -2016.902          34.000    24109172.844 5  98723016.285 5     -1571.615          33.000
G12  21074296.547 5 110746181.767 5     -1888.418          32.000    21074296.375 5  86295725.126 5     -1471.501          33.000
G24  23503462.969 7 123511513.068 7     -3507.926          43.000    23503468.844 7  96242739.279 7     -2733.446          43.000
G25  20152644.898 8 105902865.477 8      -124.742          51.000    20152646.523 8  82521714.494 8       -97.202          51.000
G29  20994832.172 8 110328596.483 8      2084.961          50.000    20994831.820 8  85970343.463 8      1624.648          50.000
G32  22618608.953 7 118861583.687 7     -1725.859          42.000    22618611.008 7  92619382.080 7     -1344.825          42.000
R11  19615731.211 8 104820540.637 8      -893.008          51.000    19615734.078 8  81527090.987 8      -694.562          49.000
R12  20296953.672 4 108422702.015 4      2362.637          28.000    20296953.945 4  84328747.535 4      1837.606          25.000
R21  19653812.297 8 105171485.405 8      -819.852          51.000    19653814.125 8  81800167.086 8      -637.662          49.000
R22  20655650.031 8 110261260.488 8      3504.578          51.000    20655654.844 8  85758831.578 8      2725.783          49.000
C26  21346579.023 8 111157254.393 8       163.785          51.000
C29  23830696.406 5 124092699.817 5     -2457.070          32.000
E11  23525448.984 7 123627088.805 7       183.410          44.000    23525447.117 5  94727240.346 5       140.532          34.000
E24  25813776.328 5 135652313.179 5     -2304.191          30.000
E25  23900041.812 8 125595564.197 8      -836.582          51.000    23900044.328 8  96235571.789 8      -640.937          51.000
E36  25103453.578 8 131919546.850 8      2707.613          49.000    25103459.391 8 101081241.640 8      2074.725          51.000
> 2020 05 13 10 08 30.0000000  0 13        .000000000000
G06  24120755.750 6 126755443.817 6     -2050.109          36.000    24120757.594 6  98770454.744 6     -1597.488          36.000
G12  21085129.422 5 110803114.028 5     -1914.867          34.000    21085127.484 5  86340078.156 5     -1492.104          31.000
G24  23523528.766 7 123616962.996 7     -3530.418          45.000    23523535.969 7  96324908.040 7     -2750.975          45.000
G25  20153413.914 8 105906907.158 8      -153.148          51.000    20153415.555 8  82524863.853 8      -119.336          51.000
G29  20982996.086 8 110266397.739 8      2053.121          51.000    20982995.906 8  85921876.954 8      1599.835          51.000
G32  22628530.570 6 118913724.819 6     -1758.629          40.000    22628533.008 6  92660011.483 6     -1370.360          41.000
R11  19620813.352 8 104847699.122 8      -926.109          50.000    19620816.547 8  81548214.238 8      -720.307          49.000
R21  19658508.070 8 105196613.764 8      -863.828          50.000    19658510.070 8  81819711.349 8      -671.866          48.000
R22  20636029.508 8 110156520.339 8      3469.574          51.000    20636033.570 8  85677367.077 8      2698.561          48.000
C26  21345694.648 8 111152649.718 8       134.883          51.000
E11  23524468.125 7 123621935.663 7       151.715          45.000    23524468.016 5  94723291.891 5       116.075          33.000
E25  23904859.555 8 125620881.508 8      -859.648          51.000    23904862.188 8  96254970.750 8      -658.641          51.000
E36  25088042.508 7 131838564.742 7      2682.688          47.000    25088048.602 8 101019190.411 8      2055.572          50.000
> 2020 05 13 10 09  0.0000000  0 14        .000000000000
G06  24132386.906 6 126816575.904 6     -2033.395          36.000    24132392.164 5  98818090.042 5     -1584.466          35.000
G12  21095961.516 5 110860025.626 5     -1889.434          33.000    21095962.375 5  86384444.496 5     -1472.289          33.000
G24  23543583.016 8 123722345.822 8     -3502.523          48.000    23543590.195 8  96407024.508 8     -2729.239          48.000
G25  20154204.305 8 105911061.182 8      -131.230          51.000    20154206.133 8  82528100.758 8      -102.258          51.000
G29  20971202.008 8 110204418.288 8      2071.312          51.000    20971201.641 8  85873581.310 8      1614.010          51.000
G32  22638495.781 6 118966099.581 6     -1741.289          38.000    22638499.156 6  92700822.972 6     -1356.849          36.000
R11  19625941.445 8 104875102.651 8      -908.227          51.000    19625944.641 8  81569528.087 8      -706.398          49.000
R12  20270550.992 4 108281646.388 4      2358.523          27.000
R21  19663308.906 8 105222306.024 8      -856.582          51.000    19663311.180 7  81839694.230 7      -666.230          47.000
R22  20616465.266 8 110052081.830 8      3485.379          51.000    20616468.680 7  85596137.209 7      2710.853          46.000
C26  21344836.531 8 111148181.971 8       155.598          51.000
E11  23523529.398 7 123617003.102 7       169.699          45.000    23523529.102 5  94719503.330 5       130.367          30.000
E25  23909669.141 8 125646155.845 8      -832.988          51.000    23909671.711 8  96274336.787 8      -638.177          51.000
E36  25072632.945 7 131757592.769 7      2707.922          46.000    25072639.570 8 100957146.945 8      2074.808          49.000
> 2020 05 13 10 09 30.0000000  0 16        .000000000000
G02  22988509.312 5 120805431.353 5      -649.617          34.000
G06  24144131.117 5 126878297.866 5     -2069.719          35.000    24144137.656 5  98866184.969 5     -1612.774          35.000
G12  21106864.211 5 110917319.730 5     -1918.262          30.000    21106866.023 5  86429086.144 5     -1494.752          30.000
G24  23563689.234 8 123827999.606 8     -3529.145          49.000    23563695.516 8  96489352.082 8     -2749.986          49.000
G25  20155080.656 8 105915666.838 8      -163.957          51.000    20155082.781 8  82531689.575 8      -127.759          51.000
G29  20959514.312 8 110142998.185 8      2035.043          51.000    20959513.719 8  85825721.463 8      1585.748          51.000
G32  22648569.570 6 119019045.003 6     -1777.191          38.000    22648571.922 6  92742079.115 6     -1384.824          38.000
R11  19631180.297 8 104903096.794 8      -946.016          51.000    19631183.336 8  81591301.299 8      -735.790          49.000
R12  20257406.883 5 108211429.800 5      2327.609          34.000
R21  19668279.789 8 105248906.102 8      -904.793          50.000    19668281.773 7  81860383.161 7      -703.728          47.000
R22  20597021.727 7 109948293.158 7      3445.848          47.000    20597025.312 7  85515412.727 7      2680.107          47.000
C26  21344069.594 8 111144188.158 8       122.305          51.000
E11  23522697.000 7 123612630.224 7       133.258          43.000
E24  25853285.586 5 135859991.129 5     -2316.727          34.000
E25  23914535.227 8 125671726.753 8      -860.211          51.000    23914537.648 8  96293930.078 8      -659.150          51.000
E36  25057291.000 7 131676971.965 7      2678.473          47.000    25057297.109 8 100895372.533 8      2052.411          48.000
> 2020 05 13 10 10  0.0000000  0 14        .000000000000
G06  24155957.281 5 126940447.972 5     -2079.305          33.000    24155964.930 5  98914613.568 5     -1620.237          35.000
G12  21117803.969 5 110974810.401 5     -1919.641          32.000    21117806.000 4  86473884.039 4     -1495.824          29.000
G24  23583816.008 8 123933761.921 8     -3527.637          50.000    23583820.555 8  96571764.186 8     -2748.814          50.000
G25  20156012.602 8 105920564.241 8      -168.512          51.000    20156014.859 8  82535505.731 8      -131.308          51.000
G29  20947902.828 8 110081979.097 8      2026.801          50.000    20947901.930 8  85778174.108 8      1579.325          50.000
G32  22658721.977 6 119072398.865 6     -1785.766          41.000    22658722.992 6  92783653.505 6     -1391.506          41.000
R11  19636499.273 8 104931519.458 8      -955.035          51.000    19636502.250 8  81613407.792 8      -742.808          50.000
R12  20244332.922 6 108141566.681 6      2324.496          36.000    20244342.203 4  84110165.122 4      1807.941          25.000
R21  19673389.156 8 105276249.224 8      -924.262          51.000    19673391.609 7  81881650.050 7      -718.870          47.000
R22  20577668.852 7 109844995.492 7      3434.605          47.000    20577674.664 8  85435070.073 8      2671.357          49.000
C26  21343363.609 8 111140510.705 8       116.801          51.000
E11  23521940.867 7 123608657.158 7       125.410          42.000
E25  23919427.398 8 125697434.722 8      -859.758          51.000    23919429.867 8  96313628.394 8      -658.823          51.000
E36  25041986.789 8 131596544.155 8      2677.219          49.000    25041991.320 8 100833746.065 8      2051.295          48.000
> 2020 05 13 10 10 30.0000000  0 14        .000000000000
G06  24167868.156 5 127003041.490 5     -2094.613          34.000    24167877.219 5  98963387.757 5     -1632.166          33.000
G12  21128784.281 4 111032511.173 4     -1926.496          29.000    21128786.391 4  86518847.705 4     -1501.166          25.000
G24  23603966.266 8 124039648.459 8     -3532.512          50.000    23603967.164 8  96654273.034 8     -2752.610          50.000
G25  20157003.391 8 105925770.737 8      -179.523          51.000    20157005.555 8  82539562.737 8      -139.888          51.000
G29  20936371.227 8 110021379.404 8      2012.035          51.000    20936370.008 8  85730953.587 8      1567.823          50.000
G32  22668955.172 6 119126176.144 6     -1800.371          41.000    22668955.602 6  92825557.819 6     -1402.887          41.000
R11  19641902.023 8 104960389.098 8      -970.727          51.000    19641904.758 8  81635861.938 8      -755.010          50.000
R12  20231296.133 5 108071957.621 5      2314.305          30.000
R21  19678640.633 8 105304351.186 8      -950.344          51.000    19678643.164 7  81903507.126 7      -739.156          46.000
R22  20558413.375 8 109742209.850 8      3416.582          50.000    20558419.938 8  85355125.656 8      2657.339          49.000
C26  21342721.672 8 111137167.629 8       104.973          51.000
E11  23521263.742 6 123605101.237 6       110.535          40.000
E25  23924348.945 8 125723297.356 8      -865.578          51.000    23924351.477 8  96333445.212 8      -663.217          51.000
E36  25026723.336 8 131516328.469 8      2669.387          51.000    25026726.133 8 100772282.151 8      2045.261          48.000
> 2020 05 13 10 11  0.0000000  0 14        .000000000000
G06  24179843.719 5 127065973.965 5     -2112.582          34.000    24179852.609 5  99012426.008 5     -1646.174          35.000
G24  23624120.125 8 124145554.990 8     -3539.363          50.000    23624118.383 8  96736797.480 8     -2757.948          50.000
G25  20158033.508 8 105931183.870 8      -192.602          51.000    20158035.500 8  82543780.765 8      -150.079          51.000
G29  20924900.070 8 109961097.776 8      1995.203          50.000    20924898.828 8  85683980.916 8      1554.704          50.000
G32  22679249.367 6 119180272.011 6     -1816.988          39.000    22679251.133 6  92867710.394 6     -1415.835          38.000
R11  19647369.086 8 104989601.886 8      -988.441          51.000    19647371.789 8  81658582.977 8      -768.788          50.000
R12  20218293.680 5 108002504.549 5      2303.773          33.000
R21  19684014.156 8 105333105.826 8      -978.301          51.000    19684016.820 7  81925871.864 7      -760.898          46.000
R22  20539235.750 8 109639835.766 8      3396.609          51.000    20539241.758 8  85275501.363 8      2641.807          49.000
C26  21342124.602 8 111134058.309 8        90.961          51.000
C29  23916526.375 5 124539622.654 5     -2511.754          34.000
E11  23520647.039 6 123601859.888 6        93.953          39.000
E25  23929280.547 8 125749212.600 8      -873.512          51.000    23929282.945 8  96353302.334 8      -669.311          51.000
E36  25011481.062 8 131436224.223 8      2659.566          51.000    25011482.445 8 100710903.620 8      2037.906          48.000
> 2020 05 13 10 11 30.0000000  0 13        .000000000000
G06  24191941.242 5 127129547.119 5     -2127.477          31.000    24191948.312 5  99061963.530 5     -1657.765          30.000
G24  23644335.070 8 124251783.320 8     -3543.133          49.000    23644333.461 8  96819572.706 8     -2760.886          49.000
G25  20159160.695 8 105937107.434 8      -202.711          51.000    20159162.609 8  82548396.523 8      -157.957          51.000
G29  20913547.188 8 109901438.564 8      1981.391          50.000    20913546.391 8  85637493.259 8      1543.941          50.000
G32  22689661.781 7 119234987.843 7     -1830.914          42.000    22689664.430 6  92910346.075 6     -1426.689          41.000
R11  19652958.047 8 105019467.471 8     -1003.227          51.000    19652960.859 8  81681811.741 8      -780.290          50.000
R21  19689566.891 8 105362820.329 8     -1003.180          50.000    19689569.391 7  81948983.171 7      -780.251          45.000
R22  20520193.430 8 109538185.394 8      3379.465          50.000    20520198.805 8  85196439.987 8      2628.476          48.000
C26  21341630.547 8 111131484.559 8        79.996          51.000
C29  23931020.188 6 124615087.140 6     -2519.414          36.000
E11  23520148.062 5 123599236.899 5        80.387          35.000    23520148.211 5  94705891.930 5        61.484          32.000
E25  23934280.016 8 125775484.513 8      -878.605          51.000    23934282.281 8  96373432.763 8      -673.193          51.000
E36  24996317.867 8 131356536.989 8      2652.398          51.000    24996318.438 8 100649844.613 8      2032.354          49.000
> 2020 05 13 10 12  0.0000000  0 13        .000000000000
G24  23664599.359 8 124358270.625 8     -3550.855          49.000    23664598.625 8  96902549.767 8     -2766.903          49.000
G25  20160373.328 8 105943480.176 8      -216.836          51.000    20160375.227 8  82553362.287 8      -168.963          51.000
G29  20902301.242 8 109842341.479 8      1963.555          51.000    20902301.047 8  85591443.618 8      1530.043          50.000
G32  22700179.984 7 119290259.942 7     -1848.504          42.000    22700182.484 7  92953415.271 7     -1440.390          42.000
R11  19658657.688 8 105049924.080 8     -1021.977          51.000    19658660.375 8  81705500.198 8      -794.871          49.000
R12  20192552.430 5 107864977.304 5      2282.836          30.000    20192548.648 4  83894976.777 4      1775.539          27.000
R21  19695287.445 8 105393430.576 8     -1032.184          51.000    19695289.547 7  81972791.139 7      -802.806          45.000
R22  20501275.602 8 109437199.913 8      3358.242          50.000    20501280.148 7  85117895.761 7      2611.969          46.000
C26  21341227.852 8 111129386.497 8        65.133          51.000
C29  23945586.445 6 124690928.364 6     -2531.512          37.000
E11  23519755.125 5 123597146.873 5        62.141          32.000    23519748.906 5  94704308.823 5        47.704          34.000
E25  23939335.711 8 125802052.161 8      -887.371          51.000    23939337.969 8  96393789.788 8      -679.979          51.000
E36  24981222.258 8 131277207.232 8      2641.426          51.000    24981222.922 8 100589059.493 8      2023.902          49.000
> 2020 05 13 10 12 30.0000000  0 13        .000000000000
G12  21173186.320 5 111265843.366 5     -1959.164          32.000    21173187.211 5  86700652.842 5     -1526.624          34.000
G24  23684866.891 8 124464775.537 8     -3551.293          48.000    23684867.062 8  96985540.587 8     -2767.241          48.000
G25  20161625.859 8 105950062.687 8      -223.820          51.000    20161627.820 8  82558491.511 8      -174.405          51.000
G29  20891116.719 8 109783568.365 8      1952.766          49.000    20891116.844 8  85545646.402 8      1521.636          50.000
G32  22710757.938 7 119345846.634 7     -1858.941          42.000    22710758.805 7  92996729.531 7     -1448.529          42.000
R11  19664422.234 8 105080728.660 8     -1033.578          51.000    19664425.000 8  81729459.298 8      -803.894          49.000
R21  19701129.438 8 105424690.689 8     -1053.773          50.000    19701131.500 7  81997104.592 7      -819.602          45.000
R22  20482437.594 8 109336640.108 8      3343.867          49.000    20482441.414 7  85039682.611 7      2600.789          45.000
C26  21340871.000 8 111127527.782 8        57.062          51.000
C29  23960179.477 5 124766906.953 5     -2535.695          34.000
E11  23519421.672 5 123595394.396 5        51.891          34.000    23519418.461 6  94702968.978 6        39.952          37.000
E25  23944402.062 8 125828676.516 8      -889.406          51.000    23944404.469 8  96414190.260 8      -681.550          51.000
E36  24966149.430 8 131197997.305 8      2637.359          51.000    24966150.297 8 100528366.196 8      2020.834          49.000
> 2020 05 13 10 13  0.0000000  0 13        .000000000000
G12  21184400.305 6 111324767.176 6     -1970.051          38.000    21184400.250 6  86746567.465 6     -1535.108          38.000
G24  23705159.336 7 124571414.540 7     -3558.766          46.000    23705160.703 7  97068635.898 7     -2773.067          46.000
G25  20162940.898 8 105956973.269 8      -237.578          51.000    20162942.906 8  82563876.371 8      -185.126          51.000
G29  20880016.586 8 109725238.449 8      1934.949          50.000    20880016.617 8  85500194.508 8      1507.753          50.000
G32  22721417.883 6 119401863.719 6     -1876.207          41.000    22721417.547 7  93040379.169 7     -1461.980          42.000
R11  19670274.539 8 105112002.413 8     -1052.199          51.000    19670277.312 8  81753783.318 8      -818.377          48.000
R21  19707114.586 8 105456718.861 8     -1082.289          51.000    19707117.023 7  82022015.409 7      -841.780          45.000
R22  20463701.781 8 109236629.153 8      3322.715          49.000    20463705.602 7  84961896.360 7      2584.334          45.000
C26  21340582.609 8 111126026.394 8        42.188          51.000
C29  23974820.398 5 124843138.325 5     -2547.223          34.000
E11  23519172.320 5 123594084.591 5        35.098          35.000    23519170.836 6  94701963.040 6        26.561          38.000
E25  23949501.609 8 125855476.170 8      -898.082          51.000    23949504.195 8  96434725.035 8      -688.162          51.000
E36  24951122.352 8 131119027.193 8      2626.316          51.000    24951123.234 8 100467856.665 8      2012.408          49.000
> 2020 05 13 10 13 30.0000000  0 13        .000000000000
G12  21195658.969 6 111383930.449 6     -1966.004          39.000    21195657.797 6  86792668.702 6     -1531.951          38.000
G24  23725478.578 7 124678196.676 7     -3551.656          44.000    23725481.359 7  97151842.741 7     -2767.521          44.000
G25  20164320.391 8 105964222.529 8      -237.207          51.000    20164322.492 8  82569525.139 8      -184.837          51.000
G29  20869003.555 8 109667362.993 8      1931.707          51.000    20869003.070 8  85455096.752 8      1505.226          51.000
G32  22732161.172 6 119458319.317 6     -1879.027          36.000    22732162.492 6  93084370.476 6     -1464.177          37.000
R11  19676216.664 8 105143756.405 8     -1056.184          51.000    19676219.766 8  81778480.835 8      -821.479          48.000
R21  19713245.156 8 105489524.089 8     -1096.109          50.000    19713247.258 7  82047530.574 7      -852.530          46.000
R22  20445071.578 8 109137181.146 8      3315.754          51.000    20445075.484 7  84884547.969 7      2578.923          45.000
C26  21340365.023 8 111124893.634 8        41.766          51.000
C29  23989510.141 5 124919630.778 5     -2543.703          34.000
E11  23519008.742 5 123593224.946 5        31.871          32.000    23519004.945 6  94701298.897 6        23.945          39.000
E25  23954636.742 8 125882462.045 8      -892.488          51.000    23954639.336 8  96455402.513 8      -683.780          51.000
E36  24936142.922 8 131040309.240 8      2629.824          51.000    24936144.055 8 100407540.365 8      2015.072          49.000
> 2020 05 13 10 14  0.0000000  0 14        .000000000000
G12  21206980.078 6 111443422.118 6     -1985.703          40.000    21206978.562 6  86839025.799 6     -1547.301          41.000
G24  23745841.859 7 124785209.197 7     -3567.660          44.000    23745845.359 7  97235229.116 7     -2779.995          44.000
G25  20165781.344 8 105971899.982 8      -259.684          51.000    20165783.477 8  82575507.557 8      -202.351          51.000
G29  20858094.562 8 109610032.809 8      1905.164          51.000    20858093.594 8  85410423.891 8      1484.543          51.000
G32  22743003.859 5 119515300.362 5     -1904.863          35.000    22743008.773 5  93128771.384 5     -1484.306          33.000
R11  19682265.836 8 105176082.118 8     -1083.785          51.000    19682268.758 8  81803623.035 8      -842.944          49.000
R12  20141669.070 5 107593187.675 5      2243.930          32.000
R21  19719537.531 8 105523195.229 8     -1133.527          49.000    19719539.711 7  82073719.264 7      -881.629          46.000
R22  20426565.336 8 109038390.631 8      3285.328          51.000    20426568.805 7  84807710.932 7      2555.258          46.000
C26  21340235.469 8 111124219.098 8        18.000          51.000
C29  24004266.109 5 124996513.213 5     -2564.285          30.000
E11  23518945.516 6 123592893.840 6         5.172          37.000    23518941.578 6  94701045.153 6         4.145          41.000
E25  23959824.531 8 125909724.035 8      -910.086          51.000    23959827.094 8  96476291.565 8      -697.321          51.000
E36  24921228.406 8 130961934.759 8      2609.996          51.000    24921230.258 8 100347487.247 8      1999.918          49.000
> 2020 05 13 10 14 30.0000000  0 13        .000000000000
G12  21218334.688 6 111503091.642 6     -1992.891          38.000    21218333.523 6  86885521.576 6     -1552.899          37.000
G24  23766220.289 7 124892300.300 7     -3572.211          44.000    23766224.086 7  97318676.700 7     -2783.541          44.000
G25  20167295.219 8 105979855.549 8      -271.168          51.000    20167297.359 8  82581706.694 8      -211.300          51.000
G29  20847260.664 8 109553098.697 8      1889.973          51.000    20847259.328 8  85366059.641 8      1472.706          51.000
G32  22753917.820 6 119572654.563 6     -1919.055          39.000    22753925.594 6  93173462.904 6     -1495.370          39.000
R11  19688393.820 8 105208827.710 8     -1099.770          51.000    19688396.641 8  81829091.813 8      -855.376          49.000
R12  20129091.078 5 107526009.415 5      2233.742          31.000
R21  19725962.625 8 105557577.522 8     -1159.102          49.000    19725964.797 7  82100461.048 7      -901.523          46.000
R22  20408154.422 8 108940108.609 8      3266.301          51.000    20408157.664 7  84731269.385 7      2540.456          47.000
C26  21340165.492 8 111123854.762 8         5.754          51.000
E11  23518955.578 6 123592948.051 6        -9.348          39.000    23518952.750 7  94701086.644 7        -7.183          42.000
E25  23965036.242 8 125937112.310 8      -916.328          51.000    23965038.914 8  96497277.380 8      -702.137          51.000
E36  24906350.812 8 130883755.314 8      2601.465          51.000    24906353.484 8 100287583.580 8      1993.294          49.000
> 2020 05 13 10 15  0.0000000  0 13        .000000000000
G12  21229738.062 5 111563024.113 5     -2001.727          32.000    21229738.102 5  86932222.137 5     -1559.793          33.000
G24  23786629.641 7 124999554.165 7     -3577.020          42.000    23786633.891 7  97402251.079 7     -2787.291          42.000
G25  20168878.383 8 105988174.950 8      -282.727          51.000    20168880.539 8  82588189.335 8      -220.306          51.000
G29  20836518.070 8 109496647.400 8      1874.402          50.000    20836516.977 8  85322071.603 8      1460.573          50.000
G32  22764918.953 6 119630465.103 6     -1934.039          40.000    22764927.867 6  93218510.088 6     -1507.043          39.000
R11  19694616.703 8 105242080.747 8     -1116.168          51.000    19694619.602 8  81854955.272 8      -868.131          50.000
R12  20116580.336 5 107459166.871 5      2223.320          31.000
R21  19732536.641 8 105592755.705 8     -1185.141          48.000    19732538.719 7  82127821.853 7      -921.776          46.000
R22  20389855.312 8 108842425.732 8      3246.781          51.000    20389858.406 7  84655293.843 7      2525.274          47.000
C26  21340171.375 8 111123886.448 8        -6.969          51.000
E11  23519055.336 6 123593473.075 6       -24.660          40.000    23519053.156 7  94701488.951 7       -19.042          43.000
E25  23970288.273 8 125964713.026 8      -922.836          51.000    23970291.000 8  96518425.959 8      -707.093          51.000
E36  24891526.953 8 130805858.476 8      2592.602          50.000    24891530.305 8 100227896.420 8      1986.449          50.000
> 2020 05 13 10 15 30.0000000  0 13        .000000000000
G12  21241185.734 6 111623182.871 6     -2009.016          37.000    21241186.031 6  86979099.017 6     -1565.473          37.000
G24  23807062.680 6 125106933.127 6     -3581.578          39.000    23807067.625 6  97485922.941 6     -2790.843          39.000
G25  20170523.953 8 105996822.078 8      -293.852          51.000    20170526.055 8  82594927.344 8      -228.975          51.000
G29  20825860.492 8 109440643.463 8      1859.215          51.000    20825859.820 8  85278432.177 8      1448.739          51.000
G32  22775999.570 6 119688693.326 6     -1948.336          37.000    22776008.453 6  93263882.751 6     -1518.181          38.000
R11  19700927.734 8 105275804.839 8     -1132.129          51.000    19700930.766 8  81881185.119 8      -880.545          50.000
R12  20104125.625 5 107392625.417 5      2213.008          31.000
R21  19739251.680 8 105628690.933 8     -1210.574          49.000    19739253.758 7  82155771.467 7      -941.558          46.000
R22  20371661.484 8 108745308.483 8      3227.730          49.000    20371664.773 7  84579758.227 7      2510.457          47.000
C26  21340246.516 8 111124279.093 8       -19.199          50.000
E11  23519237.367 6 123594432.747 6       -39.145          41.000    23519235.969 7  94702224.255 7       -30.164          43.000
E25  23975573.969 8 125992490.294 8      -928.918          51.000    23975576.781 8  96539709.822 8      -711.792          51.000
E36  24876750.398 8 130728209.751 8      2583.988          51.000    24876754.133 8 100168399.367 8      1979.957          50.000
> 2020 05 13 10 16  0.0000000  0 12        .000000000000
G12  21252682.109 6 111683594.980 6     -2017.395          41.000    21252682.305 6  87026173.423 6     -1571.993          41.000
G24  23827524.648 6 125214462.436 6     -3586.480          40.000    23827530.406 6  97569711.978 6     -2794.660          40.000
G25  20172237.258 8 106005825.103 8      -305.859          51.000    20172239.266 8  82601942.682 8      -238.332          51.000
G29  20815294.070 8 109385116.036 8      1843.125          51.000    20815293.547 8  85235164.082 8      1436.201          51.000
G32  22787164.430 6 119747364.760 6     -1962.785          39.000    22787172.531 6  93309600.860 6     -1529.437          39.000
R11  19707332.398 8 105310029.328 8     -1149.031          51.000    19707335.555 8  81907804.166 8      -893.688          50.000
R21  19746113.586 8 105665409.792 8     -1236.809          48.000    19746115.766 7  82184330.569 7      -961.962          46.000
R22  20353579.688 8 108648788.672 8      3207.547          50.000    20353582.828 7  84504687.281 7      2494.759          47.000
C26  21340396.664 8 111125061.423 8       -32.379          51.000
E11  23519508.055 6 123595855.022 6       -54.801          41.000    23519506.727 7  94703314.010 7       -42.041          42.000
E25  23980898.891 8 126020472.691 8      -936.000          51.000    23980901.688 8  96561150.860 8      -717.165          51.000
E36  24862027.117 8 130650839.063 8      2574.609          51.000    24862030.922 8 100109115.333 8      1972.818          51.000
> 2020 05 13 10 16 30.0000000  0 12        .000000000000
G12  21264221.422 6 111744235.177 6     -2024.953          41.000    21264221.445 6  87073425.505 6     -1577.889          41.000
G24  23848010.766 6 125322116.366 6     -3590.281          41.000    23848017.125 6  97653598.126 6     -2797.622          41.000
G25  20174013.484 8 106015159.078 8      -316.355          51.000    20174015.453 8  82609215.903 8      -246.511          51.000
G29  20804813.844 8 109330041.160 8      1828.484          51.000    20804813.281 8  85192248.653 8      1424.796          51.000
G32  22798409.133 6 119806452.228 6     -1976.047          41.000    22798415.945 6  93355643.028 6     -1539.783          41.000
R11  19713826.062 8 105344729.213 8     -1164.344          51.000    19713829.180 8  81934792.961 8      -905.601          50.000
R21  19753116.266 8 105702884.503 8     -1261.480          49.000    19753118.477 7  82213477.568 7      -981.151          46.000
R22  20335606.289 8 108552844.697 8      3188.707          50.000    20335609.258 7  84430064.195 7      2480.102          47.000
C26  21340617.344 8 111126209.482 8       -44.219          51.000
E11  23519861.859 7 123597714.722 7       -69.266          42.000    23519861.047 7  94704738.964 7       -53.181          42.000
E25  23986258.188 8 126048635.581 8      -941.633          51.000    23986260.828 8  96582730.203 8      -721.499          51.000
E36  24847352.672 8 130573723.150 8      2566.438          51.000    24847356.000 8 100050026.544 8      1966.434          51.000
> 2020 05 13 10 17  0.0000000  0 12        .000000000000
