     3.04           OBSERVATION DATA    M (MIXED)           RINEX VERSION / TYPE
Convert 2.6.2       NovAtel             20200515 155948 UTC PGM / RUN BY / DATE 
Rinex Version 3.04 Observation File                         COMMENT             
                                                            MARKER NAME         
                                                            MARKER NUMBER       
                                                            MARKER TYPE         
                                                            OBSERVER / AGENCY   
                    NovAtel GPSCard                         REC # / TYPE / VERS 
                                                            ANT # / TYPE        
        0.0000        0.0000        0.0000                  APPROX POSITION XYZ 
        0.0000        0.0000        0.0000                  ANTENNA: DELTA H/E/N
G    8 C1C L1C D1C S1C C2W L2W D2W S2W                      SYS / # / OBS TYPES 
R    8 C1C L1C D1C S1C C2P L2P D2P S2P                      SYS / # / OBS TYPES 
E    8 C1C L1C D1C S1C C7Q L7Q D7Q S7Q                      SYS / # / OBS TYPES 
C    8 C2I L2I D2I S2I C7I L7I D7I S7I                      SYS / # / OBS TYPES 
DBHZ                                                        SIGNAL STRENGTH UNIT
    30.000                                                  INTERVAL            
  2020    05    09    22    00    0.0000000     GPS         TIME OF FIRST OBS   
  2020    05    09    22    59   30.0000000     GPS         TIME OF LAST OBS    
G L1C  0.00000  08 G09 G03 G04 G01 G22 G19 G17 G31          SYS / PHASE SHIFT   
G L2W  0.00000  08 G09 G03 G04 G01 G22 G17 G31 G19          SYS / PHASE SHIFT   
R L1C  0.00000  09 R08 R23 R22 R07 R01 R09 R24 R02 R11      SYS / PHASE SHIFT   
R L2P  0.25000  09 R08 R23 R22 R07 R01 R09 R24 R02 R11      SYS / PHASE SHIFT   
E L1C  0.50000  05 E26 E33 E19 E07 E04                      SYS / PHASE SHIFT   
E L7Q -0.25000  05 E26 E33 E19 E07 E04                      SYS / PHASE SHIFT   
C L2I  0.00000  04 C22 C12 C19 C21                          SYS / PHASE SHIFT   
C L7I  0.00000  01 C12                                      SYS / PHASE SHIFT   
  9 R08  6 R23  3 R22 -3 R07  5 R01  1 R09 -2 R24  2 R02 -4 GLONASS SLOT / FRQ #
    R11  0                                                  GLONASS SLOT / FRQ #
 C1C  -71.950 C2C  -71.950 C2P  -71.950                     GLONASS COD/PHS/BIS 
    18    18  1929     7GPS                                 LEAP SECONDS        
                                                            END OF HEADER       
> 2020 05 09 22 00  0.0000000  0 15      -0.000000000000
G09  22433937.820 7 117891235.738 7      3093.086          47.000    22433939.562 7  91863277.317 7      2410.198          47.000  
G03  20612958.516 8 108321864.971 8     -1031.348          51.000    20612960.203 8  84406677.939 8      -803.648          51.000  
G04  20518086.594 8 107823296.440 8      1269.637          49.000    20518087.656 8  84018188.954 8       989.328          49.000  
G01  22359558.156 8 117500264.978 8     -3027.398          50.000    22359559.984 8  91558653.694 8     -2359.016          50.000  
R08  19744322.734 5 105729612.958 5     -1444.973          35.000    19744322.695 5  82234097.449 5     -1123.871          31.000  
R23  19446975.547 8 104027838.163 8     -1529.785          50.000    19446978.875 6  80910548.459 6     -1189.833          38.000  
R22  23332626.805 5 124550778.130 5     -4520.473          34.000    23332627.641 6  96872820.028 6     -3515.927          36.000  
R07  22862617.508 5 122384993.694 5     -3439.980          33.000    22862615.852 5  95188333.977 5     -2675.544          31.000  
E26  25728983.109 6 135206698.147 6     -3008.836          41.000    25728982.852 6 103599941.935 6     -2305.602          41.000  
E33  23765992.133 8 124891131.055 8     -1209.164          51.000    23765991.820 8  95695814.802 8      -926.572          51.000  
E19  24746333.867 8 130042865.471 8      1579.289          49.000    24746333.547 8  99643251.445 8      1210.045          49.000  
C22  22301991.188 8 116132301.039 8     -1220.133          51.000                                                                  
C12  22402342.641 7 116654909.035 7     -1109.668          46.000    22402340.828 8  90204965.038 8      -857.990          49.000  
C19  25645032.578 5 133540406.536 5     -2720.230          30.000                                                                  
C21  22572200.305 6 117539409.486 6      1428.832          37.000                                                                  
> 2020 05 09 22 00 30.0000000  0 15      -0.000000000000
G09  22416314.828 8 117798628.021 8      3081.094          48.000    22416317.070 8  91791115.448 8      2400.853          48.000  
G03  20618881.266 8 108352989.210 8     -1043.184          51.000    20618882.805 8  84430930.594 8      -812.871          51.000  
G04  20510894.914 8 107785504.357 8      1250.262          49.000    20510895.938 8  83988740.574 8       974.230          48.000  
G01  22376877.094 8 117591274.823 8     -3039.547          50.000    22376878.141 8  91629570.476 8     -2368.476          50.000  
R08  19752460.055 5 105773189.502 5     -1459.867          35.000    19752459.758 5  82267990.321 5     -1135.453          31.000  
R23  19455636.344 8 104074168.694 8     -1558.398          51.000    19455639.703 6  80946583.352 6     -1212.088          39.000  
R22  23358050.375 6 124686497.735 6     -4526.758          36.000    23358054.320 6  96978379.644 6     -3520.815          36.000  
R07  22881907.758 5 122488257.463 5     -3443.125          35.000    22881906.359 5  95268650.241 5     -2677.984          31.000  
E26  25746181.391 6 135297076.248 6     -3015.660          38.000    25746182.117 7 103669192.653 7     -2310.726          42.000  
E33  23772939.430 8 124927639.690 8     -1224.219          51.000    23772939.641 8  95723788.943 8      -937.963          51.000  
E19  24737350.883 8 129995656.878 8      1568.461          49.000    24737349.734 8  99607078.645 8      1201.823          49.000  
C22  22309049.086 8 116169053.722 8     -1229.613          51.000                                                                  
C12  22408791.391 7 116688491.311 7     -1128.629          46.000    22408789.477 8  90230932.979 8      -872.685          50.000  
C19  25660707.242 5 133622031.048 5     -2721.625          32.000                                                                  
C21  22563997.117 6 117496692.560 6      1419.059          36.000                                                                  
> 2020 05 09 22 01  0.0000000  0 18      -0.000000000000
G09  22398751.203 8 117706330.972 8      3071.867          49.000    22398753.680 8  91719195.686 8      2393.664          49.000  
G22  22190228.281 5 116610444.466 5     -2081.332          34.000                                                                  
G03  20624862.516 8 108384421.188 8     -1052.324          51.000    20624864.109 8  84455423.057 8      -819.993          51.000  
G04  20503803.695 8 107748240.972 8      1233.902          49.000    20503804.836 8  83959704.152 8       961.483          48.000  
G01  22394255.469 8 117682597.528 8     -3048.680          51.000    22394256.000 8  91700731.013 8     -2375.595          51.000  
G19  22159954.266 5 116451376.495 5       206.574          35.000                                                                  
R08  19760669.227 5 105817150.272 5     -1471.473          32.000    19760671.125 5  82302181.951 5     -1144.479          33.000  
R23  19464447.797 8 104121305.343 8     -1584.059          51.000    19464451.688 6  80983245.162 6     -1232.049          40.000  
R22  23383502.172 6 124822363.071 6     -4530.270          38.000    23383506.195 5  97084052.643 5     -3523.544          35.000  
R01  20002202.562 5 106922819.294 5      1469.605          30.000                                                                  
R07  22901205.500 6 122591561.252 6     -3443.539          36.000    22901204.867 5  95348997.631 5     -2678.312          32.000  
E26  25763408.664 6 135387603.905 6     -3019.316          38.000    25763410.398 7 103738557.938 7     -2313.617          43.000  
E33  23779962.930 8 124964548.062 8     -1236.355          51.000    23779963.828 8  95752069.368 8      -947.326          51.000  
E19  24728420.086 8 129948722.830 8      1560.582          49.000    24728418.805 8  99571116.233 8      1195.679          50.000  
C22  22316152.180 8 116206041.171 8     -1236.207          51.000                                                                  
C12  22415340.461 7 116722594.339 7     -1145.047          46.000    22415339.234 8  90257303.601 8      -885.251          51.000  
C19  25676385.797 5 133703679.743 5     -2721.504          32.000                                                                  
C21  22555843.078 5 117454230.318 5      1410.719          34.000                                                                  
> 2020 05 09 22 01 30.0000000  0 18      -0.000000000000
G09  22381239.219 8 117614303.159 8      3063.426          51.000    22381241.531 8  91647485.749 8      2387.086          51.000  
G22  22202119.953 5 116672938.364 5     -2086.617          35.000    22202119.633 5  90913967.867 5     -1625.936          31.000  
G17  22177627.930 5 116544242.630 5      -951.172          34.000    22177639.117 5  90813724.372 5      -741.173          31.000  
G03  20630894.023 8 108416117.422 8     -1060.664          51.000    20630895.719 8  84480121.433 8      -826.492          51.000  
G04  20496805.227 8 107711463.640 8      1218.117          50.000    20496806.328 8  83931046.512 8       949.186          49.000  
G01  22411684.648 8 117774188.490 8     -3057.430          49.000    22411684.703 8  91772100.586 8     -2382.417          50.000  
G19  22158837.141 5 116445474.31325       184.625          30.000                                                                  
R08  19768941.328 4 105861448.813 4     -1482.086          29.000    19768944.852 5  82336636.457 5     -1152.731          32.000  
R23  19473401.602 8 104169202.430 8     -1608.918          51.000    19473406.078 6  81020498.433 6     -1251.381          41.000  
R22  23408972.805 6 124958326.857 6     -4533.441          37.000    23408976.617 5  97189802.229 5     -3526.011          33.000  
R07  22920502.469 6 122694859.632 6     -3442.633          36.000    22920502.555 5  95429340.828 5     -2677.604          32.000  
E26  25780656.758 5 135478236.704 5     -3022.879          34.000    25780658.344 7 103808003.799 7     -2315.946          43.000  
E33  23787054.555 8 125001812.694 8     -1247.777          51.000    23787055.742 8  95780622.789 8      -956.096          51.000  
E19  24719532.930 8 129902020.249 8      1553.215          49.000    24719532.336 8  99535331.151 8      1190.090          50.000  
C22  22323291.984 8 116243219.916 8     -1242.207          51.000                                                                  
C12  22421981.367 7 116757174.373 7     -1160.289          47.000    22421981.117 8  90284043.102 8      -897.215          51.000  
C19  25692061.742 5 133785309.409 5     -2720.473          32.000                                                                  
C21  22547729.469 5 117411979.905 5      1404.949          34.000                                                                  
> 2020 05 09 22 02  0.0000000  0 17      -0.000000000000
G09  22363788.602 8 117522597.399 8      3051.824          50.000    22363790.773 8  91576026.760 8      2378.046          50.000  
G17  22183117.734 5 116573102.256 5      -970.602          35.000    22183121.484 4  90836212.456 4      -756.310          29.000  
G03  20636985.469 8 108448128.548 8     -1071.812          51.000    20636987.336 8  84505065.169 8      -835.179          51.000  
G04  20489909.125 8 107675223.922 8      1199.492          50.000    20489910.016 8  83902807.801 8       934.669          49.000  
G01  22429174.055 8 117866097.239 8     -3068.465          49.000    22429174.852 8  91843717.751 8     -2391.012          48.000  
G31  23493209.750 4 123457649.79124     -1208.742          28.000    23493210.500 4  96200753.08924      -941.877          24.000  
R08  19777285.938 5 105906135.545 5     -1495.402          32.000    19777287.672 4  82371392.845 4     -1163.094          28.000  
R23  19482507.211 8 104217910.495 8     -1636.672          51.000    19482511.812 6  81058382.487 6     -1272.967          41.000  
R22  23434471.070 6 125094437.491 6     -4539.148          37.000    23434474.922 5  97295666.052 5     -3530.449          33.000  
R07  22939807.523 6 122798203.232 6     -3445.188          36.000    22939807.875 5  95509719.167 5     -2679.591          32.000  
E26                                                                  25797934.734 6 103877568.429 6     -2320.448          41.000  
E33  23794223.539 8 125039484.414 8     -1262.117          51.000    23794224.609 8  95809488.125 8      -967.083          51.000  
E19  24710699.141 8 129855600.458 8      1543.027          48.000    24710699.500 8  99499762.753 8      1182.281          49.000  
C22  22330478.078 8 116280639.723 8     -1250.883          51.000                                                                  
C12  22428723.289 7 116792281.179 7     -1178.633          46.000    22428723.953 8  90311189.920 8      -911.394          51.000  
C19  25707743.562 5 133866970.194 5     -2721.867          33.000                                                                  
C21  22539666.289 6 117369992.067 6      1395.582          36.000                                                                  
> 2020 05 09 22 02 30.0000000  0 17      -0.000000000000
G09  22346394.156 8 117431188.015 8      3041.609          50.000    22346396.289 8  91504798.696 8      2370.086          49.000  
G17  22188717.391 6 116602496.61026      -989.102          36.000                                                                  
G03  20643131.570 8 108480426.891 8     -1081.750          51.000    20643133.688 8  84530232.700 8      -842.922          51.000  
G04  20483110.273 8 107639495.029 8      1182.195          50.000    20483110.688 8  83874967.111 8       921.191          49.000  
G01  22446718.477 8 117958294.991 8     -3078.387          49.000    22446720.164 8  91915560.137 8     -2398.744          49.000  
G31  23500162.656 6 123494180.999 6     -1227.797          37.000    23500167.336 6  96229259.133 6      -956.728          37.000  
R08  19785699.094 5 105951180.231 5     -1507.750          31.000    19785697.109 5  82406427.568 5     -1172.695          30.000  
R23  19491759.047 8 104267400.096 8     -1662.969          51.000    19491763.758 7  81096874.390 7     -1293.420          42.000  
R22  23459991.062 5 125230663.879 5     -4543.871          31.000    23459994.195 5  97401619.773 5     -3534.129          33.000  
R07  22959115.305 5 122901562.626 5     -3445.902          35.000    22959116.164 5  95590109.724 5     -2680.147          30.000  
E26                                                                  25815235.227 6 103947229.914 6     -2323.710          41.000  
E33  23801464.305 8 125077535.605 8     -1274.957          51.000    23801465.297 8  95838644.213 8      -976.901          51.000  
E19  24701913.555 7 129809436.113 7      1534.312          47.000    24701914.844 8  99464390.082 8      1175.634          49.000  
C22  22337705.188 8 116318272.787 8     -1258.262          51.000                                                                  
C12  22435560.688 7 116827886.672 7     -1195.363          45.000    22435561.727 8  90338722.369 8      -924.340          51.000  
C19  25723426.148 5 133948634.597 5     -2722.016          31.000                                                                  
C21  22531648.867 5 117328239.630 5      1387.676          34.000                                                                  
> 2020 05 09 22 03  0.0000000  0 20      -0.000000000000
G09  22329055.938 8 117340074.916 8      3031.320          49.000    22329057.711 8  91433801.519 8      2362.069          49.000  
G22  22238043.133 6 116861705.648 6     -2106.867          37.000                                                                  
G17  22194402.656 5 116632423.242 5     -1007.781          34.000    22194395.695 5  90882358.577 5      -785.281          33.000  
G03  20649332.000 8 108513010.220 8     -1091.859          51.000    20649333.977 8  84555622.313 8      -850.800          51.000  
G04  20476408.227 8 107604275.578 8      1164.582          50.000    20476408.414 8  83847523.399 8       907.467          49.000  
G01  22464317.531 8 118050778.401 8     -3088.305          49.000    22464319.859 8  91987625.132 8     -2406.472          50.000  
G31  23507226.125 6 123531298.325 6     -1247.734          39.000    23507231.297 6  96258181.761 6      -972.261          39.000  
R08  19794176.359 6 105996579.528 6     -1520.160          36.000    19794176.812 5  82441738.216 5     -1182.347          33.000  
R23  19501156.398 8 104317667.589 8     -1689.516          51.000    19501161.180 7  81135971.323 7     -1314.068          42.000  
R22  23485531.406 5 125367000.607 5     -4546.648          35.000    23485533.930 5  97507659.361 5     -3536.286          31.000  
R01  19969842.938 5 106749905.018 5      1411.797          34.000    19969847.117 4  83027693.551 4      1098.068          27.000  
R07  22978425.805 5 123004934.434 5     -3446.383          32.000    22978426.906 4  95670509.964 4     -2680.523          27.000  
E07  26874743.008 5 141227728.598 5     -2551.789          33.000                                                                  
E26                                                                  25832559.445 6 104016985.927 6     -2327.526          40.000  
E33  23808777.047 8 125115964.083 8     -1288.148          51.000    23808777.930 8  95868089.401 8      -987.035          51.000  
E19  24693176.531 8 129763525.750 8      1525.156          48.000    24693178.273 8  99429212.029 8      1168.693          49.000  
C22  22344972.820 8 116356116.556 8     -1265.891          51.000                                                                  
C12  22442493.375 7 116863988.160 7     -1212.609          46.000    22442493.961 8  90366638.308 8      -937.649          51.000  
C19  25739108.969 4 134030300.409 4     -2722.637          29.000                                                                  
C21  22523676.320 4 117286720.992 4      1378.246          29.000                                                                  
> 2020 05 09 22 03 30.0000000  0 17      -0.000000000000
G09  22311776.305 8 117249270.051 8      3022.031          49.000    22311777.242 8  91363044.547 8      2354.833          49.000  
G03  20655588.656 8 108545888.468 8     -1100.391          51.000    20655590.320 8  84581241.725 8      -857.448          51.000  
G04  20469805.219 8 107569576.304 8      1148.352          51.000    20469805.258 8  83820485.036 8       894.820          49.000  
G01  22481972.953 8 118143556.322 8     -3097.125          50.000    22481974.430 8  92059919.618 8     -2413.345          51.000  
G31  23514399.070 6 123568995.268 6     -1266.047          37.000    23514402.320 5  96287555.991 5      -986.536          35.000  
R08  19802722.812 6 106042342.047 6     -1531.152          38.000    19802725.438 5  82477331.272 5     -1190.896          31.000  
R23  19510700.609 8 104368721.804 8     -1714.492          51.000    19510705.266 7  81175680.153 7     -1333.494          42.000  
R22  23511094.000 6 125503454.983 6     -4550.312          37.000    23511096.109 5  97613790.493 5     -3539.133          30.000  
R01  19961956.188 5 106707742.839 5      1398.277          35.000    19961957.930 4  82994900.751 4      1087.549          26.000  
R07  22997740.328 5 123108328.093 5     -3446.598          30.000                                                                  
E07  26889310.688 5 141304280.203 5     -2552.273          35.000                                                                  
E26  25849905.602 6 135842167.624 6     -3040.656          38.000    25849908.117 6 104086843.391 6     -2329.669          37.000  
E33  23816163.617 8 125154779.825 8     -1299.906          51.000    23816164.320 8  95897831.329 8      -995.973          51.000  
E19  24684490.453 8 129717879.706 8      1517.590          49.000    24684491.945 8  99394236.528 8      1162.802          49.000  
C22  22352282.617 8 116394180.439 8     -1272.055          51.000                                                                  
C12  22449523.453 7 116900594.808 7     -1228.148          46.000    22449522.984 8  90394944.875 8      -949.619          51.000  
C19  25754794.055 4 134111970.322 4     -2722.211          28.000                                                                  
> 2020 05 09 22 04  0.0000000  0 17      -0.000000000000
G09  22294554.242 8 117158768.769 8      3011.422          48.000    22294554.711 8  91292524.116 8      2346.563          48.000  
G03  20661900.109 8 108579054.949 8     -1110.590          51.000    20661901.781 8  84607085.730 8      -865.395          51.000  
G04  20463300.047 8 107535391.357 8      1130.848          50.000    20463299.914 8  83793847.433 8       881.183          48.000  
G01  22499683.148 8 118236620.906 8     -3106.977          51.000    22499682.719 8  92132437.446 8     -2421.021          51.000  
G31  23521680.570 5 123607264.130 5     -1285.461          35.000    23521677.648 5  96317375.745 5     -1001.658          33.000  
R08  19811336.805 5 106088459.097 5     -1542.984          34.000    19811334.398 4  82513200.021 4     -1200.102          28.000  
R23  19520390.328 8 104420554.602 8     -1740.836          51.000    19520394.688 7  81215994.555 7     -1353.984          42.000  
R22  23536676.750 5 125640017.101 5     -4553.918          35.000    23536679.008 4  97720004.89524     -3541.940          28.000  
R01  19954145.719 5 106665982.248 5      1383.273          32.000                                                                  
R07  23017057.250 4 123211735.812 4     -3447.320          27.000                                                                  
E07  26903887.992 5 141380883.017 5     -2554.145          35.000                                                                  
E26  25867279.133 6 135933462.552 6     -3045.039          39.000    25867278.711 5 104156796.624 5     -2333.267          33.000  
E33  23823622.289 8 125193976.239 8     -1313.027          51.000    23823623.008 8  95927864.934 8     -1006.072          51.000  
E19  24675853.703 8 129672491.808 8      1508.562          49.000    24675854.969 8  99359458.823 8      1155.846          49.000  
C22  22359633.312 8 116432457.441 8     -1279.555          51.000                                                                  
C12  22456649.180 7 116937699.408 7     -1245.320          47.000    22456648.555 8  90423636.480 8      -962.837          51.000  
C21  22507864.391 4 117204361.07424      1363.746          28.000                                                                  
> 2020 05 09 22 04 30.0000000  0 18      -0.000000000000
G09  22277393.195 8 117068587.763 8      3002.613          48.000    22277394.102 8  91222253.203 8      2339.699          48.000  
G22  22274271.969 6 117052092.388 6     -2123.148          38.000                                                                  
G03  20668269.195 8 108612524.301 8     -1118.758          51.000    20668270.875 8  84633165.738 8      -871.760          51.000  
G04  20456895.406 8 107501736.139 8      1114.957          50.000    20456895.297 8  83767622.604 8       868.798          48.000  
G01  22517450.320 8 118329985.682 8     -3115.266          50.000    22517447.930 8  92205189.195 8     -2427.480          50.000  
G31  23529073.148 4 123646118.787 4     -1303.238          29.000    23529069.273 4  96347652.123 4     -1015.495          26.000  
R08  19820015.969 5 106134944.296 5     -1553.609          32.000    19820014.523 5  82549355.201 5     -1208.363          32.000  
R23  19530227.969 8 104473179.613 8     -1765.422          51.000    19530232.461 7  81256925.101 7     -1373.106          42.000  
R22  23562282.359 5 125776698.859 5     -4555.973          35.000    23562285.289 4  97826316.91524     -3543.538          27.000  
R01  19946428.875 5 106624685.133 5      1371.082          31.000                                                                  
E07  26918476.094 5 141457546.081 5     -2554.453          33.000                                                                  
E26  25884679.062 6 136024896.113 6     -3048.129          41.000    25884674.914 4 104226859.056 4     -2335.715          29.000  
E33  23831156.148 8 125233567.956 8     -1324.395          51.000    23831156.883 8  95958201.432 8     -1014.796          51.000  
E19  24667268.805 8 129627377.134 8      1501.184          48.000    24667270.094 8  99324890.452 8      1150.279          49.000  
C22  22367027.680 8 116470961.702 8     -1285.359          51.000                                                                  
C12  22463873.414 8 116975315.782 8     -1260.434          48.000    22463873.219 8  90452723.840 8      -974.705          51.000  
C19  25786167.906 4 134275343.146 4     -2722.121          28.000                                                                  
C21  22500036.648 5 117163578.280 5      1357.188          34.000                                                                  
> 2020 05 09 22 05  0.0000000  0 16      -0.000000000000
G09  22260290.633 8 116978713.131 8      2989.957          49.000    22260292.281 8  91152221.035 8      2329.837          49.000  
G22  22286424.531 6 117115945.378 6     -2132.254          41.000    22286415.477 5  91259138.020 5     -1661.485          32.000  
G17  22218200.195 5 116757437.515 5     -1078.961          34.000    22218194.031 5  90979803.468 5      -840.749          33.000  
G03  20674692.812 8 108646280.550 8     -1130.758          51.000    20674694.492 8  84659469.307 8      -881.110          51.000  
G04  20450588.977 8 107468595.525 8      1095.355          51.000    20450589.016 8  83741798.754 8       853.524          49.000  
G01  22535270.914 8 118423633.506 8     -3127.238          48.000    22535268.680 8  92278161.497 8     -2436.813          49.000  
R08  19828761.125 6 106181779.833 6     -1567.555          37.000    19828763.078 5  82585782.914 5     -1219.209          32.000  
R23  19540210.266 8 104526579.173 8     -1793.773          51.000    19540214.633 6  81298458.086 6     -1395.157          41.000  
R22  23587906.742 5 125913481.014 5     -4561.926          34.000                                                                  
E26  25902102.148 6 136116451.565 6     -3054.672          40.000                                                                  
E33  23838762.516 8 125273539.057 8     -1339.629          51.000    23838763.086 8  95988828.633 8     -1026.448          51.000  
E19  24658733.055 8 129582520.426 8      1490.039          49.000    24658734.266 8  99290519.726 8      1141.788          48.000  
C22  22374462.656 8 116509677.047 8     -1294.887          51.000                                                                  
C12  22471192.516 7 117013427.474 7     -1279.492          46.000    22471192.992 8  90482194.233 8      -989.385          51.000  
C19  25801862.422 4 134357064.646 4     -2724.070          29.000                                                                  
C21  22492250.461 5 117123031.469 5      1347.047          32.000                                                                  
> 2020 05 09 22 05 30.0000000  0 17      -0.000000000000
G09  22243248.539 8 116889154.364 8      2981.059          50.000    22243249.977 8  91082434.988 8      2322.906          50.000  
G22  22298612.250 6 117179988.880 6     -2136.941          38.000    22298606.820 5  91309042.041 5     -1665.147          34.000  
G17  22224405.531 6 116790054.402 6     -1095.352          36.000    22224403.531 5  91005219.081 5      -853.524          35.000  
G03  20681172.406 8 108680331.189 8     -1138.707          51.000    20681174.008 8  84686002.268 8      -887.301          51.000  
G04  20444382.203 8 107435977.723 8      1079.605          51.000    20444382.672 8  83716382.315 8       841.254          50.000  
G01  22553145.469 7 118517570.737 7     -3135.180          46.000    22553145.211 7  92351359.335 7     -2442.995          46.000  
R08  19837574.508 6 106228971.719 6     -1577.984          36.000    19837576.586 4  82622487.694 4     -1227.324          28.000  
R23  19550338.539 8 104580759.121 8     -1817.898          51.000    19550342.773 6  81340598.056 6     -1413.921          40.000  
R22  23613549.992 5 126050368.180 5     -4563.914          34.000                                                                  
R01  19931211.062 4 106543364.033 4      1341.184          29.000                                                                  
E26  25919549.766 6 136208135.481 6     -3057.262          40.000                                                                  
E33  23846442.477 8 125313896.970 8     -1350.707          51.000    23846443.039 8  96019752.239 8     -1034.970          51.000  
E19  24650248.367 8 129537929.582 8      1482.938          50.000    24650248.859 8  99256352.708 8      1136.271          48.000  
C22  22381939.500 8 116548610.500 8     -1300.348          51.000                                                                  
C12  22478607.094 7 117052041.196 7     -1294.410          45.000    22478608.484 8  90512052.842 8     -1001.002          51.000  
C19  25817553.898 4 134438778.12424     -2722.109          29.000                                                                  
C21  22484508.008 5 117082729.861 5      1340.461          33.000                                                                  
> 2020 05 09 22 06  0.0000000  0 16      -0.000000000000
G09  22226257.570 8 116799863.690 8      2971.191          50.000    22226258.023 8  91012857.864 8      2315.215          50.000  
G22  22310825.656 6 117244172.644 6     -2142.270          40.000    22310820.867 5  91359055.270 5     -1669.307          34.000  
G17  22230704.211 6 116823157.399 6     -1112.355          36.000    22230710.727 5  91031013.505 5      -866.765          35.000  
G03  20687698.555 8 108714626.425 8     -1147.848          51.000    20687699.844 8  84712725.835 8      -894.427          51.000  
G04  20438265.688 8 107403833.640 8      1062.988          51.000    20438266.320 8  83691334.994 8       828.303          51.000  
G01  22571065.164 7 118611746.348 7     -3143.715          45.000    22571067.422 7  92424742.997 7     -2449.649          45.000  
R08  19846445.016 5 106276467.547 5     -1588.887          31.000    19846443.438 4  82659428.879 4     -1235.798          29.000  
R23  19560603.219 8 104635667.739 8     -1843.027          51.000    19560607.297 6  81383304.743 6     -1433.466          40.000  
R22  23639201.406 5 126187307.052 5     -4565.590          32.000                                                                  
E26  25937012.078 6 136299897.238 6     -3060.691          38.000                                                                  
E33  23854186.469 8 125354591.993 8     -1362.711          51.000    23854186.797 8  96050934.143 8     -1044.156          51.000  
E19  24641804.914 8 129493555.172 8      1474.977          50.000    24641804.461 7  99222351.550 7      1130.156          47.000  
C22  22389448.633 8 116587712.377 8     -1306.785          51.000                                                                  
C12  22486108.844 7 117091107.039 7     -1310.398          47.000    22486109.875 8  90542261.037 8     -1013.241          50.000  
C19  25833238.539 5 134520452.807 5     -2722.586          31.000                                                                  
C21  22476805.898 6 117042624.495 6      1333.016          37.000                                                                  
> 2020 05 09 22 06 30.0000000  0 16      -0.000000000000
G09  22209319.992 8 116710855.747 8      2960.543          49.000    22209320.188 8  90943501.045 8      2306.917          49.000  
G22  22323068.828 6 117308509.299 6     -2148.191          41.000    22323065.219 6  91409187.732 6     -1673.916          38.000  
G03  20694273.703 8 108749178.922 8     -1157.570          51.000    20694274.750 8  84739649.861 8      -902.003          51.000  
G04  20432241.711 8 107372176.696 8      1045.465          51.000    20432242.508 8  83666667.238 8       814.648          51.000  
G01  22589033.453 8 118706171.987 8     -3153.328          48.000    22589037.336 8  92498321.432 8     -2457.140          48.000  
R08  19855373.336 6 106324278.880 6     -1600.633          36.000    19855372.633 5  82696615.494 5     -1244.937          31.000  
R23  19571006.742 8 104691315.928 8     -1868.934          51.000    19571010.195 6  81426586.669 6     -1453.615          40.000  
R22  23664864.141 5 126324307.183 5     -4569.398          31.000                                                                  
R01  19916293.422 5 106463631.488 5      1313.469          31.000                                                                  
E26  25954491.086 6 136391748.512 6     -3064.691          38.000    25954493.547 5 104507987.490 5     -2348.176          33.000  
E33  23861997.008 8 125395636.732 8     -1375.605          51.000    23861996.859 8  96082384.028 8     -1054.027          51.000  
E19  24633404.656 8 129449410.462 8      1466.004          49.000    24633403.516 7  99188526.404 7      1123.353          47.000  
C22  22396992.391 8 116626994.833 8     -1314.043          51.000                                                                  
C12  22493700.523 8 117130636.719 8     -1326.852          48.000    22493699.750 8  90572827.882 8     -1026.036          50.000  
C19  25848917.312 4 134602097.617 4     -2723.570          28.000                                                                  
C21  22469144.695 6 117002728.240 6      1324.672          36.000                                                                  
> 2020 05 09 22 07  0.0000000  0 15      -0.000000000000
G09  22192456.875 8 116622242.460 8      2940.461          48.000    22192457.750 8  90874451.725 8      2291.269          48.000  
G22  22335361.992 6 117373108.875 6     -2164.504          40.000    22335359.125 6  91459525.083 6     -1686.624          38.000  
G17  22243608.320 5 116890952.03025     -1156.816          34.000                                                                  
G03  20700918.664 8 108784098.576 8     -1176.805          51.000    20700919.867 8  84766859.995 8      -916.991          51.000  
G04  20426331.469 8 107341117.463 8      1018.633          51.000    20426332.414 8  83642465.252 8       793.740          51.000  
G01  22607070.633 8 118800956.320 8     -3172.109          49.000    22607075.281 8  92572179.362 8     -2471.774          49.000  
R08  19864381.734 5 106372516.060 5     -1621.855          32.000    19864382.172 5  82734133.304 5     -1261.443          31.000  
R23  19581569.023 8 104747814.514 8     -1904.270          51.000    19581572.453 6  81470530.024 6     -1481.099          41.000  
R01  19908973.461 5 106424473.967 5      1289.648          31.000                                                                  
E26  25972007.547 6 136483798.443 6     -3078.312          38.000    25972009.547 5 104578519.277 5     -2358.496          35.000  
E33  23869895.031 8 125437141.069 8     -1397.930          51.000    23869894.820 8  96114186.072 8     -1071.127          51.000  
E19  24625068.680 8 129405605.785 8      1447.777          49.000    24625067.477 8  99154961.797 8      1109.316          48.000  
C22  22404591.586 8 116666566.415 8     -1330.508          51.000                                                                  
C12  22501401.953 8 117170738.469 8     -1352.898          48.000    22501400.297 8  90603837.061 8     -1046.138          51.000  
C21  22461544.070 5 116963150.305 5      1307.527          35.000                                                                  
> 2020 05 09 22 07 30.0000000  0 16      -0.000000000000
G09  22175656.305 8 116533959.344 8      2940.762          48.000    22175658.008 8  90805659.647 8      2291.500          48.000  
G22  22347692.578 7 117437904.730 7     -2159.566          42.000    22347689.586 6  91510015.313 6     -1682.783          36.000  
G17  22250221.562 5 116925697.944 5     -1163.453          35.000    22250227.203 6  91110956.501 6      -906.590          36.000  
G03  20707620.789 8 108819318.879 8     -1175.504          51.000    20707622.266 8  84794304.388 8      -915.977          51.000  
G04  20420522.320 8 107310590.113 8      1012.270          51.000    20420522.938 8  83618677.704 8       788.782          51.000  
G01  22625163.344 8 118896031.661 8     -3170.582          49.000    22625167.930 8  92646264.041 8     -2470.584          49.000  
G31  23575689.859 5 123891070.72725     -1415.504          31.000                                                                  
R08  19873455.977 5 106421109.951 5     -1622.555          35.000    19873457.594 5  82771928.618 5     -1261.987          30.000  
R23  19592276.969 8 104805093.740 8     -1918.785          51.000    19592280.547 6  81515080.533 6     -1492.389          41.000  
R01  19901726.844 5 106385755.305 5      1287.590          30.000                                                                  
E26  25989549.039 6 136575979.648 6     -3071.578          39.000    25989551.156 6 104649151.666 6     -2353.482          36.000  
E33  23877867.719 8 125479038.435 8     -1399.656          51.000    23877867.898 8  96146289.253 8     -1072.482          51.000  
E19  24616784.930 8 129362075.172 8      1449.891          50.000    24616784.078 8  99121607.166 8      1111.001          49.000  
C22  22412233.539 8 116706360.853 8     -1326.789          51.000                                                                  
C12  22509200.508 8 117211345.637 8     -1358.516          50.000    22509198.828 8  90635237.103 8     -1050.497          51.000  
C21  22453993.633 6 116923825.461 6      1309.734          38.000                                                                  
> 2020 05 09 22 08  0.0000000  0 15      -0.000000000000
G09  22158879.867 8 116445799.840 8      2928.645          49.000    22158881.695 8  90736963.919 8      2282.061          49.000  
G22  22360020.906 6 117502688.658 6     -2166.863          40.000    22360017.406 5  91560496.316 5     -1688.462          35.000  
G17  22256897.078 5 116960773.520 5     -1182.762          33.000    22256900.617 5  91138288.230 5      -921.630          34.000  
G03  20714340.523 8 108854631.383 8     -1186.598          51.000    20714342.242 8  84821820.633 8      -924.622          51.000  
G04  20414774.586 8 107280386.897 8       993.477          51.000    20414775.078 8  83595142.734 8       774.138          51.000  
G01  22643271.492 8 118991188.327 8     -3181.059          49.000    22643275.672 8  92720412.085 8     -2478.748          49.000  
G31  23583815.016 5 123933773.573 5     -1436.051          33.000    23583813.406 5  96571773.163 5     -1118.989          32.000  
R08  19882557.305 5 106469846.378 5     -1635.297          34.000    19882559.078 5  82809834.738 5     -1271.895          30.000  
R23  19603090.516 8 104862940.022 8     -1945.715          51.000    19603094.227 6  81560072.104 6     -1513.334          41.000  
E26  26007075.805 6 136668082.684 6     -3076.887          40.000    26007078.633 6 104719724.132 6     -2357.496          37.000  
E33  23885875.430 8 125521120.364 8     -1413.918          51.000    23885876.125 8  96178533.844 8     -1083.368          51.000  
E19  24608513.812 8 129318610.528 8      1439.645          50.000    24608513.734 8  99088303.106 8      1103.102          50.000  
C22  22419878.531 8 116746171.262 8     -1335.141          51.000                                                                  
C12  22517056.539 8 117252250.863 8     -1376.348          50.000    22517054.977 8  90666867.639 8     -1064.349          51.000  
C21  22446451.867 5 116884547.424 5      1300.707          35.000                                                                  
> 2020 05 09 22 08 30.0000000  0 16      -0.000000000000
G09  22142191.234 8 116358099.311 8      2918.551          50.000    22142192.289 8  90668625.874 8      2274.196          50.000  
G22  22372410.375 6 117567793.986 6     -2173.172          38.000    22372405.305 6  91611227.756 6     -1693.381          36.000  
G17  22263697.148 5 116996510.358 5     -1199.859          34.000                                                                  
G03  20721141.266 8 108890369.475 8     -1195.641          51.000    20721143.109 8  84849668.510 8      -931.668          51.000  
G04  20409152.141 8 107250841.830 8       976.625          51.000    20409152.820 8  83572120.599 8       761.010          51.000  
G01  22661458.219 8 119086758.565 8     -3189.750          49.000    22661461.641 8  92794882.384 8     -2485.520          50.000  
G31  23592066.492 5 123977132.183 5     -1453.906          34.000    23592067.211 5  96605559.111 5     -1132.908          34.000  
R08  19891747.945 5 106519063.457 5     -1645.129          30.000    19891750.070 5  82848114.701 5     -1279.542          31.000  
R23  19614072.289 8 104921690.762 8     -1970.566          50.000    19614077.203 7  81605767.116 7     -1532.663          42.000  
E07  27035431.828 5 142072160.119 5     -2566.125          35.000                                                                  
E26  26024650.805 6 136760440.084 6     -3079.891          40.000    26024654.258 6 104790491.490 6     -2359.924          37.000  
E33  23893981.898 8 125563720.166 8     -1425.875          51.000    23893982.664 8  96211175.248 8     -1092.497          51.000  
E19  24600318.547 8 129275545.674 8      1431.699          50.000    24600319.336 8  99055305.386 8      1096.966          49.000  
C22  22427590.094 8 116786327.623 8     -1341.590          51.000                                                                  
C12  22525033.188 8 117293783.703 8     -1392.270          51.000    22525031.477 8  90698983.444 8     -1076.416          51.000  
C21  22438979.906 4 116845646.969 4      1293.660          29.000                                                                  
> 2020 05 09 22 09  0.0000000  0 13      -0.000000000000
G09  22125584.320 8 116270826.643 8      2901.145          50.000    22125584.445 8  90600621.236 8      2260.636          50.000  
G17  22270616.297 5 117032874.885 5     -1223.531          33.000                                                                  
G03  20728016.648 8 108926500.023 8     -1211.664          51.000    20728018.523 8  84877822.195 8      -944.154          51.000  
G04  20403648.758 8 107221922.384 8       952.879          51.000    20403649.523 8  83549585.976 8       742.503          51.000  
G01  22679717.039 8 119182708.035 8     -3205.176          48.000    22679719.555 8  92869648.183 8     -2497.540          48.000  
R08  19901020.945 5 106568726.415 5     -1663.594          35.000    19901026.281 5  82886741.497 5     -1293.906          31.000  
R23  19625216.445 8 104981310.645 8     -2002.469          49.000    19625222.500 7  81652138.140 7     -1557.476          42.000  
E26  26042267.344 6 136853017.874 6     -3090.258          38.000    26042271.500 5 104861427.771 5     -2367.598          35.000  
E33  23902180.547 8 125606804.649 8     -1444.926          51.000    23902181.539 8  96244188.036 8     -1107.176          51.000  
E19  24592193.023 8 129232848.082 8      1416.449          49.000    24592194.500 8  99022589.059 8      1085.338          49.000  
C22  22435361.820 8 116826796.720 8     -1354.871          51.000                                                                  
C12  22533123.688 8 117335910.576 8     -1414.840          51.000    22533121.461 8  90731558.595 8     -1094.017          51.000  
C21  22431571.102 5 116807095.706 5      1279.164          33.000                                                                  
> 2020 05 09 22 09 30.0000000  0 17      -0.000000000000
G09  22108990.391 8 116183622.636 8      2900.938          51.000    22108990.383 8  90532670.104 8      2260.475          51.000  
G22  22397307.141 5 117698633.67125     -2181.176          33.000                                                                  
G17  22277589.102 6 117069545.52126     -1230.219          37.000                                                                  
G03  20734898.062 8 108962661.957 8     -1210.656          51.000    20734899.938 8  84906000.323 8      -943.369          51.000  
G04  20398196.125 8 107193268.087 8       945.941          51.000    20398196.586 8  83527257.954 8       737.100          51.000  
G01  22697978.805 8 119278674.433 8     -3203.949          48.000    22697980.938 8  92944427.167 8     -2496.584          48.000  
G31  23608877.562 5 124065485.79525     -1487.715          31.000                                                                  
R08  19910310.484 5 106618465.500 5     -1664.027          32.000    19910313.734 4  82925455.395 4     -1294.244          27.000  
R23  19636454.586 8 105041430.452 8     -2017.160          50.000    19636461.750 7  81698897.952 7     -1568.906          42.000  
R07  23229624.125 4 124349586.568 4     -3444.754          28.000                                                                  
E07  27064738.695 5 142226162.428 5     -2564.656          33.000                                                                  
E26  26059856.742 6 136945454.071 6     -3083.676          37.000    26059861.883 6 104932255.549 6     -2362.779          36.000  
E33  23910402.602 8 125650012.615 8     -1447.062          51.000    23910404.031 8  96277295.419 8     -1108.780          51.000  
E19  24584068.945 8 129190157.010 8      1418.164          50.000    24584070.781 8  98989877.738 8      1086.664          50.000  
C22  22443124.914 8 116867220.423 8     -1351.461          51.000                                                                  
C12  22541258.789 8 117378272.784 8     -1420.676          50.000    22541256.016 8  90764315.720 8     -1098.515          51.000  
C21  22424164.477 6 116768528.091 6      1281.043          38.000                                                                  
> 2020 05 09 22 10  0.0000000  0 16      -0.000000000000
G09  22092485.555 8 116096887.735 8      2886.375          49.000    22092485.672 8  90465084.510 8      2249.127          49.000  
G17  22284680.539 5 117106837.421 5     -1249.969          34.000                                                                  
G03  20741861.273 8 108999253.718 8     -1223.945          51.000    20741863.148 8  84934513.382 8      -953.724          51.000  
G04  20392869.742 8 107165277.970 8       924.980          51.000    20392870.445 8  83505447.499 8       720.767          51.000  
G01  22716318.930 7 119375054.978 7     -3216.363          46.000    22716321.289 7  93019528.878 7     -2506.258          46.000  
G31  23617449.508 6 124110541.671 6     -1509.723          36.000    23617449.969 5  96709501.724 5     -1176.414          35.000  
R08  19919689.648 4 106668684.777 4     -1679.051          29.000    19919690.789 4  82964510.832 4     -1305.923          27.000  
R23  19647862.820 8 105102453.779 8     -2046.016          51.000    19647869.344 6  81746360.531 6     -1591.346          41.000  
R01  19866623.094 5 106198100.12225      1215.504          30.000                                                                  
R07  23248952.328 5 124453054.878 5     -3448.461          31.000                                                                  
E26  26077495.555 5 137038146.090 5     -3090.949          35.000    26077501.258 6 105003279.337 6     -2368.382          36.000  
E33  23918724.016 8 125693742.385 8     -1463.320          51.000    23918725.656 8  96310802.647 8     -1121.249          51.000  
E19  24576022.266 8 129147871.461 8      1405.770          50.000    24576024.352 8  98957477.147 8      1077.182          50.000  
C22  22450954.992 8 116907993.196 8     -1361.910          51.000                                                                  
C12  22549514.250 8 117421264.416 8     -1440.492          50.000    22549511.773 8  90797559.581 8     -1113.871          51.000  
C21  22416832.961 6 116730343.396 6      1269.293          38.000                                                                  
> 2020 05 09 22 10 30.0000000  0 18      -0.000000000000
G09  22076054.164 8 116010539.594 8      2884.766          50.000    22076054.195 8  90397800.272 8      2247.870          50.000  
G22  22422312.555 5 117830065.203 5     -2187.754          35.000    22422306.273 5  91815601.363 5     -1704.744          33.000  
G17  22291885.820 5 117144706.351 5     -1259.160          33.000    22291885.820 5  91281546.335 5      -981.176          32.000  
G03  20748890.234 8 109036191.011 8     -1223.965          51.000    20748892.047 8  84963295.692 8      -953.739          51.000  
G04  20387653.961 8 107137868.328 8       916.926          51.000    20387654.992 8  83484089.366 8       714.491          50.000  
G01  22734721.266 7 119471764.168 7     -3215.848          45.000    22734723.977 7  93094886.671 7     -2505.856          45.000  
G31  23626138.414 6 124156195.059 6     -1519.195          38.000    23626137.781 6  96745075.790 6     -1183.792          37.000  
G19  22160180.984 5 116452496.61125      -199.527          33.000                                                                  
R08  19929141.500 5 106719297.556 5     -1680.270          33.000    19929144.477 4  83003876.394 4     -1306.877          26.000  
R23  19659423.594 8 105164293.096 8     -2061.594          51.000    19659429.086 6  81794457.798 6     -1603.462          41.000  
R07  23268291.867 5 124556583.802 5     -3438.293          30.000                                                                  
R09  22865908.727 5 122102282.221 5      1314.594          32.000    22865911.117 6  94968461.643 6      1022.465          39.000  
E26  26095167.656 5 137131029.914 5     -3085.355          34.000    26095172.625 5 105074433.953 5     -2364.174          35.000  
E33  23927128.711 8 125737909.635 8     -1466.516          51.000    23927130.312 8  96344645.081 8     -1123.602          51.000  
E19  24568036.977 8 129105907.283 8      1406.504          51.000    24568038.984 8  98925322.796 8      1077.735          51.000  
C22  22458835.914 8 116949031.181 8     -1359.457          51.000                                                                  
C12  22557874.422 8 117464801.007 8     -1447.402          49.000    22557872.930 8  90831224.841 8     -1119.190          51.000  
C21  22409559.000 6 116692458.424 6      1270.707          38.000                                                                  
> 2020 05 09 22 11  0.0000000  0 17      -0.000000000000
G09  22059653.445 8 115924355.354 8      2850.520          48.000    22059654.266 8  90330643.740 8      2221.185          48.000  
G22  22434853.828 6 117895969.703 6     -2216.113          36.000                                                                  
G17  22299159.086 6 117182926.209 6     -1299.570          36.000    22299153.062 5  91311328.108 5     -1012.653          32.000  
G03  20755942.094 8 109073249.074 8     -1256.695          51.000    20755943.969 8  84992172.103 8      -979.243          51.000  
G04  20382505.812 8 107110814.923 8       876.559          50.000    20382506.672 8  83463008.793 8       683.033          50.000  
G01  22753143.484 7 119568575.978 7     -3248.117          45.000    22753146.125 7  93170324.430 7     -2531.001          45.000  
G31  23634901.078 6 124202240.762 6     -1560.801          39.000    23634900.062 6  96780955.577 6     -1216.206          38.000  
R08  19938624.312 6 106770073.170 6     -1714.590          36.000    19938619.367 4  83043348.37624     -1333.573          24.000  
R23  19671093.562 8 105226717.787 8     -2110.285          51.000    19671098.289 6  81843010.331 6     -1641.336          41.000  
R07  23287599.703 5 124659943.507 5     -3462.547          32.000                                                                  
R09  22858631.461 5 122063401.581 5      1267.785          33.000    22858630.539 6  94938221.140 6       986.055          36.000  
E26                                                                  26112833.297 5 105145558.447 5     -2384.646          31.000  
E33  23935573.945 8 125782289.407 8     -1502.250          51.000    23935575.352 8  96378650.375 8     -1151.036          51.000  
E19  24560070.266 8 129064040.500 8      1374.535          51.000    24560071.727 8  98893243.079 8      1053.267          50.000  
C22  22466724.906 8 116990111.282 8     -1389.238          51.000                                                                  
C12  22566296.664 8 117508659.020 8     -1486.523          49.000    22566296.227 8  90865138.640 8     -1149.396          51.000  
C21  22402300.000 5 116654651.026 5      1239.461          34.000                                                                  
> 2020 05 09 22 11 30.0000000  0 16      -0.000000000000
G09  22043344.570 7 115838656.680 7      2855.516          46.000    22043347.000 7  90263865.532 7      2225.078          45.000  
G22  22447459.219 6 117962210.788 6     -2206.406          39.000    22447453.242 5  91918567.914 5     -1719.278          31.000  
G17  22306560.117 6 117221815.401 6     -1300.535          38.000    22306552.797 5  91341631.390 5     -1013.413          31.000  
G03  20763077.719 8 109110747.617 8     -1250.238          51.000    20763079.609 8  85021391.733 8      -974.212          51.000  
G04  20377486.352 8 107084437.999 8       875.055          50.000    20377487.305 8  83442455.360 8       681.864          50.000  
G01  22771645.898 7 119665808.978 7     -3241.094          43.000    22771648.805 7  93246090.352 7     -2525.531          43.000  
G31  23643798.430 6 124248997.353 6     -1563.293          38.000    23643797.352 6  96817389.332 6     -1218.148          39.000  
R08  19948198.172 6 106821335.562 6     -1709.508          36.000    19948198.367 5  83083219.166 5     -1329.614          31.000  
R23  19682933.562 8 105290051.191 8     -2119.051          51.000    19682938.000 7  81892269.627 7     -1648.151          42.000  
R01  19846525.906 5 106090657.316 5      1175.102          32.000                                                                  
R07  23306937.625 5 124763458.824 5     -3446.285          30.000                                                                  
R09  22851506.766 5 122025361.738 5      1260.855          33.000    22851506.859 6  94908634.682 6       980.666          36.000  
E33  23944120.461 8 125827201.293 8     -1498.801          51.000    23944121.883 8  96413063.385 8     -1148.423          51.000  
E19  24552182.852 8 129022591.100 8      1381.723          51.000    24552183.336 8  98861483.174 8      1058.717          49.000  
C22  22474682.789 8 117031549.960 8     -1380.266          51.000                                                                  
C12  22574841.531 8 117553154.309 8     -1486.707          49.000    22574841.789 8  90899545.216 8     -1149.680          51.000  
> 2020 05 09 22 12  0.0000000  0 17      -0.000000000000
G09  22027079.453 8 115753183.895 8      2841.996          49.000    22027082.633 8  90197263.370 8      2214.543          49.000  
G22  22460078.891 6 118028526.785 6     -2215.008          39.000                                                                  
G17  22314038.352 6 117261111.432 6     -1319.910          37.000    22314032.523 5  91372251.699 5     -1028.499          35.000  
G03  20770247.461 8 109148425.118 8     -1262.219          51.000    20770249.141 8  85050750.814 8      -983.547          51.000  
G04  20372546.008 8 107058476.633 8       854.965          49.000    20372547.438 8  83422225.736 8       666.207          49.000  
G01  22790178.633 7 119763200.258 7     -3252.500          43.000    22790182.250 7  93321979.681 7     -2534.416          43.000  
G31  23652781.516 6 124296202.136 6     -1584.398          36.000    23652779.711 5  96854172.340 5     -1234.597          35.000  
R08  19957811.445 6 106872817.011 6     -1722.992          38.000    19957812.844 5  83123260.277 5     -1340.108          30.000  
R23  19694892.555 8 105354025.394 8     -2146.613          51.000    19694897.453 6  81942027.320 6     -1669.588          41.000  
R01  19839975.984 5 106055643.622 5      1158.184          31.000                                                                  
R07  23326254.727 4 124866862.546 4     -3448.219          29.000                                                                  
R09  22844491.625 6 121987899.954 6      1235.496          36.000    22844491.500 5  94879497.719 5       960.939          34.000  
E26  26148246.445 5 137409970.615 5     -3105.598          33.000                                                                  
E33  23952718.461 8 125872383.657 8     -1513.961          51.000    23952719.742 8  96447683.644 8     -1160.058          51.000  
E19  24544325.039 8 128981297.950 8      1370.391          50.000    24544324.594 8  98829842.990 8      1050.034          48.000  
C22  22482659.672 8 117073087.727 8     -1389.594          51.000                                                                  
C12  22583458.859 8 117598026.914 8     -1505.434          50.000    22583459.555 8  90934243.545 8     -1164.064          51.000  
> 2020 05 09 22 12 30.0000000  0 18      -0.000000000000
G09  22010883.039 8 115668069.622 8      2835.094          50.000    22010885.984 8  90130940.607 8      2209.168          50.000  
G22  22472737.773 7 118095048.383 7     -2216.984          42.000    22472732.914 4  92022084.376 4     -1727.521          26.000  
G17  22321618.906 5 117300943.423 5     -1332.672          35.000    22321615.273 5  91403289.594 5     -1038.443          35.000  
G03  20777476.164 8 109186412.314 8     -1267.371          51.000    20777477.516 8  85080351.231 8      -987.562          51.000  
G04  20367709.578 8 107033061.970 8       842.082          50.000    20367710.891 8  83402422.102 8       656.168          49.000  
G01  22808766.148 7 119860879.451 7     -3256.691          44.000    22808770.688 7  93398093.342 7     -2537.682          43.000  
G31  23661874.688 6 124343985.044 6     -1598.172          36.000    23661872.414 6  96891405.781 6     -1245.329          36.000  
