     3.04           OBSERVATION DATA    M (MIXED)           RINEX VERSION / TYPE
Convert 2.6.2       NovAtel             20200515 161251 UTC PGM / RUN BY / DATE 
Rinex Version 3.04 Observation File                         COMMENT             
                                                            MARKER NAME         
                                                            MARKER NUMBER       
                                                            MARKER TYPE         
                                                            OBSERVER / AGENCY   
                    NovAtel GPSCard                         REC # / TYPE / VERS 
                                                            ANT # / TYPE        
        0.0000        0.0000        0.0000                  APPROX POSITION XYZ 
        0.0000        0.0000        0.0000                  ANTENNA: DELTA H/E/N
G    8 C1C L1C D1C S1C C2W L2W D2W S2W                      SYS / # / OBS TYPES 
R    8 C1C L1C D1C S1C C2P L2P D2P S2P                      SYS / # / OBS TYPES 
E    8 C1C L1C D1C S1C C7Q L7Q D7Q S7Q                      SYS / # / OBS TYPES 
C    8 C7I L7I D7I S7I C2I L2I D2I S2I                      SYS / # / OBS TYPES 
DBHZ                                                        SIGNAL STRENGTH UNIT
    30.000                                                  INTERVAL            
  2020    05    13    18    00    0.0000000     GPS         TIME OF FIRST OBS   
  2020    05    13    18    59   30.0000000     GPS         TIME OF LAST OBS    
G L1C  0.00000  09 G32 G08 G22 G14 G27 G10 G11 G03 G01      SYS / PHASE SHIFT   
G L2W  0.00000  09 G32 G08 G22 G14 G27 G11 G10 G03 G01      SYS / PHASE SHIFT   
R L1C  0.00000  05 R03 R17 R02 R18 R04                      SYS / PHASE SHIFT   
R L2P  0.25000  05 R03 R17 R02 R18 R04                      SYS / PHASE SHIFT   
E L1C  0.50000  04 E15 E08 E27 E03                          SYS / PHASE SHIFT   
E L7Q -0.25000  04 E15 E08 E27 E03                          SYS / PHASE SHIFT   
C L7I  0.00000  03 C05 C11 C14                              SYS / PHASE SHIFT   
C L2I  0.00000  04 C11 C21 C14 C28                          SYS / PHASE SHIFT   
  5 R03  5 R17  4 R02 -4 R18 -3 R04  6                      GLONASS SLOT / FRQ #
 C1C  -71.950 C2C  -71.950 C2P  -71.950                     GLONASS COD/PHS/BIS 
     0     0     0     0GPS                                 LEAP SECONDS        
                                                            END OF HEADER       
> 2020 05 13 18 00  0.0000000  0 16      -0.000000000000
G32  22256196.547 5 116957146.784 5      1265.520          33.000    22256201.914 5  91135460.364 5       986.122          32.000  
G08  20434164.133 8 107382256.637 8      -807.840          51.000    20434166.422 8  83674482.548 8      -629.486          51.000  
G22  22148668.844 8 116392043.853 8      2582.363          51.000    22148664.148 7  90695053.287 7      2012.235          44.000  
G14  23003548.688 7 120884502.760 7      2368.191          47.000    23003550.914 7  94195734.403 7      1845.344          42.000  
G27  21892317.859 8 115044894.013 8     -2788.984          51.000    21892319.602 8  89645364.492 8     -2173.238          51.000  
R03  20870157.719 8 111719253.836 8      3531.523          49.000    20870158.609 7  86892737.872 7      2746.741          43.000  
R17  19653171.391 8 105167721.719 8      -994.648          50.000    19653173.305 8  81797130.328 8      -773.616          48.000  
R02  19499242.672 8 104051395.735 8      -386.359          51.000    19499245.461 8  80928876.588 8      -300.502          48.000  
E15  23271387.438 8 122291938.670 8      -485.281          51.000    23271390.117 8  93704239.581 8      -371.857          51.000  
E08  24120188.289 8 126752411.716 8      2940.375          49.000    24120189.352 7  97122002.821 7      2253.064          47.000  
E27  27398434.070 7 143979735.613 7     -2860.477          43.000    27398438.641 7 110322151.173 7     -2191.786          42.000  
E03  24518433.625 8 128845328.914 8       790.242          48.000    24518436.469 8  98725663.343 8       605.538          50.000  
C05  39648649.594 6 159648681.304 6       -20.214          36.000                                                                  
C11  22837925.188 8  91958837.347 8     -1432.604          48.000    22837925.586 7 118923111.405 7     -1852.672          47.000  
C21                                                                  25120932.891 5 130811304.319 5     -2844.637          33.000  
C14  21858588.273 8  88015533.818 8      1004.826          51.000    21858590.195 8 113823412.205 8      1299.602          51.000  
> 2020 05 13 18 00 30.0000000  0 17      -0.000000000000
G08  20438822.367 8 107406736.211 8      -823.680          51.000    20438825.070 8  83693557.511 8      -641.829          51.000  
G22  22133955.328 8 116314724.050 8      2572.816          50.000    22133951.148 7  90634804.138 7      2004.793          45.000  
G14  22990056.688 7 120813602.763 7      2358.750          47.000    22990058.930 6  94140487.677 6      1837.988          40.000  
G10  22723299.891 5 119411754.096 5     -2823.707          32.000                                                                  
G27  21908269.961 8 115128720.982 8     -2799.078          51.000    21908271.617 8  89710684.170 8     -2181.101          51.000  
G11  20229751.070 5 106308063.005 5      1410.422          33.000    20229749.977 5  82837443.423 5      1099.030          33.000  
R03  20850409.336 8 111613537.403 8      3516.762          50.000    20850409.891 7  86810514.027 7      2735.260          44.000  
R17  19658786.859 8 105197773.991 8     -1008.285          50.000    19658789.312 8  81820504.299 8      -784.222          49.000  
R02  19501486.477 8 104063368.896 8      -411.430          51.000    19501489.195 8  80938189.050 8      -320.001          48.000  
E15  23274172.625 8 122306575.063 8      -489.949          51.000    23274175.359 8  93715454.475 8      -375.365          51.000  
E08  24103414.117 8 126664257.426 8      2937.047          49.000    24103414.562 8  97054456.061 8      2250.511          48.000  
E27  27414767.406 7 144065560.690 7     -2860.625          42.000    27414771.953 7 110387913.182 7     -2191.798          43.000  
E03  24513958.203 7 128821813.051 7       778.105          47.000    24513961.344 8  98707644.675 8       596.142          50.000  
C05  39648797.805 6 159649278.324 6       -19.178          36.000                                                                  
C11  22848624.922 8  92001918.897 8     -1439.113          50.000    22848624.859 7 118978825.406 7     -1861.098          47.000  
C21                                                                  25137338.242 5 130896732.076 5     -2849.988          35.000  
C14  21851142.344 8  87985552.709 8       994.357          51.000    21851144.266 8 113784640.042 8      1285.801          50.000  
> 2020 05 13 18 01  0.0000000  0 18      -0.000000000000
G32  22241954.766 5 116882259.090 5      1229.535          35.000    22241960.000 5  91077098.871 5       958.080          35.000  
G08  20443585.641 8 107431768.349 8      -842.352          50.000    20443588.531 8  83713063.087 8      -656.378          50.000  
G22  22119310.781 7 116237771.243 7      2560.312          44.000    22119308.352 7  90574840.940 7      1995.049          44.000  
G14  22976634.133 7 120743066.480 7      2346.504          47.000    22976636.406 6  94085524.375 6      1828.445          41.000  
G10  22739453.258 5 119496611.13625     -2832.637          34.000                                                                  
G27  21924294.305 8 115212928.953 8     -2811.887          50.000    21924296.203 8  89776300.723 8     -2191.084          50.000  
G11  20221752.680 5 106266029.154 5      1395.215          33.000    20221757.492 5  82804715.787 5      1087.184          32.000  
R03  20830759.148 8 111508345.957 8      3498.984          51.000    20830759.234 7  86728698.523 7      2721.436          44.000  
R17  19664495.234 8 105228321.181 8     -1025.145          51.000    19664498.227 8  81844263.196 8      -797.335          49.000  
R02  19503886.578 8 104076176.029 8      -439.422          51.000    19503889.289 8  80948150.150 8      -341.773          49.000  
E15  23277000.508 8 122321436.098 8      -497.766          51.000    23277003.312 8  93726841.492 8      -381.384          51.000  
E08  24086675.438 8 126576293.126 8      2930.227          48.000    24086675.727 8  96987054.877 8      2245.252          48.000  
E27  27431116.844 7 144151472.255 7     -2863.855          42.000    27431121.820 7 110453741.444 7     -2194.342          45.000  
E03  24509569.750 8 128798753.119 8       762.398          48.000    24509573.398 8  98689975.365 8       584.191          50.000  
C05  39648953.148 6 159649903.753 6       -20.362          36.000                                                                  
C11  22859388.828 8  92045258.644 8     -1447.972          50.000    22859388.422 8 119034873.281 8     -1872.438          48.000  
C21                                                                  25153790.688 6 130982401.543 6     -2858.652          36.000  
C14  21843790.867 8  87955951.342 8       981.398          51.000    21843792.477 8 113746358.959 8      1269.172          49.000  
> 2020 05 13 18 01 30.0000000  0 18      -0.000000000000
G32  22234983.969 6 116845615.335 6      1213.406          38.000    22234984.492 6  91048545.176 6       945.506          39.000  
G08  20448442.781 8 107457293.604 8      -858.930          50.000    20448445.680 8  83732952.894 8      -669.296          49.000  
G22  22104725.312 7 116161126.997 7      2549.887          46.000    22104723.734 7  90515118.099 7      1986.925          45.000  
G14  22963270.273 7 120672837.342 7      2336.020          47.000    22963272.297 6  94030800.425 6      1820.279          41.000  
G10  22755647.125 5 119581705.327 5     -2840.035          32.000                                                                  
G27  21940379.438 8 115297457.099 8     -2822.754          50.000    21940381.344 8  89842166.773 8     -2199.549          50.000  
G11  20213827.523 5 106224381.174 5      1383.000          34.000    20213830.797 5  82772262.807 5      1077.663          33.000  
R03  20811196.312 8 111403622.471 8      3483.129          50.000    20811196.539 7  86647247.010 7      2709.104          46.000  
R17  19670284.992 8 105259303.635 8     -1039.934          51.000    19670287.820 8  81868360.658 8      -808.837          48.000  
R02  19506431.391 8 104089755.892 8      -465.359          51.000    19506434.125 8  80958712.267 8      -361.946          48.000  
E15  23279859.992 8 122336462.805 8      -503.496          51.000    23279862.898 8  93738355.449 8      -385.844          51.000  
E08  24069961.359 8 126488461.245 8      2925.598          48.000    24069961.812 8  96919755.143 8      2241.771          49.000  
E27  27447470.602 6 144237408.913 6     -2864.809          40.000    27447476.508 7 110519588.977 7     -2195.186          45.000  
E03  24505257.273 8 128776090.291 8       748.871          50.000    24505261.250 8  98672610.350 8       573.721          51.000  
C05  39649104.219 6 159650511.126 6       -19.963          37.000                                                                  
C11  22870205.445 8  92088810.991 8     -1455.231          51.000    22870204.930 8 119091196.097 8     -1881.863          49.000  
C21                                                                  25170278.117 6 131068251.924 6     -2864.500          37.000  
C14  21836522.594 8  87926684.698 8       970.038          51.000    21836523.633 8 113708510.746 8      1254.641          49.000  
> 2020 05 13 18 02  0.0000000  0 17      -0.000000000000
G32  22228110.000 6 116809491.916 6      1195.977          38.000    22228109.609 6  91020396.979 6       931.930          36.000  
G08  20453398.109 8 107483333.121 8      -876.047          51.000    20453400.914 8  83753243.430 8      -682.634          51.000  
G22  22090204.125 8 116084814.242 8      2538.684          50.000    22090201.570 7  90455653.670 7      1978.199          44.000  
G14  22949969.367 7 120602939.512 7      2324.832          47.000    22949970.508 6  93976334.634 6      1811.561          41.000  
G27  21956529.516 8 115382325.291 8     -2834.055          51.000    21956531.133 8  89908297.817 8     -2208.355          51.000  
G11  20205979.672 5 106183142.067 5      1368.746          33.000    20205981.211 5  82740128.551 5      1066.571          33.000  
R03  20791725.180 8 111299392.362 8      3466.613          49.000    20791726.188 7  86566179.192 7      2696.255          47.000  
R17  19676160.344 8 105290743.763 8     -1055.133          51.000    19676163.156 7  81892814.072 7      -820.662          47.000  
R02  19509124.805 8 104104129.202 8      -491.805          51.000    19509127.688 8  80969891.515 8      -382.515          48.000  
E15  23282755.242 8 122351677.002 8      -509.785          51.000    23282758.102 8  93750013.069 8      -390.621          51.000  
E08  24053276.266 7 126400785.064 7      2920.348          47.000    24053276.969 7  96852574.719 7      2237.682          47.000  
E27  27463831.984 6 144323390.012 6     -2866.160          37.000    27463839.258 7 110585470.559 7     -2196.240          43.000  
E03  24501024.734 8 128753846.598 8       734.980          50.000    24501028.617 8  98655566.496 8       563.080          50.000  
C05  39649255.055 6 159651118.857 6       -19.818          36.000                                                                  
C11  22881078.797 8  92132592.174 8     -1462.779          51.000    22881078.188 8 119147814.834 8     -1891.629          49.000  
C21                                                                  25186804.234 6 131154302.530 6     -2871.535          36.000  
C14  21829341.648 8  87897769.763 8       958.349          51.000    21829342.320 8 113671117.392 8      1239.383          49.000  
> 2020 05 13 18 02 30.0000000  0 17      -0.000000000000
G32  22221334.453 6 116773891.157 6      1177.516          38.000    22221339.016 6  90992656.188 6       917.551          38.000  
G08  20458451.570 8 107509887.515 8      -893.914          51.000    20458454.258 8  83773935.164 8      -696.557          51.000  
G22  22075746.594 8 116008834.632 8      2526.809          51.000    22075742.648 7  90396448.850 7      1968.945          45.000  
G14  22936731.992 7 120533375.639 7      2312.930          46.000    22936731.906 6  93922129.064 6      1802.286          40.000  
G27  21972744.258 8 115467532.596 8     -2846.246          51.000    21972745.633 8  89974693.088 8     -2217.855          51.000  
G11  20198209.812 5 106142309.118 5      1354.301          32.000                                                                  
R03  20772346.164 7 111195659.681 7      3449.117          47.000    20772348.445 8  86485498.220 8      2682.647          48.000  
R17  19682121.523 8 105322642.662 8     -1071.199          51.000    19682124.289 7  81917624.307 7      -833.155          46.000  
R02  19511966.859 8 104119294.821 8      -518.961          51.000    19511969.797 8  80981686.996 8      -403.636          48.000  
E15  23285686.344 8 122367079.660 8      -516.820          51.000    23285689.125 8  93761815.099 8      -396.029          51.000  
E08  24036621.414 8 126313266.925 8      2914.363          49.000    24036621.688 7  96785515.400 7      2233.091          46.000  
E27  27480200.648 5 144409414.170 5     -2868.398          35.000    27480209.844 6 110651385.121 6     -2197.946          41.000  
E03  24496872.297 8 128732023.123 8       720.207          51.000    24496875.734 8  98638844.622 8       551.820          50.000  
C05  39649405.844 6 159651726.518 6       -20.543          36.000                                                                  
C11  22892009.000 8  92176602.442 8     -1471.031          51.000    22892008.227 8 119204729.839 8     -1902.289          49.000  
C21                                                                  25203368.367 6 131240551.887 6     -2878.809          36.000  
C14  21822248.219 8  87869207.373 8       946.003          51.000    21822248.570 8 113634179.927 8      1223.496          48.000  
> 2020 05 13 18 03  0.0000000  0 17      -0.000000000000
G32  22214660.648 6 116738822.971 6      1160.801          37.000    22214666.281 6  90965330.305 6       904.523          36.000  
G08  20463604.297 8 107536964.760 8      -911.090          51.000    20463606.578 8  83795034.297 8      -709.940          51.000  
G22  22061353.953 8 115933196.982 8      2515.711          51.000    22061349.227 7  90337510.487 7      1960.295          45.000  
G14  22923559.914 7 120464156.881 7      2301.766          45.000    22923559.188 6  93868192.438 6      1793.584          39.000  
G27  21989024.781 8 115553085.587 8     -2857.445          51.000    21989026.117 8  90041357.725 8     -2226.582          51.000  
G11  20190520.172 5 106101900.584 5      1340.254          33.000                                                                  
R03  20753062.422 8 111092436.272 8      3432.473          48.000    20753066.039 8  86405213.310 8      2669.701          48.000  
R17  19688169.914 8 105355009.242 8     -1086.543          49.000    19688172.547 7  81942798.298 7      -845.092          44.000  
R02  19514958.727 8 104135260.232 8      -545.332          51.000    19514961.578 8  80994104.532 8      -424.147          48.000  
E15  23288654.977 8 122382679.418 8      -523.137          51.000    23288657.781 8  93773768.154 8      -400.839          51.000  
E08  24019998.852 8 126225916.776 8      2908.926          49.000    24019998.422 7  96718584.821 7      2229.032          46.000  
E27                                                                  27496589.523 6 110717337.335 6     -2198.981          37.000  
E03  24492801.453 8 128710628.583 8       706.160          51.000    24492804.781 8  98622451.425 8       540.967          50.000  
C05  39649558.242 6 159652339.259 6       -20.428          36.000                                                                  
C11  22902997.555 8  92220847.851 8     -1478.655          51.000    22902996.648 8 119261948.932 8     -1912.262          49.000  
C21                                                                  25219971.461 5 131327005.993 5     -2884.863          35.000  
C14  21815244.211 8  87841004.347 8       934.232          51.000    21815244.195 8 113597707.176 8      1208.242          49.000  
> 2020 05 13 18 03 30.0000000  0 15      -0.000000000000
G08  20468853.547 8 107564548.911 8      -927.617          51.000    20468855.172 8  83816528.446 8      -722.819          51.000  
G22  22047023.086 8 115857886.743 8      2505.094          51.000    22047018.219 7  90278827.240 7      1952.025          44.000  
G14  22910450.969 7 120395270.207 7      2290.828          45.000    22910449.945 6  93814514.524 6      1785.061          39.000  
G27  22005367.719 8 115638966.954 8     -2867.848          51.000    22005369.148 8  90108278.258 8     -2234.687          51.000  
G11  20182908.172 5 106061899.670 5      1326.934          31.000                                                                  
R03  20733872.633 8 110989709.372 8      3416.246          51.000    20733876.398 7  86325314.630 7      2657.081          47.000  
R17  19694302.969 8 105387828.203 8     -1101.148          48.000    19694305.672 7  81968324.128 7      -856.452          43.000  
R02  19518097.227 8 104152008.106 8      -570.961          51.000    19518100.133 8  81007130.671 8      -444.081          48.000  
E15  23291658.180 8 122398460.936 8      -528.688          51.000    23291660.891 8  93785860.475 8      -405.101          51.000  
E08  24003405.938 8 126138720.720 8      2904.387          49.000    24003405.023 7  96651772.339 7      2225.479          47.000  
E03  24488809.000 8 128689647.700 8       692.828          50.000    24488812.391 8  98606375.193 8       530.872          49.000  
C05  39649709.195 6 159652947.148 6       -19.848          36.000                                                                  
C11  22914041.258 8  92265316.131 8     -1485.627          51.000    22914040.258 8 119319456.290 8     -1921.359          48.000  
C21                                                                  25236610.320 5 131413647.369 5     -2890.699          35.000  
C14  21808326.617 8  87813149.071 8       923.017          51.000    21808326.555 8 113561684.138 8      1193.668          50.000  
> 2020 05 13 18 04  0.0000000  0 17      -0.000000000000
G32  22201617.367 6 116670278.464 6      1125.234          40.000    22201616.156 6  90911876.573 6       876.803          38.000  
G08  20474204.812 8 107592669.268 8      -945.387          51.000    20474206.492 8  83838440.402 8      -736.665          51.000  
G22  22032759.492 8 115782934.236 8      2493.375          50.000    22032754.938 7  90220422.725 7      1942.890          44.000  
G14  22897411.445 7 120326747.249 7      2278.875          46.000    22897410.672 6  93761120.025 6      1775.750          39.000  
G27  22021777.812 8 115725204.141 8     -2879.602          49.000    22021779.648 8  90175476.076 8     -2243.843          50.000  
G11  20175379.258 5 106022335.996 5      1312.242          35.000                                                                  
R03  20714782.133 8 110887511.854 8      3398.672          51.000    20714785.047 7  86245827.698 7      2643.415          45.000  
R17  19700526.008 8 105421129.423 8     -1117.125          49.000    19700529.008 7  81994225.016 7      -868.878          43.000  
R02  19521387.727 8 104169566.707 8      -597.922          51.000    19521390.305 8  81020787.360 8      -465.050          48.000  
E15  23294701.414 8 122414453.541 8      -535.719          51.000    23294704.289 8  93798114.542 8      -410.516          51.000  
E08  23986848.281 8 126051709.574 8      2898.125          49.000    23986847.664 8  96585101.516 8      2220.688          48.000  
E27                                                                  27529372.062 5 110849373.458 5     -2200.430          30.000  
E03  24484900.812 8 128669109.934 8       678.113          51.000    24484903.414 7  98590638.479 7       519.677          47.000  
C05  39649864.164 6 159653571.433 6       -20.636          37.000                                                                  
C11  22925145.516 8  92310029.243 8     -1493.861          50.000    22925144.523 8 119377280.259 8     -1931.875          48.000  
C21                                                                  25253290.164 5 131500502.658 5     -2897.648          34.000  
C14  21801500.680 8  87785664.159 8       910.669          51.000    21801500.953 8 113526140.048 8      1177.715          49.000  
> 2020 05 13 18 04 30.0000000  0 16      -0.000000000000
G32  22195247.039 6 116636795.118 6      1107.566          40.000    22195245.883 6  90885785.632 6       863.039          39.000  
G08  20479651.570 8 107621292.281 8      -962.199          51.000    20479653.477 8  83860744.015 8      -749.766          51.000  
G22  22018557.336 8 115708307.118 8      2482.449          49.000    22018553.719 7  90162271.738 7      1934.377          45.000  
G14  22884435.766 8 120258557.293 8      2267.676          48.000    22884435.438 6  93707985.017 6      1767.021          40.000  
G27  22038248.484 8 115811762.247 8     -2890.387          49.000    22038251.016 8  90242923.962 8     -2252.250          49.000  
G11  20167928.234 6 105983177.665 6      1299.465          38.000                                                                  
R03  20695784.398 8 110785813.247 8      3381.941          50.000    20695785.641 7  86166728.851 7      2630.402          43.000  
R17  19706833.289 8 105454879.723 8     -1132.082          49.000    19706835.969 7  82020475.204 7      -880.508          44.000  
R02  19524823.758 8 104187900.816 8      -623.645          51.000    19524826.000 8  81035047.227 8      -485.057          49.000  
E15  23297778.422 8 122430624.398 8      -541.723          51.000    23297781.820 8  93810505.174 8      -415.098          51.000  
E08  23970319.641 8 125964851.800 8      2892.922          49.000    23970320.016 8  96518548.196 8      2216.668          50.000  
E03  24481070.844 8 128648982.552 8       664.383          50.000    24481072.461 7  98575216.206 7       509.022          46.000  
C05  39650016.969 6 159654186.561 6       -19.972          36.000                                                                  
C11  22936304.195 8  92354961.537 8     -1501.149          51.000    22936303.203 8 119435387.651 8     -1941.293          48.000  
C21                                                                  25270004.336 5 131587536.916 5     -2903.715          34.000  
C14  21794760.062 8  87758524.522 8       899.073          51.000    21794761.102 8 113491042.492 8      1162.793          50.000  
> 2020 05 13 18 05  0.0000000  0 16      -0.000000000000
G32  22188975.617 6 116603838.656 6      1089.672          40.000    22188974.531 6  90860105.232 6       849.095          40.000  
G08  20485195.367 8 107650425.569 8      -979.926          51.000    20485197.023 8  83883445.272 8      -763.579          51.000  
G22  22004419.359 8 115634014.663 8      2470.512          50.000    22004416.289 7  90104381.493 7      1925.075          45.000  
G14  22871525.398 7 120190710.759 7      2255.418          47.000    22871525.312 6  93655117.634 6      1757.472          41.000  
G27  22054782.039 8 115898647.680 8     -2901.969          49.000    22054784.578 8  90310626.854 8     -2261.278          49.000  
G11  20160556.461 6 105944434.814 6      1284.219          37.000    20160550.648 5  82554085.613 5      1000.690          31.000  
R03  20676881.070 8 110684625.163 8      3364.043          48.000    20676881.375 7  86088027.081 7      2616.481          43.000  
R17  19713226.172 8 105489087.510 8     -1148.258          50.000    19713228.273 7  82047081.242 7      -893.090          45.000  
R02  19528406.266 8 104207016.680 8      -650.562          51.000    19528408.484 8  81049915.132 8      -505.993          50.000  
E15  23300891.055 8 122446981.748 8      -548.719          51.000    23300894.789 8  93823038.710 8      -420.384          51.000  
E08  23953821.930 8 125878157.106 8      2886.770          50.000    23953823.414 8  96452119.806 8      2211.983          51.000  
E03  24477320.109 8 128629273.801 8       649.574          49.000    24477322.039 7  98560114.732 7       497.687          46.000  
C05  39650168.938 6 159654798.765 6       -20.842          36.000                                                                  
C11  22947519.000 8  92400118.892 8     -1509.247          51.000    22947518.211 8 119493786.107 8     -1951.945          49.000  
C21                                                                  25286753.953 5 131674755.978 5     -2910.566          34.000  
C14  21788107.125 8  87731736.666 8       886.810          51.000    21788108.812 8 113456399.887 8      1146.812          50.000  
> 2020 05 13 18 05 30.0000000  0 15      -0.000000000000
G08  20490839.086 8 107680084.161 8      -996.953          51.000    20490840.852 8  83906555.855 8      -776.847          51.000  
G22  21990348.867 8 115560072.927 8      2459.266          51.000    21990345.688 7  90046764.572 7      1916.311          44.000  
G14  22858683.547 7 120123226.197 7      2243.922          45.000    22858683.797 6  93602532.346 6      1748.514          41.000  
G27  22071380.812 8 115985874.423 8     -2912.945          49.000    22071383.008 8  90378595.664 8     -2269.831          49.000  
G11  20153266.734 6 105906123.783 6      1269.938          37.000    20153262.492 5  82524239.856 5       989.562          35.000  
R03  20658076.523 8 110583966.922 8      3346.855          48.000    20658077.352 7  86009737.342 7      2603.110          45.000  
R17  19719707.414 8 105523769.243 8     -1163.605          51.000    19719709.273 7  82074055.903 7      -905.027          47.000  
R02  19532137.953 8 104226929.042 8      -676.613          51.000    19532140.469 8  81065402.538 8      -526.255          50.000  
E15  23304042.328 8 122463541.648 8      -554.961          51.000    23304046.078 8  93835727.463 8      -425.272          51.000  
E08  23937358.500 8 125791642.844 8      2881.172          49.000    23937360.867 8  96385829.675 8      2207.596          51.000  
E03  24473652.312 8 128609999.778 8       635.648          49.000    24473654.281 7  98545346.361 7       487.083          46.000  
C05  39650323.188 6 159655419.766 6       -20.377          37.000                                                                  
C11  22958792.773 8  92445512.998 8     -1516.735          51.000    22958792.234 8 119552490.727 8     -1961.461          50.000  
C21                                                                  25303542.055 5 131762173.234 5     -2916.594          33.000  
C14  21781544.812 8  87705312.987 8       875.075          51.000    21781546.773 8 113422228.227 8      1131.605          49.000  
> 2020 05 13 18 06  0.0000000  0 16      -0.000000000000
G32  22176741.102 6 116539641.670 6      1054.477          36.000    22176739.664 6  90810077.022 6       821.664          36.000  
G08  20496579.320 8 107710249.673 8     -1014.121          51.000    20496581.656 8  83930061.443 8      -790.224          51.000  
G22  21976342.125 8 115486464.780 8      2447.902          50.000    21976338.531 7  89989407.626 7      1907.457          45.000  
G14  22845907.391 7 120056087.566 7      2232.000          45.000    22845907.703 6  93550216.578 6      1739.224          40.000  
G27  22088040.422 7 116073422.351 7     -2923.738          47.000    22088042.820 7  90446814.746 7     -2278.238          47.000  
G11  20146055.117 6 105868227.785 6      1255.734          36.000    20146050.258 4  82494689.509 4       978.501          29.000  
R03  20639369.023 8 110483822.803 8      3329.426          50.000    20639369.773 7  85931847.470 7      2589.554          46.000  
R17  19726273.797 8 105558906.717 8     -1178.973          50.000    19726275.555 8  82101385.029 8      -916.982          48.000  
R02  19536014.930 8 104247617.368 8      -702.785          51.000    19536017.625 8  81081493.462 8      -546.608          50.000  
E15  23307228.672 8 122480286.085 8      -561.469          51.000    23307232.305 8  93848557.608 8      -430.220          51.000  
E08  23920926.398 8 125705292.391 8      2875.371          49.000    23920929.273 8  96319665.046 8      2203.163          51.000  
E03  24470063.914 8 128591142.473 8       621.410          49.000    24470065.477 7  98530897.251 7       476.173          46.000  
C05  39650476.008 6 159656035.584 6       -20.443          36.000                                                                  
C11  22970121.609 8  92491129.516 8     -1524.435          50.000    22970121.484 8 119611482.953 8     -1971.340          49.000  
C21                                                                  25320364.141 5 131849768.579 5     -2923.812          32.000  
C14  21775069.203 8  87679239.628 8       863.098          51.000    21775070.875 7 113388509.624 7      1116.086          47.000  
> 2020 05 13 18 06 30.0000000  0 16      -0.000000000000
G32  22170773.828 6 116508299.219 6      1036.082          37.000    22170769.844 6  90785654.129 6       807.331          36.000  
G08  20502418.688 8 107740936.142 8     -1031.328          51.000    20502421.516 8  83953972.978 8      -803.633          51.000  
G22  21962401.711 8 115413205.521 8      2436.430          50.000    21962397.539 7  89932322.542 7      1898.517          45.000  
G14  22833199.680 7 119989311.415 7      2220.309          44.000    22833200.016 6  93498183.237 6      1730.111          39.000  
G27  22104763.297 7 116161303.952 7     -2934.809          46.000    22104766.148 7  90515293.877 7     -2286.862          46.000  
G11  20138925.305 6 105830762.857 6      1241.914          37.000    20138923.672 5  82465495.968 5       967.722          35.000  
R03  20620760.945 8 110384210.576 8      3311.758          50.000    20620761.664 7  85854371.328 7      2575.812          46.000  
R17  19732927.844 8 105594514.448 8     -1194.465          49.000    19732929.648 8  82129079.932 8      -929.031          48.000  
R02  19540039.852 8 104269094.630 8      -728.852          51.000    19540042.680 8  81098198.001 8      -566.885          50.000  
E15  23310452.742 8 122497229.350 8      -567.867          51.000    23310456.312 8  93861540.100 8      -435.152          51.000  
E08  23904528.758 8 125619121.559 8      2869.625          50.000    23904531.594 8  96253638.055 8      2198.745          51.000  
E03  24466557.406 8 128572716.287 8       607.168          50.000    24466559.352 8  98516778.500 8       465.212          49.000  
C05  39650630.250 6 159656655.997 6       -20.788          37.000                                                                  
C11  22981508.156 8  92536978.961 8     -1532.059          50.000    22981508.133 8 119670776.454 8     -1981.250          48.000  
C21                                                                  25337222.688 5 131937553.657 5     -2928.496          31.000  
C14  21768683.484 8  87653527.820 8       851.203          51.000    21768684.547 7 113355258.621 7      1100.770          47.000  
> 2020 05 13 18 07  0.0000000  0 16      -0.000000000000
G32  22164911.258 5 116477493.832 5      1018.270          34.000    22164913.680 5  90761649.983 5       793.472          31.000  
G08  20508355.781 8 107772136.063 8     -1048.191          51.000    20508358.781 8  83978284.596 8      -816.773          51.000  
G22  21948526.359 8 115340289.166 8      2425.133          51.000    21948522.203 7  89875504.633 7      1889.718          46.000  
G14  22820560.172 7 119922893.409 7      2208.168          45.000    22820560.469 6  93446428.951 6      1720.651          37.000  
G27  22121547.352 7 116249510.464 7     -2945.238          45.000    22121551.586 7  90584026.232 7     -2294.989          45.000  
G11  20131876.781 6 105793723.322 6      1227.871          38.000    20131875.352 6  82436634.013 6       956.783          36.000  
R03  20602250.828 8 110285126.352 8      3294.352          50.000    20602252.195 7  85777305.858 7      2562.274          46.000  
R17  19739668.484 8 105630585.840 8     -1209.750          49.000    19739670.648 8  82157135.454 8      -940.917          48.000  
R02  19544210.758 8 104291351.919 8      -754.562          51.000    19544213.516 8  81115509.218 8      -586.882          50.000  
E15  23313713.305 8 122514364.887 8      -574.016          51.000    23313716.992 8  93874669.917 8      -439.830          51.000  
E08  23888164.570 8 125533125.064 8      2863.949          51.000    23888166.953 8  96187744.652 8      2194.483          51.000  
E03  24463131.836 8 128554714.578 8       593.320          50.000    24463134.477 8  98502985.005 8       454.610          50.000  
C05  39650784.711 6 159657277.681 6       -20.905          36.000                                                                  
C11  22992951.180 8  92583055.642 8     -1539.411          51.000    22992951.188 8 119730363.791 8     -1990.809          48.000  
C21                                                                  25354115.711 5 132025532.834 5     -2934.699          31.000  
C14  21762386.703 8  87628172.593 8       839.495          51.000    21762386.664 7 113322468.744 7      1085.555          46.000  
> 2020 05 13 18 07 30.0000000  0 18      -0.000000000000
G32  22159158.531 5 116447180.409 5      1000.871          33.000    22159160.836 4  90738050.963 4       779.909          29.000  
G08  20514389.914 8 107803845.231 8     -1063.840          51.000    20514392.922 8  84002993.019 8      -828.966          51.000  
G22  21934715.547 8 115267712.521 8      2415.145          51.000    21934711.664 7  89818951.410 7      1881.931          46.000  
G14  22807988.945 7 119856832.014 7      2197.824          45.000    22807989.469 6  93394952.536 6      1712.591          39.000  
G10  22953242.719 5 120620088.435 5     -2924.590          32.000    22953239.078 5  93989675.723 5     -2278.902          30.000  
G03  23938058.805 5 125795367.912 5      3525.352          34.000    23938065.039 5  98022359.548 5      2747.031          33.000  
G27  22138393.117 7 116338036.440 7     -2954.641          47.000    22138397.766 7  90653007.534 7     -2302.318          47.000  
G11  20124908.742 6 105757106.679 6      1215.039          38.000    20124908.281 5  82408101.532 5       946.778          35.000  
R03  20583838.703 8 110186569.669 8      3278.043          48.000    20583841.602 7  85700650.708 7      2549.590          46.000  
R17  19746494.992 8 105667117.503 8     -1223.754          49.000    19746497.383 7  82185548.968 7      -951.809          47.000  
R02  19548527.008 8 104314384.219 8      -779.000          51.000    19548530.062 8  81133423.240 8      -605.889          50.000  
E15  23317009.867 8 122531689.269 8      -578.996          51.000    23317013.641 8  93887944.427 8      -443.662          51.000  
E08  23871833.242 8 125447300.797 8      2859.488          51.000    23871835.094 8  96121983.229 8      2191.068          51.000  
E03  24459786.344 8 128537133.854 8       580.664          50.000    24459789.391 8  98489514.070 8       444.889          50.000  
C05  39650938.445 6 159657897.664 6       -19.326          37.000                                                                  
C11  23004450.000 8  92629356.324 8     -1545.911          51.000    23004449.664 7 119790240.817 7     -1999.070          47.000  
C21                                                                  25371041.461 5 132113674.136 5     -2939.363          31.000  
C14  21756177.750 8  87603171.242 8       828.667          51.000    21756177.047 7 113290136.504 7      1071.609          47.000  
> 2020 05 13 18 08  0.0000000  0 17      -0.000000000000
G08  20520523.578 8 107836076.530 8     -1084.105          51.000    20520526.453 8  84028108.302 8      -844.758          51.000  
G22  21920971.930 8 115195489.828 8      2400.609          51.000    21920968.734 7  89762673.999 7      1870.605          47.000  
G14  22795488.664 7 119791142.834 7      2182.480          43.000    22795489.789 7  93343766.201 7      1700.641          42.000  
G10  22969968.484 5 120707993.581 5     -2934.793          35.000    22969970.297 5  94058181.185 5     -2286.852          35.000  
G03  23917963.453 5 125689758.381 5      3515.445          34.000    23917970.406 5  97940066.493 5      2739.312          34.000  
G27  22155302.836 8 116426893.516 8     -2968.301          49.000    22155306.469 8  90722246.804 8     -2312.962          49.000  
G11  20118024.188 5 105720927.825 5      1198.113          35.000    20118024.758 5  82379910.225 5       933.592          35.000  
R03  20565527.586 7 110088557.189 7      3256.883          46.000    20565532.273 7  85624418.791 7      2533.132          45.000  
R17  19753410.516 8 105704123.401 8     -1242.348          50.000    19753412.805 7  82214331.321 7      -966.271          47.000  
R02  19552990.594 8 104338202.889 8      -807.996          51.000    19552993.430 8  81151948.856 8      -628.442          50.000  
E15  23320345.109 8 122549215.995 8      -588.492          50.000    23320348.711 8  93901373.991 8      -450.896          51.000  
E08  23855537.578 8 125361663.767 8      2850.484          51.000    23855538.945 8  96056365.286 8      2184.124          51.000  
E03  24456523.750 8 128519987.769 8       563.398          51.000    24456526.672 8  98476376.155 8       431.686          51.000  
C05  39651094.039 6 159658524.104 6       -21.624          36.000                                                                  
C11  23016007.109 8  92675890.972 8     -1555.797          51.000    23016006.109 7 119850420.422 7     -2012.047          47.000  
C21                                                                  25388003.594 5 132202001.723 5     -2948.227          31.000  
C14  21750059.203 8  87578534.271 8       814.443          51.000    21750058.492 8 113258275.462 8      1053.309          48.000  
> 2020 05 13 18 08 30.0000000  0 18      -0.000000000000
G32  22147946.008 6 116388275.413 6       961.113          36.000    22147948.438 5  90692140.481 5       748.923          34.000  
G08  20526757.961 8 107868837.629 8     -1102.781          51.000    20526760.680 8  84053636.418 8      -859.310          51.000  
G22  21907297.297 8 115123630.240 8      2387.352          50.000    21907294.375 8  89706679.528 8      1860.275          48.000  
G14  22783061.477 7 119725836.653 7      2168.387          45.000    22783063.000 7  93292878.346 7      1689.656          44.000  
G10  22986736.188 5 120796115.917 5     -2942.859          35.000    22986740.719 5  94126847.898 5     -2293.141          34.000  
G03  23897902.945 4 125584337.684 4      3508.234          29.000    23897908.898 4  97857920.583 4      2733.696          27.000  
G27  22172276.773 8 116516087.834 8     -2980.715          49.000    22172279.359 8  90791748.834 8     -2322.636          49.000  
G11  20111224.781 6 105685196.147 6      1181.629          38.000    20111225.195 6  82352067.327 6       920.753          36.000  
R03  20547320.219 7 109991100.246 7      3237.289          45.000    20547325.836 7  85548618.930 7      2517.892          43.000  
R17  19760416.180 8 105741611.834 8     -1259.668          50.000    19760418.547 7  82243488.959 7      -979.745          46.000  
R02  19557602.664 8 104362814.575 8      -835.602          51.000    19557605.820 8  81171091.288 8      -649.912          49.000  
E15  23323720.414 8 122566953.433 8      -596.770          50.000    23323723.945 8  93914965.005 8      -457.244          51.000  
E08  23839279.172 8 125276223.559 8      2842.707          51.000    23839280.266 8  95990898.161 8      2178.224          51.000  
E03  24453345.414 8 128503284.472 8       547.434          51.000    24453348.469 8  98463577.517 8       419.447          51.000  
C05  39651252.891 6 159659163.974 6       -23.008          36.000                                                                  
C11  23027623.578 8  92722665.301 8     -1564.629          51.000    23027622.133 7 119910909.940 7     -2023.406          47.000  
C21                                                                  25405002.648 5 132290521.268 5     -2955.293          31.000  
C14  21744032.789 8  87554267.990 8       801.177          51.000    21744032.570 8 113226893.823 8      1036.105          50.000  
> 2020 05 13 18 09  0.0000000  0 17      -0.000000000000
G32  22142497.523 6 116359638.579 6       948.008          37.000    22142502.766 6  90669826.086 6       738.717          38.000  
G08  20533086.320 8 107902093.747 8     -1115.004          51.000    20533088.938 8  84079550.240 8      -868.834          51.000  
G22  21893685.281 8 115052099.811 8      2380.762          49.000    21893682.461 7  89650941.573 7      1855.143          47.000  
G14  22770701.352 7 119660881.523 7      2161.258          46.000    22770702.688 7  93242263.983 7      1684.098          42.000  
G10  23003538.539 6 120884418.916 6     -2944.434          36.000    23003543.734 5  94195655.498 5     -2294.355          33.000  
G27  22189307.562 8 116605583.210 8     -2986.340          48.000    22189309.898 8  90861485.438 8     -2327.022          48.000  
G11  20104504.031 6 105649878.722 6      1172.055          38.000    20104503.648 6  82324547.252 6       913.287          37.000  
R03  20529213.242 8 109894166.707 8      3224.277          48.000    20529217.445 7  85473226.185 7      2507.772          44.000  
R17  19767505.711 8 105779548.159 8     -1270.176          51.000    19767507.953 7  82272994.937 7      -987.915          45.000  
R02  19562356.219 8 104388181.660 8      -856.242          51.000    19562359.242 8  81190821.243 8      -665.966          49.000  
E15  23327129.164 8 122584867.354 8      -598.156          50.000    23327132.930 8  93928691.250 8      -458.277          51.000  
E08  23823051.711 8 125190947.427 8      2841.742          51.000    23823052.852 8  95925556.750 8      2177.464          51.000  
E03  24450244.695 8 128486989.754 8       538.281          50.000    24450248.148 8  98451091.950 8       412.485          51.000  
C05  39651408.602 6 159659791.38026       -19.045          36.000                                                                  
C11  23039292.836 8  92769652.637 8     -1568.312          51.000    23039291.102 7 119971674.944 7     -2028.180          47.000  
C21                                                                  25422031.727 5 132379196.688 5     -2956.965          31.000  
C14  21738092.102 8  87530346.346 8       793.121          51.000    21738092.461 8 113195957.864 8      1025.633          51.000  
> 2020 05 13 18 09 30.0000000  0 17      -0.000000000000
G32  22137151.508 6 116331548.008 6       927.625          36.000    22137155.859 5  90647937.309 5       722.819          35.000  
G08  20539512.570 8 107935863.580 8     -1133.559          51.000    20539514.961 8  84105864.371 8      -883.296          51.000  
G22  21880139.742 8 114980918.595 8      2367.523          48.000    21880136.969 8  89595475.744 8      1844.824          48.000  
G14  22758411.805 7 119596298.989 7      2147.078          44.000    22758413.258 7  93191939.961 7      1673.048          43.000  
G10  23020378.281 5 120972919.551 5     -2952.387          35.000    23020383.328 5  94264616.978 5     -2300.568          33.000  
G27  22206398.633 7 116695397.162 7     -2998.531          47.000    22206401.234 7  90931470.288 7     -2336.522          46.000  
G11  20097866.336 6 105614996.155 6      1156.164          40.000    20097864.570 6  82297366.041 6       900.910          37.000  
R03  20511208.719 8 109797779.249 8      3204.469          51.000    20511211.492 7  85398258.194 7      2492.368          45.000  
R17  19774682.820 8 105817952.205 8     -1287.301          50.000    19774684.984 7  82302864.695 7     -1001.234          45.000  
R02  19567254.898 8 104414322.399 8      -883.617          51.000    19567258.086 8  81211152.937 8      -687.258          49.000  
E15  23330575.211 8 122602977.391 8      -606.227          50.000    23330579.273 8  93942567.779 8      -464.526          51.000  
E08  23806859.062 8 125105856.313 8      2833.895          50.000    23806860.719 8  95860357.102 8      2171.499          51.000  
E03  24447225.031 8 128471123.165 8       522.352          48.000    24447229.078 8  98438934.426 8       400.295          50.000  
C05  39651564.773 6 159660419.608 6       -20.449          36.000                                                                  
C11  23051018.305 8  92816867.368 8     -1577.083          50.000    23051016.883 8 120032734.004 8     -2039.508          48.000  
C21                                                                  25439094.305 5 132468044.952 5     -2963.297          30.000  
C14  21732240.688 8  87506784.312 8       779.957          51.000    21732241.516 8 113165486.935 8      1008.609          51.000  
> 2020 05 13 18 10  0.0000000  0 16      -0.000000000000
G08  20546035.938 8 107970144.185 8     -1152.602          51.000    20546038.344 8  84132576.497 8      -898.134          51.000  
G22  21866660.617 8 114910085.770 8      2353.984          48.000    21866657.984 8  89540281.345 8      1834.274          48.000  
G14  22746192.742 7 119532089.363 7      2132.879          42.000    22746194.617 7  93141906.484 7      1661.984          42.000  
G03  23837913.500 5 125269058.241 5      3493.371          33.000    23837929.164 5  97612328.351 5      2722.108          33.000  
G27  22223549.688 8 116785525.693 8     -3010.945          49.000    22223552.398 8  91001700.268 8     -2346.192          49.000  
G11  20091311.094 6 105580547.679 6      1139.613          39.000    20091308.508 6  82270523.086 6       888.014          36.000  
R03  20493306.336 8 109701938.854 8      3184.215          51.000    20493307.609 7  85323715.705 7      2476.615          44.000  
R17  19781946.789 8 105856822.100 8     -1304.785          49.000    19781948.461 7  82333096.807 7     -1014.833          45.000  
R02  19572297.984 8 104441233.199 8      -911.230          51.000    19572301.039 8  81232083.555 8      -708.735          48.000  
E15  23334058.297 8 122621281.701 8      -614.645          50.000    23334062.516 8  93956593.141 8      -470.968          51.000  
E08  23790701.297 8 125020949.717 8      2825.871          49.000    23790703.555 8  95795298.849 8      2165.249          51.000  
E03  24444286.586 7 128455682.780 7       506.301          47.000    24444291.070 8  98427103.474 8       387.897          49.000  
C05  39651720.930 6 159661048.333 6       -22.038          36.000                                                                  
C11  23062800.055 8  92864307.465 8     -1586.112          51.000    23062798.516 7 120094084.544 7     -2051.223          47.000  
C21                                                                  25456189.180 5 132557061.913 5     -2970.848          31.000  
C14  21726477.961 8  87483580.405 8       766.552          51.000    21726479.453 8 113135479.160 8       991.305          51.000  
> 2020 05 13 18 10 30.0000000  0 17      -0.000000000000
G32  22126788.586 5 116277086.221 5       889.500          34.000    22126773.609 5  90605474.384 5       693.090          32.000  
G08  20552659.531 8 108004951.279 8     -1169.242          51.000    20552661.594 8  84159698.877 8      -911.098          51.000  
G22  21853251.000 8 114839617.527 8      2342.500          51.000    21853248.352 7  89485371.018 7      1825.325          47.000  
G14  22734047.945 6 119468270.509 6      2120.480          41.000    22734050.008 6  93092177.523 6      1652.326          40.000  
G03  23817984.281 6 125164340.046 6      3486.953          36.000    23818004.266 5  97530729.778 5      2717.107          35.000  
G27  22240763.258 8 116875982.635 8     -3021.004          49.000    22240765.531 8  91072186.183 8     -2354.030          50.000  
G11  20084841.391 6 105546550.360 6      1125.371          39.000    20084839.500 6  82244031.637 6       876.910          38.000  
R03  20475509.031 8 109606664.775 8      3165.926          51.000    20475508.531 7  85249613.706 7      2462.387          42.000  
R17  19789300.648 8 105896174.022 8     -1320.164          48.000    19789302.570 7  82363703.847 7     -1026.794          45.000  
R02  19577487.781 8 104468927.611 8      -936.520          51.000    19577490.750 7  81253623.662 7      -728.404          47.000  
E15  23337581.664 8 122639796.061 8      -621.027          51.000    23337585.781 8  93970779.455 8      -475.828          51.000  
E08  23774581.898 8 124936244.857 8      2819.863          48.000    23774584.656 8  95730395.172 8      2160.622          51.000  
E03  24441432.172 7 128440684.393 7       492.387          45.000    24441436.914 8  98415611.176 8       377.176          48.000  
C05  39651880.008 6 159661688.961 6       -21.564          36.000                                                                  
C11  23074640.680 8  92911984.500 8     -1593.443          50.000    23074639.266 8 120155741.493 8     -2060.727          48.000  
C21                                                                  25473319.633 5 132646255.947 5     -2976.551          31.000  
C14  21720807.219 8  87460746.807 8       754.672          51.000    21720809.273 8 113105950.287 8       975.965          51.000  
> 2020 05 13 18 11  0.0000000  0 17      -0.000000000000
G08  20559377.328 8 108040253.004 8     -1183.945          51.000    20559378.867 8  84187206.710 8      -922.555          51.000  
G22  21839905.375 8 114769483.688 8      2333.152          51.000    21839902.336 7  89430721.287 7      1818.041          47.000  
G14  22721972.070 7 119404813.882 7      2110.215          42.000    22721974.469 6  93042730.799 6      1644.321          41.000  
G10  23071127.836 5 121239575.67425     -2971.504          33.000                                                                  
G03  23798086.273 5 125059785.809 5      3483.145          34.000    23798107.961 5  97449258.952 5      2714.136          34.000  
G27  22258032.977 8 116966735.255 8     -3029.098          50.000    22258034.711 8  91142902.503 8     -2360.337          50.000  
G11  20078452.055 6 105512974.709 6      1113.105          40.000    20078450.719 6  82217868.765 6       867.355          38.000  
R03  20457811.727 8 109511928.337 8      3149.906          51.000    20457809.953 7  85175929.901 7      2449.931          43.000  
R17  19796738.492 8 105935976.764 8     -1333.301          49.000    19796740.398 7  82394661.521 7     -1037.012          45.000  
R02  19582818.297 8 104497371.909 8      -959.598          51.000    19582820.992 7  81275746.995 7      -746.354          47.000  
E15  23341139.375 8 122658489.864 8      -625.160          51.000    23341143.078 8  93985103.276 8      -479.058          51.000  
E08  23758495.508 8 124851712.449 8      2815.855          48.000    23758498.438 8  95665623.610 8      2157.566          51.000  
E03  24438655.672 7 128426097.207 7       480.336          45.000    24438660.766 7  98404433.978 7       368.068          47.000  
C05  39652036.055 6 159662316.690 6       -19.785          36.000                                                                  
C11  23086533.906 8  92959874.367 8     -1599.139          50.000    23086533.086 8 120217673.634 8     -2067.980          48.000  
C21                                                                  25490479.125 5 132735604.228 5     -2979.684          33.000  
C14  21715222.828 8  87438260.008 8       744.517          51.000    21715224.852 8 113076869.873 8       962.895          51.000  
> 2020 05 13 18 11 30.0000000  0 18      -0.000000000000
G32  22116836.625 6 116224756.396 6       846.172          37.000    22116848.258 5  90564765.600 5       659.367          35.000  
G08  20566212.094 8 108076169.917 8     -1210.199          51.000    20566213.711 8  84215193.905 8      -943.013          51.000  
G22  21826646.508 8 114699805.967 8      2312.230          51.000    21826643.102 8  89376426.979 8      1801.739          48.000  
G14  22709988.906 7 119341843.044 7      2088.117          42.000    22709991.422 6  92993662.669 6      1627.105          41.000  
G10  23088129.562 5 121328939.31325     -2986.902          33.000                                                                  
G03  23778242.242 5 124955517.892 5      3467.387          32.000    23778263.258 5  97368011.178 5      2701.858          32.000  
G27  22275381.484 8 117057902.674 8     -3048.602          49.000    22275382.992 8  91213942.040 8     -2375.534          49.000  
G11  20072166.023 6 105479943.091 6      1089.043          40.000    20072165.172 6  82192129.879 6       848.605          36.000  
R03  20440238.195 8 109417855.791 8      3121.918          48.000    20440236.789 7  85102762.420 7      2428.162          44.000  
R17  19804283.844 8 105976353.587 8     -1358.230          51.000    19804285.633 7  82426065.679 7     -1056.402          45.000  
R02  19588311.945 8 104526686.776 8      -994.363          51.000    19588314.602 7  81298547.458 7      -773.397          47.000  
E15  23344754.148 8 122677484.362 8      -640.836          51.000    23344757.484 8  93999657.486 8      -491.048          51.000  
E08  23742465.531 8 124767475.046 8      2800.277          48.000    23742468.406 8  95601078.104 8      2145.629          50.000  
E03  24435981.297 8 128412042.341 8       456.891          48.000    24435986.211 7  98393664.662 7       350.085          46.000  
C05  39652212.234 6 159663026.232 6       -27.116          36.000                                                                  
C11  23098503.227 8  93008069.412 8     -1613.641          50.000    23098502.617 8 120280000.515 8     -2086.809          48.000  
C21                                                                  25507689.969 5 132825219.592 5     -2994.098          33.000  
C14  21709747.461 8  87416212.855 8       725.530          51.000    21709749.203 8 113048358.013 8       938.289          51.000  
> 2020 05 13 18 12  0.0000000  0 18      -0.000000000000
G32  22111987.516 6 116199278.842 6       834.617          37.000    22112009.664 6  90544913.224 6       650.357          36.000  
G08  20573099.734 8 108112364.025 8     -1220.184          51.000    20573101.719 8  84243397.108 8      -950.790          51.000  
G22  21813410.148 8 114630248.426 8      2307.469          51.000    21813407.023 8  89322226.304 8      1798.028          48.000  
G14  22698034.695 6 119279022.903 6      2082.535          39.000    22698036.883 6  92944711.870 6      1622.758          36.000  
G10  23105127.891 5 121418259.197 5     -2985.043          35.000    23105127.445 5  94611608.001 5     -2325.993          35.000  
G03  23758389.289 5 124851187.61725      3468.945          34.000                                                                  
G27  22292744.562 8 117149145.873 8     -3051.766          49.000    22292745.945 8  91285040.609 8     -2378.000          49.000  
G11  20065919.656 6 105447119.701 6      1081.453          39.000    20065918.922 6  82166553.165 6       842.688          38.000  
R03  20422724.633 7 109324106.575 7      3110.355          46.000    20422724.250 7  85029846.358 7      2419.166          45.000  
R17  19811872.586 8 106016961.489 8     -1366.688          51.000    19811874.289 7  82457649.562 7     -1062.982          46.000  
R02  19593904.320 8 104556528.792 8     -1012.734          51.000    19593907.234 7  81321757.919 7      -787.679          47.000  
E15  23348361.773 8 122696442.621 8      -640.512          51.000    23348365.047 8  94014183.932 8      -490.785          51.000  
E08  23726428.156 8 124683197.079 8      2800.824          48.000    23726430.750 8  95536501.511 8      2146.045          49.000  
E03  24433344.156 8 128398182.685 8       449.625          48.000    24433348.844 7  98383044.953 7       344.449          45.000  
C05  39652344.312 6 159663558.078 6       -21.799          36.000                                                                  
C11  23110483.875 8  93056310.922 8     -1615.795          49.000    23110483.422 7 120342387.429 7     -2089.551          47.000  
C21                                                                  25524887.117 5 132914765.838 5     -2992.516          33.000  
C14  21704316.891 8  87394347.117 8       718.809          51.000    21704318.367 8 113020080.768 8       929.520          51.000  
> 2020 05 13 18 12 30.0000000  0 17      -0.000000000000
