     3.02           OBSERVATION DATA    M (MIXED)           RINEX VERSION / TYPE
SAVERINEX           SC600               20200513 005930 LCL PGM / RUN BY / DATE
       G = GPS       R = GLONASS       C = COMPASS          COMMENT
       S = SBAS      J = QZSS          E = GALILEO          COMMENT
BEAN                                                        MARKER NAME
1                                                           MARKER NUMBER
GEODETIC                                                    MARKER TYPE
Unige DICCA         GTER                                    OBSERVER / AGENCY
SC60291900056       SC600               2.12(191226)        REC # / TYPE / VERS
                    HEMA45          NONE                    ANT # / TYPE
  4509407.8091   693652.4678  4442337.6214                  APPROX POSITION XYZ
        0.0000        0.0000        0.0000                  ANTENNA: DELTA H/E/N
G    8 C1C L1C D1C S1C C2Y L2Y D2Y S2Y                      SYS / # / OBS TYPES
R    8 C1C L1C D1C S1C C2P L2P D2P S2P                      SYS / # / OBS TYPES
C    8 C1I L1I D1I S1I C7I L7I D7I S7I                      SYS / # / OBS TYPES
E    8 C1C L1C D1C S1C C7Q L7Q D7Q S7Q                      SYS / # / OBS TYPES
DBHZ                                                        COMMENT
     30.000                                                 INTERVAL
  2020    05    12    22    00    0.0000000     GPS         TIME OF FIRST OBS
  2020    05    12    22    59   30.0000000     GPS         TIME OF LAST OBS
     0                                                      RCV CLOCK OFFS APPL
G L1C  0.00000                                              SYS / PHASE SHIFT
G L2Y  0.00000                                              SYS / PHASE SHIFT
R L1C  0.00000                                              SYS / PHASE SHIFT
R L2P  0.25000                                              SYS / PHASE SHIFT
C L1I  0.00000                                              SYS / PHASE SHIFT
C L7I  0.00000                                              SYS / PHASE SHIFT
E L1C  0.50000                                              SYS / PHASE SHIFT
E L7Q -0.25000                                              SYS / PHASE SHIFT
 14 R01  1 R02 -4 R03  5 R04  6 R05  1 R10 -5 R12 -1 R13 -2 GLONASS SLOT / FRQ #
    R14 -7 R15  0 R17  4 R18 -3 R19  3 R23  3               GLONASS SLOT / FRQ #
 C1C   71.950 C2C   71.950 C2P   71.950                     GLONASS COD/PHS/BIS
    18                                                      LEAP SECONDS
*** Above antenna height is from mark to ANTENNA BOTTOM.    COMMENT
    17     4        0.0000        ANT MEASURE TYPE/HEIGT    COMMENT
    0.0000    0.0000    0.0458    0.0405    0.0000          COMMENT
                    BASE STATION                            COMMENT
                                                            END OF HEADER
> 2020 05 12 22 00  0.0000000  0 16        .000000000000
G01  22805308.008 7 119842709.571 7     -3258.863          44.000    22805313.094 7  93383931.575 7     -2539.374          44.000
G03  20781693.570 8 109208528.690 8     -1276.180          51.000    20781694.547 8  85097576.535 8      -994.426          51.000
G04  20370748.789 8 107049020.802 8       846.270          48.000    20370750.367 8  83414830.594 8       659.431          48.000
G09  22024048.016 8 115737265.748 8      2838.883          49.000    22024051.188 8  90184870.777 8      2212.120          49.000
G17  22317873.539 6 117281201.730 6     -1327.070          36.000    22317869.422 5  91387932.263 5     -1034.084          35.000
G22  22484784.195 6 118158376.685 6     -2226.488          40.000
G31  23666283.359 6 124367128.151 6     -1600.906          37.000    23666281.578 6  96909464.496 6     -1247.456          38.000
R03  19889480.672 5 106469892.555 5     -1646.113          32.000    19889482.945 4  82809948.945 4     -1280.304          26.000
R18  20508568.805 8 109476098.813 8     -3246.375          51.000    20508572.680 8  85148096.045 8     -2524.958          49.000
C20  23991025.367 5 124927555.674 5      2136.738          35.000
C25  25364605.727 6 132080144.604 6       479.359          36.000
C30  22799200.211 8 118721396.997 8     -1774.199          51.000
E04  25075969.016 8 131775223.944 8      1955.035          50.000    25075972.586 8 100970615.341 8      1497.993          51.000
E12  21840516.055 8 114772683.704 8      -985.680          51.000    21840517.086 8  87942707.756 8      -755.243          51.000
E19  23992331.125 8 126080557.835 8      -688.160          48.000    23992332.539 8  96607191.304 8      -527.360          49.000
E33  26469697.453 7 139099167.947 7     -2991.367          46.000    26469698.922 7 106582466.238 7     -2292.066          45.000
> 2020 05 12 22 00 30.0000000  0 17        .000000000000
G01  22823925.852 7 119940545.753 7     -3259.438          46.000    22823931.328 7  93460167.601 7     -2539.818          46.000
G03  20788994.219 8 109246893.636 8     -1277.117          51.000    20788995.023 8  85127471.280 8      -995.156          51.000
G04  20365956.031 8 107023835.580 8       837.098          49.000    20365957.539 8  83395205.735 8       652.284          49.000
G09  22007861.844 8 115652204.786 8      2836.164          50.000    22007864.461 8  90118589.561 8      2210.001          50.000
G22  22497500.383 5 118225199.249 5     -2224.344          35.000
G31  23675464.734 5 124415380.221 5     -1611.105          31.000    23675463.906 5  96947063.483 5     -1255.413          32.000
R03  19898726.773 6 106519389.969 6     -1649.027          36.000    19898728.844 4  82848463.976 4     -1282.577          25.000
R18  20526855.078 8 109573711.852 8     -3256.891          51.000    20526858.875 8  85224017.283 8     -2533.137          50.000
C05                                                                  39735646.453 5 159998981.713 5       -19.588          34.000
C20  23978712.680 6 124863472.169 6      2139.320          37.000
C23  25600465.906 4 133308352.277 4      2545.129          29.000
C25  25361877.180 5 132065936.393 5       471.773          34.000
C30  22809452.391 8 118774778.685 8     -1780.473          51.000
E04  25064817.109 8 131716620.697 8      1955.996          50.000    25064821.062 8 100925711.544 8      1498.792          51.000
E12  21846169.086 8 114802391.061 8      -990.727          51.000    21846170.094 8  87965470.538 8      -759.107          51.000
E19  23996272.852 8 126101270.996 8      -688.492          48.000    23996273.883 8  96623062.425 8      -527.525          49.000
E33  26486777.250 7 139188926.585 7     -2988.301          42.000    26486778.938 7 106651242.292 7     -2289.746          43.000
> 2020 05 12 22 01  0.0000000  0 15        .000000000000
G01  22842606.766 8 120038711.165 8     -3276.172          48.000    22842611.875 8  93536660.160 8     -2552.861          48.000
G03  20796362.023 8 109285611.498 8     -1295.070          51.000    20796362.797 8  85157641.019 8     -1009.146          51.000
G04  20361276.117 8 106999241.480 8       811.438          50.000    20361277.352 8  83376041.516 8       632.292          50.000
G09  21991752.609 8 115567548.658 8      2816.422          49.000    21991753.586 8  90052623.798 8      2194.614          49.000
G22  22510263.930 5 118292270.195 5     -2238.730          35.000
R03  19908049.289 6 106569289.519 6     -1668.988          38.000    19908047.695 4  82887271.651 4     -1298.105          28.000
R18  20545260.555 8 109671965.007 8     -3284.285          49.000    20545265.023 8  85300436.418 8     -2554.444          49.000
C05                                                                  39735843.547 5 159999775.263 5       -26.524          34.000
C20  23966449.203 5 124799631.015 5      2125.523          30.000
C25  25359253.406 5 132052274.128 5       448.062          32.000
C30  22819801.336 8 118828666.137 8     -1803.230          51.000
E04  25053720.789 8 131658306.223 8      1940.375          51.000    25053724.453 8 100881029.047 8      1486.784          51.000
E12  21851911.867 8 114832570.502 8     -1012.438          50.000    21851912.961 8  87988595.036 8      -775.788          51.000
E19  24000276.906 7 126122312.920 7      -705.445          47.000    24000277.852 8  96639185.474 8      -540.566          49.000
E33  26503900.531 6 139278912.404 6     -3001.746          37.000    26503901.797 6 106720192.414 6     -2300.246          40.000
> 2020 05 12 22 01 30.0000000  0 16        .000000000000
G01  22861317.438 8 120137032.550 8     -3283.727          48.000    22861322.156 7  93613274.222 7     -2558.748          47.000
G03  20803764.219 8 109324510.225 8     -1303.207          51.000    20803764.852 8  85187951.685 8     -1015.486          51.000
G04  20356675.938 8 106975066.934 8       795.227          49.000    20356676.625 8  83357204.223 8       619.660          48.000
G09  21975687.414 8 115483127.147 8      2806.430          48.000    21975688.102 8  89986840.806 8      2186.828          48.000
G22  22523042.430 5 118359417.642 5     -2243.863          32.000
R03  19917413.742 6 106619414.459 6     -1678.359          37.000    19917412.391 5  82926257.748 5     -1305.388          32.000
R04  20209174.422 5 108219172.307 5      1594.852          33.000
R18  20563752.320 8 109770679.895 8     -3301.902          50.000    20563757.484 7  85377214.668 7     -2568.146          47.000
C05                                                                  39736021.930 5 160000493.284 5       -25.349          34.000
C25  25356703.258 5 132038988.515 5       432.570          34.000
C27  25386910.523 5 132196301.842 5     -3475.918          31.000
C30  22830214.211 8 118882887.637 8     -1816.531          51.000
E04  25042647.062 8 131600109.176 8      1934.293          51.000    25042649.828 8 100836436.540 8      1482.109          51.000
E12  21857711.781 8 114863050.159 8     -1024.668          50.000    21857712.938 8  88011949.563 8      -785.132          51.000
E19  24004310.766 8 126143511.228 8      -712.770          48.000    24004311.672 8  96655428.339 8      -546.208          49.000
E33                                                                  26521035.656 6 106789184.024 6     -2303.032          40.000
> 2020 05 12 22 02  0.0000000  0 13        .000000000000
G01  22880100.688 7 120235737.089 7     -3307.449          47.000    22880105.234 7  93690186.820 7     -2577.233          47.000
G03  20811244.344 8 109363818.324 8     -1327.926          51.000    20811244.875 8  85218581.361 8     -1034.747          51.000
G04  20352199.062 8 106951540.864 8       762.484          49.000    20352199.195 8  83338872.240 8       594.144          48.000
G09  21959710.734 8 115399170.553 8      2779.832          50.000    21959712.492 8  89921420.093 8      2166.103          50.000
R03  19926862.188 6 106669996.213 6     -1704.664          38.000    19926862.766 5  82965599.159 5     -1325.850          33.000
R18  20582374.258 8 109870085.654 8     -3336.016          51.000    20582379.125 7  85454530.236 7     -2594.679          46.000
C05                                                                  39736225.422 5 160001312.762 5       -37.150          34.000
C27  25406958.266 5 132300683.437 5     -3493.160          32.000
C30  22840734.328 8 118937668.376 8     -1846.070          51.000
E04  25031638.969 8 131542258.741 8      1911.891          51.000    25031640.734 8 100792109.609 8      1464.895          51.000
E12  21863612.500 8 114894058.684 8     -1053.121          49.000    21863613.305 8  88035709.354 8      -807.003          51.000
E19  24008417.820 8 126165093.820 8      -736.527          48.000    24008418.648 8  96671965.656 8      -564.406          49.000
E33                                                                  26538224.383 6 106858391.593 6     -2318.845          41.000
> 2020 05 12 22 02 30.0000000  0 16        .000000000000
G01  22898926.102 8 120334662.757 8     -3300.422          48.000    22898930.281 8  93767271.738 8     -2571.757          48.000
G03  20818771.789 8 109403375.047 8     -1321.820          51.000    20818772.406 8  85249404.769 8     -1029.990          51.000
G04  20347815.023 8 106928502.996 8       760.547          50.000    20347814.930 8  83320920.673 8       592.637          48.000
G09  21943792.617 8 115315520.029 8      2784.000          50.000    21943794.891 8  89856237.864 8      2169.351          50.000
G17  22356925.734 5 117486436.550 5     -1409.449          33.000    22356928.359 5  91547875.242 5     -1098.269          33.000
R03  19936365.156 6 106720869.276 6     -1699.699          38.000    19936365.711 5  83005167.062 5     -1321.988          34.000
R12  22865708.141 6 122144492.821 6       365.520          39.000    22865712.055 4  95001297.135 4       284.290          28.000
R18  20601094.711 8 109970015.755 8     -3338.922          50.000    20601098.930 7  85532253.587 7     -2596.939          45.000
C05                                                                  39736423.156 5 160002108.904 5       -25.808          35.000
C23  25542293.312 5 133005414.332 5      2511.062          32.000
C27  25427008.828 6 132405084.370 6     -3479.082          36.000
C30  22851331.125 8 118992847.864 8     -1845.078          51.000
E04  25020665.555 8 131484594.929 8      1919.766          51.000    25020667.086 8 100747925.635 8      1471.019          51.000
E12  21869583.289 8 114925435.597 8     -1051.301          48.000    21869583.719 8  88059751.399 8      -805.485          51.000
E19  24012567.266 8 126186899.598 8      -729.762          48.000    24012568.086 8  96688673.977 8      -559.207          49.000
E33  26555437.023 6 139549761.704 6     -3015.789          39.000    26555436.523 7 106927691.247 7     -2310.832          43.000
> 2020 05 12 22 03  0.0000000  0 18        .000000000000
G01  22917788.484 8 120433782.994 8     -3311.449          48.000    22917791.516 8  93844508.283 8     -2580.350          48.000
G03  20826341.719 8 109443155.155 8     -1334.055          51.000    20826342.570 8  85280402.236 8     -1039.523          51.000
G04  20343519.266 8 106905928.421 8       740.523          50.000    20343519.094 8  83303330.105 8       577.031          49.000
G09  21927928.445 8 115232152.186 8      2770.051          49.000    21927930.344 8  89791275.897 8      2158.484          49.000
G17  22365017.617 6 117528958.342 6     -1429.277          37.000    22365018.812 6  91581009.050 6     -1113.723          37.000
R03  19945915.906 6 106772006.744 6     -1713.293          36.000    19945919.195 5  83044940.706 5     -1332.564          34.000
R04  20182694.219 5 108077407.320 5      1552.219          33.000
R12  22863721.953 6 122133880.512 6       338.094          36.000    22863724.477 4  94993043.086 4       262.962          28.000
R18  20619907.828 8 110070441.914 8     -3360.066          49.000    20619911.852 7  85610362.781 7     -2613.385          47.000
C05                                                                  39736610.617 5 160002864.150 5       -27.762          34.000
C20  23917715.930 5 124545812.410 5      2101.172          32.000
C23  25527844.820 5 132930154.717 5      2501.793          34.000
C27  25447057.945 6 132509477.822 6     -3483.844          36.000
C30  22861999.594 8 119048399.852 8     -1862.062          51.000
E04  25009722.859 8 131427093.055 8      1909.746          51.000    25009724.305 8 100703865.744 8      1463.318          51.000
E12  21875619.328 8 114957155.738 8     -1067.398          48.000    21875619.570 8  88084056.436 8      -817.796          51.000
E19  24016754.367 8 126208902.567 8      -740.926          48.000    24016755.062 8  96705533.387 8      -567.674          49.000
E33  26572665.133 6 139640297.583 6     -3023.559          41.000    26572666.430 7 106997062.908 7     -2316.932          43.000
> 2020 05 12 22 03 30.0000000  0 18        .000000000000
G01  22936703.484 8 120533180.151 8     -3316.676          48.000    22936704.555 8  93921960.604 8     -2584.423          48.000
G03  20833970.023 8 109483242.269 8     -1340.199          51.000    20833971.016 8  85311638.942 8     -1044.311          51.000
G04  20339327.648 8 106883901.134 8       726.242          51.000    20339327.656 8  83286165.991 8       565.903          50.000
G09  21912134.234 8 115149152.395 8      2761.680          50.000    21912135.648 8  89726600.765 8      2151.961          50.000
G17  22373209.914 6 117572005.078 6     -1442.320          39.000    22373209.883 6  91614551.945 6     -1123.889          39.000
R03  19955533.406 6 106823492.348 6     -1721.137          39.000    19955536.953 5  83084985.025 5     -1338.665          31.000
R04  20174036.984 5 108030976.392 5      1542.152          35.000
R12  22861878.469 5 122124051.894 5       315.211          34.000    22861883.062 4  94985392.669 4       245.164          26.000
R18  20638828.781 8 110171445.509 8     -3375.137          49.000    20638833.719 8  85688921.129 8     -2625.106          48.000
C05                                                                  39736803.891 5 160003641.950 5       -25.675          34.000
C20  23905611.695 4 124482790.780 4      2097.684          29.000
C23  25513436.383 5 132855127.814 5      2497.707          34.000
C27  25467120.211 5 132613944.919 5     -3482.125          35.000
C30  22872754.727 8 119104405.892 8     -1873.270          51.000
E04  24998827.641 8 131369837.347 8      1905.508          51.000    24998828.664 8 100659994.509 8      1460.049          51.000
E12  21881736.664 7 114989302.876 7     -1077.559          47.000    21881736.609 8  88108688.650 8      -825.641          51.000
E19  24020994.938 8 126231185.978 8      -746.359          48.000    24020995.562 8  96722607.691 8      -571.868          50.000
E33  26589927.016 6 139731010.087 6     -3025.562          41.000    26589929.250 7 107066569.884 7     -2318.258          43.000
> 2020 05 12 22 04  0.0000000  0 18        .000000000000
G01  22955660.367 8 120632798.629 8     -3322.938          48.000    22955658.930 8  93999585.383 8     -2589.302          48.000
G03  20841646.375 8 109523582.090 8     -1347.383          50.000    20841647.414 8  85343072.567 8     -1049.909          50.000
G04  20335230.055 8 106862367.197 8       711.039          51.000    20335230.328 8  83269386.308 8       554.059          51.000
G09  21896400.203 8 115066468.266 8      2752.391          50.000    21896401.508 8  89662171.638 8      2144.723          50.000
G17  22381491.289 6 117615521.521 6     -1456.855          41.000    22381490.695 6  91648460.847 6     -1135.212          40.000
G19  22181733.180 5 116565786.675 5      -454.344          34.000
R03  19965206.125 5 106875269.551 5     -1728.988          34.000    19965209.016 5  83125256.041 5     -1344.772          30.000
R04  20165434.781 5 107984917.515 5      1530.238          30.000
R12  22860174.781 6 122114953.394 6       293.125          38.000    22860179.438 5  94978316.026 5       227.989          33.000
R18  20657847.539 8 110272968.270 8     -3391.258          51.000    20657852.867 8  85767883.279 8     -2637.642          49.000
C05                                                                  39736992.547 5 160004402.475 5       -24.089          34.000
C23  25499062.555 5 132780282.855 5      2493.266          34.000
C27  25487185.484 5 132718430.158 5     -3481.477          35.000
C30  22883586.078 8 119160810.898 8     -1885.281          51.000
E04  24987969.164 8 131312774.174 8      1900.402          51.000    24987969.930 8 100616270.819 8      1456.179          51.000
E12  21887925.094 8 115021822.827 8     -1088.703          48.000    21887924.766 8  88133606.546 8      -834.231          51.000
E19  24025278.359 8 126253694.937 8      -752.617          48.000    24025279.156 8  96739854.827 8      -576.699          50.000
E33  26607211.336 6 139821843.950 6     -3028.383          41.000    26607215.016 7 107136169.841 7     -2320.365          44.000
> 2020 05 12 22 04 30.0000000  0 18        .000000000000
G01  22974655.633 7 120732621.125 7     -3333.188          46.000    22974653.805 7  94077369.112 7     -2597.292          46.000
G03  20849367.820 8 109564158.659 8     -1359.039          51.000    20849368.992 8  85374690.668 8     -1058.991          51.000
G04  20331223.383 8 106841310.968 8       691.418          51.000    20331223.664 8  83252978.855 8       538.767          51.000
G09  21880723.492 8 114984085.622 8      2738.402          51.000    21880724.938 8  89597977.409 8      2133.820          51.000
G17  22389858.445 6 117659489.726 6     -1475.555          39.000    22389855.453 6  91682721.732 6     -1149.786          39.000
G19  22184393.461 5 116579758.313 5      -477.801          30.000
R04  20156899.484 5 107939215.077 5      1514.926          32.000
R12  22858606.000 5 122106570.061 5       264.648          35.000    22858610.773 6  94971795.715 6       205.844          37.000
R18  20676960.078 8 110374990.933 8     -3411.609          50.000    20676965.500 8  85847234.239 8     -2653.474          49.000
C20  23881511.297 5 124357298.062 5      2086.406          31.000
C23  25484720.328 4 132705607.015 4      2484.707          29.000
C25  25343385.961 4 131969660.050 4       336.840          28.000
C27  25507251.320 5 132822915.950 5     -3485.570          32.000
C30  22894490.703 8 119217597.714 8     -1901.762          51.000
E04  24977144.078 8 131255888.210 8      1890.766          51.000    24977144.961 8 100572682.925 8      1448.721          51.000
E12  21894181.578 8 115054699.758 8     -1104.324          48.000    21894181.258 8  88158797.959 8      -846.230          51.000
E19  24029601.516 8 126276412.987 8      -763.324          48.000    24029602.453 8  96757262.160 8      -584.828          50.000
E33  26624515.734 6 139912782.221 6     -3035.637          41.000    26624520.172 7 107205849.809 7     -2325.939          44.000
> 2020 05 12 22 05  0.0000000  0 18        .000000000000
G01  22993698.859 7 120832697.394 7     -3339.953          45.000    22993697.898 7  94155350.614 7     -2602.561          45.000
G03  20857144.047 8 109605022.920 8     -1366.980          50.000    20857145.336 8  85406532.950 8     -1065.180          50.000
G04  20327317.250 8 106820783.763 8       675.516          51.000    20327317.547 8  83236983.638 8       526.376          51.000
G09  21865114.023 8 114902057.307 8      2728.609          50.000    21865115.656 8  89534059.262 8      2126.189          50.000
G17  22398320.461 6 117703959.270 6     -1490.430          38.000    22398314.820 6  91717373.333 6     -1161.371          37.000
G19  22187176.930 4 116594406.373 4      -498.660          29.000
R03  19984712.633 5 106979716.217 5     -1750.766          33.000    19984710.562 4  83206448.937 4     -1361.710          27.000
R12  22857181.695 5 122098954.910 5       241.578          34.000    22857185.406 6  94965872.976 6       187.897          37.000
R18  20696174.992 8 110477561.976 8     -3428.062          48.000    20696180.828 8  85927011.706 8     -2666.271          48.000
C05                                                                  39737357.336 5 160005869.935 5       -25.028          34.000
C20  23869497.781 5 124294737.362 5      2082.230          32.000
C23  25470422.125 5 132631153.693 5      2478.539          34.000
C27  25527325.508 5 132927451.080 5     -3485.148          31.000
C30  22905478.672 8 119274815.574 8     -1914.262          51.000
E04  24966362.117 8 131199231.099 8      1885.004          50.000    24966363.578 8 100529270.363 8      1444.327          51.000
E12  21900515.820 8 115087984.791 8     -1116.121          49.000    21900515.523 8  88184302.038 8      -855.141          51.000
E19  24033973.961 8 126299390.604 8      -770.039          48.000    24033974.867 8  96774868.392 8      -590.024          49.000
E33  26641849.727 6 140003874.925 6     -3038.926          40.000    26641854.672 7 107275648.129 7     -2328.417          43.000
> 2020 05 12 22 05 30.0000000  0 18        .000000000000
G01  23012798.625 7 120933071.073 7     -3351.824          44.000    23012799.508 7  94233563.847 7     -2611.814          44.000
G03  20864983.586 8 109646219.904 8     -1380.117          50.000    20864984.836 8  85438634.486 8     -1075.416          50.000
G04  20323520.477 8 106800830.863 8       654.160          51.000    20323520.836 8  83221435.948 8       509.735          51.000
G09  21849580.781 8 114820430.030 8      2712.832          51.000    21849582.016 8  89470453.598 8      2113.895          51.000
G17  22406885.992 6 117748974.073 6     -1510.934          38.000    22406879.391 6  91752449.783 6     -1177.348          38.000
G19  22190094.695 5 116609733.384 5      -523.094          30.000
R03  19994571.156 4 107032459.501 4     -1765.387          29.000    19994565.570 4  83247471.445 4     -1373.082          29.000
R04  20140094.672 5 107849291.364 5      1485.883          31.000    20140074.211 4  83882696.302 4      1155.687          29.000
R12  22855910.500 6 122092155.187 6       211.469          36.000    22855912.117 5  94960584.294 5       164.476          32.000
R18  20715500.195 7 110580723.887 7     -3449.875          47.000    20715506.312 7  86007248.748 7     -2683.236          47.000
C05                                                                  39737551.758 5 160006653.077 5       -28.028          34.000
C20  23857520.250 5 124232373.413 5      2072.141          31.000
C23  25456177.109 5 132556970.336 5      2467.055          34.000
C30  22916557.969 8 119332507.749 8     -1932.312          50.000
E04  24955632.414 8 131142848.484 8      1873.371          50.000    24955634.258 8 100486068.113 8      1435.431          51.000
E12  21906936.336 8 115121722.929 8     -1133.605          49.000    21906935.781 8  88210153.339 8      -868.589          51.000
E19  24038404.242 7 126322672.410 7      -782.543          47.000    24038405.031 8  96792707.686 8      -599.590          49.000
E33  26659221.703 6 140095166.078 6     -3047.793          38.000    26659226.844 7 107345598.526 7     -2335.394          43.000
> 2020 05 12 22 06  0.0000000  0 14        .000000000000
G01  23031953.000 7 121033730.705 7     -3359.926          45.000    23031955.367 7  94311999.892 7     -2618.124          45.000
G03  20872884.523 8 109687739.408 8     -1389.008          50.000    20872885.586 8  85470987.343 8     -1082.344          49.000
G04  20319831.086 8 106781442.404 8       637.109          51.000    20319831.188 8  83206328.070 8       496.449          51.000
G09  21834122.359 8 114739195.442 8      2701.492          51.000    21834122.859 8  89407153.931 8      2105.059          51.000
G17  22415553.898 6 117794522.788 6     -1526.809          41.000    22415548.156 6  91787942.288 6     -1189.721          41.000
R18  20734934.367 8 110684463.142 8     -3467.309          49.000    20734939.578 7  86087934.809 7     -2696.796          45.000
C05                                                                  39737755.312 5 160007472.809 5       -28.034          34.000
C20  23845589.672 5 124170250.846 5      2066.492          32.000
C23  25441982.008 5 132483049.778 5      2459.918          31.000
C30  22927725.836 8 119390662.817 8     -1946.016          49.000
E04  24944953.578 8 131086730.741 8      1866.340          51.000    24944955.273 8 100443068.821 8      1430.065          51.000
E12  21913440.906 8 115155904.133 8     -1146.500          49.000    21913440.242 8  88236344.122 8      -878.505          51.000
E19  24042890.453 8 126346247.694 8      -790.461          48.000    24042891.250 8  96810771.871 8      -605.762          49.000
E33  26676629.562 6 140186644.645 6     -3052.219          38.000    26676634.695 7 107415692.485 7     -2338.710          43.000
> 2020 05 12 22 06 30.0000000  0 15        .000000000000
G01  23051144.945 7 121134585.010 7     -3364.137          45.000    23051148.117 7  94390587.640 7     -2621.405          46.000
G03  20880829.688 8 109729491.556 8     -1394.688          48.000    20880830.562 8  85503521.475 8     -1086.766          48.000
G04  20316231.969 8 106762528.739 8       623.574          51.000    20316231.875 8  83191590.155 8       485.902          51.000
G09  21818721.859 8 114658265.399 8      2693.637          51.000    21818721.797 8  89344091.565 8      2098.941          51.000
G17  22424306.164 6 117840512.837 6     -1539.348          41.000    22424300.828 7  91823778.682 7     -1199.492          42.000
R03  20014462.812 4 107138984.821 4     -1781.988          29.000
R12  22853791.500 5 122080850.711 5       165.062          31.000
R18  20754459.711 8 110788685.103 8     -3481.066          50.000    20754462.812 7  86168996.289 7     -2707.496          43.000
C05                                                                  39737950.828 5 160008261.041 5       -25.143          34.000
C20  23833686.828 5 124108276.185 5      2064.047          32.000
C30  22938964.898 8 119449190.296 8     -1956.066          49.000
E04  24934308.258 8 131030788.584 8      1862.828          51.000    24934309.672 8 100400204.081 8      1427.335          51.000
E12  21920012.445 8 115190438.569 8     -1156.137          49.000    21920012.047 8  88262805.562 8      -885.829          51.000
E19  24047415.344 8 126370025.845 8      -795.059          48.000    24047416.250 8  96828991.490 8      -609.201          49.000
E33  26694056.391 6 140278219.645 6     -3053.016          41.000    26694060.984 7 107485860.360 7     -2339.354          43.000
> 2020 05 12 22 07  0.0000000  0 15        .000000000000
G01  23070356.133 7 121235539.899 7     -3375.473          46.000    23070359.102 7  94469253.777 7     -2630.238          46.000
G03  20888801.477 8 109771383.628 8     -1407.297          48.000    20888802.070 8  85536164.651 8     -1096.595          48.000
G04  20312705.586 8 106743997.416 8       602.695          51.000    20312705.625 8  83177150.175 8       469.633          51.000
G09  21803362.219 8 114577548.970 8      2678.402          51.000    21803362.031 8  89281195.671 8      2087.067          51.000
G17  22433124.602 6 117886850.536 6     -1558.945          41.000    22433120.078 6  91859885.950 6     -1214.763          41.000
G19  22199562.594 5 116659492.196 5      -587.176          31.000
R03  20024460.703 5 107192515.925 5     -1795.660          35.000    20024459.930 6  83371933.399 6     -1396.622          36.000
R04  20115378.375 5 107716924.503 5      1446.328          33.000    20115381.758 4  83779844.293 4      1124.931          27.000
R18  20774057.172 8 110893292.386 8     -3501.965          51.000    20774058.727 7  86250357.486 7     -2723.750          44.000
C05                                                                  39738120.867 5 160008944.613 5       -27.551          34.000
C30  22950257.797 8 119507996.983 8     -1973.324          49.000
E04  24923678.297 8 130974929.961 8      1851.961          50.000    24923680.188 8 100357403.324 8      1419.056          51.000
E12  21926633.703 8 115225233.565 8     -1172.664          49.000    21926633.438 8  88289466.655 8      -898.610          51.000
E19  24051961.242 8 126393913.671 8      -806.609          48.000    24051961.969 8  96847295.163 8      -618.084          50.000
E33  26711483.883 6 140369797.460 6     -3061.289          39.000    26711488.055 7 107556030.398 7     -2345.588          43.000
> 2020 05 12 22 07 30.0000000  0 14        .000000000000
G01  23089636.930 8 121336859.470 8     -3381.012          48.000    23089638.922 7  94548204.084 7     -2634.555          47.000
G03  20896850.367 7 109813680.970 7     -1414.148          47.000    20896850.977 7  85569123.612 7     -1101.934          47.000
G04  20309302.508 8 106726113.970 8       587.891          51.000    20309302.227 8  83163215.037 8       458.097          51.000
G09  21788094.062 8 114497313.228 8      2669.109          50.000    21788094.211 8  89218674.330 8      2079.825          50.000
G17  22442058.969 6 117933799.634 6     -1572.375          39.000    22442055.125 6  91896469.658 6     -1225.227          39.000
G19  22202968.867 5 116677387.642 5      -606.762          33.000
R03  20034540.992 5 107246484.474 5     -1803.766          35.000    20034544.484 6  83413908.910 6     -1402.929          37.000
R18  20793775.875 8 110998551.068 8     -3516.871          50.000    20793777.938 7  86332225.373 7     -2735.341          46.000
C05                                                                  39738316.102 5 160009730.684 5       -26.176          35.000
C30  22961655.359 8 119567344.397 8     -1984.707          49.000
E04  24913114.844 8 130919420.793 8      1846.930          51.000    24913117.367 8 100314870.333 8      1415.213          51.000
E12  21933354.992 8 115260554.513 8     -1183.621          49.000    21933355.023 8  88316530.737 8      -906.886          51.000
E19  24056578.398 8 126418175.982 8      -812.363          49.000    24056578.875 8  96865885.783 8      -622.562          51.000
E33  26728962.062 6 140461642.419 6     -3063.500          39.000    26728966.094 7 107626405.122 7     -2347.246          43.000
> 2020 05 12 22 08  0.0000000  0 17        .000000000000
G01  23108949.875 8 121438347.301 8     -3387.246          49.000    23108951.977 8  94627285.493 8     -2639.413          49.000
G03  20904939.367 8 109856188.588 8     -1421.898          48.000    20904940.219 8  85602246.421 8     -1107.973          48.000
G04  20305985.719 8 106708683.636 8       571.941          51.000    20305984.945 8  83149632.964 8       445.669          51.000
G09  21772879.914 7 114417364.966 7      2658.547          47.000    21772880.688 7  89156376.999 7      2071.595          47.000
G17  22451071.797 6 117981163.884 6     -1587.348          37.000    22451068.781 6  91933376.865 6     -1236.894          36.000
R03  20044665.484 5 107300689.473 5     -1812.395          30.000    20044670.297 6  83456068.454 6     -1409.634          36.000
R12  22851651.711 5 122069397.631 5        88.922          35.000    22851653.734 5  94942886.379 5        69.161          34.000
R18  20813577.930 8 111104260.000 8     -3532.582          49.000    20813581.898 8  86414443.465 8     -2747.564          48.000
C05                                                                  39738499.461 5 160010468.554 5       -25.219          34.000
C23  25385556.336 5 132189273.869 5      2434.625          30.000
C25  25332034.703 5 131910555.550 5       226.160          33.000
C27  25647951.805 5 133555578.507 5     -3491.328          31.000
C30  22973119.656 8 119627037.964 8     -1997.047          50.000
E04  24902581.539 8 130864066.636 8      1841.016          51.000    24902584.188 8 100272456.132 8      1410.657          51.000
E12  21940139.203 8 115296206.429 8     -1195.410          50.000    21940139.742 8  88343848.417 8      -915.991          51.000
E19  24061229.531 8 126442617.327 8      -819.219          49.000    24061230.172 8  96884613.568 8      -627.710          51.000
E33  26746453.539 6 140553558.555 6     -3066.816          37.000    26746457.656 7 107696834.366 7     -2349.755          43.000
> 2020 05 12 22 08 30.0000000  0 18        .000000000000
G01  23128309.711 8 121540082.927 8     -3388.867          48.000    23128312.320 8  94706560.009 8     -2640.676          48.000
G03  20913083.750 7 109898987.187 7     -1425.023          47.000    20913084.758 7  85635596.000 7     -1110.408          47.000
G04  20302770.547 8 106691787.396 8       560.844          51.000    20302769.648 8  83136467.079 8       437.021          51.000
G09  21757735.445 7 114337786.704 7      2652.836          46.000    21757737.516 7  89094367.935 7      2067.142          46.000
G17  22460178.211 5 118029021.941 5     -1597.215          33.000    22460176.195 5  91970668.785 5     -1244.589          34.000
G31  23836397.742 5 125261116.222 5     -1896.660          31.000
R03  20054846.359 5 107355212.086 5     -1815.980          35.000    20054853.680 5  83498475.016 5     -1412.429          33.000
R04  20091342.836 5 107588224.154 5      1416.789          30.000    20091346.961 4  83679733.699 4      1101.962          25.000
R12  22851222.680 5 122067113.844 5        69.180          35.000    22851226.258 5  94941110.126 5        53.812          33.000
R18  20833479.305 8 111210497.501 8     -3543.543          50.000    20833484.633 8  86497072.680 8     -2756.089          48.000
C20  23786367.836 4 123861883.234 4      2047.375          29.000
C23  25371562.312 5 132116380.342 5      2432.754          33.000
C25  25330780.625 6 131904021.335 6       216.242          37.000
C30  22984665.180 8 119687156.322 8     -2004.637          50.000
E04  24892093.609 8 130808948.863 8      1839.863          51.000    24892096.156 8 100230223.073 8      1409.691          51.000
E12  21947001.883 8 115332270.116 8     -1202.484          50.000    21947002.688 8  88371481.622 8      -921.423          51.000
E19  24065929.922 8 126467317.949 8      -821.301          49.000    24065930.992 8  96903540.033 8      -629.278          51.000
E33  26763973.805 6 140645625.609 6     -3064.617          37.000    26763977.672 6 107767379.269 6     -2348.578          41.000
> 2020 05 12 22 09  0.0000000  0 16        .000000000000
G01  23147703.172 7 121641998.210 7     -3405.348          46.000    23147706.781 7  94785974.521 7     -2653.518          46.000
G03  20921270.805 7 109942010.176 7     -1443.238          46.000    20921271.672 7  85669120.414 7     -1124.601          46.000
G04  20299644.141 8 106675358.711 8       534.488          51.000    20299643.555 8  83123665.522 8       416.484          51.000
G09  21742650.234 8 114258513.314 8      2631.969          48.000    21742652.688 8  89032596.498 8      2050.888          48.000
G31  23847295.461 5 125318382.561 5     -1922.164          31.000
R03  20065077.711 5 107409983.066 5     -1835.316          35.000    20065081.883 5  83541074.590 5     -1427.471          31.000
R04  20083472.273 5 107546103.127 5      1394.504          35.000
R12  22850929.891 5 122065543.176 5        34.828          30.000    22850930.969 5  94939888.427 5        27.082          30.000
R18  20853467.477 8 111317193.022 8     -3569.516          51.000    20853472.695 7  86580058.077 7     -2776.290          47.000
C23  25357599.320 4 132043673.386 4      2415.766          29.000
C25  25329610.586 6 131897923.664 6       190.730          36.000
C30  22996278.727 8 119747631.897 8     -2027.086          50.000
E04  24881637.922 8 130754001.419 8      1823.496          51.000    24881640.430 8 100188120.504 8      1397.212          51.000
E12  21953930.305 8 115368678.846 8     -1224.621          51.000    21953931.078 8  88399379.215 8      -938.379          51.000
E19  24070666.906 8 126492210.662 8      -838.215          49.000    24070668.086 8  96922613.674 8      -642.304          51.000
E33  26781509.383 5 140737775.953 5     -3078.711          34.000    26781513.141 6 107837987.988 6     -2358.797          40.000
> 2020 05 12 22 09 30.0000000  0 17        .000000000000
G01  23167157.609 7 121744235.318 7     -3410.539          43.000    23167161.633 7  94865639.809 7     -2657.563          43.000
G03  20929527.727 7 109985400.973 7     -1449.895          45.000    20929528.562 7  85702931.413 7     -1129.791          45.000
G04  20296634.055 8 106659541.203 8       519.816          51.000    20296633.414 8  83111340.175 8       405.052          51.000
G09  21727651.227 8 114179690.094 8      2622.727          51.000    21727653.453 8  88971175.861 8      2043.683          51.000
R03  20075384.258 5 107465147.045 5     -1842.273          34.000    20075388.094 5  83583979.864 5     -1432.885          33.000
R04  20075691.141 5 107504431.268 5      1383.688          33.000
R12  22850796.914 5 122064832.594 5        12.273          31.000    22850798.625 5  94939335.714 5         9.546          30.000
R18  20873568.336 8 111424488.687 8     -3583.688          51.000    20873571.703 7  86663510.203 7     -2787.316          44.000
C05                                                                  39739059.656 5 160012725.127 5       -25.681          34.000
C20  23762907.930 5 123739683.822 5      2030.047          32.000
C23  25343703.023 4 131971291.497 4      2409.488          28.000
C25  25328552.586 5 131892405.606 5       176.531          34.000
C30  23007987.117 8 119808605.469 8     -2037.930          48.000
E04  24871241.531 8 130699368.341 8      1818.551          51.000    24871244.039 8 100146258.804 8      1393.396          51.000
E12  21960951.758 8 115405576.121 8     -1235.391          51.000    21960952.352 8  88427651.150 8      -946.613          51.000
E19  24075467.664 8 126517438.352 8      -843.770          49.000    24075468.664 8  96941943.980 8      -646.573          51.000
E33  26799085.820 5 140830146.901 5     -3080.074          30.000    26799091.797 6 107908769.657 6     -2360.156          40.000
> 2020 05 12 22 10  0.0000000  0 16        .000000000000
G01  23186647.453 7 121846658.040 7     -3423.121          43.000    23186651.602 7  94945449.715 7     -2667.367          43.000
G03  20937828.930 7 110029024.739 7     -1463.895          45.000    20937829.844 7  85736923.968 7     -1140.697          45.000
G04  20293714.609 8 106644200.192 8       497.527          51.000    20293714.039 8  83099386.138 8       387.687          51.000
G09  21712712.766 8 114101183.936 8      2605.562          51.000    21712714.586 8  88910002.286 8      2030.311          51.000
G19  22221754.117 5 116776120.606 5      -716.922          34.000
R03  20085741.789 5 107520565.410 5     -1857.133          30.000    20085742.453 5  83627083.088 5     -1444.428          30.000
R18  20893754.852 8 111532244.446 8     -3605.469          50.000    20893755.938 7  86747320.107 7     -2804.257          44.000
C05                                                                  39739248.297 5 160013484.034 5       -29.121          34.000
C20  23751236.719 5 123678875.626 5      2018.832          31.000
C23  25329843.086 4 131899137.124 4      2396.512          29.000
C25  25327579.703 5 131887334.615 5       155.309          34.000
C30  23019765.406 8 119869942.009 8     -2056.527          48.000
E04  24860879.180 8 130644915.363 8      1806.125          51.000    24860881.578 8 100104535.106 8      1383.965          51.000
E12  21968040.594 8 115442827.055 8     -1253.520          51.000    21968040.664 8  88456194.068 8      -960.444          51.000
E19  24080306.297 8 126542865.650 8      -856.773          49.000    24080307.148 8  96961427.236 8      -656.474          51.000
E33                                                                  26816686.773 6 107979620.213 6     -2367.198          40.000
> 2020 05 12 22 10 30.0000000  0 15        .000000000000
G01  23206181.547 7 121949310.242 7     -3429.246          45.000    23206185.367 7  95025438.441 7     -2672.140          45.000
G03  20946183.102 7 110072926.803 7     -1471.961          44.000    20946183.977 7  85771133.395 7     -1146.983          44.000
G04  20290894.602 8 106629381.128 8       481.426          51.000    20290894.211 8  83087838.827 8       375.137          51.000
G09  21697843.352 8 114023041.905 8      2594.824          51.000    21697844.695 8  88849112.411 8      2021.941          51.000
R03  20096146.695 5 107576282.499 5     -1866.035          35.000    20096149.297 4  83670428.736 4     -1451.364          26.000
R18  20914034.344 7 111640502.376 7     -3620.855          47.000    20914036.617 7  86831520.657 7     -2816.224          47.000
C05                                                                  39739438.336 5 160014250.589 5       -28.547          34.000
C20  23739590.078 5 123618303.084 5      2013.809          31.000
C23  25316028.875 5 131827199.798 5      2390.457          32.000
C25  25326699.812 5 131882756.483 5       140.594          30.000
C30  23031622.133 8 119931684.936 8     -2068.578          48.000
E04  24850560.016 8 130590688.342 8      1800.035          51.000    24850561.938 8 100062984.558 8      1379.230          51.000
E12  21975205.273 8 115480476.985 8     -1265.496          51.000    21975204.625 8  88485042.700 8      -969.558          51.000
E19  24085191.367 8 126568537.188 8      -863.621          49.000    24085192.016 8  96981097.634 8      -661.685          51.000
E33                                                                  26834307.336 6 108050573.593 6     -2369.647          41.000
> 2020 05 12 22 11  0.0000000  0 16        .000000000000
G01  23225764.648 7 122052218.403 7     -3433.762          45.000    23225767.750 7  95105626.577 7     -2675.662          45.000
G03  20954595.797 7 110117134.984 7     -1478.051          45.000    20954596.242 7  85805581.334 7     -1151.728          45.000
G04  20288179.352 8 106615111.895 8       467.199          51.000    20288178.680 8  83076719.955 8       364.051          51.000
G09  21683048.297 8 113945293.363 8      2585.770          51.000    21683049.773 8  88788529.146 8      2014.888          50.000
G17  22507069.328 5 118275445.262 5     -1682.777          33.000    22507067.000 5  92162682.205 5     -1311.252          32.000
R03  20106615.023 6 107632325.910 6     -1872.848          36.000    20106617.477 4  83714011.932 4     -1456.665          28.000
R12  22851242.305 6 122067202.930 6       -65.324          38.000    22851241.695 4  94941171.756 4       -50.808          28.000
R18  20934411.883 7 111749287.834 7     -3634.156          47.000    20934416.898 8  86916131.597 8     -2826.563          48.000
C05                                                                  39739635.117 5 160015041.404 5       -26.379          34.000
C23  25302266.984 4 131755536.230 4      2385.164          29.000
C25  25325919.891 5 131878699.796 5       127.191          34.000
C30  23043562.312 8 119993860.349 8     -2078.910          49.000
E04  24840289.570 8 130536715.712 8      1795.703          51.000    24840290.836 8 100021628.919 8      1375.916          51.000
E12  21982451.055 8 115518553.615 8     -1275.586          51.000    21982449.859 8  88514218.296 8      -977.340          51.000
E19  24090128.156 8 126594480.536 8      -868.488          49.000    24090128.680 8  97000976.313 8      -665.507          51.000
E33  26851953.734 6 141107962.010 6     -3093.836          36.000    26851958.750 6 108121650.347 6     -2370.611          41.000
> 2020 05 12 22 11 30.0000000  0 16        .000000000000
G01  23245369.961 7 122155242.716 7     -3437.312          45.000    23245371.742 7  95185905.183 7     -2678.428          45.000
G03  20963040.500 7 110161510.839 7     -1483.176          47.000    20963040.609 7  85840159.918 7     -1155.721          47.000
G04  20285542.383 8 106601254.189 8       453.691          51.000    20285541.656 8  83065921.753 8       353.526          51.000
G09  21668301.578 8 113867801.665 8      2577.414          49.000    21668303.547 8  88728146.021 8      2008.375          49.000
R03  20117117.648 5 107688553.016 5     -1878.543          35.000    20117120.297 5  83757744.148 5     -1461.089          30.000
R04  20045271.648 5 107341520.084 5      1333.613          31.000
R12  22851663.656 5 122069446.944 5       -87.172          35.000    22851662.844 5  94942917.124 5       -67.800          30.000
R18  20954862.703 8 111858456.679 8     -3646.680          50.000    20954868.617 8  87001040.730 8     -2836.306          48.000
C05                                                                  39739812.250 5 160015755.685 5       -23.479          35.000
C23  25288531.930 4 131684020.771 4      2380.625          28.000
C25  25325213.992 5 131875027.982 5       114.305          34.000
C30  23055559.117 8 120056329.580 8     -2088.480          51.000
E04  24830041.336 8 130482859.545 8      1791.977          51.000    24830042.328 8  99980362.525 8      1373.052          51.000
E12  21989751.680 8 115556918.499 8     -1284.961          50.000    21989750.320 8  88543614.748 8      -984.565          51.000
E19  24095090.297 8 126620556.659 8      -872.758          50.000    24095090.891 8  97020956.709 8      -668.689          51.000
E33  26869610.641 6 141200744.806 6     -3094.465          36.000    26869613.742 7 108192743.666 7     -2371.128          42.000
> 2020 05 12 22 12  0.0000000  0 15        .000000000000
G01  23265045.516 7 122258637.982 7     -3454.637          44.000    23265046.898 7  95266472.856 7     -2691.925          44.000
G03  20971566.039 8 110206310.527 8     -1502.145          48.000    20971565.945 8  85875068.770 8     -1170.502          48.000
G04  20283032.383 8 106588064.186 8       426.766          51.000    20283031.844 8  83055643.850 8       332.545          51.000
G09  21653652.773 8 113790824.505 8      2555.723          49.000    21653654.648 8  88668163.834 8      1991.472          49.000
G17  22526451.648 5 118377294.254 5     -1719.422          35.000    22526447.781 5  92242029.736 5     -1339.809          35.000
R03  20127703.695 6 107745223.335 6     -1898.059          40.000    20127706.680 5  83801821.030 5     -1476.271          32.000
R04  20037864.305 5 107301871.495 5      1310.758          32.000
R18  20975434.805 8 111968265.762 8     -3672.699          51.000    20975439.828 8  87086447.800 8     -2856.544          48.000
C05                                                                  39740018.648 5 160016586.140 5       -31.142          34.000
C23  25274872.297 5 131612894.402 5      2362.270          31.000
C30  23067661.188 8 120119344.933 8     -2111.328          51.000
E04  24819864.039 8 130429376.596 8      1774.891          51.000    24819865.094 8  99939382.091 8      1359.957          51.000
E12  21997155.797 8 115595827.685 8     -1307.660          50.000    21997154.578 8  88573428.260 8     -1002.000          51.000
E19  24100126.344 8 126647021.089 8      -890.277          51.000    24100127.023 8  97041234.649 8      -682.074          51.000
E33  26887318.180 5 141293811.310 5     -3108.062          34.000    26887321.750 7 108264049.024 7     -2381.685          42.000
> 2020 05 12 22 12 30.0000000  0 16        .000000000000
G01  23284742.992 7 122362148.738 7     -3451.965          44.000    23284745.359 7  95347130.574 7     -2689.840          44.000
G03  20980123.750 8 110251280.087 8     -1501.105          48.000    20980123.805 8  85910109.964 8     -1169.693          48.000
G04  20280601.023 8 106575287.974 8       419.645          51.000    20280600.727 8  83045688.364 8       326.996          50.000
G09  21639054.430 8 113714109.596 8      2553.520          51.000    21639055.094 8  88608386.011 8      1989.755          51.000
G17  22536269.656 6 118428886.697 6     -1724.969          40.000    22536268.281 6  92282231.573 6     -1344.131          40.000
R03  20138325.094 6 107802076.719 6     -1897.457          40.000    20138327.578 5  83846040.299 5     -1475.800          33.000
R04  20030510.969 5 107262514.048 5      1307.789          35.000
R12  22852972.898 6 122076474.706 6      -138.051          38.000    22852977.828 5  94948378.957 5      -107.376          34.000
R18  20996077.945 8 112078453.518 8     -3678.508          51.000    20996081.633 7  87172149.356 7     -2861.062          47.000
C05                                                                  39740206.273 5 160017342.338 5       -23.364          34.000
C23  25261239.055 5 131541919.316 5      2363.500          34.000
C30  23079819.711 8 120182653.284 8     -2114.473          51.000
E04  24809709.305 8 130376013.394 8      1777.398          51.000    24809710.758 8  99898493.412 8      1361.906          51.000
E12  22004615.273 8 115635027.109 8     -1310.777          50.000    22004614.203 8  88603464.176 8     -1004.365          51.000
E19  24105187.742 8 126673619.202 8      -888.137          51.000    24105188.266 8  97061615.035 8      -680.568          51.000
E33  26905030.289 5 141386887.657 5     -3102.555          32.000    26905034.109 7 108335371.019 7     -2377.198          42.000
> 2020 05 12 22 13  0.0000000  0 16        .000000000000
G01  23304480.484 7 122465870.444 7     -3461.957          44.000    23304484.000 7  95427952.679 7     -2697.632          44.000
G03  20988732.000 8 110296516.259 8     -1513.273          48.000    20988732.078 7  85945358.918 7     -1179.171          47.000
G04  20278266.711 8 106563022.377 8       399.227          50.000    20278266.781 8  83036130.764 8       311.089          50.000
G09  21624524.867 8 113637755.360 8      2537.953          51.000    21624524.555 8  88548889.233 8      1977.629          51.000
G17  22546173.758 6 118480933.315 6     -1743.730          39.000    22546175.109 6  92322787.335 6     -1358.754          40.000
R03  20148998.281 6 107859210.338 6     -1910.203          39.000    20149000.500 5  83890477.566 5     -1485.714          33.000
R04  20023232.633 4 107223546.263 4      1291.266          29.000
R12  22853830.859 5 122081066.353 5      -166.543          33.000    22853834.328 4  94951950.088 4      -129.543          28.000
R18  21016809.078 8 112189114.846 8     -3697.664          51.000    21016812.070 7  87258219.251 7     -2875.961          46.000
C05                                                                  39740393.648 5 160018095.825 5       -25.910          34.000
C23  25247653.008 5 131471192.178 5      2352.199          32.000
C30  23092052.398 8 120246348.988 8     -2130.730          51.000
E04  24799595.758 8 130322867.278 8      1766.902          51.000    24799597.266 8  99857771.071 8      1353.869          51.000
E12  22012148.086 8 115674613.455 8     -1326.938          49.000    22012147.633 8  88633796.572 8     -1016.807          51.000
E19  24110293.031 8 126700447.451 8      -899.176          51.000    24110293.242 8  97082171.738 8      -688.910          50.000
E33  26922767.992 5 141480089.421 5     -3109.609          34.000    26922769.461 7 108406783.018 7     -2382.640          42.000
> 2020 05 12 22 13 30.0000000  0 17        .000000000000
G01  23324234.656 7 122569680.324 7     -3467.844          45.000    23324238.945 7  95508843.520 7     -2702.213          44.000
G03  20997367.656 7 110341897.747 7     -1521.121          46.000    20997367.977 7  85980721.093 7     -1185.289          46.000
G04  20276006.648 8 106551146.051 8       383.301          51.000    20276006.961 8  83026876.496 8       298.676          51.000
G09  21610040.891 8 113561642.103 8      2527.012          50.000    21610041.414 8  88489580.220 8      1969.100          50.000
G17  22556141.055 6 118533311.138 6     -1757.453          38.000    22556142.656 6  92363601.204 6     -1369.444          38.000
G19  22253130.031 6 116940980.057 6      -858.027          36.000    22253121.914 5  91122813.199 5      -668.593          32.000
R03  20159699.672 6 107916499.186 6     -1918.426          39.000    20159701.125 5  83935035.526 5     -1492.112          33.000
R18  21037604.109 8 112300123.036 8     -3712.156          50.000    21037607.148 7  87344558.942 7     -2887.233          45.000
C05                                                                  39740557.453 5 160018755.503 5       -24.932          34.000
C20  23670408.758 5 123258037.238 5      1983.309          30.000
C23  25234090.336 4 131400532.091 4      2345.301          28.000
C25  25323364.703 5 131865404.130 5        47.805          34.000
C30  23104335.445 8 120310310.255 8     -2142.539          51.000
E04  24789500.609 8 130269817.433 8      1760.758          51.000    24789501.570 8  99817122.516 8      1349.128          51.000
E12  22019731.438 8 115714465.309 8     -1338.859          48.000    22019731.617 8  88664332.390 8     -1025.816          51.000
E19  24115419.070 8 126727383.883 8      -905.684          51.000    24115419.188 8  97102811.337 8      -693.962          51.000
E33  26940505.375 5 141573310.278 5     -3112.496          33.000    26940503.594 7 108478191.256 7     -2384.726          42.000
> 2020 05 12 22 14  0.0000000  0 17        .000000000000
G01  23344060.453 7 122673864.625 7     -3474.680          45.000    23344064.992 7  95590026.115 7     -2707.543          45.000
G03  21006085.367 7 110387712.134 7     -1529.945          45.000    21006086.500 7  86016420.591 7     -1192.168          44.000
G04  20273875.562 8 106539946.651 8       366.383          51.000    20273876.023 8  83018149.709 8       285.493          51.000
G09  21595657.414 8 113486059.097 8      2514.879          49.000    21595659.570 8  88430684.362 8      1959.646          49.000
G17  22566225.594 6 118586305.867 6     -1772.719          38.000    22566226.445 6  92404895.810 6     -1381.342          38.000
G19  22258091.711 5 116967070.213 5      -878.391          35.000
G22  22853317.422 5 120094996.364 5     -2383.160          33.000
R03  20170485.688 6 107974235.277 6     -1927.566          40.000    20170486.312 5  83979941.340 5     -1499.218          34.000
R12  22855965.469 6 122092438.332 6      -216.594          37.000    22855970.688 5  94960808.604 5      -168.462          34.000
R18  21058518.086 8 112411766.881 8     -3727.574          50.000    21058520.664 7  87431393.023 7     -2899.224          44.000
C05                                                                  39740752.516 5 160019541.536 5       -25.098          34.000
C25  25323144.023 5 131864264.828 5        31.434          31.000
C30  23116723.539 8 120374820.563 8     -2155.141          50.000
E04  24779478.766 8 130217152.058 8      1753.473          51.000    24779478.789 8  99776768.559 8      1343.534          51.000
E12  22027420.359 8 115754870.135 8     -1351.684          49.000    22027420.688 8  88695291.944 8     -1035.715          51.000
E19  24120620.117 8 126754715.525 8      -913.195          50.000    24120620.531 8  97123753.780 8      -699.754          50.000
E33  26958295.297 5 141666796.887 5     -3116.219          34.000    26958291.273 7 108549815.381 7     -2387.704          42.000
> 2020 05 12 22 14 30.0000000  0 18        .000000000000
G01  23363916.727 7 122778208.838 7     -3481.637          46.000    23363921.086 7  95671333.313 7     -2712.964          47.000
G03  21014845.117 7 110433746.319 7     -1539.066          46.000    21014846.281 7  86052291.349 7     -1199.276          46.000
G04  20271832.781 8 106529211.019 8       349.262          51.000    20271833.188 8  83009784.296 8       272.152          51.000
G09  21581335.016 8 113410794.755 8      2502.594          50.000    21581337.992 8  88372036.842 8      1950.073          51.000
G17  22576386.586 6 118639702.439 6     -1787.355          41.000    22576386.430 6  92446503.524 6     -1392.745          40.000
G19  22263163.328 5 116993733.839 5      -898.875          34.000
G22  22866934.867 5 120166574.351 5     -2388.367          34.000
G31  23973682.258 5 125982545.386 5     -2104.453          35.000    23973682.102 5  98168221.693 5     -1639.837          33.000
R03  20181315.844 6 108032199.957 6     -1936.895          39.000    20181315.430 6  84025025.012 6     -1506.470          37.000
R05  23593290.844 5 126119656.913 5      3220.973          35.000    23593295.930 4  98093080.818 4      2505.204          27.000
R12  22857255.039 6 122099319.828 6      -242.570          39.000    22857258.258 5  94966160.962 5      -188.660          30.000
R18  21079510.539 8 112523826.209 8     -3743.066          50.000    21079511.734 7  87518550.250 7     -2911.274          44.000
C05                                                                  39740938.594 5 160020290.922 5       -25.463          34.000
C30  23129175.992 8 120439667.207 8     -2168.027          50.000
