     3.02           OBSERVATION DATA    M (MIXED)           RINEX VERSION / TYPE
SAVERINEX           SC600               20200513 045931 LCL PGM / RUN BY / DATE
       G = GPS       R = GLONASS       C = COMPASS          COMMENT
       S = SBAS      J = QZSS          E = GALILEO          COMMENT
BEAN                                                        MARKER NAME
1                                                           MARKER NUMBER
GEODETIC                                                    MARKER TYPE
Unige DICCA         GTER                                    OBSERVER / AGENCY
SC60291900056       SC600               2.12(191226)        REC # / TYPE / VERS
                    HEMA45          NONE                    ANT # / TYPE
  4509407.8091   693652.4678  4442337.6214                  APPROX POSITION XYZ
        0.0000        0.0000        0.0000                  ANTENNA: DELTA H/E/N
G    8 C1C L1C D1C S1C C2Y L2Y D2Y S2Y                      SYS / # / OBS TYPES
R    8 C1C L1C D1C S1C C2P L2P D2P S2P                      SYS / # / OBS TYPES
C    8 C1I L1I D1I S1I C7I L7I D7I S7I                      SYS / # / OBS TYPES
E    8 C1C L1C D1C S1C C7Q L7Q D7Q S7Q                      SYS / # / OBS TYPES
DBHZ                                                        COMMENT
     30.000                                                 INTERVAL
  2020    05    13    02    00    0.0000000     GPS         TIME OF FIRST OBS
  2020    05    13    02    59   30.0000000     GPS         TIME OF LAST OBS
     0                                                      RCV CLOCK OFFS APPL
G L1C  0.00000                                              SYS / PHASE SHIFT
G L2Y  0.00000                                              SYS / PHASE SHIFT
R L1C  0.00000                                              SYS / PHASE SHIFT
R L2P  0.25000                                              SYS / PHASE SHIFT
C L1I  0.00000                                              SYS / PHASE SHIFT
C L7I  0.00000                                              SYS / PHASE SHIFT
E L1C  0.50000                                              SYS / PHASE SHIFT
E L7Q -0.25000                                              SYS / PHASE SHIFT
 13 R02 -4 R03  5 R04  6 R05  1 R10 -5 R13 -2 R14 -7 R15  0 GLONASS SLOT / FRQ #
    R16 -1 R17  4 R18 -3 R19  3 R20  2                      GLONASS SLOT / FRQ #
 C1C   71.950 C2C   71.950 C2P   71.950                     GLONASS COD/PHS/BIS
    18                                                      LEAP SECONDS
*** Above antenna height is from mark to ANTENNA BOTTOM.    COMMENT
    17     4        0.0000        ANT MEASURE TYPE/HEIGT    COMMENT
    0.0000    0.0000    0.0458    0.0405    0.0000          COMMENT
                    BASE STATION                            COMMENT
                                                            END OF HEADER
> 2020 05 13 02 00  0.0000000  0 12        .000000000000
G02  23228977.812 8 122069107.599 8     -2070.688          50.000    23228975.211 7  95118788.645 7     -1613.526          46.000
G07  20948289.398 8 110084007.289 8      -927.391          51.000    20948287.820 8  85779742.309 8      -722.642          51.000
G09  22439275.398 5 117919205.133 5     -2483.637          33.000    22439271.453 5  91885076.684 5     -1935.301          33.000
G30  20632583.680 8 108424956.464 8      1240.609          51.000    20632584.852 8  84486982.256 8       966.709          51.000
R05  19661315.102 8 105100991.183 8      -856.418          51.000    19661317.625 8  81745214.187 8      -666.103          50.000
R15  19566590.328 8 104557989.233 8      -362.090          51.000    19566592.078 8  81322828.089 8      -281.622          49.000
R16  20962573.688 7 111978312.460 7      3725.297          45.000    20962578.133 7  87094226.499 7      2897.453          44.000
C05  39799167.938 6 207244710.417 6        -8.391          36.000    39799165.828 6 160254743.848 6        -6.606          40.000
C20  22706246.469 8 118237383.101 8     -1674.137          51.000
E01                                                                  24842872.938 7 100031972.767 7        84.747          44.000
E04  24087808.438 8 126582409.402 8     -1056.484          51.000    24087809.125 8  96991708.082 8      -809.469          51.000
E31  25447373.320 8 133726881.190 8      2664.750          51.000    25447375.086 8 102466078.662 8      2041.854          51.000
> 2020 05 13 02 00 30.0000000  0 14        .000000000000
G02  23240825.797 8 122131367.507 8     -2083.406          50.000    23240822.906 7  95167302.857 7     -1623.433          47.000
G06  24244872.805 5 127407653.315 5     -3492.895          32.000
G07  20953617.086 8 110112003.884 8      -942.602          51.000    20953615.695 8  85801557.839 8      -734.495          51.000
G09  22453462.609 5 117993769.059 5     -2490.324          35.000
G30  20625540.375 8 108387943.899 8      1223.527          51.000    20625541.680 8  84458141.322 8       953.398          51.000
R04  22956213.352 5 122929477.951 5     -3229.953          30.000    22956217.094 4  95611830.531 4     -2512.180          25.000
R05  19666158.367 8 105126880.491 8      -873.102          51.000    19666160.664 8  81765350.311 8      -679.079          50.000
R15  19568692.078 8 104569220.209 8      -390.371          51.000    19568693.812 8  81331563.303 8      -303.622          48.000
R16  20941689.633 7 111866753.935 7      3708.375          45.000    20941694.156 7  87007458.735 7      2884.292          44.000
C05  39799210.086 6 207244929.946 6        -9.758          36.000    39799207.969 6 160254913.585 6        -7.524          40.000
C20  22715914.156 8 118287727.037 8     -1685.672          51.000
E01  24842276.609 6 130547054.227 6        94.648          36.000    24842278.492 7 100029578.213 7        72.146          43.000
E04  24093850.031 8 126614157.914 8     -1063.766          51.000    24093850.531 8  97016034.847 8      -815.054          51.000
E31  25432177.695 8 133647024.619 8      2655.387          51.000    25432179.172 8 102404889.873 8      2034.611          51.000
> 2020 05 13 02 01  0.0000000  0 14        .000000000000
G02  23252742.297 8 122193989.091 8     -2092.125          49.000    23252739.281 7  95216098.887 7     -1630.230          47.000
G06  24264795.453 5 127512362.132 5     -3491.777          31.000    24264781.688 4  99360224.059 4     -2720.865          27.000
G07  20959028.078 8 110140438.552 8      -953.875          51.000    20959026.758 8  85823714.727 8      -743.279          51.000
G30  20618591.641 8 108351427.717 8      1209.984          51.000    20618592.961 8  84429687.175 8       942.845          51.000
R04  22974310.930 5 123026428.792 5     -3234.250          32.000
R05  19671090.688 8 105153246.794 8      -885.617          51.000    19671093.070 8  81785857.418 8      -688.813          50.000
R15  19570949.242 8 104581281.358 8      -414.727          51.000    19570950.664 8  81340944.195 8      -322.568          49.000
R16  20920896.898 7 111755683.595 7      3695.301          47.000    20920901.469 7  86921070.701 7      2874.123          44.000
C05  39799255.727 6 207245167.174 6        -6.996          36.000    39799253.539 6 160255097.023 6        -5.386          40.000
C19  21793196.047 6 113482893.345 6      1151.238          36.000
C20  22725645.211 8 118338400.763 8     -1693.488          51.000
E01  24841767.445 5 130544368.819 5        81.953          31.000    24841773.383 7 100027544.298 7        62.693          43.000
E04  24099929.320 8 126646104.257 8     -1066.996          51.000    24099929.727 8  97040513.210 8      -817.565          51.000
E31  25417031.602 8 133567429.309 8      2649.965          51.000    25417033.422 8 102343901.261 8      2030.496          51.000
> 2020 05 13 02 01 30.0000000  0 16        .000000000000
G02  23264724.180 8 122256955.131 8     -2100.145          48.000    23264721.633 7  95265163.310 7     -1636.479          47.000
G06  24284735.352 5 127617155.622 5     -3489.953          31.000    24284723.508 5  99441881.356 5     -2719.441          31.000
G07  20964519.297 8 110169294.860 8      -964.496          51.000    20964517.812 8  85846200.170 8      -751.552          51.000
G09  22481959.000 5 118143490.449 5     -2496.477          33.000
G30  20611734.766 8 108315393.695 8      1197.438          51.000    20611735.945 8  84401608.708 8       933.068          51.000
R04  22992456.086 5 123123604.133 5     -3238.457          31.000
R05  19676109.711 8 105180075.904 8      -897.660          51.000    19676112.055 8  81806724.495 8      -698.180          49.000
R14  22573224.273 5 120327933.333 5     -3765.727          31.000
R15  19573358.578 8 104594156.659 8      -438.383          51.000    19573360.336 8  81350958.340 8      -340.964          49.000
R16  20900193.625 7 111645090.135 7      3682.797          46.000    20900197.938 7  86835053.581 7      2864.401          44.000
C05  39799301.852 6 207245407.638 6        -3.707          36.000    39799299.766 6 160255282.985 6        -2.921          40.000
C19  21786598.141 5 113448543.257 5      1144.152          32.000
C20  22735436.906 8 118389389.593 8     -1700.555          51.000
E01  24841349.578 6 130542171.404 6        70.000          37.000    24841355.102 7 100025859.761 7        53.777          44.000
E04  24106043.422 8 126678234.003 8     -1069.641          51.000    24106044.047 8  97065132.094 8      -819.568          51.000
E31  25401932.789 8 133488082.397 8      2645.125          51.000    25401935.195 8 102283102.971 8      2026.823          51.000
> 2020 05 13 02 02  0.0000000  0 15        .000000000000
G02  23276771.242 8 122320263.221 8     -2118.258          48.000    23276769.133 7  95314494.295 7     -1650.591          46.000
G07  20970090.492 8 110198571.794 8      -985.199          51.000    20970089.039 8  85869013.368 8      -767.688          51.000
G09  22496238.984 6 118218584.342 6     -2508.531          36.000
G30  20604969.680 8 108279842.346 8      1174.680          51.000    20604971.039 8  84373906.356 8       915.338          51.000
R04  23010652.016 5 123221018.617 5     -3252.125          31.000
R05  19681215.164 8 105207368.547 8      -919.824          51.000    19681217.656 8  81827952.078 8      -715.422          49.000
R14  22594475.664 5 120441234.676 5     -3784.324          31.000
R15  19575920.156 8 104607845.225 8      -472.184          51.000    19575921.812 8  81361605.004 8      -367.254          49.000
R16  20879580.430 7 111534977.358 7      3660.016          46.000    20879583.391 7  86749410.318 7      2846.682          42.000
C05  39799348.797 6 207245651.538 6       -10.508          36.000    39799346.562 6 160255471.576 6        -8.131          41.000
C19  21780059.438 4 113414504.443 4      1127.168          29.000
C20  22745288.898 8 118440693.470 8     -1717.711          51.000
E01  24841017.695 6 130540429.116 6        48.559          37.000    24841024.070 7 100024524.724 7        36.827          45.000
E04  24112192.438 8 126710547.540 8     -1082.586          51.000    24112193.133 8  97089891.780 8      -829.442          51.000
E31  25386881.375 8 133408985.841 8      2630.043          51.000    25386884.523 8 102222496.525 8      2015.237          51.000
> 2020 05 13 02 02 30.0000000  0 15        .000000000000
G02  23288886.453 8 122383928.027 8     -2124.336          48.000    23288884.055 7  95364103.222 7     -1655.327          46.000
G06  24324650.477 5 127826900.443 5     -3494.621          31.000
G07  20975744.711 8 110228285.189 8      -993.969          51.000    20975743.469 8  85892166.684 8      -774.521          51.000
G09  22510567.820 6 118293879.239 6     -2509.305          37.000
G30  20598299.672 8 108244791.024 8      1163.789          51.000    20598301.312 8  84346593.667 8       906.849          51.000
R05  19686410.875 8 105235142.851 8      -929.930          51.000    19686413.234 8  81849554.310 8      -723.279          48.000
R14  22615795.359 5 120554858.970 5     -3790.488          31.000
R15  19578636.758 8 104622363.034 8      -493.918          51.000    19578638.867 8  81372896.656 8      -384.158          49.000
R16  20859061.227 7 111425366.127 7      3649.141          46.000    20859062.414 6  86664157.169 6      2838.220          40.000
C05  39799399.477 6 207245915.662 6        -5.527          36.000    39799397.289 6 160255675.803 6        -4.183          40.000
C19  21773585.109 5 113380795.008 5      1121.914          34.000
C20  22755204.773 8 118492328.971 8     -1722.844          51.000
E01  24840776.180 6 130539159.791 6        38.098          38.000    24840783.109 7 100023552.101 7        29.305          44.000
E04  24118379.891 8 126743061.994 8     -1083.348          51.000    24118380.273 8  97114805.452 8      -830.119          51.000
E31  25371881.000 8 133330158.402 8      2626.879          51.000    25371884.789 8 102162096.268 8      2012.836          51.000
> 2020 05 13 02 03  0.0000000  0 15        .000000000000
G02  23301060.922 8 122447903.470 8     -2139.176          49.000    23301057.586 7  95413954.203 7     -1666.890          45.000
G07  20981473.438 8 110258390.058 8     -1011.559          51.000    20981472.102 8  85915625.024 8      -788.227          51.000
G09  22524925.773 6 118369320.682 6     -2518.539          37.000    22524912.453 5  92235761.785 5     -1962.504          33.000
G13  23390791.852 5 122919440.028 5      2854.164          31.000
G30  20591716.672 8 108210196.476 8      1144.023          51.000    20591718.102 8  84319636.879 8       891.447          51.000
R05  19691688.375 8 105263354.862 8      -949.246          50.000    19691690.656 8  81871496.985 8      -738.303          49.000
R14  22637164.359 5 120668823.236 5     -3805.137          32.000
R15  19581500.188 8 104637664.462 8      -524.602          51.000    19581502.266 8  81384797.760 8      -408.023          49.000
R16  20838628.273 7 111316216.096 7      3629.055          45.000    20838627.961 6  86579262.733 6      2822.601          40.000
C05  39799445.852 6 207246156.754 6        -9.086          36.000    39799443.562 6 160255862.245 6        -7.156          40.000
C19  21767167.461 5 113347373.112 5      1107.691          35.000
C20  22765176.242 8 118544252.682 8     -1737.137          51.000
E01  24840617.414 6 130538319.753 6        19.309          39.000    24840622.898 7 100022908.378 7        14.663          44.000
E04  24124597.266 8 126775733.868 8     -1093.227          51.000    24124597.367 8  97139839.754 8      -837.673          51.000
E31  25356923.727 8 133251558.167 8      2614.695          51.000    25356927.812 8 102101870.110 8      2003.453          51.000
> 2020 05 13 02 03 30.0000000  0 13        .000000000000
G02  23313300.906 8 122512223.221 8     -2153.078          50.000    23313296.523 7  95464073.483 7     -1677.723          45.000
G07  20987283.273 8 110288921.224 8     -1028.355          51.000    20987281.875 8  85939415.541 8      -801.316          51.000
G13  23374511.453 5 122833886.677 5      2846.195          33.000
G30  20585227.250 8 108176095.281 8      1124.984          51.000    20585228.812 8  84293064.523 8       876.611          51.000
R05  19697054.734 8 105292042.005 8      -967.656          50.000    19697057.234 8  81893809.214 8      -752.622          49.000
R15  19584516.711 8 104653785.143 8      -554.441          51.000    19584519.156 8  81397336.076 8      -431.232          49.000
R16  20818288.641 7 111207567.285 7      3609.609          43.000    20818288.742 6  86494758.135 6      2807.474          41.000
C05  39799494.680 6 207246411.875 6       -12.645          36.000    39799492.344 6 160256058.726 6        -9.318          41.000
C19  21760812.258 5 113314276.014 5      1094.055          33.000
C20  22775210.555 8 118596500.220 8     -1750.387          51.000
E01  24840546.922 6 130537944.995 6         1.285          40.000    24840552.141 7 100022621.230 7         1.027          45.000
E04  24130851.430 8 126808599.622 8     -1102.156          51.000    24130851.664 8  97165022.592 8      -844.530          51.000
E31  25342016.883 8 133173223.157 8      2603.277          51.000    25342021.203 8 102041847.174 8      1994.728          51.000
> 2020 05 13 02 04  0.0000000  0 15        .000000000000
G02  23325593.461 8 122576820.077 8     -2160.191          49.000    23325588.617 7  95514408.680 7     -1683.266          46.000
G07  20993161.711 8 110319812.901 8     -1038.086          51.000    20993160.562 8  85963486.983 8      -808.898          51.000
G09  22553732.992 6 118520658.958 6     -2529.047          38.000    22553747.367 6  92353794.731 6     -1970.692          38.000
G30  20578819.461 8 108142423.413 8      1112.848          51.000    20578821.328 8  84266826.712 8       867.154          51.000
R04  23083810.742 5 123612750.105 5     -3279.922          31.000
R05  19702497.891 8 105321139.489 8      -979.148          51.000    19702500.555 8  81916440.599 8      -761.560          49.000
R14  22680116.594 5 120897733.070 5     -3827.219          33.000
R15  19587674.188 8 104670658.330 8      -577.301          51.000    19587676.594 8  81410459.668 8      -449.012          49.000
R16  20798030.836 7 111099358.043 7      3597.258          42.000    20798032.055 6  86410595.371 6      2797.867          41.000
C05  39799533.734 6 207246615.166 6        -8.559          36.000    39799531.359 6 160256215.916 6        -6.222          41.000
C19  21754507.031 6 113281441.199 6      1087.520          36.000
C20  22785294.648 8 118649007.671 8     -1756.945          51.000
E01  24840552.211 7 130537971.314 7        -9.918          43.000    24840557.492 7 100022641.306 7        -7.456          45.000
E04  24137130.164 8 126841595.133 8     -1104.305          51.000    24137130.836 8  97190304.861 8      -846.168          51.000
E31  25327148.422 8 133095090.735 8      2598.801          51.000    25327152.906 8 101981979.479 8      1991.298          51.000
> 2020 05 13 02 04 30.0000000  0 14        .000000000000
G02  23337956.156 7 122641787.514 7     -2171.891          47.000    23337951.734 7  95565032.635 7     -1692.382          46.000
G07  20999126.727 8 110351159.283 8     -1052.555          51.000    20999125.641 8  85987912.745 8      -820.169          51.000
G09  22568183.922 5 118596612.629 5     -2535.590          33.000    22568191.742 5  92412979.294 5     -1975.787          33.000
G30  20572511.805 8 108109276.699 8      1096.012          51.000    20572513.656 8  84240998.100 8       854.035          51.000
R05  19708036.367 8 105350745.223 8      -995.457          51.000    19708038.734 8  81939467.274 8      -774.244          49.000
R14  22701690.055 5 121012752.764 5     -3838.348          33.000
R15  19590990.445 8 104688379.683 8      -604.992          51.000    19590992.859 8  81424242.960 8      -470.549          49.000
R16  20777873.656 6 110991689.086 6      3579.844          41.000    20777876.180 6  86326852.798 6      2784.323          40.000
C05  39799581.297 6 207246862.374 6        -9.242          36.000    39799578.852 6 160256407.087 6        -7.002          40.000
C19  21748270.789 5 113248964.617 5      1076.562          35.000
C20  22795446.367 8 118701869.384 8     -1768.113          51.000
E01  24840652.148 6 130538493.887 6       -25.750          38.000    24840656.586 7 100023041.657 7       -19.847          46.000
E04  24143451.945 8 126874816.046 8     -1111.312          51.000    24143452.539 8  97215759.852 8      -851.483          51.000
E31  25312337.172 8 133017258.202 8      2589.270          51.000    25312341.578 8 101922341.574 8      1983.995          51.000
> 2020 05 13 02 05  0.0000000  0 13        .000000000000
G02  23350382.883 7 122707092.679 7     -2183.746          45.000    23350379.203 7  95615919.806 7     -1701.617          45.000
G07  21005172.312 8 110382928.884 8     -1067.359          51.000    21005170.820 8  86012668.271 8      -831.709          51.000
G30  20566298.391 8 108076625.321 8      1078.816          51.000    20566300.180 8  84215555.468 8       840.636          51.000
R05  19713664.188 8 105380828.993 8     -1012.082          51.000    19713666.609 8  81962865.742 8      -787.178          49.000
R14  22723300.375 5 121127976.422 5     -3850.758          31.000
R15  19594459.695 8 104706917.356 8      -632.961          51.000    19594462.016 8  81438661.153 8      -492.303          49.000
R16  20757813.602 7 110884533.387 7      3561.887          44.000    20757816.227 6  86243509.440 6      2770.356          41.000
C05  39799631.383 6 207247123.604 6       -10.137          36.000    39799629.031 6 160256609.091 6        -7.884          40.000
C19  21742097.898 6 113216817.712 6      1065.152          37.000
C20  22805660.438 8 118755055.259 8     -1779.574          51.000
E01  24840841.141 6 130539482.337 6       -42.047          41.000    24840844.711 8 100023799.125 8       -32.299          48.000
E04  24149810.852 8 126908232.454 8     -1118.461          51.000    24149811.414 8  97241364.642 8      -857.012          51.000
E31  25297577.773 8 132939697.184 8      2579.449          51.000    25297581.820 8 101862911.698 8      1976.503          51.000
> 2020 05 13 02 05 30.0000000  0 12        .000000000000
G02  23362865.727 7 122772692.143 7     -2193.598          46.000    23362862.797 7  95667036.278 7     -1709.297          46.000
G07  21011290.414 8 110415079.553 8     -1079.996          51.000    21011288.867 8  86037720.750 8      -841.555          51.000
G30  20560171.531 8 108044428.781 8      1063.703          51.000    20560173.398 8  84190467.257 8       828.860          51.000
R05  19719374.102 8 105411349.997 8     -1026.688          51.000    19719376.070 8  81986604.291 8      -798.535          49.000
R15  19598073.570 8 104726228.511 8      -658.605          51.000    19598075.867 8  81453680.956 8      -512.249          49.000
R16  20737843.547 7 110777852.873 7      3545.977          46.000    20737845.344 6  86160535.683 6      2757.982          40.000
C05  39799676.539 6 207247358.585 6        -9.652          36.000    39799674.172 6 160256790.774 6        -7.122          40.000
C19  21735980.102 5 113184961.506 5      1055.016          35.000
C20  22815929.109 8 118808524.611 8     -1788.938          51.000
E01  24841110.906 6 130540896.121 6       -56.309          41.000    24841113.820 8 100024882.331 8       -43.038          49.000
E04  24156199.023 8 126941803.753 8     -1123.602          51.000    24156199.992 8  97267088.109 8      -860.903          51.000
E31  25282862.797 8 132862368.641 8      2571.754          51.000    25282866.258 8 101803659.960 8      1970.571          51.000
> 2020 05 13 02 06  0.0000000  0 12        .000000000000
G02  23375411.344 8 122838618.932 8     -2201.445          48.000    23375408.828 7  95718407.803 7     -1715.409          45.000
G07  21017487.539 8 110447645.216 8     -1090.906          51.000    21017486.055 8  86063096.599 8      -850.057          51.000
G30  20554138.031 8 108012722.707 8      1050.285          51.000    20554139.992 8  84165761.245 8       818.404          51.000
R05  19725172.422 8 105442344.753 8     -1039.473          51.000    19725174.453 8  82010711.308 8      -808.479          49.000
R15  19601838.859 8 104746347.516 8      -682.516          51.000    19601840.945 8  81469329.065 8      -530.845          50.000
R16  20717970.062 7 110671687.235 7      3531.711          46.000    20717971.398 6  86077962.425 6      2746.886          41.000
C05  39799723.398 6 207247602.286 6        -6.426          36.000    39799721.016 6 160256979.255 6        -5.223          40.000
C19  21729923.852 5 113153432.298 5      1046.543          32.000
C20  22826258.523 8 118862312.253 8     -1796.711          51.000
E01  24841467.672 6 130542770.085 6       -68.977          36.000    24841470.531 8 100026318.234 8       -52.595          49.000
E04  24162623.523 8 126975565.496 8     -1127.012          50.000    24162624.562 8  97292957.506 8      -863.602          51.000
E31  25268198.945 8 132785309.684 8      2565.551          50.000    25268201.938 8 101744614.771 8      1965.815          51.000
> 2020 05 13 02 06 30.0000000  0 13        .000000000000
G02  23388011.367 8 122904831.375 8     -2212.801          48.000    23388009.484 7  95770001.895 7     -1724.260          44.000
G06  24484648.883 5 128667697.404 5     -3507.656          30.000
G07  21023755.938 8 110480585.623 8     -1105.145          51.000    21023754.281 8  86088764.445 8      -861.152          51.000
G30  20548190.453 8 107981468.332 8      1033.320          51.000    20548192.383 8  84141407.184 8       805.185          51.000
R05  19731052.102 8 105473774.091 8     -1055.824          51.000    19731054.305 8  82035156.315 8      -821.200          48.000
R15  19605747.258 8 104767233.112 8      -709.926          51.000    19605749.695 8  81485573.442 8      -552.164          50.000
R16  20698185.883 7 110566000.224 7      3513.934          46.000    20698186.781 6  85995761.450 6      2733.059          41.000
C05  39799764.453 6 207247816.122 6        -8.055          36.000    39799762.078 6 160257144.558 6        -5.824          40.000
C19  21723922.727 5 113122192.654 5      1035.211          35.000
C20  22836641.266 8 118916379.121 8     -1807.789          51.000
E01  24841905.672 6 130545065.029 6       -84.258          37.000    24841906.602 8 100028076.735 8       -64.684          49.000
E04  24169076.930 8 127009478.811 8     -1133.898          51.000    24169077.586 8  97318943.043 8      -868.873          51.000
E31  25253578.750 8 132708482.939 8      2556.074          49.000    25253581.617 8 101685747.476 8      1958.538          51.000
> 2020 05 13 02 07  0.0000000  0 14        .000000000000
G02  23400663.602 7 122971319.585 7     -2216.430          45.000    23400662.625 7  95821810.900 7     -1727.088          44.000
G07  21030094.016 8 110513892.343 8     -1111.824          51.000    21030092.516 8  86114717.747 8      -866.353          51.000
G09  22640923.203 5 118978801.767 5     -2554.059          30.000
G30  20542327.391 8 107950659.029 8      1023.938          51.000    20542329.430 8  84117399.935 8       797.873          51.000
R05  19737011.688 8 105505631.499 8     -1064.484          51.000    19737013.508 7  82059934.280 7      -827.932          47.000
R14  22810411.430 5 121592269.893 5     -3882.758          33.000
R15  19609797.648 8 104788876.913 8      -729.527          51.000    19609799.992 8  81502407.495 8      -567.410          50.000
R16  20678490.219 7 110460788.416 7      3503.684          46.000    20678490.750 6  85913930.089 6      2725.087          40.000
C05  39799798.305 6 207247993.202 6        -1.078          36.000    39799796.023 6 160257281.503 6         -.704          41.000
C19  21717977.609 5 113091237.033 5      1031.676          35.000
C20  22847076.203 8 118970718.184 8     -1811.438          51.000
E01  24842421.414 5 130547774.082 5       -93.062          33.000    24842421.734 8 100030152.469 8       -71.095          50.000
E04  24175558.055 8 127043537.050 8     -1133.320          51.000    24175558.477 8  97345039.608 8      -868.406          51.000
E31  25239001.688 8 132631883.266 8      2553.934          50.000    25239004.688 8 101627054.190 8      1956.913          51.000
> 2020 05 13 02 07 30.0000000  0 14        .000000000000
G02  23413380.734 7 123038149.811 7     -2232.715          43.000    23413380.359 7  95873886.467 7     -1739.775          42.000
G07  21036514.602 8 110547632.386 8     -1131.145          51.000    21036513.250 8  86141008.692 8      -881.411          51.000
G30  20536562.344 8 107920363.416 8      1001.953          51.000    20536564.461 8  84093792.974 8       780.743          51.000
R04  23213372.469 5 124306571.642 5     -3328.270          33.000
R05  19743064.414 8 105537987.094 8     -1086.184          51.000    19743066.320 7  82085099.731 7      -844.809          47.000
R14  22832323.930 5 121709134.896 5     -3898.969          35.000
R15  19614002.367 8 104811346.731 8      -762.082          51.000    19614005.016 8  81519884.036 8      -592.730          50.000
R16  20658896.766 7 110356124.869 7      3480.219          45.000    20658897.430 6  85832525.145 6      2706.840          41.000
C05  39799838.406 6 207248201.350 6        -6.535          36.000    39799836.000 6 160257442.474 6        -5.334          41.000
C19  21712100.031 5 113060634.704 5      1014.570          33.000
C20  22857576.172 8 119025396.933 8     -1827.594          51.000
E01                                                                  24843029.109 8 100032597.661 8       -87.117          50.000
E04  24182079.961 8 127077808.785 8     -1145.270          51.000    24182080.258 8  97371299.745 8      -877.532          51.000
E31  25224481.906 8 132555580.759 8      2539.074          51.000    25224484.609 8 101568588.631 8      1945.518          51.000
> 2020 05 13 02 08  0.0000000  0 13        .000000000000
G02  23426158.469 7 123105297.954 7     -2242.629          42.000    23426157.531 7  95926209.727 7     -1747.503          42.000
G07  21043013.156 8 110581782.696 8     -1144.402          51.000    21043011.781 8  86167619.325 8      -891.742          51.000
G30  20530891.172 8 107890560.057 8       985.953          51.000    20530892.883 8  84070569.588 8       768.275          51.000
R05  19749206.273 8 105570819.343 8     -1101.555          51.000    19749208.250 7  82110635.892 7      -856.765          46.000
R14  22854299.523 5 121826276.039 5     -3908.770          35.000    22854299.969 4  94753769.505 4     -3040.151          26.000
R15  19618357.539 8 104834619.062 8      -788.387          51.000    19618360.109 8  81537984.727 8      -613.190          49.000
R16  20639402.312 7 110251990.998 7      3463.016          46.000    20639403.375 6  85751532.152 6      2693.460          41.000
C05  39799880.133 6 207248419.226 6        -6.855          36.000    39799877.859 6 160257610.918 6        -5.062          41.000
C19  21706286.852 6 113030365.355 6      1004.254          38.000
C20  22868137.016 8 119080393.626 8     -1837.711          50.000
E01                                                                  24843723.930 8 100035395.565 8       -98.575          50.000
E04  24188638.453 8 127112272.578 8     -1151.227          51.000    24188638.641 8  97397707.055 8      -882.195          51.000
E31  25210015.047 8 132479555.517 8      2530.215          51.000    25210017.203 8 101510335.549 8      1938.691          50.000
> 2020 05 13 02 08 30.0000000  0 13        .000000000000
G02  23439001.016 7 123172787.148 7     -2253.328          45.000    23438999.148 6  95978798.693 6     -1755.840          41.000
G07  21049594.359 8 110616367.205 8     -1157.984          51.000    21049593.008 8  86194568.291 8      -902.325          51.000
G30  20525318.516 8 107861274.799 8       969.707          51.000    20525319.734 8  84047749.908 8       755.616          51.000
R05  19755442.273 8 105604154.877 8     -1117.398          50.000    19755444.531 8  82136563.512 8      -869.088          48.000
R14  22876338.062 5 121943708.739 5     -3919.266          34.000    22876337.680 4  94845139.906 4     -3048.318          28.000
R15  19622867.133 8 104858718.162 8      -814.938          51.000    19622869.906 8  81556728.481 8      -633.840          50.000
R16  20620012.922 8 110148416.298 8      3445.223          48.000    20620014.148 7  85670974.048 7      2679.618          42.000
C05  39799928.742 6 207248672.167 6        -7.152          36.000    39799926.531 6 160257806.524 6        -5.473          40.000
C19  21700543.469 6 113000455.704 6       992.859          39.000
C20  22878763.641 8 119135733.411 8     -1848.320          51.000
E01                                                                  24844510.992 8 100038565.627 8      -110.278          50.000
E04  24195238.320 8 127146954.277 8     -1157.582          51.000    24195238.727 8  97424281.315 8      -886.984          51.000
E31  25195606.094 8 132403834.887 8      2520.957          51.000    25195607.844 8 101452315.877 8      1931.675          49.000
> 2020 05 13 02 09  0.0000000  0 14        .000000000000
G02  23451888.555 7 123240512.403 7     -2260.996          44.000    23451886.273 7  96031571.571 7     -1761.815          43.000
G06  24584808.570 5 129194025.067 5     -3508.055          32.000
G07  21056238.578 8 110651282.864 8     -1168.996          51.000    21056237.453 8  86221775.296 8      -910.906          51.000
G30  20519825.070 8 107832405.744 8       955.836          51.000    20519826.008 8  84025254.542 8       744.807          51.000
R05  19761753.133 8 105637890.468 8     -1130.844          51.000    19761755.188 8  82162802.313 8      -879.542          48.000
R14  22898418.922 5 122061432.564 5     -3927.387          31.000    22898418.469 4  94936679.983 4     -3054.640          25.000
R15  19627512.008 8 104883538.973 8      -838.918          51.000    19627514.906 8  81576033.566 8      -652.492          49.000
R16  20600709.977 8 110045300.597 8      3429.910          48.000    20600711.289 7  85590772.947 7      2667.705          42.000
C05  39799964.633 6 207248859.138 6        -4.508          37.000    39799962.422 6 160257951.098 6        -3.655          41.000
C19  21694850.203 6 112970805.913 6       984.797          38.000
C20  22889437.586 8 119191314.759 8     -1856.367          51.000
E01  24845378.820 5 130563347.205 5      -156.559          34.000    24845370.898 8 100042029.426 8      -120.089          49.000
E04  24201860.102 8 127181751.932 8     -1161.582          51.000    24201860.836 8  97450944.433 8      -890.067          51.000
E31  25181235.641 8 132328318.490 8      2514.160          50.000    25181237.523 8 101394452.672 8      1926.398          50.000
> 2020 05 13 02 09 30.0000000  0 13        .000000000000
G02  23464848.891 7 123308620.162 7     -2277.469          44.000    23464847.570 7  96084642.518 7     -1774.654          44.000
G07  21062973.789 8 110686677.078 8     -1188.762          51.000    21062972.883 8  86249355.211 8      -926.308          51.000
G09  22714412.602 5 119365032.902 5     -2592.797          33.000
G30  20514439.133 8 107804102.112 8       933.125          51.000    20514440.000 8  84003199.764 8       727.110          51.000
R05  19768167.398 8 105672178.075 8     -1153.129          51.000    19768169.805 8  82189470.438 8      -896.878          49.000
R15  19632320.086 8 104909230.907 8      -871.855          51.000    19632322.469 8  81596016.175 8      -678.110          49.000
R16  20581522.133 8 109942798.923 8      3405.438          48.000    20581523.094 7  85511049.411 7      2648.671          42.000
C05  39800016.250 6 207249127.818 6       -11.168          36.000    39800014.031 6 160258158.862 6        -8.533          41.000
C19  21689235.711 6 112941565.014 6       966.762          40.000
C20  22900186.422 8 119247285.123 8     -1873.113          51.000
E01                                                                  24846332.352 8 100045900.963 8      -136.512          49.000
E04  24208532.453 8 127216814.809 8     -1174.137          51.000    24208533.180 8  97477810.767 8      -899.603          51.000
E31  25166932.844 8 132253157.085 8      2498.555          50.000    25166935.055 8 101336861.448 8      1914.504          51.000
> 2020 05 13 02 10  0.0000000  0 13        .000000000000
G02  23477854.703 7 123376964.541 7     -2282.238          47.000    23477854.484 7  96137897.890 7     -1778.367          43.000
G07  21069772.633 8 110722405.099 8     -1196.648          51.000    21069771.688 8  86277195.232 8      -932.453          51.000
G09  22729202.219 5 119442758.466 5     -2593.469          32.000    22729212.609 5  93072304.211 5     -2020.873          31.000
G30  20509133.539 8 107776220.657 8       922.289          51.000    20509134.016 8  83981473.943 8       718.667          51.000
R05  19774657.836 8 105706872.510 8     -1163.344          51.000    19774660.156 8  82216454.994 8      -904.823          50.000
R15  19637263.406 8 104935646.496 8      -892.695          51.000    19637265.609 8  81616561.644 8      -694.319          49.000
R16  20562422.258 8 109840768.782 8      3393.035          48.000    20562422.852 6  85431692.634 6      2639.027          41.000
C05  39800056.336 6 207249336.142 6        -5.938          36.000    39800054.062 6 160258319.947 6        -4.776          40.000
C19  21683673.133 7 112912592.114 7       961.168          42.000
C20  22910982.914 8 119303502.021 8     -1878.121          51.000
E01  24847369.867 6 130573806.058 6      -188.176          37.000    24847368.289 8 100050070.183 8      -144.022          48.000
E04  24215227.867 8 127251999.657 8     -1174.898          50.000    24215228.836 8  97504770.594 8      -900.289          51.000
E31  25152671.172 8 132178208.923 8      2494.586          51.000    25152673.594 8 101279433.635 8      1911.400          51.000
> 2020 05 13 02 10 30.0000000  0 12        .000000000000
G02  23490919.602 8 123445617.972 8     -2292.965          49.000    23490919.812 7  96191394.062 7     -1786.726          43.000
G07  21076649.086 8 110758540.717 8     -1210.715          51.000    21076648.070 8  86305352.860 8      -943.411          51.000
G30  20503922.523 8 107748836.821 8       905.004          51.000    20503922.586 8  83960135.901 8       705.198          51.000
R05  19781238.695 8 105742050.628 8     -1180.117          51.000    19781241.086 8  82243815.752 8      -917.866          51.000
R15  19642356.141 8 104962860.626 8      -919.879          51.000    19642358.539 8  81637728.197 8      -715.461          48.000
R16  20543425.109 7 109739290.056 7      3373.941          47.000    20543425.945 6  85352764.732 6      2624.174          41.000
C05  39800099.062 6 207249558.803 6        -7.109          36.000    39800096.773 6 160258492.133 6        -5.642          40.000
C19  21678176.703 7 112883963.198 7       949.230          42.000
C20  22921840.625 8 119360039.853 8     -1889.328          51.000
E01  24848493.078 5 130579710.816 5      -203.891          32.000    24848492.062 7 100054594.558 7      -156.297          46.000
E04  24221960.609 8 127287382.075 8     -1182.086          50.000    24221961.992 8  97531881.782 8      -905.736          51.000
E31  25138464.516 8 132103550.965 8      2484.355          51.000    25138467.000 8 101222228.193 8      1903.594          51.000
> 2020 05 13 02 11  0.0000000  0 13        .000000000000
G02  23504036.289 8 123514545.080 8     -2302.730          49.000    23504036.148 7  96245103.447 7     -1794.338          42.000
G07  21083596.516 8 110795049.460 8     -1223.688          51.000    21083595.391 8  86333801.231 8      -953.523          51.000
G30  20498799.883 8 107721917.638 8       888.949          51.000    20498800.117 8  83939159.952 8       692.691          51.000
R04  23344853.547 5 125010631.523 5     -3376.465          32.000
R05  19787903.680 8 105777679.363 8     -1195.773          51.000    19787906.312 8  82271526.999 8      -930.046          51.000
R15  19647591.797 8 104990837.770 8      -945.984          51.000    19647594.156 8  81659488.206 8      -735.766          48.000
R16  20524525.398 7 109638332.833 7      3356.012          46.000    20524526.836 6  85274242.438 6      2610.228          41.000
C05  39800138.141 6 207249763.063 6        -7.625          36.000    39800135.953 6 160258650.039 6        -5.491          40.000
C19  21672739.695 6 112855646.860 6       937.895          41.000
C20  22932753.602 8 119416865.418 8     -1899.566          51.000
E01  24849695.867 6 130586022.499 6      -219.156          40.000    24849696.352 7 100059448.459 7      -167.772          44.000
E04  24228724.625 8 127322929.137 8     -1188.398          51.000    24228726.180 8  97559119.133 8      -910.555          51.000
E31  25124306.719 8 132029151.851 8      2474.961          51.000    25124309.312 8 101165221.097 8      1896.435          51.000
> 2020 05 13 02 11 30.0000000  0 13        .000000000000
G02  23517205.102 8 123583748.267 8     -2311.930          48.000    23517203.469 6  96299027.945 6     -1801.507          41.000
G07  21090615.672 8 110831935.078 8     -1236.402          51.000    21090614.453 8  86362543.273 8      -963.430          51.000
G30  20493766.656 8 107695468.516 8       873.285          51.000    20493767.094 8  83918550.272 8       680.482          51.000
R04  23363784.805 5 125111999.984 5     -3382.922          31.000
R05  19794653.992 8 105813764.453 8     -1211.059          51.000    19794656.773 8  82299593.178 8      -941.934          50.000
R15  19652970.844 8 105019581.270 8      -971.434          51.000    19652972.984 7  81681844.278 7      -755.556          47.000
R16  20505724.547 7 109537905.752 7      3338.230          45.000    20505726.453 6  85196132.514 6      2596.401          40.000
C05  39800174.742 6 207249953.047 6        -6.484          36.000    39800172.609 6 160258797.740 6        -5.207          40.000
C19  21667363.516 6 112827649.411 6       927.391          41.000
C20  22943722.312 8 119473983.585 8     -1909.438          51.000
E01  24850986.672 7 130592792.429 7      -233.449          42.000    24850984.961 7 100064635.726 7      -179.014          44.000
E04  24235521.188 8 127358646.250 8     -1194.148          51.000    24235522.227 8  97586486.780 8      -914.943          51.000
E31  25110199.156 8 131955018.514 8      2465.949          51.000    25110201.945 8 101108417.660 8      1889.458          51.000
> 2020 05 13 02 12  0.0000000  0 12        .000000000000
G02  23530432.008 7 123653258.066 7     -2322.078          46.000    23530428.664 6  96353191.360 6     -1809.412          40.000
G07  21097712.461 8 110869229.269 8     -1249.906          51.000    21097711.375 8  86391603.699 8      -973.950          51.000
G30  20488829.273 8 107669522.714 8       856.461          51.000    20488829.695 8  83898332.787 8       667.372          51.000
R05  19801496.219 8 105850340.099 8     -1227.312          51.000    19801498.805 8  82328040.917 8      -954.576          49.000
R15  19658499.164 8 105049123.211 8      -998.012          51.000    19658501.203 7  81704821.331 7      -776.231          47.000
R16  20487029.938 7 109438045.944 7      3319.281          46.000    20487031.336 6  85118463.797 6      2581.663          39.000
C05  39800215.234 6 207250163.819 6        -7.246          36.000    39800213.086 6 160258960.713 6        -5.522          41.000
C19  21662055.195 7 112800005.199 7       915.660          43.000
C20  22954753.781 8 119531426.885 8     -1920.148          51.000
E01  24852363.039 6 130600030.160 6      -248.898          38.000    24852362.953 7 100070181.512 7      -190.777          42.000
E04  24242356.789 8 127394566.853 8     -1200.648          51.000    24242356.805 8  97614010.342 8      -919.980          51.000
E31  25096148.680 8 131881185.848 8      2456.129          49.000    25096151.633 8 101051844.579 8      1882.026          51.000
> 2020 05 13 02 12 30.0000000  0 13        .000000000000
G02  23543712.086 7 123723047.472 7     -2330.863          45.000    23543708.336 7  96407572.682 7     -1816.257          42.000
G07  21104882.086 8 110906906.003 8     -1262.270          51.000    21104881.148 8  86420962.203 8      -983.587          51.000
G30  20483983.195 8 107644055.725 8       841.031          51.000    20483983.680 8  83878488.395 8       655.349          51.000
R05  19808425.406 8 105887381.794 8     -1242.457          51.000    19808428.211 8  82356851.112 8      -966.355          48.000
R15  19664171.531 8 105079436.461 8     -1023.199          51.000    19664174.398 7  81728398.344 7      -795.822          47.000
R16  20468437.867 7 109338731.587 7      3301.414          46.000    20468439.297 6  85041219.358 6      2567.770          40.000
C05  39800254.961 6 207250370.020 6        -6.906          36.000    39800252.711 6 160259120.160 6        -5.325          41.000
C19  21656810.172 7 112772691.010 7       904.992          44.000
C20  22965843.102 8 119589170.632 8     -1929.746          51.000
E01  24853823.312 7 130607710.887 7      -263.582          43.000    24853823.844 6 100076066.697 6      -201.849          41.000
E04  24249226.625 8 127430666.524 8     -1206.277          51.000    24249225.945 8  97641671.126 8      -924.329          51.000
E09                                                                  22001199.453 5  88589723.897 5       865.335          32.000
E31  25082150.539 7 131807630.968 7      2447.039          47.000    25082154.594 8 100995484.336 8      1875.031          51.000
> 2020 05 13 02 13  0.0000000  0 13        .000000000000
G02  23557044.156 7 123793108.724 7     -2339.750          46.000    23557040.773 7  96462165.869 7     -1823.182          43.000
G07  21112123.250 8 110944958.684 8     -1274.547          51.000    21112122.352 8  86450613.640 8      -993.153          51.000
G30  20479227.164 8 107619062.563 8       825.320          51.000    20479227.852 8  83859013.216 8       643.110          51.000
R05  19815441.531 8 105924884.599 8     -1257.734          51.000    19815443.820 7  82386019.954 7      -978.238          47.000
R15  19669987.352 8 105110514.016 8     -1048.547          51.000    19669989.625 7  81752569.758 7      -815.536          47.000
R16  20449947.695 7 109239960.961 7      3283.160          46.000    20449949.656 7  84964397.794 7      2553.572          42.000
C05  39800292.742 6 207250567.624 6        -6.062          36.000    39800290.477 6 160259272.176 6        -4.806          41.000
C19  21651627.742 7 112745703.134 7       894.141          44.000
C20  22976989.109 8 119647209.432 8     -1939.461          51.000
E01  24855368.164 7 130615829.188 7      -277.852          43.000    24855368.852 7 100082287.174 7      -212.839          42.000
E04  24256129.461 8 127466940.418 8     -1211.988          51.000    24256128.758 8  97669465.386 8      -928.636          51.000
E09                                                                  21994763.195 5  88563797.914 5       861.711          31.000
E31  25068205.031 8 131734350.381 8      2438.246          48.000    25068209.797 8 100939334.241 8      1868.192          51.000
> 2020 05 13 02 13 30.0000000  0 12        .000000000000
G02  23570428.586 7 123863443.337 7     -2349.668          47.000    23570425.742 7  96516972.061 7     -1830.910          44.000
G07  21119436.469 8 110983390.368 8     -1287.824          50.000    21119435.586 8  86480560.410 8     -1003.499          50.000
G30  20474562.133 8 107594547.651 8       808.676          51.000    20474562.875 8  83839910.691 8       630.137          51.000
R05  19822544.680 8 105962853.500 8     -1273.930          51.000    19822546.227 7  82415551.285 7      -990.834          46.000
R15  19675946.570 8 105142358.428 8     -1074.797          51.000    19675949.109 7  81777337.650 7      -835.953          46.000
R16  20431560.820 7 109141741.870 7      3264.109          45.000    20431563.531 7  84888005.170 7      2538.752          43.000
C05  39800329.578 6 207250759.034 6        -6.793          36.000    39800327.266 6 160259420.188 6        -5.319          41.000
C19  21646508.984 7 112719047.158 7       882.637          44.000
C20  22988192.141 8 119705547.318 8     -1950.086          51.000
E01  24856996.664 7 130624388.979 7      -293.156          43.000    24856997.648 7 100088845.971 7      -224.680          42.000
E04  24263066.297 8 127503393.054 8     -1218.637          51.000    24263066.125 8  97697396.605 8      -933.776          51.000
E31  25054314.062 8 131661350.104 8      2428.156          51.000    25054318.609 8 100883398.958 8      1860.517          51.000
> 2020 05 13 02 14  0.0000000  0 12        .000000000000
G02  23583866.164 7 123934057.294 7     -2357.605          47.000    23583863.875 7  96571995.902 7     -1837.098          45.000
G07  21126823.219 8 111022208.252 8     -1299.484          50.000    21126822.312 8  86510808.102 8     -1012.585          50.000
G30  20469989.836 8 107570519.624 8       793.680          51.000    20469990.539 8  83821187.554 8       618.452          51.000
R05  19829736.711 8 106001297.674 8     -1288.512          51.000    19829737.758 7  82445452.291 7     -1002.176          47.000
R15  19682050.359 8 105174975.957 8     -1099.203          51.000    19682053.141 7  81802706.861 7      -854.936          46.000
R16  20413279.734 7 109044086.432 7      3246.438          45.000    20413282.719 7  84812050.908 7      2525.004          43.000
C05  39800367.031 6 207250953.782 6        -5.625          36.000    39800364.695 6 160259570.776 6        -4.265          41.000
C19  21641455.125 7 112692732.941 7       872.285          43.000
C20  22999454.305 8 119764192.367 8     -1959.137          51.000
E01  24858711.062 7 130633398.573 7      -306.840          43.000    24858712.594 7 100095749.412 7      -235.258          43.000
E04  24270039.047 8 127540033.235 8     -1223.539          51.000    24270039.250 8  97725471.521 8      -937.532          51.000
E31  25040478.867 8 131588640.364 8      2419.656          51.000    25040482.641 8 100827686.305 8      1854.073          51.000
> 2020 05 13 02 14 30.0000000  0 13        .000000000000
G02  23597353.688 7 124004934.600 7     -2362.648          47.000    23597351.945 7  96627224.931 7     -1841.025          45.000
G07  21134280.492 8 111061396.825 8     -1308.254          50.000    21134279.609 8  86541344.642 8     -1019.416          50.000
G28  23778147.336 6 124955015.628 6      3321.184          36.000
G30  20465507.500 8 107546964.829 8       781.410          51.000    20465508.352 8  83802833.180 8       608.891          51.000
R05  19837015.125 8 106040203.269 8     -1300.320          51.000    19837016.219 8  82475712.174 8     -1011.360          48.000
R15  19688296.195 8 105208351.007 8     -1120.930          51.000    19688298.820 7  81828665.235 7      -871.831          46.000
R16  20395102.094 7 108946983.674 7      3231.727          46.000    20395104.984 7  84736526.519 7      2513.562          43.000
C05  39800402.477 6 207251138.353 6        -1.789          36.000    39800400.188 6 160259713.500 6        -1.471          41.000
C19  21636463.992 7 112666748.097 7       864.848          44.000
C20  23010773.008 8 119823130.621 8     -1965.418          51.000
E01  24860508.234 7 130642843.850 7      -317.738          43.000    24860510.078 7 100102986.701 7      -243.689          43.000
E04  24277044.742 8 127576847.455 8     -1225.758          50.000    24277044.992 8  97753679.822 8      -939.241          51.000
E31  25026696.344 8 131516209.119 8      2413.949          51.000    25026699.234 8 100772187.044 8      1849.613          51.000
> 2020 05 13 02 15  0.0000000  0 14        .000000000000
G02  23610888.016 7 124076058.059 7     -2378.965          47.000    23610886.711 7  96682645.789 7     -1853.742          45.000
G07  21141805.289 8 111100940.756 8     -1328.227          49.000    21141804.484 8  86572158.113 8     -1034.982          50.000
G09  22878781.820 5 120228809.446 5     -2648.414          35.000    22878785.008 5  93684798.989 5     -2063.699          34.000
G28  23759214.820 6 124855527.058 6      3311.020          38.000
G30  20461112.477 8 107523869.079 8       757.977          51.000    20461113.281 8  83784836.495 8       590.631          51.000
R05  19844376.836 8 106079556.559 8     -1323.449          51.000    19844378.492 8  82506320.272 8     -1029.349          48.000
R15  19694680.500 8 105242466.871 8     -1153.664          51.000    19694683.359 7  81855199.831 7      -897.294          45.000
R16  20377025.594 7 108850422.623 7      3205.457          45.000    20377028.234 7  84661423.430 7      2493.130          43.000
C05  39800433.273 6 207251298.710 6        -9.117          36.000    39800431.008 6 160259837.504 6        -7.023          41.000
C19  21631533.570 7 112641079.934 7       846.309          43.000
C20  23022145.148 8 119882347.630 8     -1982.680          51.000
E01  24862386.039 7 130652710.200 7      -339.785          42.000    24862387.375 7 100110546.641 7      -260.651          43.000
E04  24284080.555 8 127613821.725 8     -1239.281          49.000    24284081.109 8  97782010.760 8      -949.579          51.000
E31  25012963.953 8 131444043.808 8      2396.863          51.000    25012966.539 8 100716891.568 8      1836.537          51.000
> 2020 05 13 02 15 30.0000000  0 15        .000000000000
G02  23624478.297 8 124147475.143 8     -2383.316          48.000    23624477.391 7  96738295.471 7     -1857.127          46.000
G07  21149407.023 8 111140888.158 8     -1336.309          49.000    21149406.047 8  86603285.939 8     -1041.279          49.000
G09  22893882.125 5 120308165.097 5     -2649.492          34.000
G28  23740304.453 6 124756153.929 6      3312.348          40.000    23740297.703 4  97212546.699 4      2581.050          29.000
G30  20456814.359 8 107501282.446 8       746.457          51.000    20456815.148 8  83767236.520 8       581.655          51.000
R05  19851831.961 8 106119408.683 8     -1334.637          51.000    19851833.391 8  82537316.391 8     -1038.051          49.000
R15  19701212.641 8 105277372.447 8     -1174.590          50.000    19701215.492 7  81882348.610 7      -913.570          46.000
R16  20359060.812 8 108754457.614 8      3190.965          48.000    20359063.211 7  84586783.932 7      2481.862          43.000
C05  39800468.914 6 207251484.514 6        -4.336          36.000    39800466.727 6 160259981.171 6        -3.422          40.000
C19  21626673.781 7 112615779.290 7       839.156          43.000
C20  23033580.227 8 119941892.661 8     -1988.273          51.000
E01  24864353.555 6 130663047.332 6      -350.488          40.000    24864354.266 7 100118467.275 7      -268.409          43.000
E04  24291156.164 7 127651006.336 7     -1240.953          47.000    24291157.336 8  97810502.866 8      -950.860          51.000
E09  21963030.242 5 115416501.334 5      1099.934          33.000
E31  24999291.844 8 131372196.173 8      2391.715          51.000    24999294.266 8 100661839.499 8      1832.652          51.000
> 2020 05 13 02 16  0.0000000  0 16        .000000000000
G02  23638113.812 8 124219129.299 8     -2388.785          48.000    23638113.273 7  96794129.882 7     -1861.391          47.000
G07  21157075.070 7 111181184.191 7     -1345.293          47.000    21157074.039 7  86634685.459 7     -1048.277          47.000
G09  22909021.148 5 120387712.232 5     -2651.012          31.000
G13  22975237.617 6 120735674.044 6      2748.254          36.000
G28  23721406.734 6 124656845.339 6      3312.836          41.000    23721400.008 4  97135163.370 4      2581.437          27.000
G30  20452602.859 8 107479151.180 8       733.844          51.000    20452604.062 8  83749991.395 8       571.826          51.000
R05  19859370.156 8 106159705.138 8     -1346.816          51.000    19859372.078 8  82568658.070 8     -1047.527          49.000
R15  19707881.938 8 105313011.048 8     -1196.473          50.000    19707884.703 7  81910067.538 7      -930.593          45.000
R16  20341198.336 8 108659036.815 8      3175.309          48.000    20341200.477 7  84512567.753 7      2469.688          44.000
C05  39800499.289 6 207251643.701 6        -1.562          36.000    39800497.078 6 160260103.485 6         -.894          40.000
C19  21621875.633 7 112590794.115 7       831.332          45.000
C20  23045067.797 8 120001712.059 8     -1994.922          51.000
E01  24866399.641 6 130673800.956 6      -361.594          37.000    24866400.312 7 100126707.126 7      -277.152          43.000
E04  24298261.930 7 127688347.715 7     -1243.562          47.000    24298263.133 8  97839115.105 8      -952.869          51.000
E09  21956769.172 5 115383597.525 5      1098.488          34.000
E31  24985670.227 8 131300614.122 8      2385.352          51.000    24985672.812 8 100606990.943 8      1827.764          51.000
> 2020 05 13 02 16 30.0000000  0 14        .000000000000
G02  23651797.969 8 124291038.435 8     -2402.844          48.000    23651797.641 7  96850162.965 7     -1872.346          47.000
G07  21164813.156 8 111221847.989 8     -1363.129          50.000    21164812.305 8  86666371.547 8     -1062.178          50.000
G28  23702525.797 6 124557625.006 6      3304.293          41.000    23702518.898 4  97057848.799 4      2574.774          29.000
G30  20448481.914 8 107457495.769 8       712.301          51.000    20448483.266 8  83733117.041 8       555.040          51.000
R05  19866995.445 8 106200467.372 8     -1368.070          51.000    19866997.148 8  82600362.014 8     -1064.055          48.000
R15  19714691.547 8 105349400.984 8     -1227.164          49.000    19714694.625 7  81938370.838 7      -954.458          45.000
R16  20323441.984 8 108564184.727 8      3150.500          48.000    20323444.391 7  84438793.951 7      2450.392          44.000
C05  39800528.203 6 207251793.438 6        -6.570          36.000    39800525.984 6 160260220.047 6        -5.138          41.000
C19  21617142.734 7 112566146.029 7       814.520          45.000
C20  23056611.852 8 120061825.688 8     -2010.270          51.000
E01  24868529.852 6 130684991.282 6      -382.047          38.000    24868530.383 7 100135281.528 7      -292.471          44.000
E04  24305401.273 7 127725866.525 7     -1255.211          47.000    24305402.805 8  97867863.315 8      -961.752          51.000
E09  21950538.734 5 115350848.601 5      1087.477          34.000
E31  24972103.164 8 131229319.754 8      2370.039          50.000    24972106.250 8 100552362.788 8      1816.046          51.000
> 2020 05 13 02 17  0.0000000  0 14        .000000000000
G02  23665547.648 8 124363291.968 8     -2413.668          49.000    23665547.195 7  96906464.415 7     -1880.780          47.000
G07  21172638.555 8 111262969.989 8     -1377.992          50.000    21172637.523 8  86698414.648 8     -1073.760          50.000
G28  23683679.594 6 124458588.185 6      3298.277          41.000    23683672.062 5  96980677.246 5      2570.083          30.000
G30  20444469.219 8 107436408.412 8       693.852          51.000    20444470.648 8  83716685.333 8       540.664          51.000
R05  19874725.391 8 106241789.545 8     -1386.355          51.000    19874727.242 8  82632501.465 8     -1078.280          49.000
R15  19721659.367 8 105386634.039 8     -1254.773          49.000    19721662.500 7  81967329.881 7      -975.935          46.000
R16  20305810.062 7 108469998.123 7      3128.867          47.000    20305812.281 7  84365537.753 7      2433.566          43.000
C05  39800573.336 6 207252028.309 6        -8.801          36.000    39800571.125 6 160260401.676 6        -6.914          40.000
C19  21612491.727 7 112541927.746 7       800.430          45.000
C20  23068229.383 8 120122324.603 8     -2022.672          51.000
E01                                                                  24870761.023 7 100144260.871 7      -305.826          43.000
E04  24312592.047 7 127763655.293 7     -1263.770          47.000    24312593.641 8  97896818.366 8      -968.403          51.000
E09  21944353.484 5 115318355.623 5      1079.445          33.000
E31  24958608.359 8 131158406.948 8      2357.691          50.000    24958612.117 8 100498026.996 8      1806.534          51.000
> 2020 05 13 02 17 30.0000000  0 14        .000000000000
G02  23679336.992 8 124435754.409 8     -2419.145          49.000    23679335.898 7  96962928.646 7     -1885.048          46.000
G07  21180525.586 8 111304415.748 8     -1387.246          49.000    21180523.938 8  86730710.035 8     -1080.971          50.000
