     3.02           OBSERVATION DATA    M (MIXED)           RINEX VERSION / TYPE
SAVERINEX           SC600               20200511 105931 LCL PGM / RUN BY / DATE
       G = GPS       R = GLONASS       C = COMPASS          COMMENT
       S = SBAS      J = QZSS          E = GALILEO          COMMENT
BEAN                                                        MARKER NAME
1                                                           MARKER NUMBER
GEODETIC                                                    MARKER TYPE
Unige DICCA         GTER                                    OBSERVER / AGENCY
SC60291900056       SC600               2.12(191226)        REC # / TYPE / VERS
                    HEMA45          NONE                    ANT # / TYPE
  4509407.8091   693652.4678  4442337.6214                  APPROX POSITION XYZ
        0.0000        0.0000        0.0000                  ANTENNA: DELTA H/E/N
G    8 C1C L1C D1C S1C C2Y L2Y D2Y S2Y                      SYS / # / OBS TYPES
R    8 C1C L1C D1C S1C C2P L2P D2P S2P                      SYS / # / OBS TYPES
C    8 C1I L1I D1I S1I C7I L7I D7I S7I                      SYS / # / OBS TYPES
E    8 C1C L1C D1C S1C C7Q L7Q D7Q S7Q                      SYS / # / OBS TYPES
DBHZ                                                        COMMENT
     30.000                                                 INTERVAL
  2020    05    11    08    00    0.0000000     GPS         TIME OF FIRST OBS
  2020    05    11    08    59   30.0000000     GPS         TIME OF LAST OBS
     0                                                      RCV CLOCK OFFS APPL
G L1C  0.00000                                              SYS / PHASE SHIFT
G L2Y  0.00000                                              SYS / PHASE SHIFT
R L1C  0.00000                                              SYS / PHASE SHIFT
R L2P  0.25000                                              SYS / PHASE SHIFT
C L1I  0.00000                                              SYS / PHASE SHIFT
C L7I  0.00000                                              SYS / PHASE SHIFT
E L1C  0.50000                                              SYS / PHASE SHIFT
E L7Q -0.25000                                              SYS / PHASE SHIFT
 14 R03  5 R04  6 R05  1 R06 -4 R07  5 R09 -2 R10 -5 R14 -7 GLONASS SLOT / FRQ #
    R15  0 R16 -1 R17  4 R18 -3 R19  3 R23  3               GLONASS SLOT / FRQ #
 C1C   71.950 C2C   71.950 C2P   71.950                     GLONASS COD/PHS/BIS
    18                                                      LEAP SECONDS
*** Above antenna height is from mark to ANTENNA BOTTOM.    COMMENT
    17     4        0.0000        ANT MEASURE TYPE/HEIGT    COMMENT
    0.0000    0.0000    0.0458    0.0405    0.0000          COMMENT
                    BASE STATION                            COMMENT
                                                            END OF HEADER
> 2020 05 11 08 00  0.0000000  0 14        .000000000000
G12  20412945.891 8 107270751.728 8      1317.738          51.000    20412944.773 8  83587602.368 8      1026.809          51.000
G15  23569396.289 6 123857987.443 6     -3615.426          40.000    23569403.469 6  96512728.383 6     -2817.215          37.000
G19  21850906.195 5 114827286.294 5     -1474.879          30.000
G24  20176475.062 8 106028110.428 8      -386.324          51.000    20176476.680 8  82619297.724 8      -301.032          51.000
G25  22341582.992 5 117405858.964 5      2811.820          30.000    22341585.312 4  91485058.245 4      2191.032          27.000
R06  21858823.938 5 116642858.683 5     -3683.238          34.000
R16  19795997.914 6 105746655.439 6      -878.215          37.000    19795998.664 5  82247406.378 5      -683.056          32.000
R17  22012990.992 4 117795928.811 4     -1931.727          29.000
C12  23263972.867 8 121141634.887 8      2286.043          50.000    23263969.219 8  93674383.146 8      1767.701          49.000
C24  22275254.258 8 115993067.550 8      -990.754          51.000
E01  24297852.695 5 127686062.100 5      1099.605          34.000
E19  26212325.938 8 137746674.985 8     -2753.012          48.000    26212328.203 7 105546151.753 7     -2109.445          47.000
E21  24048898.148 8 126377855.801 8     -1109.195          51.000    24048900.258 8  96834960.656 8      -849.906          51.000
E27  27587442.445 5 144972988.645 5     -2342.309          33.000
> 2020 05 11 08 00 30.0000000  0 15        .000000000000
G12  20405445.203 8 107231334.099 8      1304.848          51.000    20405443.008 8  83556887.325 8      1016.764          51.000
G15  23590030.320 6 123966420.386 6     -3618.562          40.000    23590039.102 5  96597221.535 5     -2819.665          35.000
G17  23769196.492 5 124907978.611 5     -2676.480          34.000
G24  20178701.758 8 106039811.799 8      -398.895          51.000    20178703.500 8  82628415.651 8      -310.827          51.000
G25  22325552.094 5 117321567.328 5      2804.094          31.000    22325541.492 5  91419374.721 5      2185.011          30.000
R06  21879550.625 6 116753457.236 6     -3694.871          37.000
R15  23079188.172 5 123328155.730 5     -2982.812          32.000    23079194.734 4  95921945.308 4     -2319.962          27.000
R16  19800941.602 6 105773066.568 6      -887.664          36.000    19800943.719 5  82267948.349 5      -690.405          33.000
R17  22023872.289 5 117854179.349 5     -1955.117          34.000
C12  23250819.875 8 121073146.325 8      2274.527          48.000    23250816.859 8  93621423.467 8      1758.939          50.000
C24  22280966.422 8 116022811.497 8      -997.312          51.000
E01  24291574.078 5 127653080.797 5      1095.059          34.000
E19  26228043.078 8 137829266.197 8     -2758.449          48.000    26228044.086 7 105609435.875 7     -2113.548          46.000
E21  24055225.375 8 126411105.814 8     -1112.691          51.000    24055227.516 8  96860437.925 8      -852.603          51.000
E27  27600793.992 5 145043150.974 5     -2340.734          32.000
> 2020 05 11 08 01  0.0000000  0 13        .000000000000
G12  20398041.078 8 107192424.077 8      1290.914          51.000    20398038.812 8  83526567.855 8      1005.907          51.000
G15  23610704.508 6 124075063.646 6     -3622.520          38.000    23610715.203 5  96681878.531 5     -2822.746          31.000
G17  23784516.953 5 124988478.834 5     -2687.695          35.000
G24  20181023.703 8 106052014.001 8      -412.613          51.000    20181025.516 8  82637923.851 8      -321.517          51.000
R06  21900363.734 6 116864514.358 6     -3706.980          37.000
R15  23095953.695 5 123417723.024 5     -2985.957          31.000    23095956.492 4  95991608.730 4     -2322.408          29.000
R16  19805959.438 6 105799872.906 6      -897.617          36.000    19805963.109 5  82288797.710 5      -698.147          33.000
R17  22034904.219 6 117913214.933 6     -1978.902          38.000
R18  20851661.828 5 111307583.095 5      1754.465          32.000    20851667.195 5  86572582.443 5      1364.587          31.000
C12  23237755.727 8 121005120.184 8      2262.277          48.000    23237753.594 8  93568821.379 8      1749.324          51.000
C24  22286739.008 8 116052869.885 8     -1004.770          51.000
E19  26243813.172 7 137912137.857 7     -2764.559          47.000    26243813.008 7 105672934.885 7     -2118.208          44.000
E21  24061595.516 8 126444581.437 8     -1117.074          51.000    24061597.727 8  96886088.062 8      -855.937          51.000
> 2020 05 11 08 01 30.0000000  0 12        .000000000000
G12  20390717.133 8 107153937.031 8      1275.777          51.000    20390715.812 8  83496577.981 8       994.112          51.000
G15  23631402.688 6 124183829.748 6     -3627.445          36.000    23631414.344 5  96766631.260 5     -2826.581          34.000
G17  23799897.367 5 125069307.084 5     -2700.270          33.000
G24  20183424.797 8 106064632.057 8      -427.645          51.000    20183426.594 8  82647756.094 8      -333.230          51.000
R06  21921245.648 6 116975939.217 6     -3720.301          38.000
R09  21452922.609 4 114557417.306 4      2504.527          28.000    21452923.594 4  89100191.201 4      1947.969          26.000
R16  19811035.586 6 105826988.289 6      -908.957          37.000    19811039.523 5  82309887.415 5      -706.970          33.000
R17  22046072.211 5 117972977.925 5     -2004.488          33.000
C12  23224765.016 8 120937474.535 8      2248.348          48.000    23224763.664 8  93516513.480 8      1738.607          51.000
C24  22292555.688 8 116083158.685 8     -1013.602          51.000
E19  26259619.750 7 137995203.107 7     -2772.035          47.000    26259618.523 7 105736582.243 7     -2124.174          43.000
E21  24067992.336 8 126478197.422 8     -1122.945          51.000    24067994.656 8  96911845.750 8      -860.406          51.000
> 2020 05 11 08 02  0.0000000  0 14        .000000000000
G12  20383478.805 8 107115900.350 8      1262.672          50.000    20383477.859 8  83466939.009 8       983.900          50.000
G15  23652128.570 5 124292743.568 5     -3630.168          32.000    23652139.070 5  96851498.922 5     -2828.708          31.000
G17  23815344.438 5 125150483.128 5     -2709.926          34.000
G24  20185910.320 8 106077693.933 8      -440.457          51.000    20185912.156 8  82657934.163 8      -343.216          51.000
G25  22277759.945 6 117070424.084 6      2777.461          38.000    22277762.023 6  91223697.514 6      2164.258          38.000
R06  21942200.328 5 117087754.815 5     -3731.375          35.000
R16  19816174.734 6 105854440.108 6      -918.270          38.000    19816179.062 5  82331238.850 5      -714.213          34.000
R17  22057381.555 5 118033493.430 5     -2027.332          33.000
R18  20832244.516 5 111203928.375 5      1703.660          30.000
C12  23211853.133 7 120870238.502 7      2236.629          47.000    23211852.273 8  93464522.330 8      1729.497          51.000
C24  22298421.750 8 116113705.005 8     -1020.082          51.000
E19  26275467.648 7 138078487.555 7     -2777.363          45.000    26275465.492 6 105800397.546 6     -2128.160          41.000
E21  24074421.039 8 126511980.705 8     -1126.500          51.000    24074423.352 8  96937731.621 8      -863.195          51.000
E27  27640901.109 5 145253912.259 5     -2340.266          32.000
> 2020 05 11 08 02 30.0000000  0 11        .000000000000
G12  20376311.820 8 107078238.833 8      1248.098          49.000    20376310.742 8  83437592.368 8       972.544          50.000
G17  23830844.445 6 125231939.275 6     -2720.680          36.000    23830845.977 5  97583337.745 5     -2120.007          35.000
G24  20188466.000 8 106091124.459 8      -454.840          51.000    20188467.734 8  82668399.488 8      -354.421          51.000
G25  22261928.117 6 116987230.484 6      2768.438          39.000    22261932.297 6  91158871.365 6      2157.224          39.000
R06  21963212.734 4 117199880.585 4     -3743.191          27.000
R09  21424848.336 5 114407522.063 5      2493.738          31.000
R16  19821362.281 6 105882151.564 6      -929.125          36.000    19821366.609 5  82352792.206 5      -722.653          35.000
C12  23199006.141 7 120803339.574 7      2223.215          46.000    23199005.477 8  93412791.827 8      1719.291          51.000
C24  22304322.992 8 116144434.128 8     -1028.418          51.000
E19  26291342.500 7 138161914.289 7     -2784.289          44.000    26291339.656 6 105864321.879 6     -2133.524          40.000
E21  24080867.141 8 126545855.431 8     -1131.672          51.000    24080869.391 8  96963687.561 8      -867.131          51.000
> 2020 05 11 08 03  0.0000000  0 13        .000000000000
G12  20369228.609 8 107041017.268 8      1234.254          50.000    20369227.492 8  83408588.575 8       961.759          51.000
G17  23846409.430 6 125313732.981 6     -2731.027          37.000    23846411.242 5  97647073.030 5     -2128.076          32.000
G24  20191104.227 8 106104988.785 8      -468.539          51.000    20191105.688 8  82679202.837 8      -365.095          51.000
G25  22246149.680 6 116904320.088 6      2759.559          39.000    22246155.555 6  91094265.930 6      2150.308          39.000
R09  21410850.117 5 114332794.970 5      2488.602          34.000
R16  19826610.883 6 105910188.401 6      -938.738          36.000    19826614.891 5  82374598.604 5      -730.127          35.000
C12  23186235.914 7 120736844.267 7      2210.656          44.000    23186236.070 8  93361373.399 8      1709.383          51.000
C24  22310271.797 8 116175410.401 8     -1035.809          51.000
E01  24260737.922 5 127491028.448 5      1067.227          35.000
E19  26307256.109 7 138245545.989 7     -2790.273          43.000    26307253.406 6 105928403.265 6     -2138.100          39.000
E21  24087342.969 8 126579886.104 8     -1136.105          51.000    24087345.094 8  96989762.986 8      -870.528          51.000
E26  26720558.844 6 140417484.384 6      3009.227          41.000
E27  27667628.281 5 145394367.492 5     -2340.938          31.000
> 2020 05 11 08 03 30.0000000  0 19        .000000000000
G12  20362217.961 8 107004176.159 8      1224.613          51.000    20362216.961 8  83379881.229 8       954.244          51.000
G15  23714415.695 5 124620068.702 5     -3637.891          32.000    23714416.203 4  97106564.453 4     -2834.717          26.000
G17  23862027.297 6 125395802.681 6     -2737.305          37.000    23862029.602 6  97711023.414 6     -2132.965          37.000
G24  20193813.734 8 106119227.765 8      -478.039          51.000    20193815.117 8  82690298.146 8      -372.498          51.000
G25  22230414.438 6 116821634.432 6      2755.355          40.000    22230419.312 6  91029835.619 6      2147.033          40.000
R06  22005435.742 6 117425183.532 6     -3762.281          36.000
R09  21396878.008 6 114258193.543 6      2487.797          36.000    21396882.117 4  88867466.501 4      1934.959          27.000
R16  19831909.039 5 105938489.927 5      -944.996          35.000    19831912.820 6  82396610.884 6      -735.000          36.000
R17  22092093.641 5 118219222.089 5     -2095.066          31.000
R18  20804187.312 4 111054198.372 4      1629.949          29.000
C12  23173532.258 7 120670695.932 7      2202.023          46.000    23173533.383 8  93310223.261 8      1702.608          51.000
C24  22316256.625 8 116206575.116 8     -1039.148          51.000
C25  22825546.141 5 118858597.293 5      1685.758          32.000
C26  25236068.305 4 131410829.152 4     -2571.988          28.000
E01  24254657.867 5 127459080.437 5      1066.008          34.000
E19  26323197.016 7 138329321.796 7     -2792.105          42.000    26323195.172 6 105992595.065 6     -2139.370          38.000
E21  24093837.094 8 126614013.003 8     -1136.363          51.000    24093839.180 8  97015912.154 8      -870.714          51.000
E26  26703375.102 6 140327182.486 6      3013.586          41.000    26703381.172 6 107523447.005 6      2309.144          38.000
E27  27680983.945 5 145464558.385 5     -2336.352          31.000
> 2020 05 11 08 04  0.0000000  0 15        .000000000000
G12  20355283.000 8 106967732.231 8      1206.141          51.000    20355281.750 8  83351483.362 8       939.850          51.000
G15  23735210.719 6 124729338.479 6     -3645.648          37.000    23735212.492 6  97191709.666 6     -2840.765          37.000
G17  23877700.805 6 125478162.055 6     -2751.789          37.000    23877702.859 6  97775199.513 6     -2144.248          37.000
G24  20196597.789 8 106133858.310 8      -496.211          51.000    20196599.352 8  82701698.557 8      -386.658          51.000
G25  22214725.617 6 116739190.411 6      2742.418          38.000    22214728.477 6  90965593.604 6      2136.955          38.000
R06  22026639.680 6 117538305.685 6     -3778.039          36.000
R09  21382935.977 6 114183734.891 6      2477.578          38.000
R16  19837260.125 6 105967072.026 6      -958.875          37.000    19837263.703 6  82418841.395 6      -745.792          37.000
R17  22103915.773 4 118282520.141 4     -2122.297          29.000
C12  23160899.578 8 120604912.332 8      2184.711          49.000    23160900.320 8  93259355.222 8      1689.390          51.000
C24  22322280.539 8 116237944.090 8     -1051.020          51.000
C25  22815870.156 5 118808189.318 5      1676.465          31.000
E19  26339168.711 7 138413255.912 7     -2802.477          42.000    26339167.359 6 106056908.168 6     -2147.373          36.000
E21  24100352.531 8 126648251.696 8     -1145.109          51.000    24100354.586 8  97042146.987 8      -877.377          51.000
E26  26686184.703 6 140236850.841 6      3009.129          38.000    26686189.570 6 107454231.915 6      2306.184          38.000
> 2020 05 11 08 04 30.0000000  0 16        .000000000000
G12  20348444.812 8 106931796.438 8      1191.859          51.000    20348442.961 8  83323481.441 8       928.722          51.000
G15  23756041.281 6 124838800.793 6     -3649.773          36.000    23756044.688 6  97277004.956 6     -2843.982          36.000
G17  23893450.375 6 125560919.686 6     -2762.367          38.000    23893450.953 6  97839685.965 6     -2152.494          37.000
G24  20199477.594 8 106148991.457 8      -510.281          51.000    20199479.344 8  82713490.615 8      -397.622          51.000
G25  22199108.531 5 116657132.026 5      2733.016          35.000    22199107.023 6  90901637.122 6      2129.626          36.000
R06  22047923.266 5 117651854.222 5     -3789.379          32.000
R09  21369040.469 5 114109532.291 5      2471.609          35.000
R16  19842684.414 6 105996047.803 6      -970.246          37.000    19842688.492 6  82441378.115 6      -754.636          37.000
R17  22115890.547 5 118346602.355 5     -2147.238          31.000
R18  20786187.406 6 110958169.900 6      1573.938          36.000    20786196.820 5  86300774.251 5      1224.174          31.000
C12  23148358.609 8 120539605.730 8      2171.375          50.000    23148358.703 8  93208856.060 8      1679.090          51.000
C24  22328364.867 8 116269627.508 8     -1058.887          51.000
E01  24242587.734 5 127395657.945 5      1050.566          34.000    24242594.727 5  97614875.215 5       805.419          33.000
E19  26355192.133 7 138497457.774 7     -2808.730          43.000    26355191.062 6 106121426.394 6     -2152.177          36.000
E21  24106910.414 8 126682712.938 8     -1149.914          51.000    24106912.352 8  97068552.337 8      -881.088          51.000
E26  26669010.086 5 140146602.668 5      3009.109          35.000    26669014.414 6 107385080.807 6      2305.831          39.000
> 2020 05 11 08 05  0.0000000  0 16        .000000000000
G12  20341674.094 8 106896215.597 8      1177.266          51.000    20341672.031 8  83295756.102 8       917.350          51.000
G15  23776878.258 5 124948299.690 5     -3653.262          32.000    23776879.797 5  97362328.740 5     -2846.697          33.000
G17  23909246.016 5 125643920.143 5     -2773.473          34.000    23909245.289 5  97904361.616 5     -2161.148          35.000
G24  20202424.023 8 106164474.506 8      -524.816          51.000    20202425.703 8  82725555.319 8      -408.948          51.000
G25  22183518.039 4 116575176.661 4      2724.020          29.000
R09  21355164.617 5 114035430.819 5      2465.719          30.000
R16  19848152.977 5 106025261.155 5      -981.137          35.000    19848157.969 6  82464099.591 6      -763.106          38.000
R17  22127989.352 4 118411338.769 4     -2170.969          27.000
R18  20777410.438 6 110911299.754 6      1547.246          36.000    20777413.562 5  86264319.709 5      1203.408          33.000
C12  23135880.398 8 120474626.544 8      2157.684          51.000    23135879.617 8  93158610.093 8      1668.473          51.000
C24  22334480.453 8 116301473.612 8     -1067.070          51.000
C25  22796621.875 5 118707983.544 5      1663.609          32.000
E01  24236601.281 6 127364186.792 6      1044.461          36.000    24236602.648 5  97590760.237 5       800.170          33.000
E19  26371237.188 7 138581772.535 7     -2815.039          42.000    26371237.562 6 106186031.131 6     -2157.229          37.000
E21  24113481.352 8 126717243.153 8     -1154.945          51.000    24113483.180 8  97095010.551 8      -884.982          51.000
E26                                                                  26651826.922 6 107315877.814 6      2305.627          39.000
> 2020 05 11 08 05 30.0000000  0 14        .000000000000
G12  20334998.102 8 106861133.814 8      1169.828          50.000    20334996.438 8  83268419.648 8       911.554          50.000
G17  23925115.148 5 125727304.914 5     -2777.316          31.000    23925112.406 4  97969336.722 4     -2164.143          29.000
G24  20205464.398 8 106180451.179 8      -532.020          51.000    20205465.781 8  82738004.668 8      -414.561          51.000
G25  22168002.836 6 116493633.170 6      2720.973          36.000    22168009.828 6  90774273.425 6      2120.238          37.000
R09  21341335.867 5 113961536.340 5      2466.359          35.000
R16  19853693.617 6 106054858.370 6      -983.906          38.000    19853698.883 6  82487119.648 6      -765.257          39.000
R17  22140222.008 5 118476798.539 5     -2187.273          30.000    22140228.156 4  92148638.490 4     -1701.210          27.000
C12  23123492.766 8 120410119.524 8      2151.023          50.000    23123491.219 8  93108729.236 8      1663.244          50.000
C24  22340654.852 8 116333625.119 8     -1068.094          51.000
C25  22787058.867 5 118658186.343 5      1664.688          34.000
E01  24230660.234 6 127332955.657 6      1045.570          39.000    24230656.156 5  97566829.899 5       801.190          33.000
E19  26387330.594 7 138666342.131 7     -2814.469          42.000    26387333.516 6 106250831.151 6     -2156.751          39.000
E21  24120092.672 8 126751985.989 8     -1152.953          51.000    24120094.484 8  97121631.679 8      -883.456          51.000
E26  26634656.547 5 139966064.478 5      3015.043          33.000    26634654.891 6 107246734.883 6      2310.395          39.000
> 2020 05 11 08 06  0.0000000  0 15        .000000000000
G12  20328416.516 8 106826547.680 8      1151.309          51.000    20328415.055 8  83241469.401 8       897.124          51.000
G24  20208598.234 8 106196918.907 8      -550.523          51.000    20208599.281 8  82750836.661 8      -428.979          51.000
G25  22152552.250 6 116412460.702 6      2707.777          38.000    22152555.984 6  90711015.128 6      2109.953          38.000
R06  22112137.461 5 117994623.680 5     -3820.367          33.000
R09  21327551.852 5 113887928.233 5      2456.309          32.000
R16  19859305.664 6 106084835.662 6      -999.066          39.000    19859310.547 6  82510435.300 6      -777.052          39.000
R17  22152610.062 5 118543077.364 5     -2215.699          32.000
R18  20760348.883 5 110820141.972 5      1497.328          33.000    20760331.672 5  86193407.517 5      1164.589          33.000
R19  22564153.320 6 120703003.043 6      4238.582          38.000    22564151.609 6  93880110.999 6      3296.678          37.000
C12  23111194.781 7 120346083.238 7      2133.238          47.000    23111193.078 8  93059212.384 8      1649.628          50.000
C24  22346887.281 8 116366078.746 8     -1080.164          51.000
E01  24224763.695 6 127301961.979 6      1035.785          38.000    24224757.766 5  97543081.526 5       793.621          34.000
E19  26403471.383 6 138751161.531 6     -2824.762          41.000    26403476.961 6 106315822.620 6     -2164.425          41.000
E21  24126743.719 8 126786937.653 8     -1161.867          51.000    24126745.602 8  97148412.815 8      -890.259          51.000
E26  26617502.508 5 139875918.111 5      3010.895          32.000    26617498.234 6 107177651.009 6      2306.872          39.000
> 2020 05 11 08 06 30.0000000  0 16        .000000000000
G12  20321851.602 8 106792048.752 8      1123.148          51.000    20321850.078 8  83214587.124 8       875.181          51.000
G24  20211747.906 8 106213469.970 8      -578.383          51.000    20211748.719 8  82763733.578 8      -450.688          51.000
G25  22137089.078 6 116331197.529 6      2684.523          36.000    22137090.117 6  90647693.204 6      2091.833          37.000
R06  22133612.281 6 118109228.890 6     -3845.633          36.000
R09  21313738.141 5 113814151.481 5      2435.875          31.000
R16  19864911.555 6 106114778.029 6     -1022.969          40.000    19864915.320 6  82533723.804 6      -795.642          38.000
R17  22165061.672 5 118609713.633 5     -2253.141          31.000
R18  20751957.797 5 110775402.465 5      1457.277          34.000    20751962.609 5  86158643.813 5      1133.444          31.000
R19  22540368.680 6 120575778.256 6      4216.766          38.000    22540368.539 6  93781158.444 6      3279.707          38.000
C12  23098909.773 7 120282115.467 7      2106.207          44.000    23098908.555 8  93009748.514 8      1628.523          51.000
C24  22353100.094 8 116398430.041 8     -1101.676          51.000
C25  22768014.914 4 118559021.363 4      1634.848          29.000
E01  24218833.000 6 127270797.548 6      1016.406          36.000    24218828.195 5  97519202.304 5       778.981          35.000
E19  26419581.719 6 138835820.653 6     -2844.406          41.000    26419589.297 7 106380691.311 7     -2179.525          42.000
E21  24133356.812 8 126821689.626 8     -1180.348          51.000    24133358.797 8  97175040.940 8      -904.422          51.000
E26                                                                  26600279.312 6 107108315.064 6      2296.115          38.000
> 2020 05 11 08 07  0.0000000  0 16        .000000000000
G12  20315440.727 8 106758359.692 8      1120.066          51.000    20315439.430 8  83188335.926 8       872.779          51.000
G15  23860458.594 5 125387562.393 5     -3667.238          33.000
G24  20215050.836 8 106230826.446 8      -581.332          51.000    20215051.602 8  82777258.104 8      -452.986          51.000
G25  22121749.352 5 116250593.722 5      2686.887          30.000    22121746.617 4  90584885.037 4      2093.675          29.000
R06  22155219.242 5 118224544.507 5     -3844.973          35.000
R16  19870647.883 6 106145419.353 6     -1022.145          41.000    19870650.414 6  82557555.945 6      -795.001          38.000
R17  22177714.164 5 118677439.804 5     -2264.809          31.000
R18  20743804.273 6 110731879.446 6      1441.922          38.000    20743804.062 4  86124758.652 4      1121.495          26.000
R19  22516701.656 6 120449180.445 6      4220.355          38.000    22516702.750 6  93682693.537 6      3282.499          39.000
C12  23086774.852 6 120218933.840 6      2103.426          41.000    23086775.164 8  92960892.433 8      1626.523          51.000
C24  22359430.773 8 116431394.601 8     -1098.504          51.000
C26  25340386.469 5 131954015.260 5     -2597.254          31.000
E01  24213006.375 6 127240184.416 6      1021.973          36.000    24213003.297 5  97495745.504 5       782.836          35.000
E19  26435798.977 6 138921039.918 6     -2839.297          41.000    26435807.539 7 106445989.194 7     -2175.475          43.000
E21  24140069.289 8 126856963.636 8     -1173.875          51.000    24140071.461 8  97202069.069 8      -899.466          51.000
E26                                                                  26583135.984 6 107039281.967 6      2304.313          37.000
> 2020 05 11 08 07 30.0000000  0 17        .000000000000
G12  20309051.992 8 106724786.479 8      1108.188          50.000    20309050.984 8  83162175.005 8       863.523          50.000
G15  23881366.688 5 125497439.642 5     -3667.641          34.000    23881369.406 5  97790215.683 5     -2857.899          34.000
G17  23989112.680 5 126063601.350 5     -2822.766          33.000    23989110.000 5  98231395.798 5     -2199.561          31.000
G24  20218375.039 8 106248294.772 8      -593.141          51.000    20218375.672 8  82790869.778 8      -462.191          51.000
G25  22106403.734 6 116169955.978 6      2679.477          36.000    22106401.711 6  90522050.419 6      2087.901          37.000
R06  22176827.180 6 118339861.121 6     -3852.867          36.000
R16  19876382.828 6 106176053.825 6     -1030.195          41.000    19876384.453 6  82581382.754 6      -801.263          38.000
R17  22190440.727 5 118745546.083 5     -2285.617          34.000
R18  20735739.781 6 110688836.511 6      1417.418          39.000
R19  22493021.078 6 120322507.971 6      4214.324          38.000    22493022.812 6  93584170.500 6      3277.808          40.000
C12  23074659.711 7 120155852.651 7      2092.152          43.000    23074661.422 8  92912114.043 8      1617.794          51.000
C24  22365747.133 8 116464284.789 8     -1104.043          51.000
C25  22749097.695 5 118460521.298 5      1635.828          30.000
E01                                                                  24207150.375 5  97472179.190 5       780.418          35.000
E19  26451990.648 6 139006123.561 6     -2842.820          41.000    26451999.398 7 106511183.162 7     -2178.295          43.000
E21  24146748.984 8 126892065.335 8     -1176.180          51.000    24146751.336 8  97228965.175 8      -901.211          51.000
E26                                                                  26565936.414 6 106970021.464 6      2305.786          37.000
> 2020 05 11 08 08  0.0000000  0 17        .000000000000
G12  20302772.914 8 106691789.893 8      1093.398          50.000    20302771.906 8  83136463.372 8       851.999          50.000
G15  23902320.438 5 125607560.263 5     -3671.664          34.000    23902318.023 5  97876023.947 5     -2861.043          33.000
G17  24005261.312 5 126148462.208 5     -2832.922          33.000    24005258.641 5  98297521.120 5     -2207.472          33.000
G24  20221808.227 8 106266335.871 8      -607.789          51.000    20221808.602 8  82804927.765 8      -473.602          51.000
G25  22091140.711 6 116089745.869 6      2669.582          37.000    22091140.156 6  90459549.088 6      2080.197          37.000
R06  22198521.742 5 118455642.352 5     -3863.734          33.000
R16  19882204.141 7 106207149.895 7     -1040.938          43.000    19882205.906 6  82605568.552 6      -809.618          38.000
R17  22203325.633 5 118814498.641 5     -2309.000          32.000
R18  20727854.703 6 110646744.284 6      1390.512          38.000    20727858.656 4  86058553.906 4      1081.512          28.000
R19  22469415.297 6 120196234.341 6      4205.445          38.000    22469418.352 6  93485957.694 6      3270.902          41.000
C12  23062653.273 7 120093330.467 7      2077.867          45.000    23062654.844 8  92863767.905 8      1606.730          51.000
C24  22372136.812 8 116497557.317 8     -1112.348          51.000
C25  22739699.914 5 118411572.045 5      1629.152          30.000
E01                                                                  24201358.055 5  97448856.495 5       775.872          35.000
E19  26468244.039 6 139091530.663 6     -2849.445          40.000    26468252.016 7 106576624.954 7     -2183.093          43.000
E21  24153483.477 8 126927455.213 8     -1181.332          51.000    24153485.945 8  97256082.096 8      -905.165          51.000
E26  26548768.805 6 139514733.732 6      3007.898          37.000    26548768.219 6 106900888.324 6      2304.753          36.000
> 2020 05 11 08 08 30.0000000  0 17        .000000000000
G12  20296578.648 8 106659238.615 8      1080.820          51.000    20296577.664 8  83111098.710 8       842.198          51.000
G15  23923296.391 5 125717790.061 5     -3673.621          33.000    23923292.672 5  97961917.297 5     -2862.562          33.000
G17  24021470.500 5 126233639.310 5     -2841.492          32.000    24021468.383 5  98363892.844 5     -2214.150          32.000
G24  20225325.422 8 106284818.693 8      -620.199          51.000    20225325.664 8  82819329.954 8      -483.272          51.000
G25  22075934.164 6 116009832.956 6      2661.867          36.000    22075935.062 6  90397279.345 6      2074.185          37.000
R06  22220277.727 5 118571750.130 5     -3871.957          33.000
R16  19888086.727 7 106238573.799 7     -1049.578          43.000    19888088.547 6  82630009.358 6      -816.339          37.000
R17  22216343.109 4 118884138.614 4     -2330.789          28.000
R18  20720123.727 5 110605471.800 5      1365.422          33.000    20720123.453 5  86026443.092 5      1061.992          30.000
R19  22445860.195 6 120070230.916 6      4199.016          38.000    22445864.031 6  93387955.029 6      3265.901          40.000
C12  23050729.828 7 120031239.261 7      2065.699          45.000    23050730.969 8  92815755.031 8      1597.342          51.000
C24  22378574.867 8 116531082.081 8     -1118.488          51.000
C26  25385327.375 5 132188059.989 5     -2602.262          30.000
E01  24195601.508 6 127148743.709 6      1008.590          36.000    24195601.664 6  97425676.644 6       772.917          37.000
E19  26484533.641 6 139177128.122 6     -2853.062          38.000    26484540.648 7 106642212.619 7     -2186.086          42.000
E21  24160247.680 8 126963001.620 8     -1184.215          51.000    24160250.266 8  97283318.943 8      -907.388          51.000
E26  26531605.344 6 139424546.036 6      3008.883          37.000    26531606.844 5 106831783.540 5      2305.157          33.000
> 2020 05 11 08 09  0.0000000  0 18        .000000000000
G12  20290454.047 8 106627052.654 8      1064.836          51.000    20290453.203 8  83086018.736 8       829.742          51.000
G15  23944278.281 5 125828046.640 5     -3677.410          35.000    23944273.359 5  98047831.374 5     -2865.517          34.000
G17  24037723.578 5 126319050.156 5     -2853.445          31.000    24037721.930 5  98430446.726 5     -2223.467          30.000
G24  20228911.508 8 106303664.066 8      -636.055          51.000    20228911.836 8  82834014.654 8      -495.627          51.000
G25  22060769.164 5 115930138.346 5      2650.953          32.000    22060770.750 5  90335179.670 5      2065.678          31.000
R06  22242080.844 5 118688099.014 5     -3884.141          35.000
R09  21245351.141 5 113448994.936 5      2420.043          34.000
R16  19894015.289 7 106270244.028 7     -1061.570          43.000    19894017.125 6  82654641.724 6      -825.669          38.000
R18  20712544.000 5 110564933.837 5      1336.738          31.000    20712531.750 5  85994930.447 5      1039.682          34.000
R19  22422341.227 6 119944420.922 6      4188.375          38.000    22422345.344 6  93290102.813 6      3257.625          38.000
C12  23038873.930 7 119969501.996 7      2050.129          46.000    23038875.289 8  92768015.866 8      1585.356          51.000
C24  22385046.219 8 116564779.990 8     -1127.934          51.000
C25  22720984.875 4 118314122.212 4      1618.305          28.000
C26  25400326.891 4 132266166.686 4     -2607.543          29.000
E01  24189866.922 6 127118598.588 6      1001.453          38.000    24189865.812 6  97402578.453 6       767.150          37.000
E19  26500843.562 6 139262834.166 6     -2860.625          36.000    26500849.758 7 106707883.483 7     -2191.824          42.000
E21  24167026.359 8 126998624.261 8     -1190.504          51.000    24167029.008 8  97310614.210 8      -912.183          51.000
E26  26514434.102 6 139334317.587 6      3006.441          38.000    26514442.789 5 106762647.327 5      2303.658          34.000
> 2020 05 11 08 09 30.0000000  0 12        .000000000000
G12  20284411.156 8 106595295.661 8      1055.750          51.000    20284410.023 8  83061273.024 8       822.662          51.000
G24  20232578.641 8 106322935.700 8      -645.102          51.000    20232579.211 8  82849031.516 8      -502.677          51.000
R06  22263941.922 6 118804749.030 6     -3888.848          38.000
R16  19900001.922 7 106302225.364 7     -1066.875          44.000    19900004.477 6  82679516.072 6      -829.792          39.000
R19  22398871.188 6 119818873.598 6      4184.938          37.000    22398874.438 6  93192454.968 6      3254.957          37.000
C12  23027098.484 7 119908183.546 7      2041.258          46.000    23027100.023 8  92720600.561 8      1578.427          51.000
C24  22391562.969 8 116598714.138 8     -1130.789          51.000
C25  22711690.508 4 118265724.881 4      1615.160          29.000
E01  24184163.492 5 127088637.347 5      1001.383          35.000    24184162.016 6  97379610.466 6       767.009          36.000
E19  26517184.117 5 139348710.603 5     -2861.281          33.000    26517190.984 6 106773684.933 6     -2192.303          40.000
E21  24173831.688 8 127034386.491 8     -1190.062          51.000    24173834.227 8  97338016.425 8      -911.887          51.000
E26  26497266.844 6 139244114.108 6      3010.551          40.000    26497282.820 6 106693530.369 6      2307.076          37.000
> 2020 05 11 08 10  0.0000000  0 15        .000000000000
G12  20278419.539 8 106563808.631 8      1045.855          51.000    20278417.828 8  83036737.661 8       814.952          51.000
G24  20236296.477 8 106342474.163 8      -654.977          51.000    20236297.328 8  82864256.282 8      -510.371          51.000
G25  22030626.938 5 115771725.241 5      2641.973          31.000
R06  22285829.023 6 118921534.173 6     -3894.301          39.000
R16  19906016.734 7 106334355.643 7     -1072.648          44.000    19906019.852 6  82704506.293 6      -834.282          41.000
R17  22256101.836 5 119096887.126 5     -2390.500          32.000    22256116.406 4  92630971.238 4     -1859.278          28.000
R18  20697767.039 6 110486078.874 6      1292.449          38.000    20697768.727 5  85933627.829 5      1005.232          32.000
R19  22375421.016 5 119693431.816 5      4180.242          35.000    22375422.734 6  93094889.203 6      3251.299          38.000
C12  23015373.711 7 119847128.303 7      2031.637          46.000    23015374.984 8  92673388.795 8      1570.867          51.000
C24  22398094.922 8 116632726.824 8     -1134.281          51.000
C25  22702395.883 5 118217309.329 5      1614.379          34.000
E01  24178461.227 6 127058672.986 6       999.148          37.000    24178459.812 6  97356650.727 6       765.590          38.000
E19  26533524.703 5 139434618.545 5     -2862.715          33.000    26533533.977 6 106839493.671 6     -2193.248          39.000
E21  24180633.156 8 127070128.733 8     -1190.320          51.000    24180635.570 8  97365403.331 8      -912.076          51.000
E26  26480074.688 6 139153778.529 6      3013.926          41.000    26480092.953 6 106624312.202 6      2309.354          40.000
> 2020 05 11 08 10 30.0000000  0 15        .000000000000
G12  20272530.039 8 106532859.643 8      1020.090          51.000    20272528.422 8  83012621.583 8       794.878          51.000
G24  20240116.336 8 106362548.501 8      -680.617          51.000    20240117.461 8  82879898.629 8      -530.351          51.000
R06  22307791.656 6 119038722.152 6     -3915.367          38.000
R16  19912110.352 7 106366906.978 7     -1094.594          45.000    19912114.234 7  82729823.980 7      -851.351          42.000
R17  22269615.109 5 119169176.176 5     -2425.215          32.000    22269623.852 4  92687196.028 4     -1886.278          26.000
R18  20690619.203 6 110447926.006 6      1253.551          40.000    20690625.945 5  85903953.495 5       974.987          34.000
R19  22352041.312 5 119568373.050 5      4159.500          32.000    22352044.172 6  92997621.322 6      3235.170          40.000
C12  23003751.234 8 119786603.987 8      2006.008          48.000    23003751.523 8  92626587.596 8      1551.115          51.000
C24  22404692.820 8 116667083.899 8     -1153.492          51.000
C25  22693156.078 4 118169188.363 4      1596.773          27.000
C26  25445422.633 5 132501017.374 5     -2617.551          31.000
E01  24172812.734 6 127028987.504 6       982.312          37.000    24172812.609 6  97333904.699 6       752.468          41.000
E19  26549919.602 5 139520768.465 5     -2879.242          33.000    26549929.203 6 106905513.858 6     -2206.206          36.000
E21  24187481.719 8 127106118.913 8     -1206.488          51.000    24187484.000 8  97392980.217 8      -924.437          51.000
E26  26462908.859 6 139063581.121 6      3001.605          41.000    26462927.516 7 106555199.930 7      2299.872          42.000
> 2020 05 11 08 11  0.0000000  0 13        .000000000000
G12  20266794.594 8 106502719.780 8       993.012          51.000    20266793.234 8  82989136.003 8       773.775          51.000
G24  20244089.852 8 106383430.103 8      -707.672          51.000    20244091.289 8  82896170.010 8      -551.433          51.000
G25  22000669.242 5 115614291.693 5      2598.277          33.000    22000672.711 5  90089070.087 5      2024.629          32.000
R06  22329881.023 6 119156584.180 6     -3937.848          38.000
R16  19918334.570 7 106400155.603 7     -1118.152          45.000    19918338.977 7  82755684.024 7      -869.674          42.000
R18  20683696.000 6 110410973.877 6      1213.418          39.000    20683702.859 5  85875213.097 5       943.773          33.000
R19  22328784.500 5 119443978.746 5      4136.934          30.000    22328790.930 6  92900870.202 6      3217.615          41.000
C12  22992282.984 8 119726881.452 8      1979.078          48.000    22992281.883 8  92580406.345 8      1530.464          51.000
C24  22411408.188 8 116702054.282 8     -1174.070          50.000
E01  24167268.570 6 126999852.168 6       963.910          36.000    24167270.297 6  97311580.215 6       738.661          41.000
E19  26566420.031 5 139607477.926 5     -2897.543          33.000    26566427.719 5 106971951.994 5     -2220.174          35.000
E21  24194429.031 8 127142628.026 8     -1223.680          50.000    24194431.383 8  97420954.726 8      -937.697          51.000
E26  26445821.562 7 138973795.350 7      2987.879          44.000    26445839.875 7 106486403.072 7      2289.462          43.000
> 2020 05 11 08 11 30.0000000  0 14        .000000000000
G12  20261036.109 8 106472459.141 8      1010.188          51.000    20261035.008 8  82965556.300 8       787.159          51.000
G17  24119804.008 5 126750425.638 5     -2883.637          35.000    24119805.508 5  98766567.860 5     -2246.990          35.000
G24  20248040.133 8 106404189.194 8      -690.527          51.000    20248041.656 8  82912345.925 8      -538.070          51.000
R06  22351919.195 6 119274171.331 6     -3915.535          40.000
R16  19924512.258 7 106433155.493 7     -1096.711          46.000    19924516.664 7  82781350.590 7      -852.997          42.000
R17  22297049.547 5 119316035.836 5     -2451.324          32.000
R18  20676822.266 5 110374280.126 5      1218.309          32.000    20676829.281 5  85846673.551 5       947.576          31.000
R19  22305478.508 5 119319306.222 5      4160.223          33.000    22305485.414 6  92803902.629 6      3235.729          41.000
C12  22980791.828 8 119667040.993 8      1996.004          48.000    22980789.992 8  92534133.927 8      1543.419          51.000
C24  22418064.461 8 116736716.389 8     -1150.910          50.000
E01  24161651.211 6 126970336.854 6       989.359          37.000    24161653.562 6  97288964.553 6       758.128          37.000
E19  26582847.375 5 139693803.853 5     -2871.422          34.000    26582852.641 5 107038093.991 5     -2200.426          33.000
E21  24201298.125 8 127178725.665 8     -1197.102          50.000    24201300.672 8  97448613.950 8      -917.215          50.000
E26  26428637.258 7 138883493.234 7      3018.000          45.000    26428653.914 7 106417210.541 7      2312.422          43.000
> 2020 05 11 08 12  0.0000000  0 16        .000000000000
G12  20255385.898 8 106442768.547 8       981.012          51.000    20255385.086 8  82942420.783 8       764.425          51.000
G17  24136374.281 6 126837494.481 6     -2908.613          37.000    24136373.969 6  98834413.663 6     -2266.452          37.000
G19  22085133.312 6 116058189.659 6     -1939.488          37.000
G24  20252098.586 8 106425516.971 8      -719.633          51.000    20252100.047 8  82928964.952 8      -560.753          51.000
G25  21970895.031 5 115457832.247 5      2595.750          31.000
R06  22374036.539 6 119392180.878 6     -3939.754          41.000
R16  19930774.922 7 106466609.679 7     -1122.016          46.000    19930779.094 7  82807370.503 7      -872.679          43.000
R17  22310930.742 4 119390292.763 4     -2488.965          29.000
R19  22282254.352 5 119195064.197 5      4134.980          35.000    22282260.055 6  92707269.955 6      3216.096          41.000
C12  22969409.328 8 119607769.410 8      1967.160          48.000    22969407.492 8  92488301.428 8      1521.003          51.000
C24  22424793.250 8 116771755.147 8     -1173.391          50.000
C26  25490689.266 4 132736701.292 4     -2622.727          29.000
E01  24156093.500 6 126941132.566 6       969.332          38.000    24156092.477 5  97266587.196 5       742.965          34.000
E19  26599332.492 5 139780427.927 5     -2891.984          34.000    26599335.141 5 107104504.261 5     -2215.960          32.000
E21  24208220.422 8 127215102.632 8     -1216.438          49.000    24208223.203 8  97476487.204 8      -932.010          50.000
E26  26411487.320 7 138793368.031 7      3001.879          46.000    26411501.359 7 106348153.556 7      2300.240          43.000
> 2020 05 11 08 12 30.0000000  0 15        .000000000000
G12  20249827.469 8 106413559.128 8       966.008          51.000    20249826.531 8  82919660.176 8       752.733          51.000
G17  24153006.742 6 126924896.816 6     -2918.488          38.000    24153006.836 6  98902519.339 6     -2274.150          38.000
G24  20256248.461 8 106447324.596 8      -734.516          51.000    20256249.594 8  82945957.896 8      -572.350          51.000
R06  22396215.289 6 119510518.201 6     -3949.496          39.000
R09  21150974.477 5 112945061.976 5      2377.594          32.000    21150984.461 4  87846163.450 4      1849.240          28.000
R16  19937105.641 7 106500427.109 7     -1132.957          46.000    19937109.320 7  82833672.954 7      -881.192          42.000
R17  22324949.742 5 119465299.386 5     -2511.812          34.000
R19  22259094.555 6 119071166.427 6      4124.684          37.000    22259098.883 6  92610905.065 6      3208.090          39.000
C12  22958119.180 8 119548980.561 8      1951.957          48.000    22958117.484 8  92442842.183 8      1509.456          51.000
C24  22431577.586 8 116807082.497 8     -1182.008          51.000
C25  22656580.773 4 117978859.037 4      1574.441          27.000
E01  24150578.773 6 126912150.409 6       962.730          40.000    24150574.234 5  97244380.117 5       737.829          34.000
E19  26615857.664 5 139867275.225 5     -2897.742          34.000    26615859.586 5 107171035.126 5     -2220.198          32.000
E21  24215178.891 8 127251669.750 8     -1221.668          48.000    24215181.844 8  97504506.167 8      -936.008          50.000
E26  26394354.938 8 138703333.003 8      3000.156          48.000    26394365.938 7 106279165.685 7      2298.818          43.000
> 2020 05 11 08 13  0.0000000  0 17        .000000000000
G12  20244346.078 8 106384754.169 8       951.363          51.000    20244344.758 8  82897214.768 8       741.322          51.000
G17  24169687.391 6 127012553.622 6     -2928.031          38.000    24169687.602 6  98970823.292 6     -2281.583          38.000
G19  22107527.086 6 116175840.001 6     -1978.066          37.000
G24  20260475.180 8 106469535.601 8      -749.160          51.000    20260475.984 8  82963265.163 8      -583.761          51.000
G25  21941347.375 5 115302553.963 5      2576.039          31.000    21941350.172 5  89846153.451 5      2007.306          31.000
R06  22418439.719 6 119629100.451 6     -3959.086          37.000
R16  19943489.875 7 106534529.868 7     -1143.535          46.000    19943493.359 7  82860197.292 7      -889.419          42.000
R17  22339088.070 5 119540946.676 5     -2534.402          33.000
R18  20657219.609 6 110269661.442 6      1119.715          39.000    20657225.773 4  85765286.759 4       870.892          28.000
R19  22235985.047 6 118947539.785 6      4114.227          37.000    22235987.422 6  92514751.088 6      3199.954          37.000
C12  22946907.797 8 119490600.412 8      1937.148          48.000    22946906.000 8  92397698.965 8      1497.890          51.000
C24  22438403.047 8 116842622.589 8     -1190.270          51.000
C25  22647520.703 4 117931582.571 4      1568.219          28.000
E01  24145091.820 6 126883313.536 6       956.863          37.000    24145087.867 6  97222284.379 6       732.995          37.000
E19  26632408.125 5 139954246.331 5     -2903.480          34.000    26632411.109 5 107237678.519 5     -2224.454          32.000
E21  24222158.742 7 127288350.036 7     -1226.539          47.000    24222161.883 8  97532611.847 8      -939.938          50.000
E26  26377225.711 8 138613313.596 8      2998.188          48.000    26377233.992 7 106210189.772 7      2297.447          44.000
> 2020 05 11 08 13 30.0000000  0 17        .000000000000
G12  20238947.148 8 106356382.030 8       940.234          51.000    20238945.320 8  82875106.619 8       732.650          51.000
G17  24186421.148 6 127100490.837 6     -2934.500          38.000    24186420.844 6  99039345.737 6     -2286.626          39.000
G19  22118859.891 6 116235414.737 6     -1993.566          40.000
G24  20264784.203 8 106492178.933 8      -760.340          51.000    20264784.797 8  82980909.294 8      -592.473          51.000
G25  21926667.273 5 115225387.013 5      2569.156          35.000    21926682.078 5  89786023.204 5      2001.934          34.000
R06  22440713.555 5 119747952.222 5     -3965.160          34.000
R16  19949932.891 7 106568946.320 7     -1150.645          46.000    19949935.898 7  82886965.633 7      -894.946          42.000
R17  22353350.516 6 119617260.212 6     -2553.414          37.000
R18  20650994.352 6 110236431.148 6      1095.316          39.000    20651000.414 5  85739441.139 5       851.916          31.000
R19  22212931.930 6 118824218.100 6      4107.270          36.000    22212933.211 6  92418834.248 6      3194.543          36.000
C12  22935780.609 8 119432658.791 8      1925.797          48.000    22935778.703 8  92352894.829 8      1489.031          51.000
C24  22445274.758 8 116878403.360 8     -1195.102          51.000
C25  22638499.273 5 117884602.115 5      1564.258          30.000
E01  24139636.648 6 126854649.960 6       954.105          36.000    24139635.906 6  97200321.449 6       731.188          39.000
E19  26648988.805 5 140041376.749 5     -2905.449          35.000    26648993.797 5 107304440.748 5     -2226.211          31.000
E21  24229165.422 7 127325171.397 7     -1228.113          46.000    24229168.688 8  97560825.619 8      -941.007          50.000
E26  26360105.164 8 138523340.132 8      2999.910          48.000    26360111.242 7 106141249.084 7      2298.623          44.000
> 2020 05 11 08 14  0.0000000  0 16        .000000000000
G12  20233621.969 8 106328397.660 8       924.316          51.000    20233620.016 8  82853300.617 8       720.247          51.000
G17  24203198.844 6 127188661.082 6     -2944.652          38.000    24203199.195 6  99108049.780 6     -2294.537          38.000
G24  20269166.898 8 106515209.737 8      -776.160          51.000    20269167.484 8  82998855.343 8      -604.800          51.000
G25  21912034.445 6 115148469.189 6      2557.785          37.000    21912052.219 5  89726087.318 5      1993.085          32.000
R06  22463027.906 5 119867023.769 5     -3974.652          33.000
R16  19956425.914 7 106603630.698 7     -1162.723          46.000    19956428.562 7  82913942.366 7      -904.340          42.000
R17  22367727.930 5 119694190.712 5     -2576.566          34.000    22367736.086 4  93095549.258 4     -2003.999          25.000
R18  20644914.914 6 110203986.024 6      1066.527          41.000    20644921.016 5  85714206.183 5       829.524          33.000
R19  22189928.109 6 118701159.876 6      4095.461          36.000    22189928.820 6  92323122.392 6      3185.362          38.000
C12  22924729.109 7 119375113.184 7      1909.711          47.000    22924727.867 8  92308396.935 8      1476.725          51.000
C24  22452183.984 8 116914380.494 8     -1204.484          51.000
C25  22629508.516 5 117837800.418 5      1556.227          32.000
E01  24134207.148 6 126826115.087 6       946.793          39.000    24134207.812 6  97178457.093 6       725.680          39.000
E19  26665591.047 5 140128620.627 5     -2911.996          35.000    26665599.461 4 107371318.948 4     -2231.506          29.000
E21  24236190.359 7 127362088.668 7     -1234.035          45.000    24236193.773 8  97589112.900 8      -945.634          49.000
E26  26342985.242 7 138433369.948 7      2996.922          47.000    26342989.500 7 106072310.914 7      2296.442          45.000
> 2020 05 11 08 14 30.0000000  0 16        .000000000000
G12  20228379.211 8 106300846.736 8       911.285          51.000    20228377.305 8  82831832.370 8       710.092          51.000
G17  24220028.867 6 127277107.714 6     -2952.488          36.000    24220029.930 6  99176969.199 6     -2300.643          36.000
G24  20273631.820 8 106538673.491 8      -789.328          51.000    20273632.609 8  83017138.749 8      -615.061          51.000
G25  21897456.461 5 115071847.082 5      2549.086          31.000    21897456.664 5  89666382.008 5      1986.304          32.000
R09  21097778.125 6 112660950.886 6      2354.414          37.000
R16  19962977.719 7 106638629.753 7     -1171.754          47.000    19962980.172 7  82941163.845 7      -911.364          43.000
R17  22382227.750 5 119771781.785 5     -2597.293          33.000
R18  20638992.812 6 110172374.721 6      1039.848          39.000    20638997.992 5  85689619.650 5       808.773          33.000
R19  22166982.641 5 118578416.662 5      4086.312          34.000    22166983.367 6  92227655.539 6      3178.246          38.000
C12  22913763.016 8 119318010.850 8      1896.059          48.000    22913762.078 8  92264241.786 8      1466.180          51.000
C24  22459139.305 8 116950599.419 8     -1211.242          51.000
C25  22620560.133 6 117791167.252 6      1551.582          37.000
E01  24128810.203 6 126797754.517 6       942.586          38.000    24128811.969 6  97156726.259 6       722.181          39.000
E19  26682223.680 5 140216022.144 5     -2915.875          33.000
E21  24243242.484 7 127399147.381 7     -1237.559          46.000    24243245.719 8  97617508.543 8      -948.241          49.000
E26  26325874.961 7 138343450.857 7      2996.551          46.000    26325877.852 7 106003411.955 7      2295.993          45.000
> 2020 05 11 08 15  0.0000000  0 15        .000000000000
G12  20223213.680 8 106273701.578 8       896.535          51.000    20223211.453 8  82810680.317 8       698.599          51.000
G15  24197121.391 5 127156715.128 5     -3703.605          34.000    24197115.273 5  99083134.699 5     -2885.929          32.000
G17  24236905.852 5 127365801.171 5     -2961.871          35.000    24236907.750 5  99246080.936 5     -2307.952          35.000
G19  22153446.469 5 116417169.081 5     -2049.605          35.000
G24  20278173.977 8 106562543.489 8      -804.035          51.000    20278175.180 8  83035738.724 8      -626.521          51.000
R16  19969583.336 7 106673915.180 7     -1182.473          47.000    19969585.633 7  82968608.072 7      -919.701          43.000
R18  20633221.969 5 110141570.970 5      1012.027          35.000    20633224.703 5  85665661.102 5       787.129          34.000
R19  22144091.312 5 118455965.263 5      4075.086          32.000    22144092.422 6  92132415.637 6      3169.514          38.000
C12  22902877.445 8 119261326.379 8      1880.949          49.000    22902876.602 8  92220409.771 8      1454.502          51.000
C24  22466135.805 8 116987032.982 8     -1219.562          51.000
C25  22611636.203 5 117744705.288 5      1544.703          30.000
E01  24123438.977 5 126769540.814 5       936.477          35.000    24123443.680 6  97135107.877 6       717.503          38.000
E19  26698881.000 5 140303566.064 5     -2921.574          33.000
E21  24250316.422 7 127436319.793 7     -1242.508          45.000    24250319.328 8  97645991.306 8      -952.010          50.000
E26  26308769.422 7 138253557.627 7      2994.441          46.000    26308771.070 7 105934532.790 7      2294.532          45.000
> 2020 05 11 08 15 30.0000000  0 12        .000000000000
G12  20218144.438 8 106247062.587 8       894.148          51.000    20218141.648 8  82789922.680 8       696.739          51.000
G15  24218278.305 5 127267899.871 5     -3694.184          34.000    24218273.375 5  99169772.039 5     -2878.594          34.000
G17  24253848.516 5 127454839.244 5     -2959.273          34.000    24253851.180 5  99315461.240 5     -2305.924          32.000
G19  22165210.258 4 116478965.578 4     -2056.996          29.000
G24  20282812.289 8 106586919.440 8      -806.336          51.000    20282814.078 8  83054732.950 8      -628.314          51.000
R09  21071402.570 5 112520074.001 5      2353.730          33.000
R16  19976261.625 7 106709588.955 7     -1180.656          47.000    19976263.938 7  82996354.329 7      -918.288          43.000
C12  22892091.586 8 119205160.966 8      1877.957          48.000    22892090.812 8  92176979.136 8      1452.152          51.000
C24  22473192.367 8 117023780.538 8     -1215.738          51.000
E01  24118115.570 6 126741573.980 6       942.398          36.000    24118122.234 6  97113678.714 6       722.262          38.000
E21  24257430.938 7 127473705.814 7     -1235.148          45.000    24257433.945 8  97674637.742 8      -946.490          50.000
E26  26291687.977 7 138163792.653 7      3004.594          45.000    26291688.453 7 105865751.897 7      2302.251          45.000
> 2020 05 11 08 16  0.0000000  0 13        .000000000000
G12  20213128.844 8 106220705.351 8       861.594          51.000    20213125.867 8  82769384.562 8       671.372          51.000
G15  24239418.711 5 127378994.528 5     -3713.465          35.000    24239415.742 5  99256339.232 5     -2893.609          34.000
G17  24270813.734 5 127543986.779 5     -2986.164          32.000    24270816.969 5  99384936.937 5     -2326.887          31.000
G19  22177049.664 5 116541181.975 5     -2092.375          35.000
G24  20287504.320 8 106611577.570 8      -838.754          50.000    20287506.586 8  83073947.061 8      -653.574          49.000
R09  21058236.336 5 112449805.393 5      2329.676          33.000
R16  19982969.867 7 106745422.797 7     -1209.605          47.000    19982972.266 7  83024225.085 7      -940.804          43.000
R17  22426431.773 4 120008331.126 4     -2668.551          28.000
C12  22881362.977 8 119149294.421 8      1845.164          49.000    22881362.570 8  92133779.622 8      1426.855          51.000
C24  22480266.742 8 117060620.036 8     -1241.551          51.000
E01  24112797.906 6 126713629.769 6       918.965          39.000    24112804.508 6  97092266.942 6       704.121          37.000
E21  24264543.492 7 127511080.989 7     -1257.711          45.000    24264546.586 8  97703275.845 8      -963.653          50.000
E26  26274588.555 7 138073933.887 7      2984.711          45.000    26274587.961 7 105796899.111 7      2287.046          45.000
> 2020 05 11 08 16 30.0000000  0 13        .000000000000
G12  20208205.750 8 106194833.967 8       855.289          50.000    20208203.617 8  82749225.052 8       666.459          50.000
G15  24260580.359 6 127490201.101 6     -3707.316          36.000    24260576.789 5  99342993.735 5     -2888.815          35.000
