     3.02           OBSERVATION DATA    M (MIXED)           RINEX VERSION / TYPE
SAVERINEX           SC600               20200501 235931 LCL PGM / RUN BY / DATE
       G = GPS       R = GLONASS       C = COMPASS          COMMENT
       S = SBAS      J = QZSS          E = GALILEO          COMMENT
BEAN                                                        MARKER NAME
1                                                           MARKER NUMBER
GEODETIC                                                    MARKER TYPE
Unige DICCA         GTER                                    OBSERVER / AGENCY
SC60291900056       SC600               2.12(191226)        REC # / TYPE / VERS
                    HEMA45          NONE                    ANT # / TYPE
  4509407.8091   693652.4678  4442337.6214                  APPROX POSITION XYZ
        0.0000        0.0000        0.0000                  ANTENNA: DELTA H/E/N
G    8 C1C L1C D1C S1C C2Y L2Y D2Y S2Y                      SYS / # / OBS TYPES
R    8 C1C L1C D1C S1C C2P L2P D2P S2P                      SYS / # / OBS TYPES
C    8 C1I L1I D1I S1I C7I L7I D7I S7I                      SYS / # / OBS TYPES
E    8 C1C L1C D1C S1C C7Q L7Q D7Q S7Q                      SYS / # / OBS TYPES
DBHZ                                                        COMMENT
     30.000                                                 INTERVAL
  2020    05    01    21    00    0.0000000     GPS         TIME OF FIRST OBS
  2020    05    01    21    59   30.0000000     GPS         TIME OF LAST OBS
     0                                                      RCV CLOCK OFFS APPL
G L1C  0.00000                                              SYS / PHASE SHIFT
G L2Y  0.00000                                              SYS / PHASE SHIFT
R L1C  0.00000                                              SYS / PHASE SHIFT
R L2P  0.25000                                              SYS / PHASE SHIFT
C L1I  0.00000                                              SYS / PHASE SHIFT
C L7I  0.00000                                              SYS / PHASE SHIFT
E L1C  0.50000                                              SYS / PHASE SHIFT
E L7Q -0.25000                                              SYS / PHASE SHIFT
 14 R01  1 R05  1 R06 -4 R07  5 R08  6 R09 -2 R10 -5 R11  0 GLONASS SLOT / FRQ #
    R16 -1 R19  3 R20  2 R21  4 R22 -3 R23  3               GLONASS SLOT / FRQ #
 C1C   71.950 C2C   71.950 C2P   71.950                     GLONASS COD/PHS/BIS
    18                                                      LEAP SECONDS
*** Above antenna height is from mark to ANTENNA BOTTOM.    COMMENT
    17     4        0.0000        ANT MEASURE TYPE/HEIGT    COMMENT
    0.0000    0.0000    0.0458    0.0405    0.0000          COMMENT
                    BASE STATION                            COMMENT
                                                            END OF HEADER
> 2020 05 01 21 00  0.0000000  0 17        .000000000000
G01  20347377.398 8 106926152.438 8      -625.934          51.000    20347379.648 8  83319103.121 8      -487.740          51.000
G03  20577083.328 7 108133327.947 7      1048.770          47.000    20577084.133 8  84259760.066 8       817.223          48.000
G04  23279190.961 7 122332980.071 7      3613.281          43.000    23279191.086 5  95324394.989 5      2815.544          31.000
G11  21318855.430 8 112031340.863 8     -2863.945          50.000    21318855.867 8  87297142.152 8     -2231.646          48.000
G22  20688649.750 8 108719642.251 8      -536.406          51.000    20688646.648 8  84716593.743 8      -417.979          51.000
G32  23909278.797 6 125644105.178 6     -3054.629          40.000    23909280.547 6  97904500.358 6     -2380.230          40.000
R07  19781061.617 7 105889613.277 7     -2004.070          42.000    19781064.312 5  82358610.585 5     -1558.718          35.000
R08  19774780.016 8 105893098.510 8      1747.613          50.000    19774780.531 7  82361268.578 7      1359.255          46.000
R22  19702195.492 8 105171670.797 8     -1910.203          51.000    19702199.430 8  81800172.407 8     -1485.714          51.000
C05  39680001.875 5 206624181.395 5       -31.016          34.000    39679997.617 5 159774907.184 5       -24.083          34.000
C12  22083711.641 8 114995686.940 8     -1769.469          50.000    22083710.898 8  88921955.910 8     -1368.338          49.000
C21  21665814.133 8 112819624.275 8       153.496          51.000
E04  25250245.406 6 132690937.958 6     -1957.809          36.000
E05  26287426.680 5 138141322.242 5      2802.645          35.000    26287427.344 6 105848606.420 6      2147.319          38.000
E09  21609871.516 8 113560709.127 8       758.598          51.000    21609873.672 8  87014072.871 8       581.242          51.000
E11  24071551.609 8 126496834.549 8     -2055.906          48.000    24071550.508 7  96926153.176 7     -1575.254          47.000
E36  23136533.680 8 121583321.267 8       440.184          51.000    23136536.961 8  93161246.517 8       337.230          51.000
> 2020 05 01 21 00 30.0000000  0 18        .000000000000
G01  20350991.930 8 106945147.082 8      -642.648          51.000    20350994.234 8  83333904.132 8      -500.765          51.000
G03  20571131.594 8 108102050.163 8      1034.039          48.000    20571132.070 8  84235387.779 8       805.748          48.000
G04  23258581.219 7 122224678.062 7      3604.586          44.000    23258580.586 5  95240003.893 5      2808.768          30.000
G11  21335243.852 8 112117463.835 8     -2879.883          51.000    21335244.523 7  87364250.978 7     -2244.061          46.000
G22  20691741.539 8 108735889.830 8      -549.203          51.000    20691738.391 8  84729254.198 8      -427.950          51.000
G32  23926742.766 6 125735879.243 6     -3066.105          41.000    23926745.133 6  97976012.593 6     -2389.173          41.000
R01  22845972.477 5 122124817.619 5      3787.273          34.000
R07  19792339.172 7 105949983.849 7     -2023.012          43.000    19792341.805 5  82405565.454 5     -1573.457          34.000
R08  19765044.656 8 105840965.030 8      1725.543          49.000    19765045.250 7  82320720.332 7      1342.092          47.000
R22  19712992.203 8 105229301.131 8     -1934.160          51.000    19712995.727 8  81844996.012 8     -1504.347          51.000
C05  39680181.531 5 206625117.458 5       -33.426          34.000    39680177.336 5 159775631.040 5       -26.152          34.000
C12  22093948.227 8 115048990.625 8     -1786.246          51.000    22093946.188 8  88963173.627 8     -1381.251          48.000
C21  21664965.625 8 112815203.764 8       138.887          51.000
E04  25261445.523 6 132749796.185 6     -1968.656          40.000
E05  26271446.375 5 138057333.779 5      2794.469          34.000    26271450.258 6 105784251.633 6      2141.133          41.000
E09  21605576.797 8 113538139.917 8       743.648          51.000    21605578.625 8  86996779.587 8       569.844          51.000
E11  24083311.336 7 126558638.497 7     -2066.535          46.000    24083311.484 7  96973509.441 7     -1583.353          47.000
E36  23134050.719 8 121570273.160 8       427.402          51.000    23134054.109 8  93151248.604 8       327.511          51.000
> 2020 05 01 21 01  0.0000000  0 18        .000000000000
G01  20354697.734 8 106964621.155 8      -654.852          51.000    20354700.086 8  83349078.719 8      -510.274          51.000
G03  20565260.070 7 108071195.335 7      1023.727          47.000    20565260.578 7  84211345.080 7       797.709          47.000
G04  23238018.812 7 122116623.553 7      3599.887          44.000    23238019.328 4  95155805.662 4      2805.116          28.000
G11  21351720.281 8 112204047.970 8     -2891.625          51.000    21351720.812 7  87431719.133 7     -2253.214          46.000
G22  20694903.773 8 108752507.718 8      -557.797          51.000    20694900.484 8  84742203.197 8      -434.647          51.000
G32  23944268.617 6 125827979.205 6     -3072.953          40.000    23944271.461 6  98047778.773 6     -2394.509          40.000
R01  22824736.945 5 122011313.254 5      3780.516          33.000
R07  19803719.758 7 106010906.692 7     -2037.516          43.000    19803721.625 5  82452949.879 5     -1584.734          35.000
R08  19755429.797 8 105789479.059 8      1707.746          49.000    19755430.820 7  82280675.716 7      1328.247          46.000
R22  19723919.664 8 105287631.562 8     -1953.711          51.000    19723923.180 8  81890364.100 8     -1519.553          51.000
C05  39680372.781 5 206626113.312 5       -32.453          34.000    39680368.625 5 159776401.095 5       -24.811          34.000
C12  22104278.664 8 115102782.365 8     -1798.961          51.000    22104275.562 8  89004768.773 8     -1391.019          48.000
C21  21664198.352 8 112811205.662 8       128.512          51.000
E04  25272702.945 6 132808957.729 6     -1974.680          40.000
E05                                                                  26255512.250 7 105720068.692 7      2138.274          42.000
E09  21601364.422 8 113516002.844 8       732.980          51.000    21601366.172 8  86979817.434 8       561.586          51.000
E11  24095128.430 7 126620744.644 7     -2072.758          45.000    24095129.602 7  97021097.283 7     -1588.238          45.000
E36  23131637.805 8 121557593.016 8       418.793          51.000    23131641.250 8  93141532.655 8       320.854          51.000
> 2020 05 01 21 01 30.0000000  0 17        .000000000000
G01  20358472.789 8 106984459.481 8      -668.238          51.000    20358475.320 8  83364537.135 8      -520.705          51.000
G03  20559447.094 7 108040648.004 7      1012.012          47.000    20559447.680 7  84187541.984 7       788.581          47.000
G04  23217482.203 7 122008703.710 7      3594.176          43.000    23217483.609 3  95071712.418 3      2800.678          21.000
G11  21368262.438 8 112290976.118 8     -2904.250          51.000    21368262.125 7  87499455.340 7     -2263.055          44.000
G22  20698114.281 8 108769379.502 8      -567.547          51.000    20698111.023 8  84755350.038 8      -442.244          51.000
G32  23961834.133 6 125920287.200 6     -3081.172          39.000    23961837.445 6  98119707.069 6     -2400.913          39.000
R07  19815181.523 7 106072261.025 7     -2053.312          43.000    19815183.805 5  82500669.881 5     -1597.021          35.000
R08  19745914.141 8 105738523.902 8      1688.652          48.000    19745915.633 7  82241043.944 7      1313.399          46.000
R22  19734955.906 8 105346543.783 8     -1974.418          51.000    19734959.453 8  81936184.702 8     -1535.658          50.000
C05                                                                  39680549.258 5 159777129.012 5       -24.702          34.000
C12  22114680.727 8 115156946.892 8     -1812.629          51.000    22114677.297 8  89046652.214 8     -1401.612          50.000
C21  21663489.930 8 112807514.860 8       116.914          51.000
E04  25283996.117 6 132868305.636 6     -1982.344          36.000    25283995.516 5 101808172.384 5     -1518.295          30.000
E05                                                                  26239592.703 7 105655969.987 7      2134.350          43.000
E09  21597212.320 8 113494182.464 8       721.082          51.000    21597214.047 8  86963097.931 8       552.517          51.000
E11  24106981.852 7 126683037.265 7     -2080.371          46.000    24106982.539 7  97068827.989 7     -1593.988          43.000
E36  23129273.148 8 121545166.363 8       408.945          51.000    23129276.562 8  93132010.932 8       313.381          51.000
> 2020 05 01 21 02  0.0000000  0 16        .000000000000
G01  20362318.906 8 107004671.210 8      -678.992          51.000    20362321.375 8  83380286.520 8      -529.085          51.000
G03  20553694.438 7 108010416.835 7      1003.430          46.000    20553695.031 7  84163985.253 7       781.893          46.000
G04  23196973.164 6 121900929.812 6      3591.043          40.000
G11  21384871.250 8 112378254.903 8     -2914.215          51.000    21384870.133 7  87567464.743 7     -2270.820          43.000
G22  20701374.617 8 108786513.127 8      -574.566          51.000    20701371.500 8  84768700.916 8      -447.714          51.000
G32  23979440.289 6 126012809.531 6     -3086.855          38.000    23979444.156 6  98191802.375 6     -2405.342          38.000
R07  19826724.492 7 106134052.951 7     -2066.051          42.000    19826728.055 6  82548730.307 6     -1606.928          37.000
R08  19736499.445 8 105688108.754 8      1672.496          49.000    19736501.172 7  82201832.178 7      1300.830          47.000
R22  19746102.508 8 105406045.883 8     -1992.344          51.000    19746105.695 8  81982464.100 8     -1549.601          48.000
C05                                                                  39680721.180 5 159777820.435 5       -22.141          34.000
C12  22125155.719 8 115211491.936 8     -1823.559          51.000    22125152.594 8  89088829.898 8     -1410.167          51.000
C21  21662842.133 8 112804139.455 8       108.219          51.000
E05                                                                  26223695.031 7 105591963.083 7      2132.710          44.000
E09  21593121.930 8 113472687.493 8       711.996          51.000    21593123.500 8  86946627.779 8       545.490          51.000
E11  24118873.227 8 126745524.774 8     -2085.125          49.000    24118872.047 7  97116708.002 7     -1597.756          43.000
E36  23126958.539 8 121533002.994 8       401.965          51.000    23126961.969 8  93122690.946 8       307.960          51.000
> 2020 05 01 21 02 30.0000000  0 17        .000000000000
G01  20366247.953 8 107025318.370 8      -695.809          51.000    20366250.211 8  83396375.210 8      -542.189          51.000
G03  20548013.578 7 107980563.578 7       988.590          47.000    20548014.156 7  84140723.005 7       770.330          47.000
G04  23176503.805 6 121793366.199 6      3581.512          36.000
G11  21401558.055 8 112465944.246 8     -2930.184          51.000    21401556.391 7  87635794.055 7     -2283.260          43.000
G22  20704696.523 8 108803969.795 8      -587.680          51.000    20704693.375 8  84782303.517 8      -457.932          51.000
G32  23997098.812 6 126105605.556 6     -3098.023          38.000    23997102.992 6  98264110.961 6     -2414.044          38.000
R01  22761297.477 5 121672180.655 5      3756.082          30.000
R07  19838360.750 7 106196342.348 7     -2084.926          44.000    19838364.188 5  82597177.611 5     -1621.609          34.000
R08  19727197.992 8 105638297.173 8      1650.012          51.000    19727199.234 7  82163089.825 7      1283.342          47.000
R22  19757370.867 8 105466199.327 8     -2016.348          51.000    19757373.039 7  82029250.081 7     -1568.270          45.000
C12  22135715.047 8 115266477.795 8     -1840.516          51.000    22135712.406 8  89131348.436 8     -1423.200          51.000
C21  21662266.414 8 112801140.039 8        93.367          51.000
E04  25306706.000 6 132987637.705 6     -1997.703          36.000    25306714.422 5 101899640.561 5     -1530.534          32.000
E05  26207814.562 5 137722997.487 5      2775.125          35.000    26207831.531 7 105528096.211 7      2126.254          45.000
E09  21589105.086 8 113451579.717 8       696.828          51.000    21589106.633 8  86930454.303 8       533.921          51.000
E11  24130813.781 8 126808268.601 8     -2095.844          50.000    24130811.734 7  97164784.377 7     -1605.876          44.000
E36  23124706.023 8 121521165.672 8       388.855          51.000    23124709.414 8  93113620.782 8       298.002          51.000
> 2020 05 01 21 03  0.0000000  0 19        .000000000000
G01  20370266.938 8 107046438.075 8      -711.094          51.000    20370269.148 8  83412832.099 8      -554.099          51.000
G03  20542411.406 7 107951124.983 7       975.008          45.000    20542412.406 7  84117783.830 7       759.746          45.000
G04  23156081.148 5 121686052.355 5      3573.105          31.000
G11  21418329.555 8 112554079.201 8     -2944.520          51.000    21418327.781 7  87704470.614 7     -2294.434          45.000
G22  20708086.812 8 108821785.502 8      -599.152          51.000    20708083.523 8  84796185.892 8      -466.872          51.000
G32  24014816.078 5 126198709.533 5     -3107.574          35.000    24014820.148 5  98336659.498 5     -2421.486          35.000
R01  22740244.555 5 121559669.572 5      3746.320          32.000    22740247.953 4  94546403.329 4      2913.808          26.000
R07  19850096.523 7 106259163.908 7     -2102.188          42.000    19850098.484 5  82646038.778 5     -1635.035          35.000
R08  19718016.492 8 105589127.185 8      1629.145          49.000    19718016.781 7  82124846.530 7      1267.115          46.000
R22  19768768.242 8 105527040.230 8     -2038.824          51.000    19768769.211 7  82076570.745 7     -1585.755          45.000
C05                                                                  39681081.055 5 159779269.479 5       -25.107          34.000
C12  22146365.906 8 115321939.889 8     -1855.957          51.000    22146363.383 8  89174235.248 8     -1435.120          51.000
C21  21661769.516 8 112798552.380 8        80.051          51.000
C22  23895817.391 5 124431782.268 5     -2484.711          34.000
E04  25318139.227 5 133047722.785 5     -2006.688          35.000    25318156.375 5 101945697.850 5     -1537.966          33.000
E05  26191996.969 6 137639866.546 6      2767.879          38.000    26192009.836 7 105464398.401 7      2121.127          46.000
E09  21585168.852 8 113430895.864 8       683.168          51.000    21585170.680 8  86914605.653 8       523.538          51.000
E11  24142810.086 8 126871305.120 8     -2105.168          51.000    24142807.633 7  97213085.051 7     -1613.027          45.000
E36  23122522.719 8 121509692.162 8       377.145          51.000    23122526.055 8  93104829.389 8       289.032          51.000
> 2020 05 01 21 03 30.0000000  0 18        .000000000000
G01  20374369.211 8 107067995.011 8      -724.340          51.000    20374371.375 8  83429629.707 8      -564.421          51.000
G03  20536881.180 7 107922065.227 7       963.594          45.000    20536883.023 7  84095139.888 7       750.852          45.000
G04  23135700.516 6 121578955.020 6      3567.707          36.000
G11  21435178.664 8 112642622.043 8     -2956.625          51.000    21435177.586 7  87773465.002 7     -2303.864          46.000
G22  20711538.414 8 108839923.693 8      -608.461          51.000    20711535.102 8  84810319.534 8      -474.125          51.000
G32  24032584.570 5 126292083.497 5     -3116.129          30.000    24032587.945 4  98409418.431 4     -2428.146          28.000
R01  22719242.391 5 121447437.083 5      3738.207          35.000    22719250.797 4  94459111.444 4      2907.494          29.000
R07  19861923.781 7 106322478.468 7     -2117.000          43.000    19861927.766 6  82695283.509 6     -1646.556          36.000
R08  19708947.648 8 105540562.437 8      1610.223          50.000    19708947.125 7  82087073.979 7      1252.395          46.000
R22  19780287.930 8 105588531.613 8     -2058.957          51.000    19780288.633 7  82124397.346 7     -1601.414          47.000
C12  22157101.195 8 115377841.990 8     -1869.246          51.000    22157099.039 8  89217462.282 8     -1445.402          51.000
C21  21661344.594 8 112796340.507 8        69.020          51.000
C22  23910149.789 5 124506405.842 5     -2488.457          35.000
E04  25329619.883 5 133108050.199 5     -2014.055          31.000    25329645.469 5 101991971.488 5     -1543.039          32.000
E05  26176214.688 6 137556921.744 6      2763.344          40.000    26176224.070 7 105400843.294 7      2117.277          46.000
E09  21581306.438 8 113410600.270 8       671.586          51.000    21581308.523 8  86899054.503 8       514.574          51.000
E11  24154855.242 8 126934598.356 8     -2112.484          51.000    24154852.594 7  97261582.453 7     -1618.651          47.000
E36  23120402.086 8 121498547.797 8       367.473          51.000    23120405.211 8  93096290.201 8       281.582          51.000
> 2020 05 01 21 04  0.0000000  0 17        .000000000000
G01  20378558.312 8 107090008.711 8      -742.023          51.000    20378560.547 8  83446783.236 8      -578.200          51.000
G03  20531427.109 7 107893403.627 7       948.215          47.000    20531429.312 7  84072806.184 7       738.869          47.000
G04  23115366.258 6 121472096.029 6      3557.207          39.000    23115364.750 5  94653553.617 5      2771.850          30.000
G11  21452108.594 8 112731590.237 8     -2973.316          50.000    21452108.094 7  87842790.868 7     -2316.870          46.000
G22  20715054.789 8 108858402.997 8      -622.129          51.000    20715051.703 8  84824718.987 8      -484.776          51.000
R01  22698298.078 6 121335505.243 6      3726.016          36.000    22698308.953 5  94372053.427 5      2898.015          30.000
R07  19873846.594 7 106386302.416 7     -2136.363          43.000    19873849.930 5  82744924.325 5     -1661.622          33.000
R08  19699994.922 8 105492623.263 8      1586.992          48.000    19699994.328 7  82049787.952 7      1234.327          46.000
R22  19791933.047 8 105650691.751 8     -2083.648          51.000    19791933.836 8  82172744.112 8     -1620.615          49.000
C05                                                                  39681464.188 5 159780812.227 5       -27.034          33.000
C12  22167924.539 8 115434202.174 8     -1886.898          50.000    22167923.047 8  89261043.540 8     -1459.021          51.000
C21  21660995.328 8 112794522.933 8        53.438          51.000
C22  23924518.234 5 124581215.273 5     -2497.297          34.000
E05  26160471.641 6 137474183.568 6      2753.742          40.000    26160478.062 7 105337446.519 7      2110.088          46.000
E09  21577521.562 8 113390712.165 8       655.586          51.000    21577523.695 8  86883815.589 8       502.293          51.000
E11  24166952.492 8 126998167.178 8     -2123.938          50.000    24166950.086 7  97310291.039 7     -1627.492          47.000
E36  23118347.961 8 121487752.850 8       353.422          51.000    23118350.984 8  93088018.752 8       270.864          51.000
> 2020 05 01 21 04 30.0000000  0 19        .000000000000
G01  20382824.562 8 107112428.091 8      -752.566          51.000    20382826.984 8  83464252.881 8      -586.415          51.000
G03  20526039.180 8 107865088.688 8       939.469          48.000    20526041.453 8  84050742.621 8       732.054          48.000
G04  23095067.961 6 121365426.522 6      3553.988          41.000    23095067.422 5  94570445.642 5      2769.348          33.000
G11  21469109.383 8 112820930.338 8     -2982.742          51.000    21469109.180 7  87912406.531 7     -2324.215          46.000
G14  22632029.781 5 118932131.794 5     -2039.246          35.000
G22  20718626.156 8 108877171.395 8      -629.020          51.000    20718623.273 8  84839343.713 8      -490.142          51.000
R01  22677402.516 6 121223823.361 6      3720.184          37.000    22677413.227 5  94285189.802 5      2893.479          30.000
R07  19885853.844 7 106450580.492 7     -2148.566          43.000    19885857.500 5  82794918.412 5     -1671.104          35.000
R08  19691148.797 8 105445257.868 8      1570.801          48.000    19691148.914 7  82012948.229 7      1221.734          46.000
R22  19803693.102 8 105713467.333 8     -2101.324          51.000    19803694.125 8  82221569.583 8     -1634.363          49.000
C05                                                                  39681656.211 5 159781585.874 5       -24.146          34.000
C12  22178825.984 8 115490968.533 8     -1897.363          49.000    22178825.258 8  89304938.897 8     -1467.183          51.000
C21  21660712.078 8 112793048.073 8        44.953          51.000
C22  23938909.953 5 124656158.229 5     -2499.203          33.000
E04  25352731.500 6 133229512.634 6     -2029.789          38.000
E05  26144758.594 6 137391601.720 6      2751.785          38.000    26144762.008 7 105274169.561 7      2108.478          46.000
E09  21573804.453 8 113371180.104 8       646.734          51.000    21573806.672 8  86868849.494 8       495.538          51.000
E11  24179091.727 8 127061959.929 8     -2128.570          49.000    24179090.227 8  97359171.187 8     -1630.923          48.000
E36  23116350.719 8 121477256.933 8       346.438          51.000    23116353.789 8  93079976.432 8       265.464          51.000
> 2020 05 01 21 05  0.0000000  0 19        .000000000000
G01  20387163.148 8 107135227.781 8      -767.586          51.000    20387165.477 8  83482018.863 8      -598.119          51.000
G03  20520712.031 7 107837094.685 7       926.480          47.000    20520714.547 7  84028929.128 7       721.933          47.000
G04  23074800.906 6 121258923.545 6      3545.840          41.000    23074802.367 5  94487456.275 5      2762.986          31.000
G11  21486175.570 8 112910614.691 8     -2996.625          50.000    21486175.188 7  87982290.451 7     -2335.032          45.000
G14  22643708.047 6 118993499.508 6     -2053.855          36.000
G22  20722247.633 8 108896202.506 8      -640.117          51.000    20722244.680 8  84854173.144 8      -498.793          51.000
R01  22656550.797 6 121112367.501 6      3709.930          38.000    22656561.219 5  94198501.952 5      2885.501          30.000
R07  19897941.016 7 106515283.625 7     -2165.164          42.000    19897943.883 5  82845243.041 5     -1684.020          34.000
R08  19682405.258 8 105398440.172 8      1550.117          49.000    19682405.633 7  81976534.476 7      1205.650          45.000
R22  19815562.602 8 105776830.739 8     -2123.234          49.000    19815564.312 8  82270852.286 8     -1651.405          49.000
C05                                                                  39681840.484 5 159782327.413 5       -25.747          34.000
C12  22189800.125 8 115548114.663 8     -1912.504          48.000    22189800.305 8  89349127.932 8     -1478.894          51.000
C21  21660489.555 8 112791889.795 8        31.992          51.000
C22  23953319.789 5 124731207.881 5     -2504.910          32.000
E04  25364342.258 6 133290527.942 6     -2038.582          37.000
E05  26129069.766 5 137309151.756 5      2744.895          35.000    26129071.039 7 105210993.603 7      2103.114          45.000
E09  21570150.211 8 113351978.366 8       633.180          51.000    21570152.633 8  86854136.503 8       485.179          51.000
E11  24191268.133 8 127125950.442 8     -2137.617          48.000    24191267.523 8  97408202.895 8     -1637.864          48.000
E36  23114405.789 8 121467035.345 8       334.762          51.000    23114408.688 8  93072144.308 8       256.521          51.000
> 2020 05 01 21 05 30.0000000  0 19        .000000000000
G01  20391585.062 8 107158464.962 8      -781.625          51.000    20391587.047 8  83500125.762 8      -609.058          51.000
G03  20515456.812 7 107809478.458 7       914.562          46.000    20515458.758 7  84007409.994 7       712.646          46.000
G04  23054576.297 6 121152646.500 6      3539.207          40.000    23054581.320 5  94404643.021 5      2757.827          33.000
G11  21503317.516 8 113000698.918 8     -3009.227          48.000    21503317.562 7  88052485.955 7     -2344.852          46.000
G14  22655471.695 5 119055306.616 5     -2067.879          30.000
G22  20725929.953 8 108915552.745 8      -650.012          51.000    20725926.711 8  84869251.258 8      -506.500          51.000
R01  22635752.953 6 121001197.470 6      3701.082          39.000    22635763.781 5  94112036.417 5      2878.622          32.000
R07  19910117.172 7 106580466.452 7     -2180.516          43.000    19910120.320 6  82895940.791 6     -1695.957          36.000
R08  19673775.031 8 105352228.917 8      1530.566          49.000    19673775.984 7  81940592.397 7      1190.441          46.000
R22  19827553.406 8 105840838.834 8     -2144.062          51.000    19827555.367 8  82320636.384 8     -1667.604          48.000
C05                                                                  39682027.883 5 159783082.352 5       -25.297          33.000
C12  22200857.789 8 115605695.905 8     -1926.234          49.000    22200858.633 8  89393653.428 8     -1489.526          51.000
C21  21660338.305 8 112791103.844 8        20.262          51.000
C22  23967760.977 5 124806419.144 5     -2509.594          32.000
E04  25375999.297 5 133351775.978 5     -2045.734          33.000    25376000.172 5 102178637.159 5     -1567.337          30.000
E05                                                                  26113416.078 7 105147963.136 7      2098.738          44.000
E09  21566569.758 8 113333163.812 8       621.020          51.000    21566572.289 8  86839720.173 8       475.852          51.000
E11  24203492.906 8 127190195.298 8     -2145.355          49.000    24203493.328 8  97457429.483 8     -1643.793          48.000
E36  23112524.031 8 121457145.964 8       324.312          51.000    23112526.836 8  93064566.730 8       248.586          51.000
> 2020 05 01 21 06  0.0000000  0 17        .000000000000
G01  20396084.289 8 107182108.157 8      -795.508          51.000    20396085.992 8  83518549.040 8      -619.876          51.000
G03  20510267.539 7 107782208.190 7       902.816          45.000    20510268.664 7  83986160.437 7       703.493          45.000
G04  23034388.961 6 121046566.363 6      3532.156          39.000    23034394.867 5  94321983.202 5      2752.336          32.000
G11  21520528.930 7 113091148.871 7     -3021.633          46.000    21520529.930 7  88122966.424 7     -2354.516          46.000
G22  20729666.727 8 108935189.244 8      -659.820          51.000    20729663.305 8  84884552.433 8      -514.146          51.000
R01  22615003.172 6 120890282.858 6      3692.465          40.000    22615014.656 5  94025769.529 5      2871.920          34.000
R07  19922377.438 6 106646094.235 6     -2195.707          41.000    19922380.594 6  82946984.596 6     -1707.772          36.000
R08  19665252.844 8 105306591.777 8      1511.090          51.000    19665254.281 7  81905096.857 7      1175.295          47.000
R22  19839659.023 8 105905458.179 8     -2164.668          51.000    19839660.602 7  82370895.830 7     -1683.634          47.000
C12  22211993.055 8 115663679.908 8     -1940.059          50.000    22211993.781 8  89438490.320 8     -1500.191          51.000
C21  21660252.375 8 112790658.165 8         8.699          51.000
C22  23982227.148 5 124881752.426 5     -2513.168          30.000
E04  25387697.711 5 133413251.631 5     -2052.812          33.000    25387701.477 5 102225753.423 5     -1573.263          30.000
E05  26097791.031 6 137144797.075 6      2733.500          40.000    26097791.594 7 105085054.713 7      2094.515          44.000
E09  21563057.000 8 113314704.638 8       608.777          51.000    21563059.609 8  86825576.144 8       466.520          51.000
E11  24215760.406 8 127254662.446 8     -2153.152          49.000    24215761.195 8  97506826.387 8     -1649.788          49.000
E36  23110699.516 8 121447558.080 8       314.008          51.000    23110702.352 8  93057220.171 8       240.597          51.000
> 2020 05 01 21 06 30.0000000  0 17        .000000000000
G01  20400668.102 8 107206195.731 8      -809.035          51.000    20400669.711 8  83537318.564 8      -630.417          51.000
G03  20505150.945 7 107755321.848 7       891.145          43.000    20505152.430 7  83965210.069 7       694.398          43.000
G04  23014246.961 6 120940723.621 6      3525.352          40.000    23014251.914 5  94239508.362 5      2747.030          34.000
G11  21537816.930 7 113182000.485 7     -3033.672          46.000    21537818.773 7  88193759.903 7     -2363.900          46.000
G22  20733465.031 8 108955149.421 8      -669.375          51.000    20733461.672 8  84900105.821 8      -521.591          51.000
R01  22594309.469 6 120779664.599 6      3683.859          40.000    22594321.664 6  93939733.141 6      2865.224          36.000
R07  19934726.406 6 106712202.342 6     -2210.316          37.000    19934729.766 6  82998402.043 6     -1719.132          37.000
R08  19656845.508 8 105261568.179 8      1491.961          51.000    19656847.148 7  81870078.509 7      1160.414          47.000
R22  19851886.406 8 105970726.136 8     -2184.984          51.000    19851887.492 8  82421659.740 8     -1699.432          48.000
C12  22223212.977 8 115722103.262 8     -1953.367          51.000    22223212.969 8  89483666.924 8     -1510.489          51.000
C21  21660239.148 8 112790589.815 8        -2.652          51.000
C22  23996725.445 5 124957253.124 5     -2518.000          31.000
E04  25399443.438 6 133474974.689 6     -2059.988          37.000    25399444.602 5 102273039.667 5     -1578.684          30.000
E05  26082208.742 7 137062894.705 7      2728.094          44.000    26082205.516 7 105022298.373 7      2090.393          43.000
E09  21559619.156 8 113296638.799 8       596.953          51.000    21559621.727 8  86811733.499 8       457.430          51.000
E11  24228077.867 8 127319389.511 8     -2160.527          50.000    24228078.461 8  97556422.437 8     -1655.430          48.000
E36  23108939.820 8 121438310.713 8       303.980          51.000    23108942.547 8  93050134.523 8       232.902          51.000
> 2020 05 01 21 07  0.0000000  0 16        .000000000000
G01  20405330.922 8 107230698.378 8      -824.418          51.000    20405332.586 8  83556411.532 8      -642.404          51.000
G03  20500101.773 7 107728789.869 7       877.785          44.000    20500103.734 7  83944535.829 7       683.991          44.000
G04  22994145.180 6 120835091.304 6      3516.625          41.000    22994148.047 5  94157197.494 5      2740.221          33.000
G11  21555176.008 8 113273222.697 8     -3047.707          48.000    21555178.086 7  88264842.182 7     -2374.837          47.000
G22  20737319.141 8 108975403.247 8      -680.805          51.000    20737316.062 8  84915888.033 8      -530.497          51.000
R01  22573667.422 6 120669314.417 6      3673.164          40.000    22573678.852 6  93853905.263 6      2856.905          36.000
R07  19947158.828 6 106778758.061 6     -2226.566          40.000    19947163.250 6  83050167.633 6     -1731.774          37.000
R08  19648547.156 8 105217128.506 8      1470.746          50.000    19648548.398 7  81835514.336 7      1143.914          45.000
R22  19864229.305 8 106036611.241 8     -2207.254          51.000    19864230.625 8  82472903.667 8     -1716.753          50.000
C12  22234511.680 8 115780935.762 8     -1968.645          51.000    22234510.516 8  89529159.895 8     -1522.239          51.000
C21  21660292.695 8 112790868.846 8       -15.859          51.000
E04  25411230.648 6 133536916.164 6     -2068.793          38.000    25411228.688 5 102320488.238 5     -1584.718          31.000
E05  26066657.062 7 136981162.432 7      2720.867          46.000    26066652.625 7 104959672.415 7      2084.719          43.000
E09  21556250.844 8 113278936.760 8       583.320          51.000    21556253.133 8  86798169.606 8       446.912          51.000
E11  24240439.258 8 127384346.609 8     -2169.816          51.000    24240439.219 8  97606194.742 8     -1662.596          48.000
E36  23107239.625 8 121429375.316 8       291.969          51.000    23107241.906 8  93043287.937 8       223.671          51.000
> 2020 05 01 21 07 30.0000000  0 16        .000000000000
G01  20410071.477 8 107255609.399 8      -835.922          51.000    20410072.906 8  83575822.693 8      -651.368          51.000
G03  20495119.203 7 107702605.192 7       868.371          45.000    20495121.148 7  83924132.183 7       676.656          44.000
G04  22974082.297 6 120729664.923 6      3512.059          40.000    22974085.602 5  94075047.185 5      2736.675          33.000
G11  21572604.344 8 113364806.185 8     -3057.480          51.000    21572605.734 7  88336205.945 7     -2382.452          47.000
G22  20741227.672 8 108995943.087 8      -688.156          51.000    20741224.977 8  84931893.095 8      -536.226          51.000
R01  22553074.875 7 120559227.206 7      3666.477          42.000    22553084.734 5  93768281.946 5      2851.707          34.000
R07  19959673.898 6 106845750.978 6     -2238.898          36.000    19959676.727 6  83102273.227 6     -1741.359          37.000
R08  19640356.328 8 105173265.579 8      1453.750          49.000    19640357.242 7  81801398.766 7      1130.697          45.000
R22  19876686.211 8 106103105.343 8     -2225.336          51.000    19876687.625 8  82524621.313 8     -1730.817          51.000
C12  22245887.156 8 115840169.376 8     -1979.867          51.000    22245885.016 8  89574963.056 8     -1531.001          51.000
C21  21660411.445 8 112791487.610 8       -25.035          51.000
E04  25423058.344 5 133599067.584 5     -2073.805          35.000    25423055.734 5 102368109.732 5     -1588.902          32.000
E05  26051135.984 7 136899594.388 7      2717.504          47.000    26051131.641 7 104897172.272 7      2082.121          43.000
E09  21552950.500 8 113261591.371 8       573.430          51.000    21552952.656 8  86784878.997 8       439.429          51.000
E11  24252842.883 8 127449526.374 8     -2175.094          50.000    24252842.422 7  97656137.661 7     -1666.729          47.000
E36  23105597.562 8 121420745.855 8       283.777          51.000    23105599.508 8  93036675.753 8       217.425          51.000
> 2020 05 01 21 08  0.0000000  0 16        .000000000000
G01  20414890.438 8 107280932.066 8      -851.766          51.000    20414891.289 8  83595554.641 8      -663.713          51.000
G03  20490203.156 7 107676770.812 7       854.297          43.000    20490205.336 7  83904001.495 7       665.683          43.000
G04  22954059.719 6 120624450.230 6      3503.062          37.000    22954064.508 5  93993061.752 5      2729.659          30.000
G11  21590101.805 8 113456752.268 8     -3071.629          51.000    21590102.219 7  88407852.232 7     -2393.477          45.000
G22  20745191.070 8 109016771.068 8      -699.793          51.000    20745188.617 8  84948122.679 8      -545.293          51.000
R01  22532532.352 6 120449408.102 6      3655.359          41.000    22532540.141 5  93682867.170 5      2843.060          33.000
R07  19972269.992 6 106913181.301 6     -2255.598          41.000    19972273.008 6  83154719.028 6     -1754.357          39.000
R08  19632273.406 8 105129982.846 8      1432.289          50.000    19632274.539 7  81767734.455 7      1114.006          46.000
R22  19889257.000 8 106170210.182 8     -2247.816          51.000    19889259.031 8  82576813.956 8     -1748.302          51.000
C12  22257339.953 8 115899806.091 8     -1995.348          50.000    22257337.148 8  89621077.946 8     -1542.948          51.000
C21  21660595.906 8 112792448.571 8       -38.551          51.000
E04  25434925.578 5 133661435.684 5     -2083.102          32.000    25434925.836 5 102415906.415 5     -1596.065          32.000
E05  26035646.672 7 136818194.822 7      2709.645          47.000    26035643.047 6 104834801.216 6      2076.173          41.000
E09  21549718.445 8 113244605.631 8       559.406          51.000    21549720.523 8  86771863.969 8       428.678          51.000
E11  24265288.969 8 127514931.454 8     -2184.691          49.000    24265287.695 7  97706253.230 7     -1674.017          45.000
E36  23104014.336 8 121412426.400 8       271.359          51.000    23104016.328 8  93030301.104 8       207.925          51.000
> 2020 05 01 21 08 30.0000000  0 15        .000000000000
G01  20419790.156 8 107306679.730 8      -865.898          51.000    20419790.984 8  83615617.738 8      -674.726          51.000
G03  20485355.977 7 107651299.660 7       842.383          43.000    20485358.469 7  83884153.850 7       656.402          43.000
G04  22934078.969 5 120519463.033 5      3494.262          30.000    22934086.898 4  93911253.436 4      2722.783          28.000
G11  21607670.305 8 113549072.223 8     -3083.953          51.000    21607669.625 7  88479789.851 7     -2403.080          44.000
G22  20749211.773 8 109037899.675 8      -709.836          51.000    20749209.133 8  84964586.534 8      -553.119          51.000
R01  22512042.664 6 120339872.165 6      3645.758          39.000    22512047.742 5  93597672.630 5      2835.589          31.000
R07  19984951.242 6 106981059.669 6     -2270.320          38.000    19984954.000 6  83207513.316 6     -1765.802          39.000
R08  19624301.180 8 105087294.105 8      1412.516          48.000    19624302.852 7  81734532.117 7      1098.623          46.000
R22  19901944.328 8 106237937.536 8     -2268.496          51.000    19901947.000 8  82629490.813 8     -1764.386          51.000
C12  22268871.922 8 115959857.708 8     -2009.098          48.000    22268869.375 8  89667513.698 8     -1553.547          51.000
C21  21660848.219 8 112793763.969 8       -50.207          51.000
E05  26020191.750 7 136736977.869 7      2703.762          46.000    26020189.039 6 104772570.093 6      2071.696          40.000
E09  21546557.320 8 113227992.501 8       547.117          51.000    21546559.000 8  86759134.422 8       419.217          51.000
E11  24277779.797 7 127580574.509 7     -2192.523          47.000    24277777.523 7  97756551.139 7     -1680.030          44.000
E36  23102492.672 8 121404430.956 8       260.648          51.000    23102494.906 8  93024174.719 8       199.748          51.000
> 2020 05 01 21 09  0.0000000  0 18        .000000000000
G01  20424767.383 8 107332835.638 8      -878.801          51.000    20424768.586 8  83635998.937 8      -684.780          51.000
G03  20480574.867 7 107626174.689 7       831.414          42.000    20480577.328 7  83864575.987 7       647.858          42.000
G04  22914140.555 6 120414688.797 6      3488.457          36.000    22914149.008 5  93829611.127 5      2718.287          33.000
G11  21625305.969 8 113641746.959 8     -3095.215          50.000    21625304.633 7  88552003.914 7     -2411.859          44.000
G14  22739958.039 5 119499286.732 5     -2162.277          32.000
G22  20753286.281 8 109059311.137 8      -718.504          51.000    20753283.406 8  84981270.797 8      -559.873          51.000
R01  22491603.008 6 120230604.224 6      3637.906          38.000    22491605.977 5  93512686.510 5      2829.486          32.000
R07  19997710.898 6 107049365.317 6     -2284.094          41.000    19997714.633 6  83260639.939 6     -1776.517          39.000
R08  19616436.117 8 105045181.882 8      1394.012          48.000    19616438.430 7  81701778.217 7      1084.231          46.000
R22  19914744.875 8 106306268.791 8     -2287.863          51.000    19914747.875 8  82682637.359 8     -1779.446          51.000
C12  22280479.578 7 116020306.359 7     -2021.578          46.000    22280478.312 8  89714256.466 8     -1563.330          51.000
C21  21661165.180 8 112795416.322 8       -60.832          51.000
C22  24069609.156 5 125336765.991 5     -2541.066          32.000
E04                                                                  25458786.906 5 102511984.104 5     -1606.532          34.000
E05  26004768.258 7 136655927.733 7      2698.551          43.000    26004765.312 6 104710466.817 6      2067.769          38.000
E09  21543463.922 8 113211734.915 8       535.879          51.000    21543465.367 8  86746677.306 8       410.540          51.000
E11  24290312.352 7 127646438.265 7     -2199.566          45.000    24290309.188 7  97807018.140 7     -1685.364          43.000
E36  23101029.750 8 121396743.570 8       250.961          51.000    23101032.164 8  93018284.378 8       192.301          51.000
> 2020 05 01 21 09 30.0000000  0 16        .000000000000
G01  20429832.188 8 107359451.751 8      -895.527          51.000    20429833.594 8  83656738.735 8      -697.817          51.000
G03  20475869.422 6 107601447.543 6       816.949          41.000    20475871.953 6  83845308.127 6       636.587          41.000
G04  22894254.117 6 120310181.584 6      3478.402          39.000    22894261.141 5  93748176.881 5      2710.443          35.000
G11  21643018.375 8 113734826.164 8     -3110.156          50.000    21643016.914 7  88624533.140 7     -2423.498          44.000
G22  20757424.359 8 109081056.766 8      -731.078          51.000    20757421.594 8  84998215.455 8      -569.671          51.000
R01  22471223.617 6 120121658.899 6      3625.797          39.000    22471225.875 5  93427951.310 5      2820.067          32.000
R07  20010561.414 6 107118148.711 6     -2301.332          40.000    20010563.914 6  83314138.082 6     -1789.928          38.000
R08  19608689.828 8 105003699.506 8      1371.586          48.000    19608691.375 7  81669514.149 7      1066.789          46.000
R22  19927668.016 8 106375255.131 8     -2311.047          51.000    19927671.359 8  82736293.355 8     -1797.481          50.000
C12  22292173.227 7 116081202.247 7     -2038.109          47.000    22292173.242 8  89761345.014 8     -1575.814          51.000
C21  21661556.977 8 112797456.193 8       -75.051          51.000
E04                                                                  25470783.305 5 102560292.610 5     -1613.859          34.000
E05  25989386.031 6 136575097.233 6      2689.680          37.000    25989380.555 6 104648531.841 6      2061.208          39.000
E09  21540447.836 8 113195884.424 8       520.980          51.000    21540449.562 8  86734532.149 8       399.181          51.000
E11  24302896.562 7 127712573.975 7     -2209.727          45.000    24302893.406 7  97857693.508 7     -1693.149          45.000
E36  23099635.594 8 121389416.870 8       237.570          51.000    23099637.922 8  93012670.421 8       182.043          51.000
> 2020 05 01 21 10  0.0000000  0 17        .000000000000
G01  20434977.148 8 107386490.030 8      -907.598          51.000    20434979.023 8  83677807.518 8      -707.219          51.000
G03  20471232.547 7 107577079.895 7       807.055          42.000    20471234.750 7  83826320.369 7       628.874          43.000
G04  22874411.180 6 120205905.864 6      3472.906          39.000    22874417.086 5  93666923.081 5      2706.161          32.000
G11  21660800.219 8 113828269.653 8     -3120.188          50.000    21660798.789 7  88697346.218 7     -2431.315          45.000
G22  20761618.578 8 109103097.450 8      -738.824          51.000    20761616.070 8  85015390.025 8      -575.707          51.000
R01  22450897.453 6 120012999.231 6      3617.922          39.000    22450899.492 5  93343438.290 5      2813.942          32.000
R07  20023492.812 5 107187366.951 5     -2313.660          35.000    20023494.297 6  83367974.601 6     -1799.507          37.000
R08  19601053.555 8 104962808.103 8      1353.914          48.000    19601055.344 7  81637709.738 7      1053.044          47.000
R22  19940706.516 8 106444856.296 8     -2329.590          51.000    19940709.547 8  82790427.556 8     -1811.903          49.000
C12  22303945.875 8 116142506.358 8     -2049.527          49.000    22303946.438 8  89808749.228 8     -1584.852          51.000
C21  21662015.859 8 112799845.010 8       -84.770          51.000
C22  24098975.359 5 125489702.920 5     -2549.578          33.000
E04                                                                  25482820.844 5 102608766.433 5     -1617.956          34.000
E05                                                                  25974031.719 6 104586736.706 6      2058.185          41.000
E09  21537501.945 8 113180402.726 8       510.609          51.000    21537503.680 8  86722669.572 8       391.261          51.000
E11  24315525.750 7 127778943.015 7     -2215.637          44.000    24315523.953 7  97908547.660 7     -1697.633          46.000
E36  23098302.992 8 121382413.643 8       228.719          51.000    23098305.133 8  93007304.314 8       175.225          51.000
> 2020 05 01 21 10 30.0000000  0 17        .000000000000
G01  20440178.539 8 107413825.852 8      -916.648          51.000    20440181.086 8  83699108.143 8      -714.272          51.000
G03  20466640.477 7 107552946.896 7       799.977          43.000    20466642.328 7  83807515.427 7       623.358          42.000
G04  22854588.703 6 120101739.447 6      3470.090          38.000    22854593.969 6  93585754.439 6      2703.963          36.000
G11  21678627.320 8 113921950.711 8     -3127.164          51.000    21678625.898 7  88770344.415 7     -2436.754          44.000
G22  20765845.023 8 109125307.644 8      -743.695          51.000    20765842.469 8  85032696.670 8      -579.503          51.000
R01  22430601.070 6 119904499.894 6      3613.996          38.000    22430602.734 5  93259050.024 5      2810.889          32.000
R07  20036479.945 6 107256890.704 6     -2323.215          41.000    20036482.508 5  83422048.632 5     -1806.945          35.000
R08  19593504.562 8 104922380.544 8      1339.309          49.000    19593506.133 7  81606266.085 7      1041.684          47.000
R22  19953836.328 8 106514943.931 8     -2344.820          51.000    19953838.859 8  82844940.149 8     -1823.749          48.000
C12  22315773.672 8 116204094.018 8     -2058.191          51.000    22315773.852 8  89856372.688 8     -1591.512          51.000
C21  21662517.766 8 112802458.389 8       -91.336          51.000
C22  24113653.328 5 125566170.150 5     -2549.973          30.000
E04                                                                  25494875.203 5 102657308.808 5     -1619.968          34.000
E05  25958692.641 6 136413839.429 6      2684.828          41.000    25958696.266 7 104524986.635 7      2057.170          43.000
E09  21534602.320 8 113165164.826 8       503.305          51.000    21534603.602 8  86710993.783 8       385.661          51.000
E11  24328176.102 7 127845420.150 7     -2218.535          46.000    24328175.656 8  97959484.651 8     -1699.827          48.000
E36  23097008.383 8 121375609.957 8       222.852          51.000    23097010.453 8  93002091.102 8       170.759          51.000
> 2020 05 01 21 11  0.0000000  0 17        .000000000000
G01  20445486.297 8 107441720.129 8      -936.027          51.000    20445489.125 8  83720843.939 8      -729.372          51.000
G03  20462142.367 7 107529309.000 7       782.773          44.000    20462144.086 7  83789096.295 7       609.956          44.000
G04  22834837.539 6 119997945.525 6      3456.781          39.000    22834841.852 5  93504876.108 5      2693.596          34.000
G11  21696548.727 8 114016127.813 8     -3144.375          51.000    21696547.477 7  88843729.152 7     -2450.162          44.000
G22  20770153.188 8 109147947.471 8      -758.668          51.000    20770150.461 8  85050338.092 8      -591.170          51.000
R01  22410384.250 5 119796428.226 5      3598.391          33.000    22410385.148 5  93174994.388 5      2798.751          32.000
R07  20049574.227 6 107326982.421 6     -2342.617          40.000    20049576.117 5  83476564.417 5     -1822.036          32.000
R08  19586091.664 8 104882682.788 8      1314.266          48.000    19586092.523 7  81575390.061 7      1022.207          46.000
R22  19967106.227 8 106585781.518 8     -2370.562          49.000    19967109.062 8  82900036.048 8     -1843.768          49.000
C12  22327705.523 8 116266222.240 8     -2076.863          51.000    22327704.906 8  89904414.162 8     -1605.965          51.000
C21  21663112.078 8 112805553.934 8      -108.164          51.000
C22  24128386.352 5 125642840.783 5     -2558.309          30.000
E04  25506992.352 5 134040194.064 5     -2126.309          35.000    25506995.680 5 102706118.368 5     -1628.875          34.000
E05  25943421.227 7 136333570.886 7      2673.348          45.000    25943422.641 7 104463482.203 7      2048.412          45.000
E09  21531798.406 8 113150431.236 8       485.867          51.000    21531799.562 8  86699704.431 8       372.273          51.000
E11  24340896.922 7 127912265.633 7     -2231.289          47.000    24340897.719 8  98010703.895 8     -1709.761          49.000
E36  23095801.586 8 121369267.437 8       206.871          51.000    23095803.711 8  92997231.244 8       158.521          51.000
> 2020 05 01 21 11 30.0000000  0 17        .000000000000
G01  20450871.148 8 107470018.962 8      -949.492          50.000    20450874.195 8  83742894.978 8      -739.867          50.000
G03  20457709.078 7 107506012.099 7       771.426          44.000    20457710.297 7  83770942.869 7       601.111          44.000
G04  22815129.141 7 119894372.556 7      3449.332          43.000    22815132.406 6  93424169.934 6      2687.794          36.000
G11  21714534.727 8 114110644.981 8     -3155.738          51.000    21714533.500 7  88917378.887 7     -2459.017          45.000
G22  20774513.617 8 109170861.905 8      -767.848          51.000    20774510.875 8  85068193.489 8      -598.323          51.000
R01  22390214.289 6 119688629.377 6      3589.148          36.000    22390219.266 5  93091150.772 5      2791.560          31.000
R07  20062743.922 6 107397482.063 6     -2356.527          38.000    20062744.422 5  83531397.379 5     -1832.858          30.000
R08  19578785.422 7 104843557.612 7      1295.148          47.000    19578785.805 7  81544959.385 7      1007.338          47.000
R22  19980486.273 8 106657210.909 8     -2390.340          48.000    19980489.828 7  82955592.309 7     -1859.150          47.000
C12  22339711.352 8 116328737.302 8     -2089.750          51.000    22339710.359 8  89952754.754 8     -1615.924          51.000
C21  21663769.227 8 112808978.253 8      -119.047          51.000
C22  24143142.523 5 125719680.022 5     -2563.309          30.000
E04  25519151.094 5 134104088.103 5     -2132.742          35.000    25519152.945 5 102755076.108 5     -1634.008          34.000
E05  25928180.500 8 136253469.946 8      2667.789          48.000    25928180.945 7 104402106.215 7      2044.078          47.000
E09  21529061.141 8 113136047.778 8       474.129          51.000    21529062.672 8  86688683.369 8       363.282          51.000
E11  24353658.812 8 127979325.028 8     -2238.559          48.000    24353659.773 8  98062087.050 8     -1715.178          49.000
E36  23094653.406 8 121363232.979 8       196.562          51.000    23094655.648 8  92992607.434 8       150.607          51.000
> 2020 05 01 21 12  0.0000000  0 16        .000000000000
G01  20456358.164 8 107498853.727 8      -965.582          51.000    20456361.430 8  83765363.622 8      -752.402          51.000
G03  20453365.641 7 107483187.216 7       757.551          43.000    20453366.320 7  83753157.251 7       590.299          43.000
G04  22795488.211 7 119791154.237 7      3439.527          43.000    22795490.953 6  93343740.121 6      2680.154          36.000
G11  21732609.695 8 114205631.479 8     -3169.434          48.000    21732609.008 7  88991394.314 7     -2469.692          46.000
G22  20778951.234 8 109194181.694 8      -779.488          51.000    20778948.570 8  85086364.741 8      -607.393          51.000
R01  22370124.422 6 119581238.764 6      3577.379          40.000    22370131.039 5  93007624.798 5      2782.406          30.000
R07  20076013.273 6 107468519.806 6     -2372.137          38.000    20076014.602 5  83586649.008 5     -1844.992          33.000
R08  19571611.000 7 104805139.113 7      1273.578          47.000    19571611.664 8  81515078.355 8       990.561          48.000
R22  19994002.555 8 106729364.051 8     -2412.461          50.000    19994005.828 7  83011711.430 7     -1876.359          45.000
C12  22351815.789 8 116391767.931 8     -2104.980          51.000    22351814.977 8  90001494.017 8     -1627.807          51.000
C21  21664514.820 8 112812860.653 8      -132.484          51.000
E04  25531372.227 6 134168305.168 6     -2141.441          36.000    25531372.367 5 102804281.393 5     -1640.719          34.000
E05  25912995.867 8 136173668.984 8      2659.586          49.000    25912996.031 7 104340960.043 7      2037.868          47.000
E09  21526415.289 8 113122145.436 8       459.922          51.000    21526417.312 8  86678030.948 8       352.447          51.000
E11  24366486.078 8 128046728.999 8     -2248.129          48.000    24366486.859 8  98113734.251 8     -1722.529          49.000
E36  23093588.984 8 121357638.693 8       183.672          51.000    23093591.008 8  92988320.917 8       140.700          51.000
> 2020 05 01 21 12 30.0000000  0 16        .000000000000
G01  20461897.320 8 107527961.974 8      -977.145          51.000    20461900.727 8  83788045.379 8      -761.411          51.000
G03  20449062.188 7 107460571.699 7       747.816          44.000    20449063.211 7  83735534.796 7       582.717          44.000
G04  22775864.742 7 119688030.670 7      3433.340          44.000    22775867.203 6  93263384.163 6      2675.330          37.000
G11  21750723.359 7 114300822.690 7     -3178.840          47.000    21750723.648 7  89065569.258 7     -2477.018          47.000
G22  20783415.953 8 109217643.465 8      -786.797          51.000    20783413.273 8  85104646.636 8      -613.088          51.000
R01  22350062.555 7 119473990.656 7      3570.004          42.000    22350069.766 4  92924209.666 4      2776.673          29.000
R07  20089333.320 6 107539825.841 6     -2383.332          40.000    20089335.867 5  83642109.262 5     -1853.703          33.000
R08  19564518.484 7 104767159.785 7      1256.250          47.000    19564519.469 7  81485538.888 7       977.083          47.000
R22  20007604.781 8 106801972.479 8     -2430.227          51.000    20007606.953 7  83068184.607 7     -1890.176          44.000
C12  22363968.438 8 116455052.887 8     -2115.980          50.000    22363968.320 8  90050429.948 8     -1636.310          51.000
C21  21665298.422 8 112816940.238 8      -141.566          51.000
E04  25543604.445 5 134232581.410 5     -2145.930          35.000    25543603.953 5 102853531.952 5     -1643.838          34.000
E05  25897817.938 8 136093906.436 8      2655.809          49.000    25897818.273 8 104279843.309 8      2034.928          48.000
E09  21523810.938 8 113108461.498 8       450.152          51.000    21523813.086 8  86667545.861 8       344.871          51.000
E11  24379328.711 8 128114214.575 8     -2253.477          49.000    24379329.305 8  98165443.994 8     -1726.636          49.000
E36  23092558.492 8 121352222.930 8       175.137          51.000    23092560.273 8  92984171.176 8       134.148          51.000
> 2020 05 01 21 13  0.0000000  0 16        .000000000000
G01  20467521.008 8 107557514.102 8      -992.270          51.000    20467524.367 8  83811073.003 8      -773.197          51.000
G03  20444830.898 7 107438335.578 7       735.051          44.000    20444832.477 7  83718207.983 7       572.770          44.000
G04  22756291.562 7 119585174.454 7      3424.168          44.000    22756294.164 6  93183236.484 6      2668.183          40.000
G11  21768908.039 7 114396386.829 7     -3191.383          46.000    21768909.414 7  89140034.855 7     -2486.792          46.000
G22  20787939.914 8 109241416.616 8      -797.332          51.000    20787937.023 8  85123171.176 8      -621.298          51.000
R01  22330060.016 7 119367060.565 7      3559.328          44.000    22330067.672 4  92841041.944 4      2768.372          27.000
R07  20102735.492 6 107611570.548 6     -2398.867          39.000    20102737.859 5  83697910.699 5     -1865.783          33.000
R08  19557540.523 7 104729792.996 7      1235.547          46.000    19557541.367 7  81456475.846 7       960.981          46.000
R22  20021324.977 8 106875207.562 8     -2451.309          51.000    20021326.055 7  83125145.154 7     -1906.576          43.000
