     3.02           OBSERVATION DATA    M (MIXED)           RINEX VERSION / TYPE
SAVERINEX           SC600               20200513 025931 LCL PGM / RUN BY / DATE
       G = GPS       R = GLONASS       C = COMPASS          COMMENT
       S = SBAS      J = QZSS          E = GALILEO          COMMENT
BEAN                                                        MARKER NAME
1                                                           MARKER NUMBER
GEODETIC                                                    MARKER TYPE
Unige DICCA         GTER                                    OBSERVER / AGENCY
SC60291900056       SC600               2.12(191226)        REC # / TYPE / VERS
                    HEMA45          NONE                    ANT # / TYPE
  4509407.8091   693652.4678  4442337.6214                  APPROX POSITION XYZ
        0.0000        0.0000        0.0000                  ANTENNA: DELTA H/E/N
G    8 C1C L1C D1C S1C C2Y L2Y D2Y S2Y                      SYS / # / OBS TYPES
R    8 C1C L1C D1C S1C C2P L2P D2P S2P                      SYS / # / OBS TYPES
C    8 C1I L1I D1I S1I C7I L7I D7I S7I                      SYS / # / OBS TYPES
E    8 C1C L1C D1C S1C C7Q L7Q D7Q S7Q                      SYS / # / OBS TYPES
DBHZ                                                        COMMENT
     30.000                                                 INTERVAL
  2020    05    13    00    00    0.0000000     GPS         TIME OF FIRST OBS
  2020    05    13    00    59   30.0000000     GPS         TIME OF LAST OBS
     0                                                      RCV CLOCK OFFS APPL
G L1C  0.00000                                              SYS / PHASE SHIFT
G L2Y  0.00000                                              SYS / PHASE SHIFT
R L1C  0.00000                                              SYS / PHASE SHIFT
R L2P  0.25000                                              SYS / PHASE SHIFT
C L1I  0.00000                                              SYS / PHASE SHIFT
C L7I  0.00000                                              SYS / PHASE SHIFT
E L1C  0.50000                                              SYS / PHASE SHIFT
E L7Q -0.25000                                              SYS / PHASE SHIFT
 13 R02 -4 R03  5 R04  6 R05  1 R10 -5 R12 -1 R13 -2 R14 -7 GLONASS SLOT / FRQ #
    R15  0 R17  4 R18 -3 R19  3 R20  2                      GLONASS SLOT / FRQ #
 C1C   71.950 C2C   71.950 C2P   71.950                     GLONASS COD/PHS/BIS
    18                                                      LEAP SECONDS
*** Above antenna height is from mark to ANTENNA BOTTOM.    COMMENT
    17     4        0.0000        ANT MEASURE TYPE/HEIGT    COMMENT
    0.0000    0.0000    0.0458    0.0405    0.0000          COMMENT
                    BASE STATION                            COMMENT
                                                            END OF HEADER
> 2020 05 13 00 00  0.0000000  0 14        .000000000000
G06  21075492.883 7 110752467.808 7      -332.945          42.000    21075493.797 6  86300593.856 6      -259.435          41.000
G07  22215739.953 8 116744475.650 8      2661.637          50.000    22215738.609 8  90969699.882 8      2074.003          50.000
G09  20294569.492 8 106648800.939 8      -367.648          51.000    20294569.602 8  83102953.045 8      -286.476          51.000
R04  19987343.352 7 107031324.351 7     -1096.754          47.000    19987344.234 7  83246561.393 7      -853.031          43.000
R14  20838956.328 5 111083355.318 5      1816.934          35.000    20838961.625 6  86398172.983 6      1413.177          38.000
C05  39776022.094 5 207124183.889 5       -23.406          35.000    39776016.758 6 160161539.992 6       -17.954          36.000
C20  22045673.133 7 114797606.667 7       599.402          45.000
C23  24061066.703 6 125292245.042 6      -734.258          36.000
C29  24725517.938 7 128752273.142 7     -2305.238          43.000
E01  27131163.383 7 142575201.545 7      2775.590          46.000    27131168.328 8 109245978.652 8      2126.811          49.000
E04  23568469.047 7 123853260.282 7       300.047          47.000    23568469.758 7  94900542.037 7       229.984          46.000
E09                                                                  24495582.539 5  98633585.917 5      1596.008          35.000
E11  23798167.594 7 125060222.559 7     -1351.676          44.000    23798167.102 7  95825343.518 7     -1035.706          45.000
E12                                                                  24989223.258 5 100621246.239 5     -2428.329          30.000
> 2020 05 13 00 00 30.0000000  0 14        .000000000000
G06  21077449.289 7 110762747.265 7      -354.355          44.000    21077450.375 7  86308603.819 7      -276.121          44.000
G07  22200573.414 8 116664775.896 8      2649.688          49.000    22200572.062 8  90907596.165 8      2064.692          49.000
G09  20296700.820 8 106660001.688 8      -380.949          51.000    20296701.117 8  83111680.910 8      -296.844          51.000
R04  19993512.414 7 107064358.320 7     -1107.230          47.000    19993513.297 7  83272254.481 7      -861.179          44.000
R14  20828793.328 5 111029184.760 5      1792.273          33.000    20828798.570 5  86356040.163 5      1393.978          33.000
R15  22873446.391 5 122228762.665 5      4319.152          32.000    22873447.695 5  95066804.851 5      3359.344          32.000
C05  39776155.297 5 207124877.518 5       -24.512          35.000    39776149.531 6 160162071.364 6       -18.812          36.000
C20  22042240.086 7 114779727.684 7       590.777          44.000
C23  24065340.125 5 125314504.319 5      -751.371          30.000
C29  24738824.586 7 128821558.573 7     -2315.602          44.000
E01  27115328.188 8 142491982.788 8      2770.453          48.000    27115332.234 8 109182213.632 8      2122.770          49.000
E04  23566770.633 7 123844333.799 7       293.262          46.000    23566770.414 7  94893702.270 7       224.629          46.000
E09                                                                  24483700.016 5  98585736.771 5      1592.596          34.000
E11  23805919.562 7 125100958.722 7     -1365.945          44.000    23805918.727 7  95856556.923 7     -1046.678          45.000
> 2020 05 13 00 01  0.0000000  0 14        .000000000000
G06  21079535.484 7 110773708.248 7      -372.895          44.000    21079536.109 7  86317144.829 7      -290.567          44.000
G07  22185483.875 8 116585481.624 8      2640.238          48.000    22185482.344 8  90845808.399 8      2057.329          48.000
G09  20298916.758 8 106671646.967 8      -391.637          51.000    20298917.141 8  83120755.145 8      -305.171          51.000
R04  19999748.070 7 107097751.211 7     -1115.242          45.000    19999749.414 7  83298226.747 7      -867.411          44.000
R14  20818780.734 6 110975815.388 6      1769.441          36.000    20818786.125 5  86314530.584 5      1376.235          35.000
R15  22849215.766 4 122099280.429 4      4315.707          28.000    22849217.539 5  94966113.576 5      3356.661          32.000
C05  39776301.727 5 207125640.275 5       -22.129          35.000    39776296.172 6 160162661.229 6       -17.477          36.000
C20  22038864.562 7 114762150.227 7       584.871          44.000
C23  24069720.016 5 125337349.233 5      -767.188          32.000
C29  24752198.406 7 128891196.623 7     -2323.059          44.000
E01  27099530.797 8 142408963.163 8      2767.949          50.000    27099533.805 8 109118601.206 8      2120.890          49.000
E04  23565119.750 7 123835658.479 7       288.988          46.000    23565119.398 7  94887054.953 7       221.418          47.000
E09                                                                  24471848.820 6  98538011.880 6      1591.677          36.000
E11  23813761.859 7 125142173.010 7     -1377.891          43.000    23813761.062 7  95888136.705 7     -1055.625          45.000
> 2020 05 13 00 01 30.0000000  0 16        .000000000000
G03  23919782.539 5 125699287.851 5     -3085.520          32.000
G04  21725254.250 5 114166980.603 5     -2350.547          32.000
G06  21081728.047 7 110785229.046 7      -393.793          45.000    21081727.516 7  86326122.074 7      -306.852          45.000
G07  22170448.867 8 116506473.685 8      2628.531          48.000    22170447.461 8  90784243.769 8      2048.209          48.000
G09  20301194.000 8 106683614.320 8      -404.480          51.000    20301194.594 8  83130080.361 8      -315.180          51.000
R04  20006027.219 7 107131378.856 7     -1125.117          46.000    20006028.953 7  83324381.584 7      -875.091          45.000
R14  20808896.914 7 110923127.138 7      1744.523          42.000    20808901.188 5  86273550.884 5      1356.849          30.000
R15  22825000.836 5 121969903.283 5      4309.910          31.000    22825006.211 5  94865493.437 5      3352.152          31.000
C05  39776438.156 5 207126350.850 5       -23.078          35.000    39776432.852 5 160163211.452 5       -18.148          35.000
C20  22035523.570 7 114744754.327 7       576.594          44.000
C23  24074190.008 5 125360622.812 5      -783.379          35.000
C29  24765615.938 7 128961064.355 7     -2332.871          43.000
E01  27083748.414 8 142326023.236 8      2763.145          50.000    27083750.109 8 109055049.866 8      2117.155          48.000
E04  23563493.477 7 123827112.580 7       282.512          46.000    23563493.531 7  94880506.795 7       216.443          47.000
E09                                                                  24460004.734 5  98490302.196 5      1589.214          32.000
E11  23821671.695 7 125183742.845 7     -1391.969          44.000    23821671.664 7  95919988.938 7     -1066.514          45.000
> 2020 05 13 00 02  0.0000000  0 16        .000000000000
G03  23937413.828 5 125791969.775 5     -3091.266          31.000
G04  21738697.875 6 114237629.241 6     -2356.078          36.000
G06  21084040.430 7 110797378.819 7      -412.969          47.000    21084039.633 7  86335589.391 7      -321.797          47.000
G07  22155482.078 8 116427823.362 8      2618.109          49.000    22155480.430 8  90722957.821 8      2040.088          48.000
G09  20303545.578 8 106695972.349 8      -415.902          51.000    20303546.453 8  83139709.996 8      -324.080          51.000
R04  20012363.430 7 107165311.812 7     -1133.574          46.000    20012365.492 7  83350773.888 7      -881.669          45.000
R14  20799155.156 6 110871193.021 6      1721.117          37.000    20799157.680 4  86233157.806 4      1338.656          29.000
R15  22800824.055 5 121840680.909 5      4305.680          30.000    22800828.102 5  94764988.595 5      3348.865          31.000
C05  39776578.094 5 207127078.931 5       -22.203          35.000    39776572.938 6 160163776.236 6       -17.244          36.000
C20  22032230.945 7 114727609.319 7       569.770          45.000
C23  24078756.375 4 125384411.189 4      -798.441          28.000
C29  24779089.562 7 129031228.209 7     -2341.383          42.000
E01  27067994.445 8 142243234.540 8      2759.559          50.000    27067994.883 8 108991614.413 8      2114.440          49.000
E04  23561904.953 7 123818765.290 7       277.480          46.000    23561905.141 7  94874110.809 7       212.525          47.000
E09  24448187.984 6 128476076.808 6      2071.996          36.000
E11  23829663.328 7 125225736.611 7     -1404.266          47.000    23829662.992 7  95952165.973 7     -1076.035          45.000
> 2020 05 13 00 02 30.0000000  0 17        .000000000000
G03  23955075.602 5 125884771.461 5     -3097.180          33.000
G04  21752171.742 6 114308433.795 6     -2364.711          36.000
G06  21086458.398 7 110810084.938 7      -434.914          46.000    21086458.086 7  86345490.251 7      -338.897          46.000
G07  22140570.094 8 116349459.599 8      2605.066          50.000    22140567.906 8  90661895.202 8      2029.925          50.000
G09  20305957.609 8 106708647.826 8      -430.008          51.000    20305958.344 8  83149586.981 8      -335.071          51.000
R04  20018742.906 8 107199476.015 8     -1144.949          48.000    20018745.102 7  83377346.031 7      -890.516          47.000
R05  20493626.398 5 109550176.743 5      1809.348          30.000
R14  20789542.594 6 110819942.430 6      1694.930          40.000    20789543.477 5  86193296.497 5      1318.279          30.000
R15  22776662.375 6 121711582.903 6      4299.309          36.000    22776670.281 5  94664579.185 5      3343.907          33.000
C05  39776707.750 5 207127753.811 5       -23.723          35.000
C20  22028972.836 7 114710643.903 7       560.402          45.000
C23  24083402.227 5 125408671.738 5      -817.535          30.000
C29  24792605.781 7 129101613.890 7     -2351.898          42.000
E01  27052255.820 8 142160526.822 8      2753.457          49.000    27052255.297 8 108928241.006 8      2109.792          49.000
E04  23560340.266 7 123810543.931 7       269.668          46.000    23560340.195 7  94867811.326 7       206.799          47.000
E09  24436378.484 6 128413980.532 6      2066.984          39.000
E11  23837722.086 8 125268080.840 8     -1419.359          48.000    23837720.898 7  95984611.532 7     -1087.600          45.000
> 2020 05 13 00 03  0.0000000  0 15        .000000000000
G03  23972788.180 6 125977825.299 6     -3104.070          36.000    23972791.828 6  98164559.996 6     -2418.756          36.000
G04  21765704.461 5 114379546.544 5     -2373.914          32.000
G06  21089011.047 7 110823499.991 7      -457.176          47.000    21089010.883 7  86355943.542 7      -356.238          47.000
G07  22125742.500 8 116271538.182 8      2591.727          51.000    22125740.078 8  90601177.271 8      2019.530          51.000
G09  20308458.953 8 106721792.679 8      -444.133          51.000    20308459.484 8  83159829.718 8      -346.078          51.000
R04  20025194.742 8 107234027.071 8     -1156.395          48.000    20025197.492 7  83404219.070 7      -899.418          47.000
R15  22752554.484 6 121582744.439 6      4291.773          41.000    22752558.047 5  94564371.512 5      3338.049          32.000
C05  39776856.000 5 207128525.950 5       -25.387          35.000    39776850.906 6 160164895.188 6       -19.942          36.000
C20  22025778.281 7 114694010.038 7       550.727          45.000
C23  24088168.969 5 125433495.485 5      -836.078          31.000
C29  24806193.977 7 129172370.497 7     -2362.902          43.000
E01  27036562.000 8 142078055.083 8      2746.840          48.000    27036561.203 8 108865048.415 8      2104.709          50.000
E04  23558828.805 7 123802601.178 7       261.844          46.000    23558828.273 7  94861725.335 7       200.592          47.000
E09  24424600.961 6 128352074.967 6      2062.012          39.000
E11  23845876.195 8 125310927.318 8     -1435.012          48.000    23845874.203 7  96017441.928 7     -1099.632          45.000
> 2020 05 13 00 03 30.0000000  0 14        .000000000000
G03  23990511.617 6 126070953.989 6     -3107.238          37.000    23990512.477 6  98237127.850 6     -2421.225          36.000
G04  21779263.984 5 114450793.299 5     -2377.672          31.000
G06  21091664.672 7 110837446.979 7      -475.211          44.000    21091665.406 7  86366811.336 7      -370.294          44.000
G07  22110965.914 8 116193884.453 8      2582.371          51.000    22110963.328 8  90540667.914 8      2012.237          51.000
G09  20311015.805 8 106735229.371 8      -454.363          51.000    20311016.578 8  83170299.869 8      -354.049          51.000
R04  20031685.516 8 107268784.907 8     -1163.668          48.000    20031688.500 7  83431252.892 7      -905.075          47.000
R14  20770751.188 5 110719781.925 5      1645.457          35.000    20770757.703 6  86115401.167 6      1279.797          38.000
R15  22728461.172 7 121453990.210 7      4288.621          43.000    22728462.305 5  94464229.380 5      3335.594          32.000
C05  39776989.422 5 207129221.239 5       -23.652          35.000    39776984.242 6 160165432.039 6       -17.864          36.000
C20  22022614.148 7 114677533.217 7       545.020          46.000
C29  24819819.828 7 129243320.566 7     -2369.773          45.000
E01  27020879.461 8 141995644.757 8      2744.465          48.000    27020879.289 8 108801902.905 8      2102.821          50.000
E04  23557336.953 7 123794760.152 7       258.027          46.000    23557335.914 7  94855717.272 7       197.814          47.000
E11  23854091.602 8 125354098.127 8     -1445.898          48.000    23854088.883 7  96050520.842 7     -1107.815          45.000
> 2020 05 13 00 04  0.0000000  0 15        .000000000000
G03  24008262.742 5 126164226.775 5     -3113.895          33.000    24008262.188 5  98309808.044 5     -2426.396          33.000
G04  21792857.094 5 114522235.557 5     -2386.961          31.000
G06  21094432.414 7 110851995.960 7      -497.387          45.000    21094434.258 7  86378148.189 7      -387.571          46.000
G07  22096253.586 8 116116570.560 8      2569.148          50.000    22096251.625 8  90480423.332 8      2001.934          50.000
G09  20313641.453 8 106749027.339 8      -468.227          51.000    20313642.461 8  83181051.539 8      -364.852          51.000
R04  20038228.781 8 107303820.764 8     -1174.848          48.000    20038231.336 8  83458502.987 8      -913.773          48.000
R14  20761559.445 5 110670776.370 5      1618.250          35.000    20761564.539 6  86077285.661 6      1258.645          37.000
R15  22704397.062 6 121325395.748 6      4281.250          41.000    22704397.320 5  94364211.585 5      3329.867          34.000
C05  39777121.266 5 207129907.481 5       -24.484          35.000    39777115.961 6 160165962.741 6       -19.350          36.000
C20  22019494.125 7 114661283.578 7       535.547          46.000
C23  24097993.109 5 125484465.019 5      -867.836          35.000
C29  24833496.078 7 129314531.266 7     -2380.277          47.000
E01  27005222.508 7 141913368.373 7      2738.023          47.000    27005222.812 8 108738859.977 8      2097.924          50.000
E04  23555877.625 7 123787090.915 7       250.504          46.000    23555876.570 7  94849840.861 7       191.843          47.000
E11  23862381.422 8 125397662.504 8     -1460.926          48.000    23862378.266 7  96083901.357 7     -1119.444          45.000
> 2020 05 13 00 04 30.0000000  0 13        .000000000000
G06  21097333.461 7 110867243.807 7      -518.012          45.000    21097336.078 7  86390029.676 7      -403.642          45.000
G07  22081623.828 7 116039695.852 7      2557.090          46.000    22081623.336 7  90420520.954 7      1992.538          46.000
G09  20316354.250 8 106763283.088 8      -480.777          51.000    20316355.234 8  83192159.918 8      -374.632          51.000
R04  20044842.883 8 107339233.908 8     -1184.652          50.000    20044844.438 8  83486046.515 8      -921.396          48.000
R14  20752523.148 6 110622610.876 6      1593.539          41.000    20752527.789 5  86039823.674 5      1239.416          35.000
R15  22680382.523 6 121197064.813 6      4275.531          39.000    22680382.625 5  94264398.796 5      3325.416          35.000
C05  39777270.008 5 207130682.113 5       -24.984          35.000    39777264.812 6 160166561.770 6       -19.779          36.000
C20  22016436.367 7 114645358.135 7       527.414          46.000
C23  24103049.852 5 125510773.914 5      -884.375          33.000
C29  24847240.203 7 129386096.654 7     -2389.414          47.000
E01  26989609.789 8 141831325.356 8      2732.777          48.000    26989610.938 8 108675995.871 8      2094.054          50.000
E04  23554469.242 7 123779690.596 7       244.121          46.000    23554468.555 7  94844170.495 7       187.051          47.000
E11  23870764.289 7 125441716.752 7     -1474.711          47.000    23870761.156 7  96117657.234 7     -1130.096          45.000
> 2020 05 13 00 05  0.0000000  0 14        .000000000000
G02  22849528.523 6 120075060.738 6      1632.918          38.000
G03  24043858.016 4 126351324.749 4     -3123.801          29.000
G06  21100335.742 7 110883023.072 7      -536.551          45.000    21100339.055 7  86402325.199 7      -418.092          44.000
G07  22067046.336 7 115963095.088 7      2546.918          45.000    22067047.023 7  90360831.998 7      1984.611          45.000
G09  20319122.164 8 106777828.510 8      -491.484          51.000    20319123.133 8  83203494.016 8      -382.975          51.000
R04  20051495.336 8 107374853.497 8     -1192.504          50.000    20051496.086 8  83513750.637 8      -927.503          48.000
R14  20743612.805 6 110575118.480 6      1570.188          37.000    20743617.227 5  86002885.142 5      1221.263          35.000
R15  22656385.922 5 121068831.651 5      4271.074          32.000    22656385.820 5  94164661.904 5      3321.944          35.000
C05  39777404.023 5 207131379.530 5       -23.598          35.000    39777398.859 6 160167101.065 6       -18.743          36.000
C20  22013408.648 7 114629591.755 7       521.141          46.000
C29  24861020.102 7 129457848.535 7     -2396.602          47.000
E01  26974010.336 8 141749350.667 8      2729.555          48.000    26974011.875 8 108613184.116 8      2091.570          50.000
E04  23553079.992 7 123772391.798 7       239.977          45.000    23553079.789 8  94838577.906 8       183.860          48.000
E11  23879208.305 7 125486092.507 7     -1486.070          47.000    23879205.922 7  96151659.424 7     -1138.779          46.000
> 2020 05 13 00 05 30.0000000  0 13        .000000000000
G02  22840251.328 6 120026264.629 6      1619.895          36.000
G03  24061695.852 5 126445048.186 5     -3126.027          34.000    24061705.039 5  98528654.043 5     -2435.865          33.000
G06  21103451.117 7 110899395.472 7      -555.227          45.000    21103454.148 7  86415082.913 7      -432.644          45.000
G07  22052534.070 8 115886832.259 8      2536.883          48.000    22052535.125 8  90301406.440 8      1976.795          48.000
G09  20321956.883 8 106792724.896 8      -501.949          51.000    20321957.867 8  83215101.595 8      -391.129          51.000
R04  20058197.594 8 107410742.706 8     -1200.387          51.000    20058197.875 8  83541664.469 8      -933.634          48.000
R15  22632409.844 5 120940721.971 5      4266.262          32.000    22632419.672 6  94065044.491 6      3318.204          37.000
C05  39777534.906 5 207132061.259 5       -22.164          35.000    39777529.859 6 160167628.186 6       -17.196          36.000
C20  22010423.133 7 114614046.424 7       514.848          46.000
C29  24874847.266 7 129529846.060 7     -2403.602          47.000
E01  26958436.367 8 141667508.588 8      2726.078          48.000    26958438.242 8 108550473.991 8      2088.885          50.000
E04  23551721.828 7 123765256.466 7       235.500          45.000    23551722.055 8  94833110.567 8       180.361          48.000
E11  23887725.320 7 125530850.714 7     -1497.816          47.000    23887723.492 7  96185954.674 7     -1147.770          46.000
> 2020 05 13 00 06  0.0000000  0 15        .000000000000
G03  24079552.297 5 126538866.357 5     -3131.992          33.000    24079561.211 5  98601759.130 5     -2440.513          31.000
G06  21106672.906 7 110916324.779 7      -577.438          46.000    21106675.016 7  86428274.559 7      -449.951          46.000
G07  22038079.969 8 115810873.164 8      2523.168          49.000    22038080.344 8  90242217.511 8      1966.105          49.000
G09  20324851.367 8 106807935.542 8      -515.988          51.000    20324852.188 8  83226954.051 8      -402.066          51.000
R04  20064942.977 8 107446865.004 8     -1211.699          51.000    20064943.406 8  83569759.572 8      -942.433          48.000
R14  20726206.492 5 110482320.116 5      1519.008          34.000    20726205.219 4  85930703.953 4      1181.451          26.000
R15  22608470.016 4 120812787.182 4      4258.938          28.000    22608477.391 6  93965539.712 6      3312.510          36.000
C05  39777656.023 5 207132691.816 5       -24.094          35.000    39777651.000 6 160168116.787 6       -18.099          36.000
C20  22007473.242 7 114598687.257 7       505.211          46.000
C23  24118686.242 5 125592317.983 5      -932.109          31.000
C29  24888714.188 7 129602051.348 7     -2413.973          46.000
E01  26942881.188 8 141585765.426 8      2719.426          48.000    26942883.438 8 108487839.659 8      2083.758          49.000
E04  23550388.070 7 123758248.550 7       227.715          46.000    23550388.531 7  94827740.860 7       174.525          47.000
E09  24354188.867 6 127982141.524 6      2045.227          36.000
E11  23896308.070 7 125575954.450 7     -1513.207          47.000    23896306.266 7  96220514.661 7     -1159.419          45.000
> 2020 05 13 00 06 30.0000000  0 15        .000000000000
G06  21110022.422 7 110933925.645 7      -595.137          46.000    21110023.938 7  86441989.500 7      -463.746          46.000
G07  22023706.102 8 115735335.465 8      2513.672          51.000    22023705.539 8  90183356.974 8      1958.708          51.000
G09  20327827.391 8 106823574.687 8      -525.699          51.000    20327828.016 8  83239140.399 8      -409.636          51.000
R04  20071753.852 8 107483337.441 8     -1218.793          51.000    20071754.539 8  83598127.004 8      -947.950          48.000
R05  20413784.984 4 109123378.791 4      1747.875          29.000
R14  20717723.922 6 110437095.448 6      1496.613          37.000
R15  22584580.719 6 120685126.054 6      4254.207          37.000    22584580.461 5  93866233.114 5      3308.831          34.000
C05  39777789.195 5 207133385.345 5       -21.145          35.000    39777784.180 6 160168653.078 6       -16.178          36.000
C20  22004580.883 7 114583628.815 7       499.734          47.000
C23  24124104.273 6 125620511.119 6      -945.996          37.000
C29  24902641.875 7 129674575.948 7     -2420.055          46.000
E01  26927366.891 7 141504238.469 7      2716.723          47.000    26927369.719 8 108425370.990 8      2081.660          49.000
E04  23549100.805 7 123751483.013 7       224.199          47.000    23549100.977 8  94822556.873 8       171.843          48.000
E09  24342517.766 5 127920805.107 5      2044.863          34.000
E11  23904978.102 7 125621517.660 7     -1523.613          47.000    23904975.719 7  96255426.718 7     -1167.357          45.000
> 2020 05 13 00 07  0.0000000  0 14        .000000000000
G06  21113486.250 7 110952127.728 7      -623.234          47.000    21113487.648 7  86456172.919 7      -485.637          47.000
G07  22009399.547 8 115660151.390 8      2493.840          51.000    22009397.977 8  90124771.977 8      1943.252          51.000
G09  20330871.438 8 106839571.533 8      -545.637          51.000    20330872.078 8  83251605.484 8      -425.168          51.000
R04  20078616.969 8 107520088.661 8     -1236.230          51.000    20078617.398 8  83626711.288 8      -961.513          48.000
R14  20709380.078 6 110392626.470 6      1463.027          40.000    20709391.625 4  85860995.492 4      1137.910          27.000
R15  22560728.234 5 120557634.090 5      4239.867          35.000    22560717.602 5  93767072.761 5      3297.678          31.000
C05  39777921.195 6 207134072.658 6       -29.121          36.000    39777916.273 6 160169184.583 6       -22.576          36.000
C20  22001733.016 7 114568802.366 7       483.898          46.000
C23  24129616.352 5 125649187.251 5      -970.465          35.000
C29  24916616.594 7 129747348.142 7     -2436.234          45.000
E01  26911880.750 7 141422859.947 7      2703.734          47.000    26911883.844 8 108363016.020 8      2071.633          48.000
E04  23547846.484 8 123744889.683 8       210.547          48.000    23547846.352 8  94817504.839 8       161.310          48.000
E09  24330865.797 6 127859552.018 6      2033.699          37.000
E11  23913722.312 8 125667469.191 8     -1544.441          49.000    23913719.234 7  96290636.321 7     -1183.388          45.000
> 2020 05 13 00 07 30.0000000  0 13        .000000000000
G02  22803971.969 5 119835685.490 5      1559.234          32.000
G06  21117075.359 8 110970987.011 8      -635.301          48.000    21117076.977 8  86470868.476 8      -495.040          48.000
G07  21995171.336 8 115585379.135 8      2489.871          51.000    21995169.117 8  90066507.880 8      1940.159          51.000
G09  20333994.180 8 106855981.742 8      -549.562          51.000    20333994.797 8  83264392.666 8      -428.234          51.000
R04  20085542.625 8 107557176.240 8     -1237.484          51.000    20085543.141 8  83655557.173 8      -962.491          49.000
R14  20701191.203 6 110348973.000 6      1445.707          38.000    20701195.906 5  85827037.366 5      1124.442          31.000
C05  39778062.742 5 207134809.720 5       -21.559          35.000    39778057.930 6 160169754.514 6       -16.332          36.000
C20  21998940.742 7 114554264.468 7       484.109          47.000
C29  24930649.195 7 129820421.478 7     -2436.492          46.000
E01  26896434.242 8 141341688.537 8      2706.668          48.000    26896437.188 8 108300819.753 8      2073.907          48.000
E04  23546635.516 8 123738524.906 8       212.766          48.000    23546635.609 8  94812627.951 8       163.055          48.000
E09  24319238.695 6 127798444.931 6      2038.934          39.000
E11  23922551.367 8 125713864.514 8     -1549.688          50.000    23922548.047 7  96326185.962 7     -1187.444          45.000
> 2020 05 13 00 08  0.0000000  0 15        .000000000000
G06  21120757.070 8 110990332.446 8      -657.832          49.000    21120758.617 8  86485942.874 8      -512.596          49.000
G07  21980989.352 8 115510850.210 8      2475.547          51.000    21980986.977 8  90008433.401 8      1929.001          51.000
G09  20337163.039 8 106872633.823 8      -563.926          51.000    20337163.438 8  83277368.317 8      -439.423          51.000
R04  20092498.570 8 107594425.966 8     -1249.180          51.000    20092499.289 8  83684529.180 8      -971.584          49.000
R05  20384599.297 4 108967391.447 4      1722.301          29.000
R14  20693121.789 5 110305964.305 5      1418.141          35.000    20693124.945 5  85793586.152 5      1102.998          34.000
R15  22513114.797 6 120303289.684 6      4232.676          36.000    22513109.391 5  93569170.828 5      3292.084          33.000
C05  39778181.367 6 207135427.467 6       -23.320          36.000    39778176.617 6 160170232.209 6       -17.942          36.000
C20  21996171.922 8 114539846.608 8       473.906          48.000
C23  24140908.500 6 125708059.373 6      -996.957          36.000
C29  24944706.734 7 129893624.431 7     -2446.926          46.000
E01  26880995.328 8 141260555.801 8      2699.082          48.000    26880997.680 8 108238653.118 8      2068.125          48.000
E04  23545435.336 8 123732217.945 8       204.445          48.000    23545435.906 8  94807795.361 8       156.746          48.000
E09  24307605.336 6 127737310.286 6      2033.551          37.000    24307606.625 5  97876653.797 5      1557.993          34.000
E11  23931432.297 8 125760531.733 8     -1564.926          49.000    23931428.727 7  96361943.955 7     -1199.042          46.000
> 2020 05 13 00 08 30.0000000  0 14        .000000000000
G06  21124568.281 8 111010358.637 8      -677.707          48.000    21124569.414 8  86501547.728 8      -528.080          48.000
G07  21966890.898 8 115436761.215 8      2463.535          51.000    21966888.727 8  89950701.745 8      1919.641          51.000
G09  20340414.875 8 106889722.035 8      -575.676          51.000    20340415.109 8  83290683.824 8      -448.575          51.000
R04  20099521.922 8 107632036.573 8     -1258.492          51.000    20099522.742 8  83713781.868 8      -978.827          49.000
R14  20685211.180 6 110263800.569 6      1392.316          38.000    20685214.195 6  85760792.144 6      1082.913          37.000
R15  22489369.594 7 120176412.388 7      4225.559          42.000    22489370.484 5  93470488.573 5      3286.549          35.000
C05  39778314.250 6 207136120.366 6       -23.168          36.000    39778309.461 6 160170767.277 6       -17.879          36.000
C20  21993463.672 8 114525742.692 8       466.016          48.000
C23  24146697.844 5 125738202.422 5     -1012.984          31.000
C29  24958825.961 7 129967147.922 7     -2454.918          45.000
E01  26865601.516 8 141179659.025 8      2693.801          49.000    26865603.117 8 108176667.297 8      2064.111          49.000
E04  23544283.297 8 123726163.718 8       198.746          49.000    23544283.992 8  94803156.417 8       152.373          49.000
E09  24296002.250 5 127676343.245 5      2030.539          35.000    24296007.555 5  97829938.875 5      1555.736          32.000
E11  23940401.594 8 125807664.770 8     -1577.457          49.000    23940398.211 7  96398058.887 7     -1208.782          46.000
> 2020 05 13 00 09  0.0000000  0 14        .000000000000
G06  21128516.453 8 111031105.892 8      -699.559          48.000    21128517.633 8  86517714.414 8      -545.111          48.000
G07  21952884.008 8 115363155.139 8      2449.230          50.000    21952882.172 8  89893346.393 8      1908.494          51.000
G09  20343757.281 8 106907286.322 8      -589.555          51.000    20343757.586 8  83304370.293 8      -459.393          51.000
R04  20106620.391 8 107670049.605 8     -1269.840          51.000    20106621.320 8  83743347.557 8      -987.653          49.000
R14  20677469.195 6 110222525.996 6      1364.793          36.000    20677472.586 6  85728689.615 6      1061.503          38.000
R15  22465686.023 7 120049864.897 7      4216.516          42.000    22465689.656 6  93372062.788 6      3279.512          36.000
C05  39778469.180 5 207136926.945 5       -24.887          35.000    39778464.359 6 160171391.972 6       -19.181          37.000
C20  21990823.680 8 114511993.727 8       456.133          49.000
C23  24152594.258 5 125768889.300 5     -1030.566          33.000
C29  24973013.703 7 130041029.980 7     -2464.805          45.000
E01  26850260.578 8 141099041.151 8      2686.496          48.000    26850261.500 8 108114895.184 8      2058.391          49.000
E04  23543187.156 8 123720402.906 8       191.043          48.000    23543187.797 8  94798742.295 8       146.345          50.000
E09  24284438.188 5 127615584.767 5      2025.625          34.000    24284448.883 5  97783411.635 5      1552.159          31.000
E11  23949466.695 8 125855303.378 8     -1592.641          48.000    23949464.133 7  96434561.184 7     -1220.263          46.000
> 2020 05 13 00 09 30.0000000  0 13        .000000000000
G06  21132554.383 8 111052325.464 8      -721.242          48.000    21132555.281 8  86534249.169 8      -562.007          48.000
G07  21938921.891 8 115289785.863 8      2435.523          49.000    21938920.398 8  89836175.543 8      1897.814          49.000
G09  20347142.945 8 106925077.778 8      -602.887          51.000    20347143.320 8  83318233.771 8      -469.782          51.000
R04  20113746.844 8 107708212.094 8     -1280.816          51.000    20113747.750 8  83773029.487 8      -996.191          49.000
R14  20669853.602 5 110181931.202 5      1337.699          32.000    20669849.148 6  85697049.148 6      1040.433          36.000
R15  22442018.125 7 119923399.392 7      4207.871          43.000    22442024.188 6  93273700.794 6      3272.792          38.000
C05  39778598.875 5 207137602.488 5       -26.324          35.000    39778594.133 6 160171914.341 6       -20.416          36.000
C20  21988204.734 8 114498354.409 8       446.750          49.000
C23  24158570.859 5 125799986.092 5     -1048.359          34.000
C29  24987222.625 7 130115022.309 7     -2474.328          46.000
E01  26834925.523 7 141018456.268 7      2679.594          46.000    26834926.547 8 108053148.354 8      2053.210          49.000
E04  23542099.469 8 123714687.260 8       183.754          48.000    23542100.430 8  94794362.775 8       140.849          50.000
E11  23958580.352 8 125903198.125 8     -1606.832          48.000    23958578.539 7  96471259.746 7     -1231.218          46.000
> 2020 05 13 00 10  0.0000000  0 13        .000000000000
G03  24223502.438 5 127295355.722 5     -3170.172          33.000    24223500.250 4  99191186.045 4     -2470.270          24.000
G04  21959012.938 6 115395405.066 6     -2463.551          36.000
G06  21136725.742 7 111074246.739 7      -737.441          47.000    21136726.203 7  86551330.684 7      -574.630          47.000
G07  21925049.055 8 115216885.412 8      2427.051          50.000    21925047.938 8  89779369.990 8      1891.208          50.000
G09  20350615.336 8 106943325.355 8      -610.957          51.000    20350615.711 8  83332452.660 8      -476.070          51.000
R04  20120945.102 8 107746758.307 8     -1286.234          51.000    20120945.859 8  83803009.869 8     -1000.405          49.000
R15  22418410.930 7 119797253.781 7      4204.430          43.000    22418417.883 6  93175587.558 6      3270.112          37.000
C05  39778747.148 5 207138373.666 5       -22.652          35.000    39778742.469 6 160172511.453 6       -17.314          37.000
C20  21985650.625 8 114485053.172 8       442.512          49.000
C29  25001496.203 7 130189350.195 7     -2478.301          46.000
E01  26819640.570 7 140938136.440 7      2677.770          45.000    26819642.164 8 107991604.604 8      2051.860          49.000
E04  23541063.891 8 123709246.471 8       181.695          48.000    23541065.289 8  94790193.871 8       139.209          50.000
E11  23967786.430 8 125951577.685 8     -1615.629          48.000    23967784.930 7  96508329.787 7     -1237.979          46.000
> 2020 05 13 00 10 30.0000000  0 16        .000000000000
G03  24241611.906 6 127390502.596 6     -3174.156          37.000    24241605.594 5  99265326.526 5     -2473.372          33.000
G04  21973088.492 5 115469374.230 5     -2468.770          33.000    21973105.898 5  89976193.655 5     -1923.717          30.000
G06  21140989.227 8 111096652.160 8      -757.395          48.000    21140989.266 8  86568789.449 8      -590.178          48.000
G07  21911224.797 8 115144238.580 8      2414.977          51.000    21911223.844 8  89722762.061 8      1881.800          51.000
G09  20354132.922 8 106961811.266 8      -622.426          51.000    20354133.359 8  83346857.268 8      -485.007          51.000
R04  20128173.656 8 107785466.980 8     -1295.375          51.000    20128174.594 8  83833116.619 8     -1007.514          48.000
R14  20655049.734 5 110103022.609 5      1289.988          32.000    20655051.891 4  85635691.900 4      1003.324          29.000
R15  22394823.656 7 119671212.214 7      4197.090          44.000    22394829.812 6  93077555.237 6      3264.403          38.000
C05  39778872.750 5 207139027.661 5       -22.102          35.000    39778868.133 6 160173017.185 6       -17.263          36.000
C20  21983119.844 8 114471875.596 8       434.828          49.000
C23  24170807.414 5 125863703.292 5     -1076.695          32.000
C29  25015792.508 7 130263796.280 7     -2485.699          45.000
E01  26804364.992 7 140857866.892 7      2672.402          45.000    26804367.617 8 107930099.384 8      2047.733          49.000
E04  23540039.234 8 123703863.465 8       176.035          48.000    23540040.664 8  94786069.238 8       134.851          49.000
E11  23977043.484 8 126000223.954 8     -1628.426          49.000    23977041.391 7  96545604.183 7     -1247.776          45.000
E19  26168990.320 5 137518967.042 5     -1954.801          31.000
> 2020 05 13 00 11  0.0000000  0 15        .000000000000
G03  24259754.367 5 127485831.772 5     -3181.934          31.000    24259747.289 5  99339608.887 5     -2479.438          30.000
G04  21987207.430 5 115543571.774 5     -2477.152          34.000
G06  21145375.383 8 111119701.777 8      -779.465          50.000    21145375.266 8  86586750.160 8      -607.378          50.000
G07  21897479.742 8 115072007.800 8      2400.348          51.000    21897478.820 8  89666478.324 8      1870.401          51.000
G09  20357726.359 8 106980695.359 8      -636.523          51.000    20357726.914 8  83361572.148 8      -495.992          51.000
R04  20135463.094 8 107824501.707 8     -1307.020          51.000    20135464.039 7  83863476.959 7     -1016.571          47.000
R14  20647869.633 6 110064741.011 6      1261.816          40.000
R15  22371288.344 7 119545442.723 7      4187.250          46.000    22371293.273 6  92979734.545 6      3256.753          40.000
C05  39779006.375 6 207139723.769 6       -23.848          36.000    39779001.609 6 160173554.707 6       -18.879          37.000
C20  21980643.430 8 114458981.461 8       424.625          49.000
C23  24177062.016 5 125896267.614 5     -1094.859          33.000
C29  25030141.477 7 130338517.254 7     -2495.699          46.000
E01  26789130.172 7 140777810.530 7      2664.551          45.000    26789133.617 8 107868757.492 8      2041.666          50.000
E04  23539056.211 8 123698698.794 8       168.078          49.000    23539057.172 8  94782111.890 8       128.787          49.000
E11  23986381.594 8 126049296.368 8     -1643.363          48.000    23986379.008 7  96583205.114 7     -1259.200          45.000
> 2020 05 13 00 11 30.0000000  0 14        .000000000000
G03  24277921.875 5 127581291.778 5     -3184.211          35.000    24277911.414 5  99413993.199 5     -2481.203          34.000
G04  22001360.203 5 115617946.029 5     -2482.164          34.000
G06  21149874.461 8 111143344.312 8      -797.691          51.000    21149874.383 8  86605172.885 8      -621.581          51.000
G07  21883804.594 8 115000144.548 8      2389.629          51.000    21883803.289 8  89610480.965 8      1862.048          50.000
G09  20361385.891 8 106999926.116 8      -646.539          51.000    20361386.516 8  83376557.151 8      -503.794          51.000
R04  20142803.922 8 107863810.994 8     -1314.609          51.000    20142804.766 7  83894050.840 7     -1022.474          47.000
R14  20640833.484 7 110027232.304 7      1237.719          43.000    20640848.461 5  85576794.999 5       962.676          34.000
R15  22347795.250 7 119419898.221 7      4181.234          47.000    22347799.234 7  92882088.847 7      3252.071          42.000
C05  39779138.047 6 207140409.930 6       -22.441          36.000    39779133.375 6 160174085.268 6       -17.118          37.000
C20  21978212.102 8 114446321.226 8       418.332          50.000
C29  25044533.195 7 130413460.538 7     -2501.473          45.000
E01  26773927.094 7 140697918.854 7      2660.555          46.000    26773931.258 8 107807541.812 8      2038.565          50.000
E04  23538105.359 8 123693701.676 8       164.062          49.000    23538105.781 8  94778282.938 8       125.629          49.000
E11  23995790.586 7 126098743.096 7     -1654.043          47.000    23995788.508 7  96621092.841 7     -1267.414          46.000
> 2020 05 13 00 12  0.0000000  0 15        .000000000000
G04  22015555.016 5 115692539.341 5     -2489.566          35.000
G06  21154494.648 8 111167623.087 8      -819.453          51.000    21154494.945 8  86624091.383 8      -638.535          51.000
G07  21870208.094 8 114928694.630 8      2375.184          50.000    21870206.125 8  89554805.701 8      1850.792          50.000
G09  20365119.555 8 107019546.637 8      -659.984          51.000    20365120.094 8  83391845.879 8      -514.274          51.000
R04  20150204.133 8 107903439.360 8     -1325.703          51.000    20150204.969 7  83924872.892 7     -1031.102          47.000
R05  20308775.000 5 108562039.972 5      1655.629          31.000    20308773.586 4  84437136.437 4      1287.711          29.000
R14  20633949.289 6 109990543.358 6      1209.809          40.000    20633960.414 5  85548259.285 5       940.965          30.000
R15  22324353.070 7 119294627.708 7      4171.566          47.000    22324356.836 7  92784656.212 7      3244.552          43.000
C05  39779276.461 5 207141130.759 5       -24.188          35.000    39779271.797 6 160174642.663 6       -18.519          37.000
C20  21975834.312 8 114433938.996 8       408.695          50.000
C23  24189841.539 5 125962843.334 5     -1125.422          31.000
C29  25058975.766 7 130488667.260 7     -2510.656          44.000
E01  26758764.797 7 140618238.024 7      2652.945          47.000    26758769.102 8 107746487.709 8      2032.815          50.000
E04  23537194.805 8 123688915.968 8       156.594          49.000    23537195.258 8  94774615.969 8       119.952          50.000
E11  24005278.812 7 126148606.811 7     -1668.613          47.000    24005277.609 7  96659300.097 7     -1278.545          46.000
> 2020 05 13 00 12 30.0000000  0 15        .000000000000
G04  22029774.258 6 115767263.136 6     -2493.500          38.000
G06  21159219.000 8 111192450.012 8      -837.598          51.000    21159219.875 8  86643437.036 8      -652.673          50.000
G07  21856673.875 8 114857572.680 8      2364.305          49.000    21856671.547 8  89499386.011 8      1842.315          49.000
G09  20368910.562 8 107039468.736 8      -669.953          51.000    20368911.000 8  83407369.604 8      -522.041          51.000
R04  20157647.422 8 107943297.803 8     -1333.281          51.000    20157648.273 7  83955873.892 7     -1036.997          47.000
R14  20627205.695 6 109954587.749 6      1185.469          38.000    20627209.008 5  85520293.628 5       922.031          34.000
R15  22300946.109 8 119169547.061 8      4165.203          48.000    22300950.039 7  92687371.230 7      3239.602          43.000
C05  39779404.906 5 207141799.791 5       -21.852          35.000    39779400.305 6 160175160.028 6       -17.151          37.000
C20  21973493.406 8 114421748.864 8       402.207          49.000
C23  24196364.617 4 125996820.388 4     -1140.465          28.000
C29  25073451.992 7 130564048.419 7     -2516.266          45.000
E01  26743626.648 7 140538682.833 7      2648.832          47.000    26743630.812 8 107685529.866 8      2029.562          51.000
E04  23536307.711 8 123684254.195 8       152.266          49.000    23536308.695 8  94771043.970 8       116.734          51.000
E09  24203838.695 5 127192030.014 5      2006.789          31.000
E11  24014829.992 8 126198798.915 8     -1679.582          49.000    24014829.391 7  96697759.000 7     -1286.920          47.000
> 2020 05 13 00 13  0.0000000  0 12        .000000000000
G04  22044035.203 5 115842204.791 5     -2500.094          33.000    22044044.133 5  90266673.890 5     -1948.125          32.000
G06  21164064.211 8 111217913.004 8      -857.805          51.000    21164065.875 8  86663278.321 8      -668.419          51.000
G07  21843219.102 8 114786869.306 8      2351.223          49.000    21843217.180 8  89444292.513 8      1832.125          49.000
G09  20372775.625 8 107059780.159 8      -682.047          51.000    20372776.227 8  83423196.685 8      -531.465          51.000
R04  20165150.562 8 107983476.627 8     -1343.059          51.000    20165151.562 7  83987124.085 7     -1044.601          47.000
R15  22277592.555 8 119044750.919 8      4156.582          49.000    22277596.094 7  92590307.560 7      3232.897          43.000
C05  39779540.336 6 207142503.875 6       -22.617          36.000    39779535.773 6 160175705.269 6       -17.565          37.000
C20  21971206.141 8 114409839.199 8       393.762          49.000
C29  25087978.211 7 130639689.388 7     -2523.965          45.000
E01  26728529.445 7 140459344.101 7      2642.434          46.000    26728533.523 8 107624737.874 8      2024.779          51.000
E04  23535460.930 8 123679804.819 8       146.289          49.000    23535462.156 8  94767634.713 8       112.110          51.000
E11  24024460.672 8 126249406.731 8     -1692.156          50.000    24024460.156 7  96736536.423 7     -1296.584          47.000
> 2020 05 13 00 13 30.0000000  0 15        .000000000000
G04  22058321.602 5 115917280.239 5     -2501.188          30.000
G06  21169014.828 8 111243928.829 8      -873.293          51.000    21169017.062 8  86683550.403 8      -680.488          51.000
G07  21829828.633 8 114716503.218 8      2342.980          50.000    21829827.438 8  89389461.809 8      1825.699          50.000
G09  20376698.859 8 107080397.510 8      -689.223          51.000    20376699.781 8  83439262.154 8      -537.057          51.000
R04  20172697.734 8 108023891.384 8     -1347.938          51.000    20172698.922 7  84018557.785 7     -1048.396          46.000
R14  20614162.281 6 109885098.479 6      1137.309          36.000    20614169.828 5  85466198.409 5       884.570          35.000
R15  22254277.289 8 118920159.784 8      4152.590          48.000    22254280.148 7  92493403.358 7      3229.795          42.000
C05  39779666.938 6 207143164.312 6       -18.027          36.000    39779662.539 6 160176215.204 6       -13.937          37.000
C20  21968957.219 8 114398128.849 8       390.027          50.000
C23  24209688.508 5 126066273.852 5     -1168.695          30.000
C29  25102538.289 7 130715505.891 7     -2527.074          44.000
E01  26713458.031 8 140380141.461 8      2640.770          48.000    26713461.789 8 107564050.171 8      2023.528          50.000
E04  23534638.945 8 123675485.229 8       144.887          50.000    23534639.586 8  94764324.895 8       111.017          51.000
E09  24180981.594 5 127071914.475 5      2004.480          33.000    24180980.930 6  97366789.133 6      1536.218          36.000
E11  24034154.609 8 126300346.576 8     -1700.355          50.000    24034153.750 7  96775568.255 7     -1302.900          47.000
> 2020 05 13 00 14  0.0000000  0 13        .000000000000
G06  21174073.055 8 111270509.238 8      -898.051          51.000    21174075.320 8  86704262.419 8      -699.777          51.000
G07  21816505.383 8 114646489.370 8      2325.176          50.000    21816504.836 8  89334905.578 8      1811.825          50.000
G09  20380682.562 8 107101332.448 8      -705.727          51.000    20380683.648 8  83455575.098 8      -549.917          51.000
R04  20180291.195 8 108064555.257 8     -1362.371          51.000    20180292.703 7  84050185.250 7     -1059.622          46.000
R14  20607852.352 6 109851469.270 6      1105.457          40.000    20607862.352 6  85440042.516 6       859.803          36.000
R15  22231003.109 7 118795790.882 7      4139.145          47.000    22231005.805 6  92396672.012 6      3219.335          41.000
C05  39779787.367 6 207143790.724 6       -23.094          36.000    39779782.812 6 160176699.582 6       -17.788          37.000
C20  21966749.281 8 114386630.819 8       377.035          50.000
C29  25117133.836 7 130791507.876 7     -2539.094          43.000
E01  26698415.414 8 140301089.677 8      2629.781          48.000    26698418.539 8 107503478.035 8      2015.078          50.000
E04  23533844.195 8 123671307.840 8       134.203          50.000    23533843.844 8  94761124.023 8       102.888          51.000
E09  24169557.445 5 127011882.053 5      1996.859          34.000    24169561.594 6  97320806.316 6      1529.783          36.000
E11  24043913.664 8 126351629.659 8     -1718.004          50.000    24043912.523 8  96814863.078 8     -1316.399          48.000
> 2020 05 13 00 14 30.0000000  0 15        .000000000000
G06  21179258.703 8 111297759.950 8      -917.375          51.000    21179260.719 8  86725496.751 8      -714.838          51.000
G07  21803269.992 8 114576936.389 8      2312.844          51.000    21803269.859 8  89280708.458 8      1802.219          50.000
G09  20384746.961 8 107122690.623 8      -716.824          51.000    20384747.938 8  83472217.834 8      -558.564          51.000
R04  20187951.414 8 108105576.308 8     -1371.098          51.000    20187953.125 7  84082090.513 7     -1066.409          46.000
R05  20262851.328 5 108316564.988 5      1615.508          30.000
R14  20601708.305 6 109818708.129 6      1079.539          37.000    20601714.773 5  85414561.630 5       839.645          35.000
R15  22207791.648 8 118671757.206 8      4131.148          48.000    22207793.797 6  92300201.422 6      3213.118          41.000
C05  39779921.562 6 207144489.538 6       -22.441          36.000    39779917.039 6 160177239.956 6       -17.371          37.000
C20  21964602.461 8 114375451.272 8       369.477          50.000
C23  24223369.672 5 126137476.240 5     -1203.988          30.000
C29  25131784.805 7 130867798.453 7     -2545.449          43.000
E01  26683421.883 7 140222297.387 7      2624.027          46.000    26683424.430 8 107443104.688 8      2010.672          49.000
E04  23533096.766 8 123667378.970 8       128.812          50.000    23533095.883 8  94758113.591 8        98.796          51.000
E09                                                                  24158177.000 5  97274950.804 5      1527.966          35.000
E11  24053757.609 8 126403361.119 8     -1729.637          49.000    24053756.203 8  96854501.473 8     -1325.270          48.000
> 2020 05 13 00 15  0.0000000  0 14        .000000000000
G06  21184547.312 8 111325553.371 8      -937.320          51.000    21184549.156 8  86747153.941 8      -730.379          51.000
G07  21790098.609 8 114507719.040 8      2299.727          51.000    21790098.680 8  89226772.881 8      1791.995          51.000
G09  20388867.680 8 107144344.359 8      -728.543          51.000    20388868.414 8  83489090.879 8      -567.696          51.000
R04  20195654.516 8 108146825.589 8     -1380.660          51.000    20195656.172 7  84114173.286 7     -1073.847          44.000
R05  20253798.852 5 108268160.923 5      1607.020          33.000
R14  20595701.555 7 109786688.110 7      1053.039          42.000    20595705.055 5  85389657.197 5       819.027          35.000
R15  22184619.617 8 118547934.245 8      4122.039          48.000    22184620.445 7  92203894.723 7      3206.030          42.000
C05  39780045.578 6 207145135.284 6       -22.395          36.000    39780041.125 6 160177739.287 6       -17.235          37.000
C20  21962492.828 8 114364465.130 8       361.082          50.000
C29  25146467.086 7 130944249.533 7     -2552.914          45.000
E01  26668453.641 7 140143639.942 7      2617.832          47.000    26668455.969 8 107382834.680 8      2005.865          49.000
E04  23532372.477 8 123663571.750 8       123.051          50.000    23532371.648 8  94755196.383 8        94.232          51.000
E09                                                                  24146798.664 5  97229125.476 5      1525.793          35.000
E11  24063662.672 8 126455412.894 8     -1742.117          50.000    24063660.906 8  96894385.299 8     -1334.860          48.000
> 2020 05 13 00 15 30.0000000  0 13        .000000000000
G06  21189951.969 8 111353956.540 8      -956.270          51.000    21189953.727 8  86769286.267 8      -745.145          51.000
G07  21777004.320 8 114438906.439 8      2287.590          51.000    21777004.023 8  89173152.691 8      1782.541          51.000
G09  20393057.383 8 107166360.751 8      -739.344          51.000    20393058.078 8  83506246.523 8      -576.112          51.000
R04  20203413.383 8 108188371.871 8     -1389.207          50.000    20203414.188 7  84146487.086 7     -1080.494          43.000
R14  20589848.008 5 109755480.242 5      1027.281          34.000    20589850.422 6  85365384.431 6       799.000          37.000
R15  22161500.961 8 118424395.610 8      4113.785          48.000    22161501.500 7  92107809.130 7      3199.611          45.000
C05  39780172.367 6 207145795.386 6       -21.531          36.000    39780167.922 6 160178249.766 6       -17.030          37.000
C20  21960433.445 8 114353740.298 8       353.707          51.000
C29  25161192.969 7 131020925.948 7     -2559.023          45.000
E01  26653524.359 7 140065187.471 7      2612.238          47.000    26653526.672 8 107322721.722 8      2001.549          49.000
E04  23531684.188 8 123659954.031 8       117.996          50.000    23531683.578 8  94752424.378 8        90.365          51.000
E09  24135429.914 5 126832556.103 5      1988.586          35.000    24135438.375 6  97183382.606 6      1523.814          36.000
E11  24073641.961 8 126507851.697 8     -1753.969          51.000    24073639.570 8  96934565.648 8     -1343.974          48.000
> 2020 05 13 00 16  0.0000000  0 13        .000000000000
G06  21195469.789 8 111382953.810 8      -978.523          51.000    21195471.711 8  86791881.535 8      -762.486          51.000
G07  21763984.531 8 114370486.214 8      2272.004          51.000    21763983.172 8  89119838.241 8      1770.393          51.000
G09  20397313.031 8 107188724.073 8      -753.387          51.000    20397313.914 8  83523672.494 8      -587.055          51.000
R04  20211225.039 8 108230200.242 8     -1401.078          50.000    20211225.039 7  84179020.269 7     -1089.727          42.000
R15  22138433.297 7 118301130.789 7      4101.965          47.000    22138434.773 7  92011936.496 7      3190.417          46.000
C05  39780299.078 5 207146455.188 5       -24.109          35.000    39780294.633 6 160178759.975 6       -18.882          37.000
C20  21958421.367 8 114343262.726 8       343.012          50.000
C23  24244607.641 5 126248029.841 5     -1253.363          31.000
C29  25175958.875 7 131097810.537 7     -2568.379          45.000
E01  26638631.969 8 139986927.297 8      2603.242          48.000    26638634.172 8 107262756.136 8      1994.707          48.000
E04  23531029.031 8 123656510.823 8       109.711          50.000    23531028.539 8  94749786.084 8        84.052          51.000
E09  24124082.352 5 126772908.450 5      1983.480          32.000    24124094.461 6  97137710.824 6      1519.555          36.000
E11  24083691.805 8 126560661.214 8     -1768.664          51.000    24083688.852 8  96975030.045 8     -1355.114          48.000
> 2020 05 13 00 16 30.0000000  0 12        .000000000000
G06  21201107.703 8 111412581.400 8      -996.574          51.000    21201109.773 8  86814967.962 8      -776.551          51.000
G07  21751046.695 8 114302497.301 8      2260.633          51.000    21751044.234 8  89066859.878 8      1761.532          51.000
G09  20401641.547 8 107211470.517 8      -763.188          51.000    20401642.508 8  83541396.994 8      -594.692          51.000
R04  20219095.961 8 108272348.345 8     -1408.785          49.000    20219096.180 6  84211802.135 6     -1095.722          41.000
R15  22115424.539 7 118178181.894 7      4094.465          46.000    22115427.250 7  91916309.541 7      3184.581          47.000
C05  39780432.773 5 207147151.585 5       -21.828          35.000    39780428.273 6 160179298.474 6       -17.314          37.000
C20  21956463.680 8 114333069.749 8       336.398          50.000
C29  25190771.086 7 131174937.574 7     -2573.570          46.000
E01  26623783.984 8 139908898.670 8      2598.520          48.000    26623785.508 8 107202968.005 8      1991.085          48.000
E04  23530413.969 8 123653279.137 8       105.727          50.000    23530413.648 8  94747309.861 8        80.978          51.000
E09                                                                  24112775.875 5  97092138.679 5      1518.615          35.000
E11  24093818.547 8 126613877.260 8     -1779.027          50.000    24093815.453 8  97015805.953 8     -1363.172          49.000
> 2020 05 13 00 17  0.0000000  0 14        .000000000000
G04  22159271.484 5 116447764.469 5     -2549.422          32.000
G06  21206852.391 8 111442768.646 8     -1019.055          51.000    21206854.094 8  86838490.503 8      -794.069          51.000
G07  21738178.000 8 114234871.905 8      2244.535          51.000    21738175.039 8  89014164.760 8      1748.988          51.000
G09  20406029.492 8 107234529.487 8      -777.469          51.000    20406030.430 8  83559365.020 8      -605.820          51.000
