     3.02           OBSERVATION DATA    M (MIXED)           RINEX VERSION / TYPE
SAVERINEX           SC600               20200502 185931 LCL PGM / RUN BY / DATE
       G = GPS       R = GLONASS       C = COMPASS          COMMENT
       S = SBAS      J = QZSS          E = GALILEO          COMMENT
BEAN                                                        MARKER NAME
1                                                           MARKER NUMBER
GEODETIC                                                    MARKER TYPE
Unige DICCA         GTER                                    OBSERVER / AGENCY
SC60291900056       SC600               2.12(191226)        REC # / TYPE / VERS
                    HEMA45          NONE                    ANT # / TYPE
  4509407.8091   693652.4678  4442337.6214                  APPROX POSITION XYZ
        0.0000        0.0000        0.0000                  ANTENNA: DELTA H/E/N
G    8 C1C L1C D1C S1C C2Y L2Y D2Y S2Y                      SYS / # / OBS TYPES
R    8 C1C L1C D1C S1C C2P L2P D2P S2P                      SYS / # / OBS TYPES
C    4 C1I L1I D1I S1I                                      SYS / # / OBS TYPES
E    8 C1C L1C D1C S1C C7Q L7Q D7Q S7Q                      SYS / # / OBS TYPES
DBHZ                                                        COMMENT
     30.000                                                 INTERVAL
  2020    05    02    16    00    0.0000000     GPS         TIME OF FIRST OBS
  2020    05    02    16    59   30.0000000     GPS         TIME OF LAST OBS
     0                                                      RCV CLOCK OFFS APPL
G L1C  0.00000                                              SYS / PHASE SHIFT
G L2Y  0.00000                                              SYS / PHASE SHIFT
R L1C  0.00000                                              SYS / PHASE SHIFT
R L2P  0.25000                                              SYS / PHASE SHIFT
C L1I  0.00000                                              SYS / PHASE SHIFT
E L1C  0.50000                                              SYS / PHASE SHIFT
E L7Q -0.25000                                              SYS / PHASE SHIFT
 13 R04  6 R05  1 R06 -4 R07  5 R09 -2 R10 -5 R11  0 R12 -1 GLONASS SLOT / FRQ #
    R16 -1 R19  3 R20  2 R21  4 R22 -3                      GLONASS SLOT / FRQ #
 C1C   71.950 C2C   71.950 C2P   71.950                     GLONASS COD/PHS/BIS
    18                                                      LEAP SECONDS
*** Above antenna height is from mark to ANTENNA BOTTOM.    COMMENT
    17     4        0.0000        ANT MEASURE TYPE/HEIGT    COMMENT
    0.0000    0.0000    0.0458    0.0405    0.0000          COMMENT
                    BASE STATION                            COMMENT
                                                            END OF HEADER
> 2020 05 02 16 00  0.0000000  0 13        .000000000000
G10  21875808.375 8 114958230.023 8      2379.348          51.000    21875810.430 8  89577858.792 8      1854.040          51.000
G16  20556485.195 8 108025064.763 8      -825.457          51.000    20556483.531 8  84175371.367 8      -643.213          49.000
G20  20964863.500 8 110171155.299 8       143.594          51.000    20964862.914 7  85847661.006 7       111.891          45.000
G26  21661625.594 8 113832604.585 8     -2743.664          51.000    21661628.039 8  88700724.743 8     -2137.923          51.000
R06  22146630.781 7 118178690.102 7      3567.141          42.000
R11  20663326.031 8 110418573.921 8     -2518.145          51.000    20663330.414 8  85881117.123 8     -1958.557          49.000
R21  19728450.859 5 105570918.923 5      -236.938          31.000    19728451.281 4  82110731.900 4      -184.285          29.000
C20  24534189.203 8 127756011.013 8      2806.426          51.000
C30  22771290.484 5 118576147.398 5     -1714.910          35.000
E13  24550773.422 5 129015182.755 5     -1727.637          35.000    24550776.820 6  98855882.140 6     -1323.588          39.000
E21  25731901.031 8 135222037.952 8     -2854.918          51.000    25731905.555 8 103611689.160 8     -2187.490          51.000
E26  22541783.812 7 118457879.905 7       514.117          45.000    22541785.859 7  90766437.518 7       393.928          46.000
E33  26762981.188 6 140640400.415 6      2181.574          37.000    26762982.883 5 107763390.116 5      1672.335          34.000
> 2020 05 02 16 00 30.0000000  0 15        .000000000000
G10  21862235.781 8 114886904.890 8      2392.980          50.000    21862238.445 8  89522280.799 8      1864.660          50.000
G16  20561221.008 8 108049953.040 8      -816.688          50.000    20561220.250 8  84194764.786 8      -636.383          50.000
G20  20964068.828 8 110166979.016 8       151.879          51.000    20964067.836 7  85844406.771 7       118.347          44.000
G21  22868435.836 5 120174442.866 5     -2438.680          35.000
G26  21677293.516 8 113914940.668 8     -2728.406          49.000    21677295.844 8  88764882.678 8     -2126.034          49.000
R05  21713702.789 5 116072196.579 5       -21.105          30.000    21713679.367 4  90278294.020 4       -16.421          28.000
R06  22126580.352 7 118071698.947 7      3583.082          42.000
R11  20677494.461 8 110494283.407 8     -2511.816          51.000    20677498.445 8  85940002.240 8     -1953.635          48.000
R21  19729777.203 6 105578018.275 6      -219.098          36.000    19729776.148 4  82116239.586 4      -170.409          27.000
C20  24518012.344 8 127671774.009 8      2826.277          50.000
C30  22781151.180 5 118627501.934 5     -1692.070          33.000
E13  24560614.422 5 129066895.301 5     -1702.590          34.000    24560616.750 6  98895504.522 6     -1304.773          38.000
E21  25748187.078 8 135307622.999 8     -2833.828          51.000    25748191.828 8 103677267.282 8     -2171.297          51.000
E26  22538837.219 7 118442393.557 7       535.301          45.000    22538839.414 7  90754571.338 7       410.169          47.000
E33  26750505.969 6 140574834.911 6      2206.109          36.000    26750509.008 6 107713151.762 6      1690.650          36.000
> 2020 05 02 16 01  0.0000000  0 15        .000000000000
G10  21848788.500 8 114816239.917 8      2347.383          49.000    21848791.789 8  89467217.228 8      1829.133          48.000
G16  20566110.742 8 108075649.086 8      -866.980          50.000    20566110.406 8  84214787.668 8      -675.569          50.000
G20  20963429.922 8 110163621.857 8       101.117          51.000    20963429.258 7  85841790.843 7        78.796          44.000
G26  21693076.414 7 113997882.509 7     -2771.867          47.000    21693079.109 7  88829512.668 7     -2159.897          47.000
R05  21714058.648 6 116074114.499 6       -78.531          37.000    21714035.758 4  90279751.569 4       -61.086          25.000
R06  22106642.844 6 117965312.735 6      3539.020          41.000
R11  20691829.820 8 110570884.784 8     -2565.168          51.000    20691833.578 8  85999581.060 8     -1995.131          48.000
R21  19731207.891 6 105585672.780 6      -261.469          36.000    19731205.867 4  82122193.021 4      -203.368          28.000
R22  21761329.469 6 116163450.216 6      2499.352          37.000
C20  24501924.062 8 127588000.024 8      2787.641          50.000
C30  22791089.625 5 118679255.395 5     -1728.883          32.000
E13  24570518.508 5 129118946.145 5     -1736.898          31.000    24570519.836 6  98935382.388 6     -1331.223          36.000
E21  25764555.734 8 135393641.548 8     -2871.602          50.000    25764559.906 8 103743177.595 8     -2200.348          51.000
E26  22535973.211 7 118427342.881 7       497.309          45.000    22535975.680 7  90743039.012 7       381.114          46.000
E33  26738096.609 5 140509612.295 5      2171.496          34.000    26738099.211 5 107663176.128 5      1663.455          32.000
> 2020 05 02 16 01 30.0000000  0 15        .000000000000
G10  21835417.539 8 114745976.452 8      2335.566          49.000    21835421.070 8  89412466.532 8      1819.922          49.000
G16  20571104.586 8 108101891.455 8      -883.730          50.000    20571104.484 8  84235236.272 8      -688.621          50.000
G20  20962897.172 8 110160822.801 8        84.184          51.000    20962896.453 7  85839609.799 7        65.598          43.000
G26  21708924.688 8 114081167.152 8     -2781.621          48.000    21708927.766 8  88894409.768 8     -2167.497          48.000
G27  20902716.320 5 109844514.914 5      1575.645          31.000
R06  22086769.562 6 117859271.031 6      3529.230          39.000
R11  20706281.023 8 110648109.179 8     -2584.379          49.000    20706284.945 7  86059644.485 7     -2010.072          47.000
R21  19732691.156 6 105593615.991 6      -269.184          36.000    19732692.008 4  82128371.164 4      -209.362          27.000
R22  21747292.172 5 116088518.995 5      2494.723          32.000
C20  24485875.609 8 127504433.009 8      2782.230          50.000
C30  22801055.367 5 118731148.887 5     -1731.676          33.000
E13                                                                  24580437.258 6  98975315.322 6     -1331.993          37.000
E21  25780957.281 8 135479830.991 8     -2875.672          51.000    25780960.031 8 103809218.811 8     -2203.410          50.000
E26  22533142.109 7 118412466.610 7       493.125          45.000    22533144.758 7  90731640.316 7       377.810          46.000
E33  26725704.539 5 140444471.711 5      2169.844          35.000    26725703.164 5 107613263.222 5      1662.503          35.000
> 2020 05 02 16 02  0.0000000  0 15        .000000000000
G10  21822120.789 8 114676099.978 8      2321.867          51.000    21822123.875 8  89358017.340 8      1809.247          51.000
G16  20576198.922 8 108128662.787 8      -902.090          49.000    20576198.969 8  84256097.030 8      -702.927          50.000
G20  20962467.492 8 110158565.196 8        65.328          51.000    20962466.156 7  85837850.634 7        50.908          42.000
G26  21724834.891 8 114164775.520 8     -2793.281          49.000    21724837.742 8  88959559.104 8     -2176.583          49.000
R05  21715211.680 5 116080239.967 5      -129.742          34.000
R06  22066958.969 6 117753561.581 6      3516.996          41.000
R11  20720843.742 7 110725935.763 7     -2605.109          47.000    20720848.469 7  86120176.262 7     -2026.196          46.000
R21  19734225.906 6 105601830.214 6      -279.125          37.000
C20  24469864.469 8 127421058.709 8      2775.004          51.000
C29  21838698.523 5 113719818.351 5       823.074          30.000
C30  22811044.383 5 118783165.576 5     -1737.465          32.000
E13                                                                  24590364.906 6  99015289.860 6     -1333.690          37.000
E21  25797388.109 8 135566172.689 8     -2881.496          51.000    25797389.125 8 103875376.677 8     -2207.879          49.000
E26  22530341.188 7 118397747.479 7       487.125          46.000    22530343.586 7  90720361.995 7       373.314          46.000
E33                                                                  26713316.797 5 107563400.174 5      1660.898          33.000
> 2020 05 02 16 02 30.0000000  0 14        .000000000000
G10  21808910.234 8 114606674.820 8      2314.316          51.000    21808912.820 8  89303919.814 8      1803.363          51.000
G16  20581405.734 8 108156024.453 8      -914.230          49.000    20581405.648 8  84277417.807 8      -712.387          50.000
G18  22910631.852 5 120396170.684 5     -3008.219          32.000
G20  20962152.602 8 110156911.212 8        52.762          50.000    20962151.594 7  85836561.849 7        41.113          43.000
G26  21740818.180 8 114248767.502 8     -2798.332          49.000    21740820.375 8  89025007.357 8     -2180.518          49.000
R06  22047223.680 7 117648251.209 7      3511.656          42.000
R11  20735530.961 8 110804424.285 8     -2619.391          49.000    20735536.078 7  86181222.841 7     -2037.307          46.000
R21  19735824.742 5 105610378.206 5      -282.715          31.000
C20  24453902.898 8 127337941.091 8      2773.992          50.000
C29  21833980.516 5 113695271.848 5       822.305          30.000
E13                                                                  24600314.117 6  99055353.184 6     -1331.176          37.000
E21  25813859.445 8 135652727.062 8     -2880.965          51.000    25813859.492 8 103941697.493 8     -2207.537          48.000
E26  22527582.023 7 118383247.137 7       487.359          46.000    22527583.992 7  90709251.358 7       373.443          45.000
E33                                                                  26700955.672 5 107513634.714 5      1663.227          34.000
> 2020 05 02 16 03  0.0000000  0 15        .000000000000
G10  21795762.742 8 114537581.580 8      2291.562          51.000    21795765.234 8  89250080.934 8      1785.633          51.000
G16  20586701.625 8 108183854.420 8      -941.438          49.000    20586701.383 8  84299103.498 8      -733.588          49.000
G18  22927843.141 5 120486611.928 5     -3022.508          32.000
G20  20961929.430 8 110155738.796 8        25.211          50.000    20961928.484 7  85835648.288 7        19.645          43.000
G21  22939062.828 5 120545588.695 5     -2482.484          32.000
G26  21756850.875 8 114333019.353 8     -2818.652          49.000    21756852.867 8  89090658.111 8     -2196.356          49.000
R05  21716943.758 5 116089467.700 5      -183.941          33.000    21716956.398 4  90291873.177 4      -143.059          29.000
R06  22027541.836 7 117543221.594 7      3490.227          43.000
R11  20750319.820 8 110883447.463 8     -2648.934          51.000    20750324.695 7  86242685.220 7     -2060.285          47.000
R21  19737461.922 4 105619135.534 4      -301.324          29.000
C20  24437967.734 8 127254962.223 8      2757.680          49.000
E13                                                                  24610263.180 6  99095411.564 6     -1339.589          37.000
E21  25830347.711 8 135739370.745 8     -2895.426          51.000    25830347.891 8 104008086.743 8     -2218.576          49.000
E26  22524840.953 7 118368843.583 7       472.637          45.000    22524842.398 7  90698214.903 7       362.111          45.000
E33                                                                  26688596.414 6 107463873.614 6      1654.350          36.000
> 2020 05 02 16 03 30.0000000  0 14        .000000000000
G10  21782729.453 8 114469090.006 8      2271.809          51.000    21782732.031 8  89196710.870 8      1770.244          51.000
G16  20592137.375 8 108212419.626 8      -965.484          49.000    20592137.109 8  84321362.117 8      -752.325          49.000
G20  20961848.734 8 110155315.511 8          .277          49.000    20961848.000 7  85835318.468 7          .216          43.000
G26  21772983.695 8 114417796.354 8     -2835.672          49.000    21772986.016 8  89156718.069 8     -2209.614          49.000
R05  21718065.641 6 116095434.654 6      -216.441          37.000    21718071.883 4  90296514.066 4      -168.343          25.000
R06  22007964.289 7 117438748.478 7      3472.000          43.000
R11  20765259.664 8 110963273.372 8     -2675.285          51.000    20765263.906 7  86304771.992 7     -2080.777          47.000
R22  21691481.258 5 115790607.053 5      2462.039          33.000
C20  24422109.180 7 127172389.470 7      2744.590          47.000
C29  21824672.469 5 113646816.862 5       793.770          32.000
E13  24620293.711 6 129380478.555 6     -1756.879          38.000    24620262.492 6  99135669.529 6     -1346.132          36.000
E21  25846903.156 8 135826369.461 8     -2907.074          51.000    25846904.273 8 104074748.046 8     -2227.519          49.000
E26  22522168.711 7 118354803.934 7       460.809          44.000    22522169.953 7  90687457.268 7       353.087          44.000
E33                                                                  26676290.500 5 107414321.858 5      1647.097          35.000
> 2020 05 02 16 04  0.0000000  0 15        .000000000000
G10  21769778.859 8 114401033.604 8      2265.090          51.000    21769781.688 8  89143679.924 8      1765.005          51.000
G16  20597680.898 8 108241551.087 8      -976.676          49.000    20597680.633 8  84344061.963 8      -761.046          49.000
G20  20961878.625 7 110155472.675 7       -11.250          47.000    20961878.367 7  85835440.963 7        -8.766          44.000
G26  21789184.141 8 114502927.633 8     -2839.797          50.000    21789186.844 8  89223054.107 8     -2212.829          50.000
R05  21719335.703 5 116102202.883 5      -234.996          34.000
R06  21988459.398 6 117334665.216 6      3466.602          40.000
R11  20780316.062 8 111043726.777 8     -2688.371          51.000    20780319.453 7  86367346.864 7     -2090.958          45.000
R21  19740963.344 5 105637906.482 5      -319.242          32.000    19740971.688 4  82162826.824 4      -248.299          26.000
C20  24406297.047 7 127090058.156 7      2744.113          47.000
C29  21820088.695 5 113622975.104 5       794.555          30.000
C30  22851337.227 5 118992993.927 5     -1757.629          35.000
E13                                                                  24630280.047 5  99175997.288 5     -1342.792          35.000
E21  25863493.375 8 135913552.780 8     -2905.391          49.000    25863495.617 8 104141550.810 8     -2226.217          49.000
E26  22519533.922 7 118340959.128 7       461.949          45.000    22519535.242 7  90676848.884 7       354.078          45.000
E33  26664012.039 5 140120332.756 5      2154.254          33.000    26664005.242 6 107364850.143 6      1650.515          37.000
> 2020 05 02 16 04 30.0000000  0 16        .000000000000
G10  21756881.242 8 114333255.165 8      2240.094          51.000    21756884.398 8  89090865.578 8      1745.528          51.000
G16  20603301.805 8 108271088.684 8     -1005.938          50.000    20603301.336 8  84367078.254 8      -783.847          50.000
G20  20961988.516 7 110156050.983 7       -40.801          46.000    20961988.508 7  85835891.590 7       -31.793          44.000
G21  22981639.594 6 120769306.053 6     -2498.848          36.000
G26  21805421.023 8 114588251.504 8     -2861.812          51.000    21805424.305 8  89289540.228 8     -2229.984          51.000
R06  21968997.555 6 117230814.605 6      3443.039          39.000
R11  20795458.562 8 111124642.125 8     -2719.656          50.000    20795460.289 7  86430280.979 7     -2115.291          44.000
R21  19742793.141 6 105647628.445 6      -340.395          37.000    19742783.391 4  82170371.071 4      -264.751          25.000
C20  24390502.477 8 127007812.728 8      2725.648          48.000
C29  21815519.133 5 113599133.632 5       778.398          30.000
C30  22861473.422 5 119045750.866 5     -1773.215          33.000
E07  27907152.305 7 146653073.292 7      2732.758          43.000    27907157.953 6 112370558.417 6      2093.581          38.000
E13                                                                  24640285.047 5  99216272.217 5     -1352.720          34.000
E21  25880087.922 8 136000759.537 8     -2921.758          48.000    25880091.148 8 104208371.530 8     -2238.773          48.000
E26  22516906.195 7 118327149.259 7       445.270          46.000    22516908.039 7  90666267.312 7       341.043          46.000
E33                                                                  26651710.656 5 107315336.362 5      1640.351          34.000
> 2020 05 02 16 05  0.0000000  0 16        .000000000000
G10  21744112.133 8 114266152.722 8      2234.840          51.000    21744115.609 8  89038577.989 8      1741.434          51.000
G16  20609075.484 8 108301427.528 8     -1015.180          51.000    20609074.711 8  84390718.902 8      -791.049          51.000
G20  20962253.680 7 110157445.776 7       -50.758          45.000    20962253.953 7  85836978.429 7       -39.552          44.000
G26  21821769.336 8 114674161.625 8     -2863.984          50.000    21821772.891 8  89356483.167 8     -2231.676          50.000
R05  21722299.320 5 116118154.324 5      -289.875          33.000
R06  21949655.805 6 117127602.954 6      3439.254          41.000
R11  20810761.461 8 111206417.993 8     -2730.504          50.000    20810762.828 7  86493884.381 7     -2123.728          45.000
R21  19744702.617 5 105657870.332 5      -340.395          33.000
C20  24374800.844 8 126926047.941 8      2726.871          49.000
C29  21811035.508 4 113575785.242 4       779.590          29.000
E01  24436930.570 7 128416927.812 7      -637.230          43.000    24436927.109 6  98397376.816 6      -488.372          41.000
E07  27891531.430 7 146570983.123 7      2741.551          43.000    27891530.719 5 112307658.325 5      2100.642          35.000
E13                                                                  24650348.430 5  99256739.120 5     -1347.545          30.000
E21  25896761.844 8 136088383.859 8     -2918.367          48.000    25896765.797 7 104275512.203 7     -2236.116          47.000
E26  22514359.938 7 118313769.769 7       448.246          44.000    22514362.961 7  90656015.533 7       343.506          47.000
E33                                                                  26639479.297 5 107266139.773 5      1644.799          31.000
> 2020 05 02 16 05 30.0000000  0 17        .000000000000
G10  21731406.445 8 114199384.969 8      2216.035          51.000    21731410.195 8  88986551.205 8      1726.781          51.000
G16  20614936.141 8 108332223.462 8     -1038.012          51.000    20614935.086 8  84414715.722 8      -808.843          51.000
G20  20962608.969 7 110159313.577 7       -74.008          46.000    20962609.828 7  85838433.836 7       -57.671          44.000
G26  21838163.414 8 114760312.330 8     -2879.480          51.000    21838166.766 8  89423613.543 8     -2243.751          51.000
R05  21724000.484 5 116127295.635 5      -320.406          33.000
R06  21930370.023 6 117024686.215 6      3421.816          40.000
R11  20826159.430 8 111288701.452 8     -2755.152          50.000    20826161.906 7  86557882.582 7     -2142.896          45.000
R21  19746647.164 5 105668310.316 5      -355.422          30.000
C20  24359126.625 8 126844425.831 8      2714.500          48.000
C29  21806573.844 5 113552549.641 5       768.824          32.000
C30  22881888.258 5 119151998.094 5     -1778.848          31.000
E01  24440620.852 7 128436321.009 7      -655.723          43.000    24440617.633 7  98412236.480 7      -502.464          42.000
E07  27875892.078 7 146488798.525 7      2737.234          42.000    27875887.641 5 112244685.900 5      2097.137          35.000
E13  24660400.539 5 129591277.098 5     -1765.539          33.000
E21  25913449.547 7 136176080.463 7     -2928.215          47.000    25913454.047 7 104342708.271 7     -2243.679          47.000
E26  22511829.961 7 118300476.849 7       437.824          45.000    22511834.070 7  90645830.076 7       335.413          47.000
E33  26627252.414 5 139927155.723 5      2138.758          33.000    26627242.484 4 107216873.368 4      1638.226          29.000
> 2020 05 02 16 06  0.0000000  0 15        .000000000000
G10  21718812.914 8 114133206.241 8      2194.156          51.000    21718816.414 8  88934983.391 8      1709.735          51.000
G16  20620931.281 8 108363727.962 8     -1063.941          51.000    20620930.133 8  84439264.665 8      -829.045          50.000
G20  20963102.359 7 110161906.239 7      -100.375          46.000    20963102.719 7  85840454.090 7       -78.214          44.000
G26  21854651.016 8 114846953.516 8     -2898.172          51.000    21854653.828 8  89491126.090 8     -2258.319          51.000
R06  21911186.430 5 116922324.475 5      3400.535          34.000
R11  20841699.531 8 111371745.000 8     -2782.820          50.000    20841703.203 7  86622471.999 7     -2164.416          45.000
R21  19748680.031 4 105679204.773 4      -372.188          29.000    19748702.828 4  82194963.286 4      -289.479          24.000
C20  24343527.641 7 126763198.696 7      2698.980          47.000
C29  21802181.930 5 113529673.054 5       754.512          31.000
C30  22892168.367 6 119205508.083 6     -1790.621          36.000
E01  24444419.977 7 128456292.582 7      -677.383          43.000    24444418.562 7  98427539.342 7      -519.016          42.000
E07  27860283.031 7 146406773.677 7      2729.438          42.000    27860279.562 6 112181835.804 6      2091.456          37.000
E13  24670507.617 5 129644391.586 5     -1775.969          32.000
E21  25930198.539 7 136264099.792 7     -2941.414          45.000    25930203.625 7 104410151.618 7     -2253.826          46.000
E26  22509364.547 7 118287522.247 7       424.086          44.000    22509368.938 7  90635903.800 7       325.018          47.000
> 2020 05 02 16 06 30.0000000  0 15        .000000000000
G10  21706274.633 8 114067317.608 8      2191.602          51.000    21706278.227 8  88883641.637 8      1707.741          51.000
G16  20627003.961 8 108395639.283 8     -1070.324          51.000    20627002.672 8  84464130.617 8      -834.019          50.000
G20  20963676.523 8 110164922.571 8      -107.379          49.000    20963676.242 7  85842804.454 7       -83.675          43.000
G26  21871174.188 8 114933781.897 8     -2897.137          51.000    21871176.305 8  89558784.489 8     -2257.512          51.000
R06  21892048.258 5 116820217.162 5      3399.465          31.000
R11  20857323.766 8 111455238.841 8     -2790.281          50.000    20857328.180 7  86687411.620 7     -2170.219          46.000
R21  19750741.703 5 105690246.761 5      -370.355          32.000
C20  24327947.203 7 126682070.679 7      2702.820          46.000
C29  21797801.352 5 113506855.550 5       759.719          33.000
C30  22902454.383 5 119259023.391 5     -1783.348          34.000
E01  24448272.289 7 128476541.103 7      -679.273          43.000    24448272.336 7  98443054.429 7      -520.581          43.000
E07  27844647.539 6 146324609.530 6      2741.496          41.000    27844646.266 6 112118878.972 6      2100.546          40.000
E13  24680600.648 5 129697431.123 5     -1766.449          35.000
E21  25946951.359 7 136352139.000 7     -2934.609          45.000    25946956.594 7 104477610.186 7     -2248.725          45.000
E26  22506906.055 7 118274604.459 7       430.055          44.000    22506910.453 7  90626005.738 7       329.639          47.000
> 2020 05 02 16 07  0.0000000  0 14        .000000000000
G10  21693804.305 8 114001786.215 8      2179.434          51.000    21693807.891 8  88832578.226 8      1698.260          51.000
G16  20633166.164 8 108428021.817 8     -1086.273          51.000    20633164.867 8  84489363.733 8      -846.447          49.000
G20  20964343.750 7 110168427.243 7      -123.742          47.000    20964343.516 7  85845535.376 7       -96.422          44.000
G26  21887744.531 8 115020860.165 8     -2905.742          49.000    21887746.547 8  89626637.604 8     -2264.218          50.000
R05  21729994.742 5 116159274.863 5      -390.906          31.000
R06  21872973.344 6 116718434.143 6      3388.184          36.000
R11  20873044.602 8 111539245.058 8     -2807.719          51.000    20873048.797 7  86752749.712 7     -2183.784          46.000
C20  24312398.570 7 126601108.592 7      2697.020          45.000
C30  22912743.555 6 119312608.305 6     -1786.172          36.000
E01  24452189.602 7 128497131.210 7      -691.113          43.000    24452190.898 7  98458831.258 7      -529.465          43.000
E07  27828997.945 6 146242373.172 6      2743.098          40.000    27828999.508 7 112055866.798 7      2102.064          43.000
E13  24690692.719 5 129750464.033 5     -1766.102          34.000
E21  25963720.172 7 136440261.334 7     -2937.727          44.000    25963725.117 7 104545132.431 7     -2251.057          45.000
E26  22504466.992 7 118261788.046 7       426.406          45.000    22504471.602 7  90616185.391 7       326.859          47.000
> 2020 05 02 16 07 30.0000000  0 14        .000000000000
G10  21681419.328 8 113936704.218 8      2156.977          51.000    21681423.070 8  88781864.989 8      1680.761          51.000
G16  20639434.781 8 108460964.624 8     -1112.258          51.000    20639433.438 8  84515033.424 8      -866.697          49.000
G20  20965120.719 8 110172509.895 8      -150.668          49.000    20965120.336 7  85848716.689 7      -117.404          43.000
G21  23067220.281 5 121219057.044 5     -2506.832          34.000
G26  21904378.742 8 115108276.135 8     -2924.438          48.000    21904380.977 8  89694753.887 8     -2278.786          48.000
R06  21853979.508 6 116617071.362 6      3366.820          38.000
R11  20888877.648 8 111623851.426 8     -2835.172          51.000    20888881.344 7  86818554.620 7     -2205.134          46.000
C20  24296899.609 7 126520404.075 7      2680.945          45.000
C30  22923065.391 6 119366351.576 6     -1798.691          39.000
E01  24456188.852 7 128518152.581 7      -712.812          43.000    24456190.922 7  98474938.575 7      -546.253          42.000
E07  27813351.305 6 146160156.546 6      2735.191          39.000    27813356.312 7 111992869.757 7      2095.883          44.000
E13  24700801.758 5 129803583.043 5     -1777.152          35.000
E21  25980521.938 7 136528555.087 7     -2950.852          44.000    25980526.688 7 104612786.016 7     -2261.111          45.000
E26  22502064.609 7 118249162.726 7       412.742          46.000    22502069.352 7  90606511.453 7       316.263          46.000
> 2020 05 02 16 08  0.0000000  0 12        .000000000000
G10  21669125.531 8 113872101.901 8      2121.199          51.000    21669129.109 8  88731525.556 8      1652.883          51.000
G16  20645815.297 8 108494495.432 8     -1151.602          51.000    20645813.508 8  84541161.331 8      -897.352          48.000
G20  20966013.188 8 110177198.962 8      -190.539          49.000    20966012.461 7  85852370.493 7      -148.472          43.000
G26  21921081.891 7 115196055.701 7     -2956.004          46.000    21921084.758 7  89763153.531 7     -2303.380          46.000
R06  21835070.469 6 116516161.991 6      3331.539          38.000
R11  20904827.703 8 111709082.878 8     -2875.902          51.000    20904830.477 7  86884845.697 7     -2236.813          45.000
C20  24281457.266 7 126439987.454 7      2651.824          47.000
C30  22933423.695 5 119420281.062 5     -1824.828          35.000
E01  24460275.680 7 128539633.131 7      -747.777          43.000    24460278.203 7  98491397.669 7      -573.059          43.000
E07  27797713.969 6 146077989.848 6      2714.156          38.000    27797722.039 7 111929910.998 7      2079.526          45.000
E21  25997361.695 7 136617046.708 7     -2977.125          45.000    25997366.508 7 104680591.231 7     -2281.234          45.000
E26  22499704.141 7 118236756.303 7       385.793          46.000    22499708.508 7  90597005.227 7       295.644          46.000
> 2020 05 02 16 08 30.0000000  0 14        .000000000000
G10  21656961.508 8 113808181.253 8      2142.805          51.000    21656964.336 8  88681717.285 8      1669.721          51.000
G16  20652345.438 8 108528813.344 8     -1133.523          51.000    20652343.938 8  84567902.539 8      -883.265          48.000
G18  23118922.578 5 121490751.169 5     -3048.348          35.000
G20  20967059.016 8 110182694.064 8      -173.000          49.000    20967058.477 7  85856652.415 7      -134.805          42.000
G26  21937891.578 7 115284396.488 7     -2930.496          45.000    21937895.539 7  89831990.520 7     -2283.503          45.000
R06  21816285.344 6 116415913.575 6      3354.367          37.000
R11  20920932.672 8 111795138.682 8     -2858.238          51.000    20920934.562 7  86951777.946 7     -2223.077          47.000
C20  24266108.930 8 126360059.258 8      2679.500          48.000
C29  21780671.297 5 113417668.796 5       742.707          34.000
C30  22943853.453 5 119474594.492 5     -1793.262          33.000
E01  24464488.539 7 128561772.241 7      -725.320          43.000    24464491.367 7  98508361.353 7      -555.783          44.000
E07  27782124.617 6 145996075.073 6      2749.953          37.000    27782135.117 7 111867145.209 7      2107.005          45.000
E21  26014277.352 7 136705934.271 7     -2945.777          46.000    26014282.102 7 104748699.845 7     -2257.307          46.000
E26  22497423.195 7 118224768.184 7       416.254          46.000    22497426.672 7  90587819.543 7       318.963          45.000
> 2020 05 02 16 09  0.0000000  0 18        .000000000000
G10  21644842.656 8 113744496.869 8      2109.145          51.000    21644845.062 8  88632093.107 8      1643.492          51.000
G16  20658940.008 8 108563469.884 8     -1170.520          51.000    20658939.102 8  84594907.611 8      -912.093          48.000
G18  23136403.141 5 121582623.291 5     -3070.066          33.000
G20  20968172.922 8 110188546.675 8      -210.641          49.000    20968171.914 6  85861212.901 6      -164.133          40.000
G21  23110184.203 5 121444835.112 5     -2515.781          30.000
G26  21954722.992 7 115372848.699 7     -2959.883          46.000    21954727.703 7  89900914.324 7     -2306.402          46.000
R05  21740160.109 5 116213604.562 5      -508.359          33.000
R06  21797539.047 6 116315876.056 6      3321.148          37.000
R11  20937105.664 8 111881559.869 8     -2896.539          50.000    20937107.328 7  87018994.370 7     -2252.864          47.000
R22  21541126.883 5 114987996.970 5      2392.496          31.000
C20  24250769.359 7 126280178.401 7      2652.297          47.000
C29  21776486.516 6 113395866.250 6       717.426          37.000
C30  22954271.383 5 119528848.336 5     -1816.840          30.000
E01  24468741.133 6 128584121.943 6      -757.824          41.000    24468744.930 7  98525486.454 7      -580.817          45.000
E07  27766498.570 6 145913966.666 6      2730.477          36.000    27766510.695 7 111804231.051 7      2092.207          45.000
E21  26031183.297 7 136794768.490 7     -2969.844          47.000    26031187.773 7 104816767.574 7     -2275.651          47.000
E26  22495136.328 7 118212750.485 7       391.527          46.000    22495139.078 7  90578611.204 7       300.001          45.000
E33  26542170.477 5 139480044.206 5      2113.316          33.000    26542175.773 5 106874338.229 5      1619.064          33.000
> 2020 05 02 16 09 30.0000000  0 16        .000000000000
G10  21632842.898 8 113681438.694 8      2096.195          51.000    21632845.297 8  88582956.907 8      1633.399          51.000
G16  20665672.844 8 108598852.174 8     -1186.594          49.000    20665672.367 8  84622478.231 8      -924.619          48.000
G18  23153937.117 4 121674760.354 4     -3071.617          29.000
G20  20969428.516 8 110195144.775 8      -227.656          49.000    20969426.898 6  85866354.286 6      -177.394          39.000
G26  21971649.445 8 115461798.013 8     -2968.629          48.000    21971654.625 8  89970225.468 8     -2313.217          48.000
R05  21743092.625 5 116229247.828 5      -532.391          33.000    21743088.836 5  90400544.528 5      -414.082          31.000
R06  21778906.797 6 116216447.571 6      3309.184          39.000
R11  20953419.719 8 111968736.871 8     -2913.570          49.000    20953422.070 8  87086798.664 8     -2266.113          48.000
C20  24235513.117 8 126200731.745 8      2645.629          48.000
C29  21772372.930 6 113374445.166 6       712.137          36.000
C30  22964750.500 4 119583426.630 4     -1820.082          29.000
E01  24473106.430 6 128607069.908 6      -770.246          39.000    24473112.617 7  98543069.932 7      -590.114          46.000
E07  27750910.648 6 145832054.521 6      2731.816          38.000    27750922.992 7 111741467.275 7      2093.216          44.000
E21  26048152.578 8 136883935.575 8     -2972.973          48.000    26048156.523 7 104885090.337 7     -2278.010          47.000
E26  22492917.781 7 118201090.821 7       387.387          46.000    22492920.242 7  90569677.181 7       296.808          45.000
E33  26530119.766 6 139416698.782 6      2111.691          36.000    26530120.656 5 106825800.989 5      1617.927          32.000
> 2020 05 02 16 10  0.0000000  0 14        .000000000000
G10  21620928.492 8 113618829.065 8      2078.613          51.000    21620930.984 8  88534170.259 8      1619.702          51.000
G16  20672509.352 8 108634779.574 8     -1207.523          48.000    20672509.328 8  84650473.583 8      -940.927          48.000
G20  20970791.750 8 110202308.258 8      -248.988          48.000    20970790.555 6  85871936.228 6      -194.014          38.000
G26  21988636.062 8 115551062.434 8     -2981.641          48.000    21988641.508 8  90039782.134 8     -2323.356          48.000
R06  21760354.914 6 116117450.461 6      3291.566          40.000
R11  20969840.570 8 112056483.045 8     -2935.223          49.000    20969843.344 8  87155045.658 8     -2282.954          48.000
C20  24220306.531 8 126121543.571 8      2634.398          49.000
C29  21768297.578 6 113353227.692 6       702.832          36.000
C30  22975262.094 4 119638235.012 4     -1826.816          29.000
E01  24477552.250 6 128630435.851 6      -786.605          41.000    24477559.672 7  98560973.751 7      -602.804          47.000
E07  27735326.547 6 145750161.024 6      2728.516          39.000    27735338.562 7 111678717.767 7      2090.750          44.000
E21  26065150.484 8 136973254.025 8     -2980.598          48.000    26065153.672 7 104953529.070 7     -2283.787          46.000
E26  22490732.922 7 118189609.020 7       378.984          45.000    22490735.945 7  90560879.452 7       290.418          45.000
E33  26518082.633 6 139353445.952 6      2105.949          37.000
> 2020 05 02 16 10 30.0000000  0 15        .000000000000
G10  21609104.984 8 113556695.562 8      2062.961          51.000    21609107.211 8  88485754.575 8      1607.505          51.000
G16  20679454.562 8 108671277.158 8     -1226.137          48.000    20679454.727 8  84678913.251 8      -955.431          48.000
G20  20972267.117 7 110210062.248 7      -268.348          46.000    20972266.242 6  85877978.314 6      -209.099          36.000
G21  23153292.648 4 121671371.149 4     -2521.914          29.000
G26  22005687.172 8 115640665.113 8     -2992.496          48.000    22005692.805 8  90109602.387 8     -2331.815          48.000
R06  21741889.453 6 116018914.791 6      3276.875          37.000
R11  20986371.922 8 112144820.477 8     -2954.508          49.000    20986375.258 8  87223752.521 8     -2297.951          48.000
C20  24205153.984 8 126042641.445 8      2625.168          49.000
C29  21764266.891 6 113332239.468 6       695.582          38.000
E01  24482083.578 7 128654244.859 7      -801.137          43.000    24482091.391 8  98579217.043 8      -613.954          49.000
E07  27719751.789 6 145668313.667 6      2727.426          40.000    27719763.023 7 111616003.591 7      2089.669          44.000
E13  24761977.383 6 130125059.745 6     -1796.234          36.000
E21  26082181.609 8 137062747.504 8     -2986.207          48.000    26082184.062 7 105022101.912 7     -2288.067          46.000
E26  22488586.188 7 118178330.175 7       372.523          43.000    22488590.625 7  90552237.241 7       285.353          46.000
E33  26506068.719 6 139290311.117 6      2102.426          37.000
> 2020 05 02 16 11  0.0000000  0 14        .000000000000
G10  21597349.367 8 113494917.525 8      2048.859          51.000    21597351.219 8  88437615.862 8      1596.514          51.000
G16  20686485.055 8 108708221.281 8     -1243.258          49.000    20686484.992 8  84707700.869 8      -968.772          49.000
G20  20973831.477 7 110218283.781 7      -286.254          44.000    20973830.953 5  85884384.738 5      -223.052          35.000
G26  22022779.133 8 115730481.146 8     -3001.758          49.000    22022784.305 8  90179588.870 8     -2339.035          49.000
R06  21723487.125 5 115920720.441 5      3263.180          33.000
R11  21002988.688 8 112233620.431 8     -2972.188          48.000    21002993.195 7  87292819.184 7     -2311.698          47.000
C20  24190033.203 8 125963906.353 8      2617.375          50.000
C29  21760256.766 6 113311359.218 6       690.332          38.000
E01  24486676.195 7 128678373.845 7      -813.980          44.000    24486683.852 8  98597705.498 8      -623.723          50.000
E07  27704163.320 6 145586391.864 6      2727.453          40.000    27704173.570 7 111553232.364 7      2089.933          43.000
E13  24772220.703 5 130178864.047 5     -1797.449          34.000
E21  26099221.984 7 137152291.623 7     -2990.012          47.000    26099223.680 7 105090713.562 7     -2291.036          45.000
E26  22486454.891 7 118167131.284 7       367.473          45.000    22486459.742 7  90543656.262 7       281.717          45.000
E33  26494053.258 5 139227171.673 5      2100.141          33.000
> 2020 05 02 16 11 30.0000000  0 15        .000000000000
G10  21585689.875 8 113433644.491 8      2032.719          51.000    21585691.617 8  88389870.677 8      1583.937          51.000
G16  20693628.484 8 108745758.233 8     -1262.492          50.000    20693628.219 8  84736950.440 8      -983.760          49.000
G20  20975512.438 7 110227119.644 7      -306.012          42.000    20975513.219 5  85891269.928 5      -238.445          35.000
G21  23182101.391 6 121822758.903 6     -2525.918          39.000
G26  22039939.383 8 115820655.728 8     -3013.031          50.000    22039943.930 8  90249854.738 8     -2347.817          50.000
R06  21705176.250 5 115823021.769 5      3246.953          32.000
R11  21019719.906 8 112323028.718 8     -2991.691          50.000    21019724.305 7  87362358.939 7     -2326.874          46.000
C20  24174973.398 8 125885486.870 8      2607.406          50.000
C29  21756295.273 6 113290733.582 6       681.773          38.000
E01  24491357.500 7 128702969.851 7      -828.824          44.000    24491364.203 8  98616551.804 8      -635.184          49.000
E07  27688589.461 7 145504545.115 7      2725.723          42.000    27688598.094 7 111490518.666 7      2088.508          43.000
E13  24782484.234 5 130232828.024 5     -1801.227          34.000
E21  26116299.438 7 137242032.141 7     -2995.848          46.000    26116300.523 7 105159475.681 7     -2295.559          44.000
E26  22484367.453 7 118156159.455 7       360.621          46.000    22484371.148 7  90535249.265 7       276.326          44.000
E33                                                                  26482053.484 5 106632258.392 5      1606.289          34.000
> 2020 05 02 16 12  0.0000000  0 16        .000000000000
G10  21574166.859 8 113373089.286 8      2016.285          51.000    21574168.797 8  88342684.849 8      1571.134          51.000
G16  20700924.586 8 108784098.089 8     -1281.750          50.000    20700924.117 8  84766825.627 8      -998.766          50.000
G20  20977350.852 7 110236780.757 7      -326.098          43.000    20977350.930 5  85898798.124 5      -254.102          35.000
G21  23196561.039 6 121898748.436 6     -2528.340          38.000
G26  22057207.375 8 115911397.427 8     -3024.449          50.000    22057211.219 8  90320562.490 8     -2356.717          50.000
R06  21686999.281 6 115726037.159 6      3230.777          36.000
R11  21036605.148 8 112413255.846 8     -3011.301          49.000    21036608.570 7  87432535.513 7     -2342.126          46.000
R21  19777310.328 5 105832375.872 5      -488.695          30.000
C20  24160015.070 8 125807594.277 8      2597.254          50.000
C29  21752423.328 6 113270571.758 6       674.059          37.000
C30  23017618.172 5 119858781.633 5     -1848.797          34.000
E01  24496167.305 7 128728243.290 7      -844.012          44.000    24496173.039 8  98635917.147 8      -646.659          48.000
E07  27673070.664 6 145422986.357 6      2723.516          41.000    27673077.180 7 111428025.648 7      2086.877          43.000
E21  26133454.180 7 137332178.125 7     -3001.863          44.000    26133454.203 7 105228548.484 7     -2300.066          44.000
E26  22482363.242 7 118145625.184 7       353.680          45.000    22482366.297 7  90527177.537 7       270.971          44.000
E33                                                                  26470133.000 5 106584259.549 5      1602.665          32.000
> 2020 05 02 16 12 30.0000000  0 18        .000000000000
G10  21562660.992 8 113312624.257 8      2001.500          51.000    21562663.148 8  88295569.266 8      1559.610          51.000
G16  20708253.508 8 108822610.273 8     -1299.062          51.000    20708252.820 8  84796835.099 8     -1012.256          50.000
G20  20979226.336 7 110246636.684 7      -344.031          42.000    20979225.320 6  85906478.049 6      -268.076          39.000
G21  23210958.523 6 121974417.126 6     -2529.203          39.000
G26  22074462.734 8 116002074.183 8     -3034.059          49.000    22074466.016 8  90391219.636 8     -2364.205          49.000
R06  21668840.000 6 115629132.015 6      3216.230          39.000
R11  21053522.352 7 112503657.587 7     -3028.965          47.000    21053526.016 7  87502847.953 7     -2355.862          47.000
R21  19780037.203 4 105846965.130 4      -498.000          29.000
R22  21447859.445 5 114490064.922 5      2346.844          34.000
C20  24145039.016 8 125729607.052 8      2588.738          50.000
C29  21748520.523 6 113250250.183 6       667.453          38.000
C30  23028244.383 5 119914106.388 5     -1853.160          32.000
E01  24500985.984 7 128753563.947 7      -857.480          43.000    24500990.539 7  98655318.668 7      -656.992          47.000
E07  27657487.047 6 145341087.891 6      2723.078          39.000    27657491.969 7 111365272.369 7      2086.556          43.000
E13  24803086.938 5 130341107.881 5     -1805.949          35.000
E21  26150566.242 6 137422098.125 6     -3006.023          41.000    26150564.875 7 105297448.126 7     -2303.454          43.000
E26  22480321.922 7 118134898.366 7       348.312          45.000    22480325.352 7  90518958.315 7       266.901          45.000
E33  26458158.219 5 139038558.356 5      2089.293          35.000
> 2020 05 02 16 13  0.0000000  0 15        .000000000000
G10  21551304.312 8 113252943.492 8      1974.609          51.000    21551306.180 8  88249064.766 8      1538.657          51.000
G16  20715746.836 8 108861986.002 8     -1328.531          51.000    20715745.914 8  84827517.494 8     -1035.219          51.000
G20  20981270.555 7 110257379.126 7      -374.375          42.000    20981270.258 7  85914848.787 7      -291.721          42.000
G21  23225427.531 6 122050455.903 6     -2542.277          39.000
G26  22091836.750 8 116093375.783 8     -3055.465          49.000    22091839.875 8  90462363.678 8     -2380.885          49.000
R06  21650828.789 6 115533012.819 6      3189.203          39.000
R11  21070602.617 8 112594933.546 8     -3058.645          48.000    21070607.641 7  87573840.358 7     -2378.946          47.000
R21  19782888.570 5 105862199.676 5      -519.062          30.000
C20  24130176.656 8 125652213.349 8      2568.285          50.000
C29  21744718.984 6 113230454.897 6       649.160          38.000
E01  24505945.508 7 128779623.370 7      -882.723          44.000    24505948.266 7  98675286.270 7      -676.366          46.000
E07  27641969.977 6 145259543.889 6      2710.352          36.000    27641974.898 7 111302790.704 7      2076.862          43.000
E21  26167767.773 6 137512482.436 6     -3022.039          39.000    26167764.328 7 105366703.523 7     -2315.690          43.000
E26  22478375.594 7 118124670.774 7       330.969          46.000    22478379.109 7  90511121.600 7       253.564          44.000
E33  26446263.289 6 138976056.075 6      2074.855          36.000
> 2020 05 02 16 13 30.0000000  0 16        .000000000000
G10  21539996.266 8 113193520.346 8      1973.875          51.000    21539998.109 8  88202761.050 8      1538.084          51.000
G16  20723303.508 8 108901696.153 8     -1331.691          51.000    20723302.672 8  84858460.452 8     -1037.682          50.000
G18  23294839.680 5 122415140.562 5     -3093.871          34.000
G20  20983382.812 7 110268479.020 7      -378.156          43.000    20983382.820 6  85923498.092 6      -294.667          41.000
G26  22109228.703 8 116184771.347 8     -3050.586          50.000    22109231.898 8  90533580.962 8     -2377.080          50.000
R05  21771827.336 5 116382861.398 5      -742.078          34.000    21771823.258 4  90520011.885 4      -577.172          24.000
R06  21632865.086 7 115437147.431 7      3188.633          42.000
R11  21087746.133 8 112686542.317 8     -3061.793          49.000    21087751.062 7  87645091.549 7     -2381.398          47.000
C20  24115327.875 8 125574891.839 8      2573.660          51.000
C29  21740917.664 6 113210662.575 6       657.035          37.000
E01  24510944.906 7 128805892.577 7      -881.430          43.000    24510945.992 7  98695414.601 7      -675.558          46.000
E07  27626418.875 5 145177827.806 5      2724.133          35.000    27626425.359 7 111240177.235 7      2087.397          42.000
E13  24823724.023 5 130449557.462 5     -1807.840          33.000
E21  26184957.922 6 137602800.795 6     -3012.105          38.000    26184951.234 7 105435908.381 7     -2307.926          42.000
E26  22476423.570 7 118114413.515 7       339.859          45.000    22476426.750 7  90503262.116 7       260.454          45.000
E33  26434346.320 5 138913441.527 5      2086.871          35.000
> 2020 05 02 16 14  0.0000000  0 17        .000000000000
G10  21528797.227 8 113134670.346 8      1952.383          51.000    21528799.125 8  88156903.943 8      1521.340          51.000
G16  20730982.930 8 108942052.541 8     -1355.770          51.000    20730982.539 8  84889906.950 8     -1056.444          51.000
G18  23312533.234 6 122508128.307 6     -3102.426          38.000
G20  20985622.602 7 110280249.304 7      -403.309          44.000    20985622.344 7  85932669.695 7      -314.269          42.000
G21  23254338.352 6 122202363.839 6     -2536.656          38.000
G26  22126697.906 8 116276572.157 8     -3066.527          50.000    22126701.203 8  90605114.019 8     -2389.502          50.000
G27  20695589.000 4 108756053.987 4      1320.898          27.000
R05  21776078.359 5 116405599.603 5      -774.348          31.000    21776100.492 4  90537737.603 4      -602.270          29.000
R06  21615009.070 6 115341858.893 6      3166.906          41.000
R11  21105010.938 8 112778798.670 8     -3085.668          48.000    21105015.141 7  87716846.385 7     -2399.967          46.000
C20  24100552.953 8 125497955.551 8      2558.363          51.000
C29  21737176.508 5 113191184.233 5       644.617          35.000
E01  24516042.984 7 128832684.613 7      -901.367          42.000    24516043.992 7  98715943.513 7      -690.640          47.000
E07  27610895.211 6 145096255.430 6      2716.734          37.000    27610902.953 6 111177673.804 6      2081.872          41.000
E21  26202194.008 5 137693364.947 5     -3022.762          33.000    26202184.461 6 105505301.568 6     -2315.939          40.000
E26  22474525.344 7 118104439.714 7       328.098          45.000    22474528.609 7  90495619.849 7       251.420          45.000
E33  26422467.789 5 138851012.316 5      2077.516          32.000
> 2020 05 02 16 14 30.0000000  0 18        .000000000000
G10  21517681.680 8 113076258.425 8      1944.012          51.000    21517683.523 8  88111388.166 8      1514.814          51.000
G16  20738759.141 8 108982917.683 8     -1366.398          51.000    20738759.109 8  84921749.892 8     -1064.726          51.000
G18  23330237.117 6 122601163.080 6     -3097.699          37.000
G20  20987964.117 7 110292552.515 7      -414.535          43.000    20987964.094 7  85942256.581 7      -323.014          43.000
G21  23268809.570 5 122278411.308 5     -2531.074          35.000
G26  22144217.664 8 116368638.790 8     -3068.840          49.000    22144221.117 8  90676854.195 8     -2391.307          49.000
R05  21780494.227 5 116429148.541 5      -793.762          33.000
R06  21597235.234 6 115247012.126 6      3158.457          39.000
R11  21122369.859 8 112871559.041 8     -3096.062          50.000    21122373.734 7  87788993.288 7     -2408.049          45.000
R21  19791618.500 4 105908961.808 4      -530.781          29.000
C20  24085825.977 8 125421271.055 8      2556.207          51.000
C29  21733469.398 6 113171884.545 6       644.305          36.000
C30  23071170.898 4 120137671.863 4     -1867.973          29.000
E01  24521214.172 7 128859861.814 7      -908.070          42.000    24521215.867 7  98736767.612 7      -695.734          47.000
E07  27595373.852 6 145014691.642 6      2722.902          41.000    27595381.070 6 111115176.947 6      2086.589          38.000
E13  24844458.117 5 130558425.634 5     -1810.957          32.000
E21                                                                  26219437.516 6 105574776.721 6     -2313.927          39.000
E26  22472655.117 7 118094612.017 7       329.422          45.000    22472658.891 7  90488089.515 7       252.513          46.000
> 2020 05 02 16 15  0.0000000  0 16        .000000000000
G10  21506663.883 8 113018361.457 8      1916.664          51.000    21506666.266 8  88066273.675 8      1493.504          51.000
G16  20746646.219 8 109024365.464 8     -1395.902          51.000    20746646.289 8  84954046.844 8     -1087.716          50.000
G18  23347964.266 5 122694318.219 5     -3111.734          33.000
G20  20990420.977 7 110305462.952 7      -445.215          44.000    20990421.172 7  85952316.681 7      -346.921          43.000
G26  22161801.680 8 116461043.977 8     -3090.402          48.000    22161805.312 8  90748858.193 8     -2408.109          48.000
R06  21579559.375 6 115152687.953 6      3130.621          38.000
R11  21139836.656 8 112964895.653 8     -3125.414          50.000    21139840.031 7  87861588.388 7     -2430.881          44.000
R21  19794656.523 5 105925229.185 5      -552.348          32.000
C20  24071162.492 8 125344915.110 8      2535.098          51.000
C29  21729811.508 5 113152838.098 5       626.305          34.000
C30  23081988.336 6 120193962.392 6     -1883.922          36.000
E01  24526473.109 7 128887498.774 7      -933.477          43.000    24526475.109 7  98757943.974 7      -715.258          47.000
E07  27579869.914 7 144933213.595 7      2709.965          44.000    27579873.297 5 111052745.789 5      2076.404          35.000
E13  24854841.703 5 130613065.740 5     -1824.473          31.000
E21  26236729.055 5 137874950.714 5     -3036.102          34.000    26236725.320 6 105644389.969 6     -2326.325          38.000
E26  22470827.367 7 118085005.056 7       311.887          46.000    22470831.477 7  90480728.360 7       239.104          45.000
> 2020 05 02 16 15 30.0000000  0 17        .000000000000
G10  21495744.242 8 112960980.441 8      1904.316          51.000    21495747.125 8  88021561.226 8      1483.883          51.000
G16  20754643.781 8 109066393.729 8     -1410.254          51.000    20754643.758 8  84986796.140 8     -1098.899          50.000
G20  20992993.188 7 110318978.985 7      -460.406          45.000    20992992.664 7  85962848.613 7      -358.761          43.000
G21  23297804.172 5 122430781.171 5     -2541.598          35.000
G26  22179449.344 8 116553784.379 8     -3096.465          48.000    22179453.234 8  90821123.407 8     -2412.833          48.000
R05  21789768.258 5 116478770.750 5      -853.402          34.000    21789774.547 4  90594647.001 4      -663.757          26.000
R06  21561981.844 6 115058889.302 6      3117.969          39.000
R11  21157410.672 8 113058803.458 8     -3139.430          51.000    21157412.203 7  87934627.733 7     -2441.782          42.000
R21  19797757.602 5 105941828.381 5      -558.652          34.000    19797762.289 4  82399174.782 4      -434.510          27.000
C20  24056562.664 8 125268889.170 8      2529.012          51.000
C29  21726202.227 6 113134044.434 6       622.297          37.000
C30  23092839.250 5 120250442.733 5     -1885.852          33.000
E01  24531819.508 7 128915593.957 7      -943.809          45.000    24531821.641 8  98779471.438 8      -723.169          48.000
E07  27564382.992 7 144851822.422 7      2711.766          45.000    27564379.828 5 110990381.195 5      2077.793          33.000
E21  26254048.906 6 137965979.632 6     -3037.117          39.000    26254047.766 6 105714139.242 6     -2326.995          38.000
E26  22469041.242 7 118075617.556 7       309.527          45.000    22469045.266 7  90473535.342 7       237.158          45.000
E33  26386972.289 5 138664472.634 5      2067.062          34.000    26386972.000 5 106249399.196 5      1583.757          32.000
> 2020 05 02 16 16  0.0000000  0 16        .000000000000
G10  21484908.680 8 112904039.925 8      1887.449          51.000    21484911.914 8  87977192.019 8      1470.743          51.000
G16  20762736.859 8 109108924.261 8     -1429.297          50.000    20762736.602 8  85019936.791 8     -1113.738          49.000
G20  20995665.898 7 110333022.972 7      -480.254          45.000    20995665.414 7  85973791.984 7      -374.224          43.000
G21  23312312.047 5 122507013.700 5     -2544.938          31.000
G26  22197145.781 8 116646780.417 8     -3107.367          49.000    22197149.609 8  90893587.824 8     -2421.325          49.000
R06  21544488.070 5 114965542.653 5      3100.371          34.000
R11  21175075.648 8 113153199.745 8     -3157.883          51.000    21175075.773 6  88008046.966 6     -2456.134          41.000
R21  19800905.750 4 105958680.215 4      -568.461          27.000    19800911.383 4  82412303.763 4      -442.136          27.000
C20  24042011.820 8 125193118.956 8      2518.195          51.000
C29  21722627.445 6 113115427.253 6       614.270          39.000
C30  23103700.055 5 120307040.755 5     -1891.758          32.000
E01  24537238.328 7 128944069.426 7      -958.633          45.000    24537240.852 8  98801290.288 8      -734.567          48.000
E07  27548898.141 7 144770442.774 7      2709.191          46.000    27548890.977 5 110928025.433 5      2075.817          34.000
E21  26271390.438 6 138057106.945 6     -3042.508          39.000    26271390.422 6 105783963.925 6     -2331.335          39.000
E26  22467281.547 7 118066371.837 7       302.676          44.000    22467285.156 7  90466450.964 7       231.780          44.000
E33  26375174.805 5 138602479.319 5      2062.742          31.000    26375169.984 5 106201884.882 5      1580.435          32.000
> 2020 05 02 16 16 30.0000000  0 17        .000000000000
G10  21474206.227 8 112847796.923 8      1869.027          51.000    21474209.133 8  87933366.300 8      1456.385          51.000
G16  20770974.133 8 109152211.271 8     -1449.598          51.000    20770973.242 8  85053666.913 8     -1129.557          48.000
G20  20998487.305 7 110347849.357 7      -501.270          46.000    20998486.859 6  85985344.981 6      -390.603          40.000
G26  22214939.336 8 116740284.749 8     -3119.207          51.000    22214942.688 8  90966448.310 8     -2430.554          51.000
G27  20658602.789 6 108561695.201 6      1266.246          36.000    20658597.969 5  84593506.071 5       986.685          34.000
R06  21527125.203 5 114872910.906 5      3081.426          32.000
R11  21192879.789 8 113248339.813 8     -3177.621          51.000    21192880.523 7  88082044.741 7     -2471.486          43.000
R21  19804158.227 5 105976020.934 5      -581.637          31.000    19804163.352 5  82425828.238 5      -452.384          30.000
R22  21343586.766 4 113933495.874 4      2290.066          29.000
C20  24027558.641 8 125117859.557 8      2505.953          51.000
C29  21719134.945 6 113097239.631 6       605.211          40.000
