     3.02           OBSERVATION DATA    M (MIXED)           RINEX VERSION / TYPE
SAVERINEX           SC600               20200502 085930 LCL PGM / RUN BY / DATE
       G = GPS       R = GLONASS       C = COMPASS          COMMENT
       S = SBAS      J = QZSS          E = GALILEO          COMMENT
BEAN                                                        MARKER NAME
1                                                           MARKER NUMBER
GEODETIC                                                    MARKER TYPE
Unige DICCA         GTER                                    OBSERVER / AGENCY
SC60291900056       SC600               2.12(191226)        REC # / TYPE / VERS
                    HEMA45          NONE                    ANT # / TYPE
  4509407.8091   693652.4678  4442337.6214                  APPROX POSITION XYZ
        0.0000        0.0000        0.0000                  ANTENNA: DELTA H/E/N
G    8 C1C L1C D1C S1C C2Y L2Y D2Y S2Y                      SYS / # / OBS TYPES
R    8 C1C L1C D1C S1C C2P L2P D2P S2P                      SYS / # / OBS TYPES
C    8 C1I L1I D1I S1I C7I L7I D7I S7I                      SYS / # / OBS TYPES
E    8 C1C L1C D1C S1C C7Q L7Q D7Q S7Q                      SYS / # / OBS TYPES
DBHZ                                                        COMMENT
     30.000                                                 INTERVAL
  2020    05    02    06    00    0.0000000     GPS         TIME OF FIRST OBS
  2020    05    02    06    59   30.0000000     GPS         TIME OF LAST OBS
     0                                                      RCV CLOCK OFFS APPL
G L1C  0.00000                                              SYS / PHASE SHIFT
G L2Y  0.00000                                              SYS / PHASE SHIFT
R L1C  0.00000                                              SYS / PHASE SHIFT
R L2P  0.25000                                              SYS / PHASE SHIFT
C L1I  0.00000                                              SYS / PHASE SHIFT
C L7I  0.00000                                              SYS / PHASE SHIFT
E L1C  0.50000                                              SYS / PHASE SHIFT
E L7Q -0.25000                                              SYS / PHASE SHIFT
 13 R01  1 R02 -4 R03  5 R04  6 R05  1 R10 -5 R12 -1 R13 -2 GLONASS SLOT / FRQ #
    R14 -7 R15  0 R17  4 R18 -3 R23  3                      GLONASS SLOT / FRQ #
 C1C   71.950 C2C   71.950 C2P   71.950                     GLONASS COD/PHS/BIS
    18                                                      LEAP SECONDS
*** Above antenna height is from mark to ANTENNA BOTTOM.    COMMENT
    17     4        0.0000        ANT MEASURE TYPE/HEIGT    COMMENT
    0.0000    0.0000    0.0458    0.0405    0.0000          COMMENT
                    BASE STATION                            COMMENT
                                                            END OF HEADER
> 2020 05 02 06 00  0.0000000  0 15        .000000000000
G13  20272322.812 8 106531762.208 8      -806.848          51.000    20272322.047 8  83011763.951 8      -628.712          51.000
G15  20428942.727 6 107354811.996 6       829.738          41.000    20428941.750 6  83653105.757 6       646.552          41.000
G19  24578933.477 7 129163174.761 7      3428.297          45.000    24578934.367 7 100646595.258 7      2671.400          45.000
G28  21466359.602 7 112806477.952 7     -1809.242          43.000    21466358.062 6  87901148.620 6     -1409.802          38.000
R03  21868843.586 7 117065595.699 7     -4086.039          44.000    21868845.672 4  91051047.979 4     -3178.036          24.000
R04  19326768.781 8 103493977.325 8      -837.961          51.000    19326769.992 7  80495300.654 7      -651.750          45.000
R14  19306746.164 7 102915854.515 7      -449.914          46.000    19306749.695 7  80045686.073 7      -349.933          43.000
R15  21300804.352 7 113825057.996 7      2787.789          47.000    21300809.016 7  88530607.793 7      2168.280          44.000
C05  39766778.656 6 207076051.461 6        18.156          36.000    39766778.383 6 160124312.287 6        14.230          39.000
C23  22150510.672 8 115343593.291 8       898.797          51.000
C25  22701526.031 7 118212853.427 7     -1750.910          45.000
E02  23236127.984 8 122106654.769 8      -330.660          51.000    23236128.312 8  93562316.121 8      -253.381          51.000
E03  26041635.734 8 136849670.234 8     -2703.297          49.000    26041634.656 8 104858856.202 8     -2071.420          49.000
E08  21523236.195 8 113105362.451 8      -538.395          51.000    21523236.984 8  86665152.313 8      -412.524          51.000
E30  23737002.320 8 124738774.749 8      2151.758          51.000    23737003.383 8  95579053.781 8      1648.797          51.000
> 2020 05 02 06 00 30.0000000  0 17        .000000000000
G13  20276955.477 8 106556106.404 8      -826.090          51.000    20276954.453 8  83030733.448 8      -643.706          51.000
G15  20424236.320 6 107330080.434 6       809.039          39.000    20424235.656 6  83633834.378 6       630.420          39.000
G17  23444663.148 5 123202527.462 5      2300.137          32.000    23444663.672 5  96001969.745 5      1792.314          33.000
G19  24559349.805 7 129060262.789 7      3422.438          43.000    24559351.562 7 100566404.161 7      2666.837          43.000
G28  21476709.898 6 112860869.919 6     -1827.086          40.000    21476708.141 6  87943532.017 6     -1423.700          38.000
G30  23483807.859 5 123408240.300 5     -2827.719          33.000    23483799.484 5  96162257.487 5     -2203.423          33.000
R03  21891758.258 7 117188254.763 7     -4101.305          46.000    21891755.258 5  91146412.156 5     -3189.907          33.000
R04  19331519.148 8 103519416.675 8      -868.203          50.000    19331520.367 7  80515086.805 7      -675.269          46.000
R14  19309308.078 7 102929510.904 7      -470.656          45.000    19309311.594 7  80056307.730 7      -366.063          43.000
R15  21285171.055 7 113741517.025 7      2771.410          47.000    21285176.023 7  88465631.510 7      2155.541          43.000
C05  39766655.539 6 207075410.638 6        14.156          36.000    39766655.336 6 160123816.760 6        11.098          40.000
C23  22145344.477 8 115316690.946 8       884.863          51.000
C25  22711614.758 7 118265388.300 7     -1761.387          45.000
E02  23238029.695 8 122116647.968 8      -345.578          51.000    23238030.125 8  93569973.244 8      -264.794          51.000
E03  26057069.250 7 136930774.127 7     -2713.508          46.000    26057069.695 8 104921000.670 8     -2079.274          50.000
E08  21526328.047 8 113121611.434 8      -554.883          51.000    21526328.906 8  86677602.832 8      -425.221          51.000
E30  23724723.930 8 124674254.389 8      2139.508          51.000    23724725.008 8  95529616.118 8      1639.351          51.000
> 2020 05 02 06 01  0.0000000  0 17        .000000000000
G13  20281696.945 8 106581022.539 8      -831.438          51.000    20281695.781 8  83050148.596 8      -647.873          50.000
G15  20419647.875 6 107305968.320 6       802.102          40.000    20419647.484 6  83615045.729 6       625.017          41.000
G17  23431543.148 5 123133592.776 5      2298.938          31.000    23431541.914 5  95948254.479 5      1791.380          30.000
G19  24539798.375 7 128957520.423 7      3430.465          43.000    24539800.727 7 100486345.178 7      2673.089          43.000
G24  22663566.641 5 119097847.796 5      2749.559          34.000    22663562.398 5  92803517.249 5      2142.513          34.000
G28  21487160.023 7 112915786.356 7     -1830.703          44.000    21487158.844 6  87986324.004 6     -1426.522          38.000
R03  21914756.117 8 117311360.025 8     -4102.180          48.000    21914758.133 6  91242160.668 6     -3190.584          39.000
R04  19336438.234 8 103545759.516 8      -884.352          50.000    19336439.812 7  80535575.663 7      -687.829          46.000
R14  19311986.117 7 102943783.309 7      -477.305          46.000    19311989.266 7  80067408.487 7      -371.237          43.000
R15  21269628.484 8 113658461.075 8      2769.227          48.000    21269632.812 6  88401032.442 6      2153.846          41.000
C05  39766554.203 6 207074882.835 6        24.273          36.000    39766553.969 6 160123408.641 6        18.718          40.000
C23  22140257.039 8 115290197.465 8       884.820          51.000
C25  22721763.000 7 118318233.778 7     -1758.176          44.000
E02  23240014.180 8 122127076.522 8      -346.227          51.000    23240014.766 8  93577963.958 8      -265.326          51.000
E03  26072559.062 6 137012170.983 6     -2709.438          41.000    26072559.664 8 104983369.611 8     -2076.080          49.000
E08  21529512.289 8 113138345.391 8      -557.270          51.000    21529513.258 8  86690424.958 8      -426.984          51.000
E30  23712513.484 8 124610092.037 8      2141.383          51.000    23712514.508 8  95480452.764 8      1640.788          51.000
> 2020 05 02 06 01 30.0000000  0 17        .000000000000
G13  20286505.258 8 106606289.865 8      -850.988          51.000    20286503.867 8  83069837.402 8      -663.111          50.000
G15  20415135.492 6 107282255.757 6       780.711          41.000    20415135.000 6  83596568.404 6       608.346          40.000
G19  24520237.055 6 128854729.212 6      3424.109          40.000    24520240.109 6 100406248.113 6      2668.134          40.000
G24  22647906.539 5 119015536.733 5      2739.129          33.000    22647899.617 5  92739373.488 5      2134.380          32.000
G28  21497667.625 6 112971004.029 6     -1848.297          40.000    21497667.484 6  88029350.760 6     -1440.228          38.000
R03  21937795.000 8 117434682.784 8     -4117.219          49.000    21937797.258 7  91338078.348 7     -3202.281          42.000
R04  19341484.062 8 103572780.431 8      -914.863          49.000    19341485.945 7  80556591.921 7      -711.560          47.000
R14  19314736.664 7 102958445.649 7      -498.145          45.000    19314740.156 7  80078812.547 7      -387.446          43.000
R15  21254134.984 7 113575665.847 7      2752.539          47.000    21254136.750 6  88336636.211 6      2140.867          39.000
C05  39766432.383 6 207074247.981 6        20.477          36.000    39766432.234 6 160122918.523 6        15.532          39.000
C23  22135206.102 8 115263893.493 8       870.891          51.000
C25  22731928.711 7 118371169.646 7     -1768.836          43.000
E02  23242039.281 8 122137718.479 8      -361.090          51.000    23242039.812 8  93586118.179 8      -276.694          51.000
E03                                                                  26088062.812 8 105045792.834 8     -2083.767          49.000
E08  21532746.656 8 113155343.519 8      -573.801          51.000    21532747.891 8  86703449.485 8      -439.683          51.000
E25  26253994.094 5 137965677.429 5     -2491.832          33.000
E30  23700329.398 8 124546067.090 8      2129.023          51.000    23700330.055 8  95431394.702 8      1631.369          50.000
> 2020 05 02 06 02  0.0000000  0 15        .000000000000
G13  20291448.359 8 106632265.667 8      -867.312          51.000    20291446.586 8  83090078.263 8      -675.828          49.000
G15  20410767.039 6 107259301.021 6       762.645          40.000    20410766.758 6  83578681.584 6       594.265          40.000
G19  24500734.883 6 128752249.536 6      3421.328          38.000    24500738.156 6 100326393.856 6      2665.973          38.000
G28  21508299.688 7 113026877.675 7     -1862.609          42.000    21508298.852 5  88072888.684 5     -1451.387          34.000
R03  21960941.500 8 117558583.359 8     -4129.098          49.000    21960943.461 7  91434445.456 7     -3211.520          43.000
R04  19346724.391 8 103600842.595 8      -942.109          49.000    19346726.289 7  80578418.036 7      -732.752          47.000
R14  19317628.109 7 102973858.294 7      -515.730          46.000    19317631.664 7  80090800.140 7      -401.124          44.000
R15  21238757.930 7 113493495.258 7      2739.117          46.000    21238758.156 6  88272725.819 6      2130.424          41.000
C05  39766358.289 6 207073862.804 6        19.016          36.000    39766358.031 6 160122619.889 6        14.556          39.000
C23  22130259.234 8 115238132.586 8       859.910          51.000
C25  22742179.461 6 118424548.533 6     -1776.387          41.000
E02  23244172.773 8 122148929.879 8      -372.832          51.000    23244173.219 8  93594708.719 8      -285.659          51.000
E03  26103637.695 6 137175536.770 6     -2726.578          38.000    26103647.023 8 105108543.107 8     -2089.154          48.000
E08  21536099.273 8 113172962.914 8      -587.305          51.000    21536100.422 8  86716950.057 8      -449.986          51.000
E30  23688239.883 8 124482536.959 8      2119.871          51.000    23688240.812 8  95382715.767 8      1624.278          51.000
> 2020 05 02 06 02 30.0000000  0 16        .000000000000
G13  20296436.062 8 106658476.481 8      -885.711          51.000    20296433.828 8  83110502.252 8      -690.164          48.000
G15  20406452.945 6 107236631.780 6       742.500          40.000    20406453.406 6  83561017.219 6       578.571          41.000
G19  24481203.531 7 128649611.101 7      3416.004          43.000    24481205.867 6 100246415.896 6      2661.821          41.000
G28  21518966.266 7 113082931.550 7     -1879.453          43.000    21518963.828 4  88116566.944 4     -1464.515          29.000
G30  23548434.617 5 123747864.839 5     -2839.125          33.000    23548427.836 5  96426888.866 5     -2212.305          33.000
R03  21984104.703 7 117682575.742 7     -4142.754          47.000    21984107.484 7  91530883.964 7     -3222.142          43.000
R04  19352069.242 8 103629462.963 8      -971.508          50.000    19352070.898 7  80600678.306 7      -755.617          47.000
R14  19320569.422 7 102989539.118 7      -535.441          45.000    19320573.812 7  80102996.330 7      -416.454          43.000
R15  21223406.641 7 113411468.416 7      2723.625          44.000    21223409.133 7  88208927.150 7      2118.375          44.000
C05  39766241.539 6 207073255.004 6        16.508          36.000    39766241.312 6 160122149.911 6        12.273          39.000
C23  22125326.016 8 115212445.229 8       847.051          51.000
C25  22752424.484 6 118477900.107 6     -1785.820          40.000
E02  23246324.312 8 122160236.293 8      -386.574          51.000    23246324.906 8  93603372.065 8      -296.188          51.000
E03  26119216.922 7 137257383.475 7     -2735.496          46.000    26119221.852 7 105171256.796 7     -2096.026          46.000
E08  21539480.273 8 113190730.251 8      -602.801          51.000    21539480.891 8  86730563.998 8      -461.922          51.000
E30  23676154.695 8 124419028.624 8      2108.480          51.000    23676156.695 8  95334053.542 8      1615.538          51.000
> 2020 05 02 06 03  0.0000000  0 17        .000000000000
G05  24416274.344 5 128308376.109 5     -3636.770          34.000    24416277.344 5  99980567.776 5     -2833.846          34.000
G13  20301509.125 8 106685135.933 8      -896.816          51.000    20301506.812 8  83131275.826 8      -698.818          49.000
G15  20402234.375 7 107214462.436 7       730.027          44.000    20402234.594 7  83543742.401 7       568.856          44.000
G19  24461683.914 7 128547030.635 7      3417.555          45.000    24461685.234 6 100166483.106 6      2663.033          41.000
G28  21529707.430 6 113139377.118 6     -1888.883          37.000    21529705.484 5  88160550.499 5     -1471.848          35.000
G30  23564620.984 5 123832918.271 5     -2837.145          30.000    23564618.461 5  96493177.744 5     -2210.768          31.000
R03  22007324.852 7 117806873.849 7     -4148.930          45.000    22007328.648 7  91627560.269 7     -3226.942          42.000
R04  19357558.812 8 103658858.398 8      -993.371          50.000    19357560.203 8  80623541.440 8      -772.622          48.000
R14  19323601.477 7 103005703.123 7      -547.453          45.000    19323606.164 7  80115568.348 7      -425.800          42.000
R15  21208124.266 7 113329803.296 7      2715.457          44.000    21208128.133 7  88145409.845 7      2112.025          44.000
C05  39766122.852 6 207072637.117 6        20.012          36.000    39766122.570 6 160121672.082 6        15.653          39.000
C23  22120447.594 8 115187042.535 8       841.352          51.000
C25  22762705.414 6 118531434.724 6     -1788.273          39.000
E02  23248534.344 8 122171850.160 8      -392.824          51.000    23248535.219 8  93612270.996 8      -301.031          51.000
E03  26134825.727 8 137339394.764 8     -2736.953          48.000    26134827.242 7 105234096.555 7     -2097.182          44.000
E08  21542930.242 8 113208859.048 8      -610.891          51.000    21542930.531 8  86744454.895 8      -468.124          51.000
E30  23664114.453 8 124355755.834 8      2104.609          51.000    23664117.195 8  95285571.810 8      1612.602          51.000
> 2020 05 02 06 03 30.0000000  0 16        .000000000000
G13  20306668.023 8 106712246.922 8      -912.805          51.000    20306666.062 8  83152401.247 8      -711.276          49.000
G15  20398111.766 7 107192797.012 7       712.270          44.000    20398111.172 7  83526860.273 7       555.015          44.000
G19  24442176.531 7 128444514.064 7      3414.492          46.000    24442177.195 6 100086600.161 6      2660.646          41.000
G28  21540523.305 6 113196215.143 6     -1902.559          39.000    21540522.359 5  88204839.851 5     -1482.516          31.000
R03  22030601.391 6 117931477.492 6     -4160.062          39.000    22030606.297 6  91724474.282 6     -3235.601          38.000
R04  19363193.750 8 103689031.645 8     -1020.344          51.000    19363195.250 8  80647009.501 8      -793.601          48.000
R14  19326724.492 7 103022351.194 7      -564.551          45.000    19326728.922 7  80128516.819 7      -439.092          42.000
R15  21192910.602 7 113248503.589 7      2702.383          44.000    21192913.445 6  88082176.786 6      2101.853          40.000
C05  39766002.852 6 207072012.106 6        19.582          36.000    39766002.539 6 160121188.827 6        14.764          39.000
C23  22115624.492 8 115161927.334 8       830.812          51.000
C25  22773022.422 6 118585154.414 6     -1795.539          40.000
E02  23250803.375 8 122183773.654 8      -404.273          51.000    23250804.258 8  93621407.176 8      -309.741          51.000
E03  26150464.555 8 137421572.732 8     -2743.699          50.000    26150462.805 7 105297064.011 7     -2102.324          42.000
E08  21546449.734 8 113227352.562 8      -624.168          51.000    21546450.086 8  86758625.222 8      -478.220          51.000
E25  26311086.688 5 138265684.463 5     -2505.590          33.000
E30  23652119.750 8 124292722.197 8      2095.531          51.000    23652122.156 8  95237273.340 8      1605.574          50.000
> 2020 05 02 06 04  0.0000000  0 18        .000000000000
G05  24457808.344 5 128526654.281 5     -3640.680          33.000    24457810.711 5 100150637.221 5     -2836.887          33.000
G13  20311931.500 8 106739907.430 8      -930.637          51.000    20311929.922 8  83173954.885 8      -725.171          50.000
G15  20394103.938 7 107171734.912 7       692.621          44.000    20394103.273 7  83510448.249 7       539.705          44.000
G19  24422700.664 7 128342162.926 7      3409.496          46.000    24422700.391 6 100006846.044 6      2656.750          41.000
G24  22570182.484 5 118607111.697 5      2705.562          32.000    22570183.766 5  92421160.648 5      2108.227          32.000
G28  21551432.414 6 113253541.819 6     -1918.406          40.000    21551431.266 5  88249509.839 5     -1494.865          34.000
G30  23597067.469 5 124003425.879 5     -2847.020          33.000
R03  22053952.031 6 118056482.911 6     -4172.828          37.000    22053959.609 6  91821700.858 6     -3245.524          36.000
R04  19368992.766 8 103720081.510 8     -1048.977          51.000    19368993.930 8  80671159.402 8      -815.871          48.000
R14  19329956.961 7 103039580.993 7      -583.352          44.000    19329960.898 6  80141917.803 6      -453.715          40.000
R15  21177783.500 7 113167669.693 7      2687.535          43.000    21177784.250 6  88019305.954 6      2090.302          38.000
C05  39765899.906 5 207071476.902 5        16.641          35.000    39765899.695 6 160120774.946 6        13.016          39.000
C23  22110875.055 8 115137196.244 8       818.504          51.000
C25  22783393.125 6 118639154.905 6     -1804.191          39.000
E02  23253149.828 8 122196103.619 8      -417.082          51.000    23253150.422 8  93630854.802 8      -319.567          51.000
E03  26166153.250 8 137504014.011 8     -2751.738          51.000    26166148.664 6 105360233.199 6     -2108.385          41.000
E08  21550057.188 8 113246308.740 8      -638.945          51.000    21550057.500 8  86773150.056 8      -489.555          51.000
E30  23640189.023 8 124230025.918 8      2084.910          51.000    23640190.109 8  95189233.346 8      1597.585          49.000
> 2020 05 02 06 04 30.0000000  0 17        .000000000000
G05  24478564.797 5 128635722.217 5     -3636.848          30.000    24478568.508 4 100235661.618 4     -2833.922          27.000
G13  20317263.328 8 106767927.069 8      -942.461          51.000    20317262.047 8  83195788.364 8      -734.388          50.000
G15  20390174.930 7 107151086.805 7       678.969          45.000    20390174.312 7  83494358.817 7       529.067          44.000
G19  24403220.086 7 128239789.573 7      3410.418          45.000    24403219.273 6  99927074.586 6      2657.469          40.000
G28  21562397.656 5 113311164.161 5     -1927.789          35.000    21562396.953 5  88294410.317 5     -1502.176          34.000
G30  23613304.219 5 124088759.244 5     -2847.207          33.000    23613293.102 5  96692488.075 5     -2218.606          31.000
R03  22077341.078 6 118181692.672 6     -4179.332          39.000    22077351.414 6  91919086.372 6     -3250.589          36.000
R04  19374918.812 8 103751813.439 8     -1071.480          51.000    19374920.008 8  80695839.793 8      -833.377          48.000
R14  19333261.891 7 103057197.798 7      -595.973          44.000    19333265.703 6  80155619.754 6      -463.534          41.000
R15  21162707.570 7 113087108.846 7      2678.215          43.000    21162707.586 6  87956647.454 6      2083.056          38.000
C05  39765778.180 6 207070841.799 6        20.414          36.000    39765777.898 6 160120284.636 6        15.828          39.000
C23  22106163.055 8 115112660.402 8       812.258          51.000
C25  22793780.898 6 118693246.589 6     -1807.059          40.000
E02  23255537.055 8 122208648.811 8      -424.070          51.000    23255537.758 8  93640467.333 8      -324.940          51.000
E03  26181855.516 8 137586527.248 8     -2753.938          51.000    26181851.234 7 105423457.559 7     -2110.265          44.000
E08  21553716.422 8 113265537.323 8      -647.785          51.000    21553716.156 8  86787883.640 8      -496.394          51.000
E30  23628286.227 8 124167477.127 8      2080.176          50.000    23628286.562 8  95141306.370 8      1593.886          50.000
> 2020 05 02 06 05  0.0000000  0 17        .000000000000
G13  20322720.000 8 106796602.922 8      -963.344          51.000    20322718.828 8  83218133.173 8      -750.657          50.000
G15  20386381.312 7 107131150.784 7       656.133          46.000    20386380.805 7  83478824.257 7       511.272          46.000
G17  23328774.930 5 122593564.586 5      2201.137          31.000    23328788.977 5  95527451.708 5      1715.175          31.000
G19  24383792.422 7 128137694.525 7      3401.953          47.000    24383790.906 6  99847520.001 6      2650.873          41.000
G28  21573474.969 6 113369376.716 6     -1946.559          39.000    21573473.664 5  88339770.739 5     -1516.799          33.000
G30  23629600.617 5 124174376.776 5     -2855.664          33.000    23629577.414 5  96759184.403 5     -2225.178          33.000
R03  22100825.539 6 118307405.884 6     -4195.184          41.000    22100834.852 6  92016863.383 6     -3262.921          38.000
R04  19381028.414 8 103784529.346 8     -1103.352          51.000    19381029.906 7  80721285.458 7      -858.162          47.000
R14  19336695.445 7 103075500.813 7      -618.012          43.000    19336699.281 6  80169855.455 6      -480.676          41.000
R15  21147739.766 7 113007123.455 7      2660.227          44.000    21147739.477 6  87894436.633 6      2069.065          37.000
C05  39765693.977 6 207070403.023 6        14.715          36.000    39765693.797 6 160119945.326 6        11.427          39.000
C23  22101544.867 8 115088613.668 8       796.906          51.000
C25  22804242.086 6 118747722.406 6     -1818.824          39.000
E02  23258021.516 8 122221705.110 8      -440.242          51.000    23258022.680 8  93650471.507 8      -337.301          51.000
E03  26197627.008 8 137669408.228 8     -2765.305          50.000    26197626.109 7 105486963.701 7     -2118.897          47.000
E08  21557484.008 8 113285335.338 8      -665.934          51.000    21557483.469 8  86803053.536 8      -510.255          51.000
E30  23616468.062 8 124105373.090 8      2066.207          51.000    23616468.086 8  95093720.152 8      1583.195          50.000
> 2020 05 02 06 05 30.0000000  0 16        .000000000000
G13  20328224.875 8 106825531.687 8      -972.059          51.000    20328223.758 8  83240675.066 8      -757.451          50.000
G15  20382646.508 7 107111524.250 7       645.543          46.000    20382646.102 7  83463530.842 7       503.020          46.000
G19  24364341.641 8 128035477.658 8      3405.648          48.000    24364339.391 6  99767870.488 6      2653.752          40.000
G24  22523965.586 5 118364224.958 5      2691.242          35.000
G28  21584587.625 6 113427774.190 6     -1953.512          39.000    21584586.484 6  88385275.149 6     -1522.220          37.000
R03  22124327.398 6 118433208.004 6     -4198.453          39.000    22124334.852 6  92114709.475 6     -3265.464          40.000
R04  19387244.656 8 103817817.153 8     -1122.691          51.000    19387246.195 7  80747175.966 7      -873.204          46.000
R14  19340181.156 7 103094079.063 7      -627.566          43.000    19340183.820 6  80184305.199 6      -488.107          40.000
R15  21132802.367 7 112927304.189 7      2654.383          43.000    21132802.406 6  87832355.039 6      2064.520          37.000
C05  39765570.531 6 207069759.713 6        21.301          36.000    39765570.289 6 160119447.889 6        16.589          40.000
C23  22096943.812 8 115064656.002 8       793.559          51.000
C25  22814699.656 6 118802181.680 6     -1818.570          39.000
E02  23260526.414 8 122234868.186 8      -444.176          51.000    23260527.641 8  93660557.493 8      -340.325          51.000
E03  26213391.445 8 137752252.538 8     -2764.395          51.000    26213394.086 8 105550441.776 8     -2118.175          49.000
E08  21561283.156 8 113305299.485 8      -671.848          51.000    21561282.992 8  86818350.711 8      -514.783          51.000
E30  23604657.914 8 124043310.757 8      2064.445          51.000    23604658.625 8  95046165.924 8      1581.797          51.000
> 2020 05 02 06 06  0.0000000  0 15        .000000000000
G13  20333832.109 8 106854997.813 8      -989.004          51.000    20333830.852 8  83263635.673 8      -770.655          49.000
G15  20379024.688 7 107092492.703 7       626.570          45.000    20379024.117 7  83448701.053 7       488.234          45.000
G19  24344922.070 7 127933426.380 7      3401.051          47.000    24344920.102 6  99688350.040 6      2650.169          40.000
R03  22147900.039 5 118559385.277 5     -4209.762          35.000    22147905.016 6  92212847.354 6     -3274.262          40.000
R04  19393621.078 8 103851966.062 8     -1150.523          49.000    19393623.320 7  80773736.198 7      -894.855          45.000
R14  19343771.977 7 103113219.295 7      -645.176          42.000    19343774.320 6  80199192.027 6      -501.803          41.000
R15  21117949.852 7 112847940.854 7      2640.035          44.000    21117952.398 6  87770628.073 6      2053.361          40.000
C05  39765461.789 6 207069194.844 6        19.754          36.000    39765461.656 6 160119010.338 6        15.202          40.000
C23  22092414.227 8 115041068.972 8       782.129          51.000
C25  22825207.820 6 118856905.114 6     -1826.426          39.000
E02  23263105.359 8 122248421.487 8      -456.141          51.000    23263106.477 8  93670942.472 8      -349.477          51.000
E03  26229203.188 8 137835343.463 8     -2771.656          51.000    26229207.523 8 105614108.866 8     -2123.749          49.000
E08  21565168.109 8 113325714.263 8      -685.895          51.000    21565168.336 8  86833993.182 8      -525.532          51.000
E25  26382852.602 5 138642826.558 5     -2520.898          31.000
E30  23592909.992 8 123981575.057 8      2054.551          51.000    23592911.648 8  94998861.936 8      1574.284          51.000
> 2020 05 02 06 06 30.0000000  0 15        .000000000000
G13  20339537.250 8 106884978.137 8     -1005.715          51.000    20339536.234 8  83286996.943 8      -783.677          50.000
G15  20375511.953 7 107074034.227 7       607.672          45.000    20375511.172 7  83434317.821 7       473.511          45.000
G17  23291290.984 5 122396562.667 5      2170.945          30.000    23291281.398 5  95373901.669 5      1691.646          33.000
G19  24325529.758 7 127831520.999 7      3396.586          44.000    24325527.711 6  99608943.314 6      2646.693          40.000
G28  21607074.148 6 113545943.485 6     -1982.164          39.000    21607073.586 6  88477354.611 6     -1544.556          37.000
R04  19400153.492 8 103886951.614 8     -1177.793          49.000    19400156.414 7  80800947.143 7      -916.061          45.000
R14  19347463.789 7 103132896.242 7      -662.566          44.000    19347465.672 6  80214496.324 6      -515.329          39.000
R15  21103178.906 7 112769010.768 7      2625.938          43.000    21103183.453 6  87709237.988 6      2042.396          41.000
C05  39765363.469 6 207068683.282 6        18.617          36.000    39765363.367 6 160118614.767 6        14.215          39.000
C23  22087951.289 8 115017829.293 8       771.020          51.000
C25  22835762.922 6 118911868.641 6     -1834.113          40.000
E02  23265754.008 8 122262340.865 8      -467.844          51.000    23265755.188 8  93681607.951 8      -358.442          51.000
E03  26245057.109 8 137918656.770 8     -2778.555          51.000    26245061.523 8 105677946.348 8     -2129.004          50.000
E08  21569134.289 8 113346556.576 8      -699.625          51.000    21569134.633 8  86849963.252 8      -536.022          51.000
E30  23581219.734 8 123920143.143 8      2044.910          51.000    23581222.484 8  94951790.730 8      1566.888          51.000
> 2020 05 02 06 07  0.0000000  0 16        .000000000000
G13  20345301.742 8 106915270.376 8     -1011.812          51.000    20345300.883 8  83310601.258 8      -788.425          49.000
G15  20372070.055 7 107055947.408 7       599.844          46.000    20372068.930 7  83420224.192 7       467.411          46.000
G19  24306126.375 6 127729562.080 6      3402.539          41.000    24306123.609 6  99529494.909 6      2651.332          37.000
G28  21618405.070 6 113605487.666 6     -1985.555          36.000    21618404.891 5  88523752.630 5     -1547.185          35.000
R03  22195194.992 5 118812640.349 5     -4221.504          34.000    22195201.492 6  92409842.452 6     -3283.395          37.000
R04  19406803.797 7 103922566.706 7     -1194.410          47.000    19406806.953 7  80828647.755 7      -928.986          45.000
R14  19351216.984 7 103152902.752 7      -669.219          42.000    19351218.547 6  80230056.886 6      -520.503          39.000
R15  21088450.367 6 112690308.801 6      2622.793          41.000    21088455.438 6  87648025.348 6      2039.950          40.000
C05  39765237.188 6 207068024.754 6        27.363          36.000    39765237.109 6 160118106.305 6        21.271          40.000
C23  22083516.312 8 114994736.246 8       770.570          50.000
C25  22846325.789 6 118966870.820 6     -1831.078          39.000
E02  23268433.836 8 122276423.116 8      -468.836          51.000    23268435.102 8  93692398.235 8      -359.280          51.000
E03  26260914.352 8 138001989.131 8     -2774.773          49.000    26260918.859 8 105741798.413 8     -2126.104          51.000
E08  21573143.273 8 113367624.272 8      -702.785          51.000    21573143.398 8  86866106.028 8      -538.492          51.000
E25  26411674.125 5 138794277.981 5     -2519.945          32.000    26411676.867 5 106348878.796 5     -1930.364          34.000
E30  23569549.000 8 123858813.202 8      2045.828          51.000    23569552.227 8  94904797.658 8      1567.648          51.000
> 2020 05 02 06 07 30.0000000  0 17        .000000000000
G13  20351158.648 8 106946048.941 8     -1037.594          51.000    20351157.984 8  83334584.524 8      -808.515          50.000
G15  20368732.359 7 107038407.740 7       572.105          46.000    20368731.422 7  83406556.924 7       445.796          47.000
G19  24286746.953 7 127627727.894 7      3388.895          42.000    24286743.164 6  99450143.595 6      2640.700          36.000
G24  22462827.906 5 118042964.092 5      2662.812          31.000
G28  21629813.531 6 113665438.173 6     -2008.547          38.000    21629814.125 6  88570469.734 6     -1565.098          38.000
R03  22218919.836 6 118939616.966 6     -4241.027          38.000    22218921.008 5  92508602.019 5     -3298.574          34.000
R04  19413605.250 7 103958988.513 7     -1231.000          47.000    19413608.633 7  80856975.809 7      -957.444          46.000
R14  19355064.422 7 103173413.750 7      -695.688          42.000    19355066.500 6  80246009.933 6      -541.087          39.000
R15  21073798.008 6 112612012.956 6      2599.562          41.000    21073802.594 6  87587128.601 6      2021.885          40.000
C05  39765116.000 6 207067393.966 6        17.191          36.000    39765115.938 6 160117618.529 6        13.290          39.000
C23  22079142.953 8 114971962.401 8       750.383          51.000
C25  22856929.164 6 119022083.431 6     -1847.363          40.000
E02  23271177.641 8 122290841.707 8      -489.609          51.000    23271178.828 8  93703446.237 8      -375.134          51.000
E03  26276807.359 8 138085513.899 8     -2790.871          48.000    26276812.820 8 105805797.881 8     -2138.403          51.000
E08  21577228.477 8 113389091.838 8      -725.648          51.000    21577228.656 8  86882555.203 8      -556.007          51.000
E25  26426103.539 5 138870109.685 5     -2532.211          33.000    26426102.812 5 106406972.871 5     -1940.292          33.000
E30  23557931.312 8 123797760.084 8      2027.059          51.000    23557934.172 8  94858016.704 8      1553.246          51.000
> 2020 05 02 06 08  0.0000000  0 17        .000000000000
G13  20357117.156 8 106977361.645 8     -1047.141          51.000    20357116.453 8  83358984.006 8      -815.954          50.000
G15  20365508.094 7 107021464.538 7       560.406          47.000    20365507.688 7  83393354.409 7       436.680          47.000
G19  24267402.055 7 127526069.230 7      3391.129          43.000    24267397.547 6  99370929.144 6      2642.444          40.000
G24  22447642.867 5 117963172.483 5      2661.016          34.000    22447658.469 5  91919408.374 5      2073.519          32.000
G28  21641309.117 6 113725847.323 6     -2015.590          40.000    21641309.445 6  88617541.743 6     -1570.593          38.000
R03  22242708.016 6 119066951.873 6     -4244.840          37.000    22242708.344 4  92607640.245 4     -3301.542          28.000
R04  19420566.578 8 103996264.711 8     -1251.145          49.000    19420569.633 7  80885968.397 7      -973.112          47.000
R14  19359015.539 7 103194476.480 7      -705.508          42.000    19359017.008 6  80262392.020 6      -548.731          38.000
R15  21059231.867 7 112534172.885 7      2592.777          44.000    21059236.438 6  87526586.370 6      2016.605          40.000
C05  39765009.125 6 207066837.394 6        22.695          36.000    39765009.016 6 160117188.160 6        17.655          39.000
C23  22074840.188 8 114949555.012 8       746.324          51.000
C25  22867581.992 6 119077552.983 6     -1847.809          40.000
E02  23273994.352 8 122305643.671 8      -494.227          51.000    23273995.367 8  93714787.994 8      -378.669          51.000
E03  26292745.922 7 138169277.964 7     -2790.578          47.000    26292751.930 8 105869980.730 8     -2138.220          51.000
E08  21581398.828 8 113411007.340 8      -732.418          51.000    21581399.484 8  86899347.589 8      -561.233          51.000
E25  26440564.305 5 138946100.685 5     -2529.562          33.000    26440558.945 5 106465175.233 5     -1938.515          32.000
E30  23546375.641 8 123737032.089 8      2024.395          51.000    23546378.031 8  94811484.887 8      1551.171          51.000
> 2020 05 02 06 08 30.0000000  0 17        .000000000000
G13  20363161.344 8 107009124.534 8     -1066.629          51.000    20363160.594 8  83383734.307 8      -831.139          50.000
G15  20362381.664 7 107005034.667 7       538.801          47.000    20362381.258 8  83380551.888 8       419.845          48.000
G19  24248075.547 7 127424505.570 7      3383.430          47.000    24248071.867 7  99291788.708 7      2636.439          42.000
G24  22432486.094 6 117883538.807 6      2651.312          36.000    22432509.453 5  91857356.241 5      2065.964          32.000
G28  21652875.344 6 113786625.629 6     -2032.219          38.000    21652874.914 6  88664901.458 6     -1583.547          38.000
R03  22266544.539 6 119194555.848 6     -4258.043          37.000
R04  19427671.781 8 104034308.750 8     -1281.262          51.000    19427674.344 8  80915558.212 8      -996.537          48.000
R14  19363053.156 7 103216003.778 7      -725.750          42.000    19363055.008 6  80279135.457 6      -564.472          39.000
R15  21044736.273 7 112456703.744 7      2575.793          44.000    21044740.008 6  87466332.572 6      2003.395          41.000
C05  39764900.555 6 207066271.951 6        18.395          36.000    39764900.438 6 160116750.889 6        14.586          39.000
C23  22070591.398 8 114927430.521 8       732.383          50.000
C25  22878268.211 6 119133195.097 6     -1857.633          40.000
E02  23276867.742 8 122320744.000 8      -508.570          51.000    23276868.914 8  93726358.366 8      -389.714          51.000
E03  26308714.492 8 138253196.231 8     -2800.055          48.000    26308720.312 8 105934281.718 8     -2145.502          51.000
E08  21585638.102 8 113433286.836 8      -748.984          51.000    21585639.328 8  86916418.863 8      -573.930          51.000
E25  26455039.961 5 139022170.569 5     -2537.016          33.000
E30  23534865.555 8 123676545.609 8      2011.859          51.000    23534868.180 8  94765138.133 8      1541.576          51.000
> 2020 05 02 06 09  0.0000000  0 16        .000000000000
G13  20369288.023 8 107041321.162 8     -1081.289          51.000    20369287.438 8  83408822.564 8      -842.563          50.000
G15  20359349.914 8 106989102.254 8       522.004          48.000    20359349.500 8  83368137.025 8       406.756          48.000
G19  24228764.562 7 127323023.271 7      3380.363          46.000    24228762.445 7  99212711.627 7      2634.049          44.000
G24  22417363.281 5 117804069.777 5      2645.594          35.000    22417364.938 5  91795327.078 5      2061.502          33.000
G28  21664508.047 6 113847754.282 6     -2044.078          41.000    21664506.750 6  88712534.195 6     -1592.788          39.000
R03  22290427.977 6 119322408.457 6     -4266.746          40.000    22290434.250 4  92806347.199 4     -3318.580          29.000
R04  19434916.578 8 104073102.379 8     -1306.453          51.000    19434918.477 8  80945731.034 8     -1016.130          48.000
R14  19367175.359 7 103237976.532 7      -740.715          42.000    19367177.688 6  80296225.379 6      -576.112          40.000
R15  21030305.336 6 112379589.072 6      2563.617          38.000    21030309.102 6  87406354.431 6      1993.921          39.000
C05  39764787.094 6 207065680.776 6        19.414          36.000    39764786.891 6 160116293.785 6        14.891          39.000
C23  22066393.516 8 114905571.829 8       723.367          51.000
C25  22888984.258 6 119188992.058 6     -1863.195          39.000
E02  23279794.648 8 122336124.845 8      -518.195          51.000    23279796.062 8  93738143.679 8      -397.065          51.000
E03  26324709.695 8 138337250.715 8     -2804.926          50.000    26324714.609 8 105998687.075 8     -2149.307          51.000
E08  21589943.414 8 113455913.427 8      -760.945          51.000    21589944.938 8  86933756.104 8      -583.005          51.000
E30  23523397.961 8 123616284.162 8      2004.078          50.000    23523400.805 8  94718963.794 8      1535.568          51.000
> 2020 05 02 06 09 30.0000000  0 17        .000000000000
G13  20375501.031 8 107073970.825 8     -1095.703          51.000    20375500.555 8  83434263.860 8      -853.792          50.000
G15  20356416.656 8 106973687.980 8       505.449          48.000    20356416.359 8  83356125.886 8       393.857          48.000
G17  23218093.773 5 122011935.936 5      2101.324          31.000    23218108.086 5  95074253.573 5      1637.399          33.000
G19  24209472.953 7 127221645.243 7      3377.770          46.000    24209472.469 7  99133715.844 7      2632.031          45.000
G24  22402276.438 6 117724786.785 6      2639.898          37.000    22402279.586 6  91733548.107 6      2057.061          36.000
G28  21676210.922 7 113909251.225 7     -2055.613          43.000    21676209.141 6  88760453.814 6     -1601.780          38.000
R03  22314362.016 7 119450526.186 7     -4274.570          42.000    22314364.477 5  92905994.314 5     -3324.666          34.000
R04  19442305.109 8 104112665.087 8     -1331.316          51.000    19442306.195 8  80976502.019 8     -1035.471          48.000
R14  19371384.289 7 103260413.211 7      -755.324          45.000    19371387.336 6  80313676.158 6      -587.474          39.000
R15  21015945.133 7 112302849.688 7      2551.887          43.000    21015946.492 6  87346668.204 6      1984.804          37.000
C05  39764672.414 6 207065083.576 6        20.453          36.000    39764672.203 6 160115831.978 6        15.861          40.000
C23  22062250.773 8 114883998.378 8       714.594          51.000
C25  22899733.031 6 119244962.554 6     -1868.520          38.000
E02  23282778.516 8 122351805.063 8      -527.309          51.000    23282780.008 8  93750158.395 8      -404.069          51.000
E03  26340734.750 8 138421460.188 8     -2809.191          51.000    26340738.789 8 106063211.167 8     -2152.512          51.000
E08  21594318.930 8 113478907.043 8      -772.293          51.000    21594320.500 8  86951374.586 8      -591.742          51.000
E30  23511977.266 8 123556267.993 8      1996.750          51.000    23511979.742 8  94672977.362 8      1530.004          51.000
> 2020 05 02 06 10  0.0000000  0 17        .000000000000
G13  20381813.906 8 107107145.020 8     -1113.094          51.000    20381813.445 8  83460113.888 8      -867.346          50.000
G15  20353595.703 8 106958863.897 8       485.730          49.000    20353594.969 8  83344574.653 8       378.488          49.000
G17  23206149.008 6 121949126.036 6      2086.566          37.000    23206174.242 5  95025335.839 5      1625.893          35.000
G19  24190215.250 7 127120446.459 7      3371.906          44.000    24190215.531 7  99054859.671 7      2627.459          44.000
G24  22387241.883 5 117645751.862 5      2630.520          31.000
G28  21687996.836 6 113971184.963 6     -2070.039          40.000    21687995.555 6  88808713.870 6     -1613.017          39.000
R03  22338358.695 6 119578978.227 6     -4285.777          41.000    22338360.961 6  93005901.424 6     -3333.382          37.000
R04  19449850.516 8 104153068.039 8     -1359.320          51.000    19449850.898 8  81007926.529 8     -1057.249          48.000
R14  19375694.039 7 103283384.149 7      -773.258          46.000    19375695.797 6  80331542.379 6      -601.423          39.000
R15  21001669.828 7 112226558.488 7      2536.902          45.000    21001669.344 6  87287330.704 6      1973.149          39.000
C05  39764570.070 6 207064550.983 6        18.121          36.000    39764569.867 6 160115420.126 6        14.034          39.000
C23  22058176.367 8 114862780.423 8       702.805          51.000
C25  22910527.977 6 119301176.101 6     -1876.535          36.000
E02  23285832.578 8 122367854.973 8      -539.648          51.000    23285834.062 8  93762456.370 8      -413.518          51.000
E03  26356802.547 8 138505894.857 8     -2816.734          51.000    26356806.297 8 106127907.785 8     -2158.286          51.000
E08  21598777.992 8 113502338.969 8      -786.887          51.000    21598779.859 8  86969328.915 8      -602.951          51.000
E30  23500617.266 8 123496568.712 8      1986.164          51.000    23500618.664 8  94627233.742 8      1521.896          51.000
> 2020 05 02 06 10 30.0000000  0 16        .000000000000
G13  20388201.844 8 107140713.304 8     -1125.629          51.000    20388201.492 8  83486270.975 8      -877.113          50.000
G15  20350862.477 8 106944501.295 8       471.039          49.000    20350861.602 8  83333383.011 8       367.043          49.000
G17  23194261.695 6 121886651.208 6      2077.031          37.000    23194291.008 5  94976742.875 5      1618.432          32.000
G19  24170967.195 7 127019299.736 7      3370.516          45.000    24170968.281 7  98976044.100 7      2626.376          44.000
G28  21699840.328 7 114033423.143 7     -2079.773          43.000    21699838.953 6  88857211.173 6     -1620.606          38.000
R03  22362392.047 6 119707628.627 6     -4291.863          40.000    22362394.125 6  93105962.804 6     -3338.116          39.000
R04  19457527.234 8 104194177.437 8     -1382.230          51.000    19457527.594 8  81039900.473 8     -1075.068          48.000
R14  19380078.609 7 103306755.286 7      -785.969          46.000    19380080.945 6  80349719.958 6      -611.309          41.000
R15  20987453.359 7 112150583.541 7      2526.938          44.000    20987453.047 6  87228239.128 6      1965.399          40.000
C05  39764455.367 6 207063953.890 6        20.762          36.000    39764455.164 6 160114958.407 6        16.178          39.000
C23  22054145.508 8 114841788.636 8       695.781          51.000
C25  22921344.242 6 119357502.583 6     -1879.281          36.000
E02  23288932.203 8 122384143.324 8      -547.117          51.000    23288933.688 8  93774937.038 8      -419.181          51.000
E03  26372888.312 8 138590423.326 8     -2819.410          51.000    26372891.828 8 106192676.291 8     -2160.321          51.000
E08  21603295.758 8 113526078.984 8      -796.652          51.000    21603297.859 8  86987519.303 8      -610.368          51.000
E30  23489292.922 8 123437056.436 8      1980.438          51.000    23489293.344 8  94581633.428 8      1517.475          51.000
> 2020 05 02 06 11  0.0000000  0 17        .000000000000
G13  20394672.602 8 107174716.555 8     -1133.605          51.000    20394672.117 8  83512766.986 8      -883.329          50.000
G15  20348225.039 8 106930641.691 8       460.855          50.000    20348224.273 8  83322583.309 8       359.105          50.000
G17  23182438.469 6 121824522.468 6      2072.383          36.000    23182465.016 5  94928330.898 5      1614.822          31.000
G19  24151737.898 7 126918249.181 7      3373.824          46.000    24151738.773 7  98897303.458 7      2628.957          44.000
G24  22357250.242 5 117488148.640 5      2628.969          33.000    22357248.719 5  91549196.019 5      2048.547          30.000
G28  21711749.117 7 114096004.652 7     -2084.516          42.000    21711747.273 6  88905975.937 6     -1624.301          38.000
R03  22386469.312 6 119836515.232 6     -4292.602          40.000    22386471.680 6  93206207.894 6     -3338.690          38.000
R04  19465343.320 8 104236033.843 8     -1400.395          51.000    19465344.062 8  81072455.468 8     -1089.196          48.000
R14  19384546.039 7 103330566.391 7      -793.723          45.000    19384548.117 6  80368239.666 6      -617.340          40.000
R15  20973303.297 7 112074967.461 7      2521.719          42.000    20973302.859 6  87169426.669 6      1961.340          38.000
C05  39764336.078 6 207063332.799 6        28.082          36.000    39764335.875 6 160114478.117 6        21.875          39.000
C23  22050165.648 8 114821063.175 8       693.574          50.000
C25  22932189.227 5 119413981.548 5     -1877.816          33.000
E02  23292084.883 8 122400709.985 8      -549.711          51.000    23292086.477 8  93787630.967 8      -421.213          51.000
E03  26388999.250 8 138675085.324 8     -2817.098          51.000    26389002.562 8 106257547.132 8     -2158.522          51.000
E08  21607880.070 8 113550167.980 8      -801.648          51.000    21607881.883 8  87005977.099 8      -614.232          51.000
E30  23478011.727 8 123377772.408 8      1979.516          51.000    23478012.055 8  94536208.014 8      1516.715          51.000
> 2020 05 02 06 11 30.0000000  0 16        .000000000000
G13  20401241.359 8 107209234.994 8     -1158.859          51.000    20401240.797 8  83539664.444 8      -903.007          49.000
G15  20345698.922 8 106917366.447 8       433.160          50.000    20345698.188 8  83312238.964 8       337.527          50.000
G17  23170697.805 5 121762822.324 5      2049.949          35.000    23170723.695 5  94880239.962 5      1597.342          31.000
G19  24132542.844 7 126817378.762 7      3359.629          47.000    24132543.562 7  98818703.161 7      2617.893          42.000
G28  21723738.250 6 114159007.706 6     -2106.445          40.000    21723736.312 6  88955069.218 6     -1641.386          39.000
R03  22410605.031 6 119965716.559 6     -4311.613          38.000    22410607.484 6  93306697.840 6     -3353.477          38.000
R04  19473313.742 8 104278717.909 8     -1436.086          51.000    19473315.203 8  81105654.173 8     -1116.956          48.000
R14  19389110.492 7 103354897.076 7      -819.148          46.000    19389112.352 6  80387163.534 6      -637.115          41.000
R15  20959235.453 7 111999792.431 7      2498.969          42.000    20959233.477 6  87110957.309 6      1943.648          37.000
C05  39764227.508 6 207062767.450 6        18.332          36.000    39764227.336 6 160114040.939 6        14.257          39.000
C23  22046251.742 8 114800683.491 8       674.016          49.000
C25  22943078.289 5 119470691.596 5     -1893.191          31.000
E02  23295305.461 8 122417634.463 8      -569.680          51.000    23295307.047 8  93800599.073 8      -436.445          51.000
E03  26405150.102 8 138759960.305 8     -2832.266          50.000    26405153.859 8 106322581.179 8     -2170.130          51.000
E08  21612546.156 8 113574686.428 8      -823.934          51.000    21612547.578 8  87024763.956 8      -631.344          51.000
E30  23466788.828 8 123318797.456 8      1961.188          51.000    23466789.930 8  94491019.409 8      1502.731          51.000
> 2020 05 02 06 12  0.0000000  0 16        .000000000000
G13  20407888.289 8 107244164.366 8     -1171.633          51.000    20407887.547 8  83566882.110 8      -912.961          49.000
G15  20343264.383 8 106904572.406 8       417.992          50.000    20343263.812 8  83302269.563 8       325.705          51.000
G17  23159020.078 5 121701449.871 5      2039.566          34.000    23159011.578 5  94832273.190 5      1589.282          35.000
G19  24113363.023 7 126716587.664 7      3358.004          47.000    24113363.586 7  98740164.619 7      2616.626          42.000
G28  21735787.445 6 114222325.841 6     -2116.348          41.000    21735785.734 6  89004408.047 6     -1649.099          37.000
R03  22434778.555 6 120095123.124 6     -4317.227          36.000    22434781.164 6  93407347.422 6     -3357.840          37.000
R04  19481418.844 8 104322122.509 8     -1459.234          51.000    19481420.883 8  81139413.280 8     -1134.963          48.000
R14  19393752.250 7 103379639.942 7      -832.145          45.000    19393754.484 6  80406407.985 6      -647.224          41.000
R15  20945231.500 7 111924953.276 7      2488.688          42.000    20945230.023 6  87052749.144 6      1935.646          39.000
C05  39764109.836 5 207062154.618 5        20.773          35.000    39764109.625 6 160113567.072 6        16.006          39.000
C23  22042384.453 8 114780546.036 8       666.793          50.000
C25  22953993.758 5 119527528.573 5     -1896.684          34.000
E02  23298574.188 8 122434811.609 8      -577.215          51.000    23298575.320 8  93813760.784 8      -442.234          51.000
E03  26421321.125 8 138844942.938 8     -2834.918          48.000    26421325.805 8 106387697.714 8     -2172.276          51.000
E08  21617274.266 8 113599530.152 8      -833.957          51.000    21617275.219 8  87043800.050 8      -639.027          51.000
E30  23455604.828 8 123260027.798 8      1955.102          51.000    23455606.867 8  94445988.094 8      1498.062          51.000
> 2020 05 02 06 12 30.0000000  0 15        .000000000000
G13  20414623.555 8 107279557.699 8     -1193.426          51.000    20414622.594 8  83594461.319 8      -929.942          48.000
G15  20340931.688 8 106892313.240 8       393.754          51.000    20340931.250 8  83292716.968 8       306.821          51.000
G19  24094208.891 7 126615932.140 7      3346.945          47.000    24094208.680 6  98661731.749 6      2608.006          39.000
G28  21747906.180 7 114286009.627 7     -2134.637          43.000    21747904.109 5  89054031.738 5     -1663.353          35.000
R03  22459000.586 6 120224785.234 6     -4332.051          37.000    22459003.031 6  93508195.712 6     -3369.376          36.000
R04  19489668.367 8 104366300.176 8     -1491.500          49.000    19489670.742 7  81173773.674 7     -1160.056          47.000
R14  19398480.883 7 103404846.612 7      -853.922          46.000    19398482.453 6  80426013.148 6      -664.164          40.000
R15  20931298.812 5 111850504.485 5      2469.105          35.000    20931298.906 6  86994844.414 6      1920.406          38.000
C05  39763993.086 6 207061546.868 6        14.199          36.000    39763992.812 6 160113097.102 6        10.992          39.000
C23  22038573.930 8 114760703.035 8       650.742          50.000
C25  22964944.898 5 119584544.114 5     -1909.598          34.000
E02  23301900.984 8 122452293.439 8      -593.750          51.000    23301901.734 8  93827155.947 8      -454.894          51.000
E03  26437522.648 8 138930085.128 8     -2846.508          49.000    26437527.969 8 106452936.511 8     -2181.102          51.000
E08  21622074.312 8 113624752.139 8      -852.895          51.000    21622074.797 8  87063125.978 8      -653.520          51.000
E30  23444470.484 8 123201516.709 8      1940.152          51.000    23444473.133 8  94401154.924 8      1486.622          51.000
> 2020 05 02 06 13  0.0000000  0 15        .000000000000
G13  20421451.391 8 107315438.276 8     -1202.277          50.000    20421450.859 8  83622420.201 8      -936.843          50.000
G15  20338705.375 8 106880613.504 8       382.496          51.000    20338704.797 8  83283600.281 8       298.049          51.000
G19  24075086.016 7 126515438.542 7      3348.926          45.000    24075085.453 7  98583425.030 7      2609.553          43.000
G24  22297712.078 5 117175263.515 5      2594.680          35.000
G28  21760098.562 6 114350080.726 6     -2140.070          40.000    21760096.344 6  89103957.212 6     -1667.587          39.000
R03  22483274.961 6 120354723.559 6     -4333.855          39.000    22483277.086 5  93609258.813 5     -3370.776          35.000
R04  19498066.547 8 104411273.558 8     -1510.480          49.000    19498069.102 7  81208752.944 7     -1174.821          46.000
R14  19403300.539 7 103430539.122 7      -862.590          46.000    19403301.883 6  80445996.214 6      -670.903          41.000
R15  20917441.797 6 111776470.368 6      2462.672          41.000    20917443.891 6  86937262.209 6      1915.411          37.000
C05  39763881.750 6 207060966.406 6        20.422          36.000    39763881.500 6 160112649.001 6        16.045          39.000
C23  22034824.211 8 114741177.314 8       647.387          50.000
E02  23305289.766 8 122470102.298 8      -597.125          51.000    23305290.781 8  93840801.715 8      -457.549          51.000
E03  26453759.188 8 139015409.176 8     -2845.285          50.000    26453764.570 8 106518314.654 8     -2180.157          51.000
E08  21626950.602 8 113650375.728 8      -858.883          51.000    21626950.594 8  87082759.631 8      -658.147          51.000
E30  23433389.922 8 123143287.916 8      1938.164          51.000    23433393.086 8  94356538.083 8      1485.102          51.000
> 2020 05 02 06 13 30.0000000  0 16        .000000000000
G13  20428348.438 8 107351682.938 8     -1220.996          50.000    20428348.227 8  83650662.775 8      -951.429          50.000
G15  20336562.219 8 106869351.137 8       361.438          51.000    20336561.562 8  83274824.386 8       281.640          51.000
G19  24055970.672 7 126414987.561 7      3340.879          44.000    24055970.047 7  98505151.614 7      2603.282          42.000
G24  22282907.438 5 117097479.783 5      2584.508          32.000
G28  21772340.398 6 114414413.956 6     -2155.750          38.000    21772338.766 6  89154087.051 6     -1679.802          38.000
R03  22507576.828 6 120484809.125 6     -4345.605          38.000    22507578.203 5  93710436.443 5     -3379.915          32.000
R04  19506590.438 8 104456915.915 8     -1539.375          50.000    19506592.461 7  81244252.551 7     -1197.292          46.000
R14  19408187.539 7 103456590.941 7      -881.191          45.000    19408189.625 6  80466258.760 6      -685.371          41.000
R15  20903641.898 6 111702726.134 6      2446.527          41.000    20903643.297 6  86879905.609 6      1902.861          38.000
C05  39763752.586 6 207060293.250 6        17.285          36.000    39763752.250 6 160112128.492 6        13.303          39.000
C23  22031111.867 8 114721846.695 8       634.414          50.000
C25  22986936.094 5 119699004.405 5     -1917.699          30.000
E02  23308717.273 8 122488114.294 8      -610.449          51.000    23308718.438 8  93854603.113 8      -467.810          51.000
E03  26470007.094 8 139100791.011 8     -2853.742          50.000    26470012.008 8 106583737.072 8     -2186.577          51.000
E08  21631879.656 8 113676278.010 8      -874.734          51.000    21631879.242 8  87102606.823 8      -670.269          51.000
E30  23422339.578 8 123085218.856 8      1926.203          51.000    23422342.641 8  94312043.637 8      1475.955          51.000
> 2020 05 02 06 14  0.0000000  0 15        .000000000000
G13  20435362.664 8 107388542.917 8     -1232.738          51.000    20435362.352 8  83679384.829 8      -960.575          49.000
G15  20334550.273 8 106858778.336 8       347.102          51.000    20334549.289 8  83266585.838 8       270.472          51.000
G19  24036912.023 7 126314834.193 7      3339.652          43.000    24036911.773 7  98427110.041 7      2602.327          43.000
