     3.02           OBSERVATION DATA    M (MIXED)           RINEX VERSION / TYPE
SAVERINEX           SC600               20200516 075931 LCL PGM / RUN BY / DATE
       G = GPS       R = GLONASS       C = COMPASS          COMMENT
       S = SBAS      J = QZSS          E = GALILEO          COMMENT
BEAN                                                        MARKER NAME
1                                                           MARKER NUMBER
GEODETIC                                                    MARKER TYPE
Unige DICCA         GTER                                    OBSERVER / AGENCY
SC60291900056       SC600               2.12(191202)        REC # / TYPE / VERS
                    HEMA45          NONE                    ANT # / TYPE
  4509407.8091   693652.4678  4442337.6214                  APPROX POSITION XYZ
        0.0000        0.0000        0.0000                  ANTENNA: DELTA H/E/N
G    8 C1C L1C D1C S1C C2Y L2Y D2Y S2Y                      SYS / # / OBS TYPES
R    8 C1C L1C D1C S1C C2P L2P D2P S2P                      SYS / # / OBS TYPES
C    8 C1I L1I D1I S1I C7I L7I D7I S7I                      SYS / # / OBS TYPES
E    8 C1C L1C D1C S1C C7Q L7Q D7Q S7Q                      SYS / # / OBS TYPES
DBHZ                                                        COMMENT
     30.000                                                 INTERVAL
  2020    05    16    05    00    0.0000000     GPS         TIME OF FIRST OBS
  2020    05    16    05    59   30.0000000     GPS         TIME OF LAST OBS
     0                                                      RCV CLOCK OFFS APPL
G L1C  0.00000                                              SYS / PHASE SHIFT
G L2Y  0.00000                                              SYS / PHASE SHIFT
R L1C  0.00000                                              SYS / PHASE SHIFT
R L2P  0.25000                                              SYS / PHASE SHIFT
C L1I  0.00000                                              SYS / PHASE SHIFT
C L7I  0.00000                                              SYS / PHASE SHIFT
E L1C  0.50000                                              SYS / PHASE SHIFT
E L7Q -0.25000                                              SYS / PHASE SHIFT
 13 R01  1 R02 -4 R03  5 R07  5 R08  6 R10 -5 R11  0 R12 -1 GLONASS SLOT / FRQ #
    R13 -2 R20  2 R21  4 R22 -3 R23  3                      GLONASS SLOT / FRQ #
 C1C   71.950 C2C   71.950 C2P   71.950                     GLONASS COD/PHS/BIS
    18                                                      LEAP SECONDS
*** Above antenna height is from mark to ANTENNA BOTTOM.    COMMENT
    17     4        0.0000        ANT MEASURE TYPE/HEIGT    COMMENT
    0.0000    0.0000    0.0458    0.0405    0.0000          COMMENT
                    BASE STATION                            COMMENT
                                                            END OF HEADER
> 2020 05 16 05 00  0.0000000  0 17        .000000000000
G13  20250479.570 8 106416981.459 8      -730.785          51.000    20250478.867 8  82922315.857 8      -569.443          51.000
G15  20453656.297 6 107484692.856 6       918.219          36.000    20453657.398 6  83754312.688 6       715.498          36.000
G17  23533039.836 6 123666977.167 6      2376.988          37.000    23533048.609 5  96363881.022 5      1852.205          31.000
G19  24693570.734 7 129765588.025 7      3436.562          46.000    24693569.852 6 101116020.533 6      2677.838          37.000
G28  21413865.203 6 112530602.566 6     -1736.746          36.000    21413863.000 6  87686210.026 6     -1353.312          36.000
R01  22607080.672 6 120847759.811 6     -4314.070          39.000    22607086.000 5  93992732.525 5     -3355.391          31.000
R02  19165118.430 8 102268707.703 8      -512.898          51.000    19165121.445 8  79542358.490 8      -398.924          48.000
R11  21512721.359 5 114957481.701 5     -3235.449          34.000    21512720.445 4  89411374.561 4     -2516.464          25.000
R12  19284782.000 7 103015813.642 7      -436.680          45.000    19284785.727 7  80123462.610 7      -339.640          42.000
R13  21510894.523 6 114866985.819 6      2907.414          36.000    21510899.070 6  89340996.305 6      2261.325          37.000
C05  39791459.617 6 207204572.012 6        20.059          36.000    39791457.273 6 160223689.423 6        15.924          38.000
C23  22186531.789 8 115531135.379 8       967.777          51.000
C25  22635508.359 8 117869083.314 8     -1701.496          48.000
E05  23993670.195 8 126087572.166 8     -1563.148          51.000    23993673.445 8  96612553.336 8     -1197.716          51.000
E09                                                                  25818032.602 5 103958474.612 5     -2273.927          32.000
E24  22255432.898 8 116953131.523 8     -1359.168          51.000    22255445.562 8  89613508.593 8     -1041.467          51.000
E25  23983094.773 8 126032021.409 8      1394.699          51.000    23983096.992 8  96570003.985 8      1068.645          51.000
> 2020 05 16 05 00 30.0000000  0 16        .000000000000
G13  20254696.039 8 106439138.459 8      -747.297          51.000    20254695.031 8  82939581.042 8      -582.309          51.000
G15  20448465.031 5 107457416.122 5       899.188          32.000    20448466.688 5  83733058.044 5       700.659          32.000
G19  24673955.820 7 129662513.214 7      3433.934          44.000    24673955.016 6 101035702.453 6      2675.792          38.000
G28  21423816.781 6 112582895.653 6     -1751.812          36.000    21423814.664 6  87726957.874 6     -1365.052          36.000
R01  22631315.805 6 120977304.121 6     -4323.023          39.000    22631319.805 4  94093489.109 4     -3362.355          28.000
R02  19168077.617 8 102284495.522 8      -540.621          51.000    19168080.125 8  79554637.909 8      -420.480          48.000
R11  21530900.969 5 115054629.999 5     -3242.637          30.000
R12  19287283.969 7 103029177.672 7      -455.152          45.000    19287287.664 7  80133856.825 7      -354.010          42.000
R13  21494595.875 5 114779951.648 5      2894.180          35.000    21494599.680 5  89273303.108 5      2251.026          35.000
C05  39791344.523 6 207203971.966 6        19.234          36.000    39791342.125 6 160223225.432 6        14.629          38.000
C23  22180986.016 8 115502256.291 8       956.559          51.000
C25  22645332.070 8 117920236.724 8     -1709.715          49.000
E05  24002626.305 8 126134635.653 8     -1575.500          51.000    24002629.523 8  96648614.947 8     -1207.189          51.000
E09                                                                  25834982.469 4 104026768.530 4     -2277.310          29.000
E24  22263218.891 8 116994047.055 8     -1369.480          51.000    22263231.484 8  89644859.431 8     -1049.381          51.000
E25  23975163.953 8 125990342.211 8      1382.926          51.000    23975165.250 8  96538067.982 8      1059.617          51.000
> 2020 05 16 05 01  0.0000000  0 15        .000000000000
G13  20259005.438 8 106461783.623 8      -760.789          51.000    20259004.211 8  82957226.624 8      -592.823          51.000
G15  20443375.516 6 107430669.949 6       884.664          36.000    20443376.859 5  83712216.842 5       689.346          34.000
G19  24654353.539 7 129559506.305 7      3434.707          43.000    24654352.695 6 100955437.357 6      2676.395          40.000
G28  21433852.547 6 112635657.546 6     -1763.445          37.000    21433851.086 6  87768036.677 6     -1374.110          36.000
R01  22655598.961 6 121107106.716 6     -4328.855          40.000    22655602.156 4  94194446.608 4     -3366.891          26.000
R02  19171190.719 8 102301105.619 8      -565.145          51.000    19171193.070 8  79567556.867 8      -439.557          49.000
R12  19289886.633 7 103043080.310 7      -470.199          45.000    19289890.508 7  80144670.017 7      -365.711          43.000
R13  21478369.039 5 114693303.787 5      2884.297          33.000    21478372.531 6  89205910.317 6      2243.345          36.000
C05  39791235.273 6 207203403.365 6        20.543          36.000    39791232.898 6 160222785.736 6        15.970          38.000
C23  22175503.195 8 115473705.532 8       948.375          51.000
C25  22655201.250 8 117971626.780 8     -1714.781          48.000
E05  24011649.906 8 126182054.219 8     -1584.348          51.000    24011652.922 8  96684948.630 8     -1213.996          51.000
E09  25851988.938 5 135853112.824 5     -2973.473          33.000
E24  22271061.273 8 117035259.078 8     -1376.438          51.000    22271074.062 8  89676437.473 8     -1054.721          51.000
E25  23967297.906 8 125949002.490 8      1374.461          51.000    23967298.719 8  96506392.081 8      1053.203          51.000
> 2020 05 16 05 01 30.0000000  0 15        .000000000000
G13  20263388.305 8 106484814.412 8      -771.941          51.000    20263386.812 8  82975172.681 8      -601.513          51.000
G15  20438367.914 6 107404352.670 6       872.148          37.000    20438368.680 6  83691709.882 6       679.599          37.000
G19  24634745.711 7 129456467.643 7      3437.277          43.000    24634743.859 6 100875147.514 6      2678.404          40.000
G28  21443957.125 6 112688751.827 6     -1773.480          39.000    21443953.742 6  87809408.785 6     -1381.933          38.000
R01  22679909.422 6 121237059.091 6     -4331.879          40.000
R02  19174438.000 8 102318433.221 8      -587.379          51.000    19174440.727 8  79581033.875 8      -456.850          49.000
R11  21567363.602 5 115249443.071 5     -3247.242          33.000    21567352.711 4  89638433.015 4     -2525.633          28.000
R12  19292570.008 7 103057415.274 7      -482.770          45.000    19292574.039 7  80155819.410 7      -375.487          42.000
R13  21462195.367 5 114606938.817 5      2876.414          35.000    21462199.609 6  89138737.534 6      2237.211          37.000
C05  39791112.352 6 207202763.101 6        24.562          36.000    39791110.141 6 160222291.406 6        19.217          38.000
C23  22170063.375 8 115445380.720 8       942.520          51.000
C25  22665095.945 7 118023150.239 7     -1717.449          47.000
E05  24020721.383 8 126229724.383 8     -1590.992          51.000    24020723.914 8  96721475.099 8     -1219.075          51.000
E24  22278940.164 8 117076663.241 8     -1381.148          51.000    22278953.102 8  89708162.738 8     -1058.304          51.000
E25  23959476.531 8 125907899.173 8      1368.480          51.000    23959477.609 8  96474897.340 8      1048.519          51.000
> 2020 05 16 05 02  0.0000000  0 15        .000000000000
G13  20267864.617 8 106508336.705 8      -791.258          51.000    20267862.922 8  82993501.733 8      -616.565          51.000
G15  20433462.328 6 107378571.243 6       851.422          38.000    20433462.344 6  83671620.414 6       663.443          38.000
G19  24615152.883 7 129353505.659 7      3431.836          43.000    24615150.758 6 100794917.427 6      2674.158          41.000
G28  21454145.867 6 112742297.785 6     -1791.699          40.000    21454144.398 6  87851132.968 6     -1396.126          38.000
R01  22704267.297 6 121367265.504 6     -4343.074          38.000
R02  19177839.867 8 102336585.752 8      -617.777          51.000    19177842.492 8  79595152.526 8      -480.493          49.000
R12  19295354.148 7 103072288.089 7      -503.691          45.000    19295358.008 7  80167387.133 7      -391.760          42.000
R13  21446095.516 5 114520964.010 5      2860.223          34.000    21446099.906 6  89071868.254 6      2224.621          37.000
C05  39790996.109 6 207202157.803 6        20.590          37.000    39790993.953 6 160221823.345 6        16.097          38.000
C23  22164687.156 8 115417386.256 8       928.668          51.000
C25  22675035.711 7 118074910.613 7     -1728.223          46.000
E05  24029860.812 8 126277751.235 8     -1605.789          51.000    24029862.914 8  96758274.877 8     -1230.422          51.000
E09  25885943.961 5 136031558.176 5     -2979.070          35.000    25885942.945 5 104231973.966 5     -2282.586          34.000
E24  22286875.555 8 117118363.800 8     -1393.922          51.000    22286888.328 8  89740115.101 8     -1068.040          51.000
E25  23951719.891 8 125867137.959 8      1353.965          51.000    23951721.594 8  96443664.733 8      1037.439          51.000
> 2020 05 16 05 02 30.0000000  0 16        .000000000000
G13  20272421.305 8 106532281.474 8      -804.883          51.000    20272419.180 8  83012159.986 8      -627.181          50.000
G15  20428645.828 6 107353257.999 6       836.324          40.000    20428645.039 6  83651895.826 6       651.684          40.000
G19  24595562.133 7 129250554.895 7      3431.770          45.000    24595560.766 7 100714696.124 7      2674.109          44.000
G28  21464407.562 7 112796223.892 7     -1803.176          42.000    21464406.344 6  87893153.249 6     -1405.078          39.000
R01  22728658.852 6 121497652.449 6     -4348.777          38.000
R02  19181383.539 8 102355493.040 8      -642.492          51.000    19181386.047 8  79609858.189 8      -499.716          50.000
R11  21603916.453 6 115444729.844 6     -3260.371          36.000
R12  19298225.445 7 103087626.860 7      -518.664          45.000    19298229.070 7  80179317.290 7      -403.405          42.000
R13  21430055.312 6 114435310.124 6      2850.316          36.000    21430059.805 6  89005248.597 6      2216.913          39.000
C05  39790873.336 6 207201518.158 6        22.203          36.000    39790871.062 6 160221328.733 6        17.311          38.000
C23  22159361.453 8 115389653.622 8       920.414          51.000
C25  22685007.766 7 118126838.461 7     -1733.312          46.000
E05  24039054.648 8 126326065.436 8     -1614.930          51.000    24039056.719 8  96795294.818 8     -1237.468          51.000
E09  25902953.500 6 136120945.108 6     -2979.926          36.000    25902952.219 6 104300465.149 6     -2283.511          37.000
E24  22294853.977 8 117160290.518 8     -1400.934          51.000    22294866.578 8  89772240.756 8     -1073.467          51.000
E25  23944015.180 8 125826649.963 8      1345.477          51.000    23944017.242 8  96412641.470 8      1030.917          51.000
> 2020 05 16 05 03  0.0000000  0 16        .000000000000
G13  20277069.539 8 106556707.849 8      -821.047          51.000    20277067.133 8  83031193.517 8      -639.777          50.000
G15  20423929.336 6 107328472.804 6       818.625          38.000    20423928.672 6  83632582.687 6       637.887          39.000
G19  24575985.172 7 129147677.045 7      3429.234          46.000    24575984.711 7 100634531.616 7      2672.134          45.000
G28  21474752.805 6 112850587.708 6     -1817.625          39.000    21474751.016 6  87935514.682 6     -1416.331          38.000
R01  22753094.461 6 121628276.526 6     -4356.871          38.000
R02  19185079.586 8 102375214.901 8      -669.793          51.000    19185081.922 8  79625197.379 8      -520.950          49.000
R11  21622247.109 5 115542707.506 5     -3266.039          35.000
R12  19301195.203 7 103103489.699 7      -536.199          46.000    19301198.680 7  80191655.056 7      -417.044          42.000
R13  21414087.297 6 114350039.097 6      2836.988          38.000    21414091.188 6  88938926.673 6      2206.543          39.000
C05  39790755.078 6 207200903.503 6        21.797          36.000    39790752.805 6 160220852.678 6        16.562          38.000
C23  22154097.227 8 115362240.960 8       909.688          51.000
C25  22695023.078 7 118178991.108 7     -1740.805          45.000
E05  24048314.188 8 126374725.389 8     -1626.469          51.000    24048316.320 8  96832579.686 8     -1246.267          51.000
E09  25919984.148 6 136210439.342 6     -2983.734          38.000    25919981.633 6 104369038.557 6     -2286.190          37.000
E24  22302886.273 8 117202500.951 8     -1410.484          51.000    22302898.938 8  89804583.812 8     -1080.719          51.000
E25  23936373.836 8 125786494.195 8      1334.348          51.000    23936375.922 8  96381872.766 8      1022.380          51.000
> 2020 05 16 05 03 30.0000000  0 17        .000000000000
G13  20281804.984 8 106581593.223 8      -837.062          51.000    20281802.617 8  83050584.694 8      -652.256          50.000
G15  20419309.305 6 107304194.314 6       801.020          40.000    20419308.859 6  83613664.373 6       624.171          40.000
G17  23439465.125 5 123175204.846 5      2305.730          32.000
G19  24556418.266 7 129044852.641 7      3426.680          44.000    24556418.500 7 100554408.764 7      2670.143          44.000
G28  21485176.141 7 112905363.956 7     -1832.734          43.000    21485174.914 6  87978197.474 6     -1428.105          36.000
R01  22777568.859 6 121759111.075 6     -4364.562          36.000
R02  19188923.875 8 102395728.254 8      -696.930          51.000    19188925.672 8  79641152.221 8      -542.056          48.000
R11  21640603.688 5 115640776.245 5     -3272.383          34.000
R12  19304258.016 7 103119851.460 7      -553.492          44.000    19304262.133 7  80204380.901 7      -430.494          42.000
R13  21398186.984 6 114265127.622 6      2824.348          37.000    21398189.766 6  88872884.411 6      2196.715          40.000
C05  39790637.148 6 207200289.252 6        20.387          37.000    39790634.750 6 160220377.661 6        15.985          38.000
C23  22148890.094 8 115335125.367 8       898.988          51.000
C25  22705076.992 7 118231344.780 7     -1748.379          45.000
E05  24057635.109 8 126423707.779 8     -1637.992          51.000    24057637.242 8  96870111.626 8     -1255.112          51.000
E09  25937031.039 6 136300016.920 6     -2987.680          36.000    25937027.320 6 104437675.822 6     -2288.932          37.000
E24  22310968.016 8 117244970.952 8     -1419.922          51.000    22310980.773 8  89837125.764 8     -1088.007          51.000
E25  23928791.219 8 125746647.819 8      1323.051          51.000    23928793.500 8  96351341.137 8      1013.805          51.000
> 2020 05 16 05 04  0.0000000  0 16        .000000000000
G13  20286616.797 8 106606879.884 8      -848.879          51.000    20286614.375 8  83070288.564 8      -661.464          49.000
G15  20414775.102 6 107280365.576 6       787.715          40.000    20414774.219 6  83595096.522 6       613.807          40.000
G17  23426322.703 5 123106135.850 5      2298.773          32.000    23426319.727 5  95926846.483 5      1791.249          30.000
G19  24536850.914 7 128942026.993 7      3428.078          42.000    24536851.578 7 100474284.904 7      2671.230          43.000
G28  21495666.898 7 112960492.475 7     -1842.965          42.000    21495666.742 6  88021154.720 6     -1436.080          37.000
R01  22802071.938 6 121890093.702 6     -4367.883          36.000    22802072.812 4  94803447.309 4     -3397.245          25.000
R02  19192905.180 8 102416974.113 8      -719.586          51.000    19192906.602 7  79657676.766 7      -559.678          47.000
R12  19307403.250 7 103136651.640 7      -566.457          46.000    19307406.742 6  80217447.672 6      -440.578          41.000
R13  21382343.180 6 114180517.953 6      2816.090          37.000    21382344.914 6  88807076.891 6      2190.295          39.000
C05  39790508.438 6 207199618.774 6        23.863          37.000    39790505.969 6 160219859.206 6        18.540          39.000
C23  22143728.961 8 115308249.076 8       892.641          51.000
C25  22715158.609 7 118283840.812 7     -1751.500          46.000
E05  24067006.031 8 126472954.043 8     -1645.105          51.000    24067008.250 8  96907845.762 8     -1260.580          51.000
E09  25954083.047 5 136389622.734 5     -2986.543          33.000    25954077.383 5 104506331.651 5     -2288.381          35.000
E24  22319087.891 8 117287641.132 8     -1424.902          51.000    22319100.789 8  89869821.089 8     -1091.820          51.000
E25  23921256.344 8 125707052.774 8      1316.344          51.000    23921258.641 8  96321002.089 8      1008.723          51.000
> 2020 05 16 05 04 30.0000000  0 16        .000000000000
G13  20291536.297 8 106632732.293 8      -867.590          51.000    20291533.828 8  83090433.278 8      -676.044          49.000
G15  20410357.969 6 107257152.417 6       767.070          40.000    20410356.836 6  83577008.357 6       597.714          40.000
G19  24517314.547 6 128839368.215 6      3422.840          40.000    24517315.758 6 100394291.039 6      2667.148          39.000
G28  21506255.234 6 113016135.669 6     -1859.984          40.000    21506255.141 5  88064513.091 5     -1449.338          34.000
G30  23541830.172 5 123713152.074 5     -2831.797          32.000
R01  22826633.516 5 122021388.310 5     -4377.789          32.000    22826635.664 4  94905565.355 4     -3404.947          26.000
R02  19197054.875 8 102439118.727 8      -749.531          51.000    19197055.609 7  79674900.329 7      -582.969          46.000
R12  19310661.648 7 103154055.421 7      -586.555          44.000    19310665.039 7  80230983.949 7      -456.209          42.000
R13  21366586.992 6 114096377.451 6      2800.422          37.000    21366588.953 6  88741634.316 6      2178.109          40.000
C05  39790400.312 6 207199055.047 6        20.531          36.000    39790397.656 6 160219423.277 6        16.057          38.000
C23  22138645.281 8 115281774.815 8       879.305          51.000
C25  22725298.664 7 118336641.126 7     -1761.543          45.000
E05  24076458.008 8 126522628.146 8     -1659.344          50.000    24076460.633 8  96945907.733 8     -1271.424          51.000
E09                                                                  25971162.406 5 104575131.174 5     -2293.353          31.000
E24  22327276.781 8 117330674.607 8     -1436.875          51.000    22327290.023 8  89902794.787 8     -1100.946          51.000
E25  23913800.820 8 125667873.575 8      1302.613          51.000    23913802.789 8  96290981.671 8       998.076          51.000
> 2020 05 16 05 05  0.0000000  0 15        .000000000000
G13  20296527.164 8 106658959.921 8      -883.715          51.000    20296524.641 8  83110870.377 8      -688.609          49.000
G15  20406021.750 6 107234365.587 6       749.223          40.000    20406021.070 6  83559252.372 6       583.810          40.000
G19  24497774.266 6 128736688.319 6      3419.801          39.000    24497775.695 6 100314280.789 6      2664.780          39.000
G28  21516904.969 7 113072101.009 7     -1874.086          44.000    21516903.594 5  88108122.407 5     -1460.327          31.000
G30  23558012.445 5 123798207.083 5     -2837.059          32.000    23558005.523 5  96466101.673 5     -2210.689          33.000
R01  22851216.977 5 122152797.933 5     -4386.180          31.000    22851220.219 5  95007779.742 5     -3411.476          30.000
R02  19201336.828 8 102461968.516 8      -776.617          51.000    19201337.242 7  79692672.356 7      -604.036          47.000
R12  19313996.406 7 103171867.299 7      -603.840          47.000    19314000.219 6  80244837.670 6      -469.653          41.000
R13  21350882.102 5 114012513.864 5      2787.734          35.000    21350884.742 6  88676407.099 6      2168.235          38.000
C05  39790276.312 6 207198409.224 6        19.887          36.000    39790273.719 6 160218923.926 6        15.248          38.000
C23  22133602.672 8 115255513.444 8       868.617          51.000
C25  22735460.242 7 118389555.730 7     -1768.898          44.000
E05  24085955.000 8 126572539.003 8     -1670.891          50.000    24085958.352 8  96984151.127 8     -1280.251          51.000
E24  22335498.266 8 117373879.472 8     -1446.215          51.000    22335511.867 8  89935899.817 8     -1108.112          51.000
E25  23906388.297 8 125628919.647 8      1291.645          51.000    23906390.117 8  96261133.864 8       989.678          51.000
> 2020 05 16 05 05 30.0000000  0 16        .000000000000
G13  20301606.711 8 106685653.713 8      -896.727          51.000    20301604.195 8  83131670.728 8      -698.748          50.000
G15  20401784.156 7 107212096.831 7       734.422          42.000    20401783.703 6  83541900.068 6       572.277          41.000
G17  23387286.289 5 122901006.851 5      2264.223          34.000    23387286.984 5  95767024.802 5      1764.329          35.000
G19  24478248.992 7 128634081.512 7      3419.832          43.000    24478249.680 6 100234327.466 6      2664.807          41.000
G28  21527633.016 6 113128477.268 6     -1884.855          40.000    21527631.406 5  88152051.872 5     -1468.719          30.000
R01  22875838.672 5 122284411.500 5     -4389.715          31.000    22875841.305 4  95110145.805 4     -3414.226          29.000
R02  19205767.961 8 102485615.109 8      -800.730          51.000    19205768.445 7  79711064.110 7      -622.793          46.000
R12  19317424.664 7 103190177.829 7      -617.742          45.000    19317427.781 6  80259079.175 6      -480.463          41.000
R13  21335245.562 5 113929020.353 5      2777.559          33.000    21335248.289 5  88611467.662 5      2160.323          35.000
C05  39790153.805 6 207197771.429 6        21.855          37.000    39790151.227 6 160218430.722 6        16.840          38.000
C23  22128617.805 8 115229554.842 8       861.062          51.000
C25  22745660.711 7 118442673.587 7     -1773.078          42.000
E05  24095514.742 8 126622777.006 8     -1679.184          50.000    24095518.406 8  97022645.205 8     -1286.623          51.000
E09  26005353.758 5 136659057.486 5     -2996.609          33.000
E24  22343769.555 8 117417345.338 8     -1452.309          51.000    22343783.133 8  89969204.823 8     -1112.805          51.000
E25  23899036.055 8 125590281.942 8      1283.484          51.000    23899037.844 8  96231528.364 8       983.485          51.000
> 2020 05 16 05 06  0.0000000  0 15        .000000000000
G13  20306774.766 8 106712812.629 8      -911.023          51.000    20306772.625 8  83152833.492 8      -709.891          50.000
G15  20397645.203 7 107190345.895 7       718.570          44.000    20397643.906 7  83524951.303 7       559.925          44.000
G17  23374396.562 6 122833271.181 6      2254.148          36.000    23374398.703 6  95714243.814 6      1756.479          36.000
G19  24458738.547 7 128531549.665 7      3418.637          45.000    24458738.828 6 100154432.559 6      2663.873          41.000
G28  21538438.477 6 113185260.649 6     -1897.684          37.000    21538437.125 5  88196298.708 5     -1478.705          33.000
R01  22900498.047 5 122416224.239 5     -4394.648          31.000    22900498.836 4  95212666.816 4     -3418.060          28.000
R02  19210348.281 8 102510057.902 8      -825.914          51.000    19210348.883 7  79730075.147 7      -642.378          46.000
R12  19320945.086 7 103208983.768 7      -633.012          44.000    19320948.500 6  80273706.057 6      -492.342          41.000
R13  21319678.289 5 113845896.140 5      2767.094          34.000    21319678.539 5  88546815.511 5      2152.184          32.000
C05  39790032.664 6 207197140.242 6        22.910          37.000    39790030.031 6 160217942.628 6        17.622          38.000
C23  22123690.164 8 115203897.396 8       852.258          51.000
C25  22755899.531 6 118495992.311 6     -1778.609          41.000
E05  24105136.891 8 126673340.344 8     -1688.680          51.000    24105140.453 8  97061388.536 8     -1293.977          51.000
E24  22352090.039 8 117461069.524 8     -1459.691          51.000    22352103.227 8  90002707.761 8     -1118.456          51.000
E25  23891743.641 8 125551959.111 8      1274.238          51.000    23891745.359 8  96202164.119 8       976.379          51.000
> 2020 05 16 05 06 30.0000000  0 14        .000000000000
G13  20312024.359 8 106740400.108 8      -930.098          51.000    20312022.672 8  83174330.224 8      -724.751          50.000
G15  20393598.156 7 107169077.830 7       697.559          44.000    20393596.477 7  83508378.799 7       543.552          44.000
G19  24439236.219 7 128429059.436 7      3412.398          47.000    24439236.039 6 100074570.110 6      2659.015          41.000
G28  21549314.273 6 113242412.842 6     -1914.223          41.000    21549312.727 4  88240832.738 4     -1491.611          29.000
R01  22925185.133 4 122548195.774 4     -4404.906          28.000    22925186.430 4  95315311.308 4     -3426.041          26.000
R02  19215070.906 8 102535258.763 8      -855.898          51.000    19215071.938 8  79749675.813 8      -665.699          48.000
R12  19324551.141 7 103228246.287 7      -653.000          43.000    19324554.297 6  80288687.988 6      -507.892          40.000
R13  21304173.961 5 113763105.452 5      2750.426          33.000    21304173.398 5  88482422.837 5      2139.223          35.000
C05  39789905.812 6 207196479.550 6        19.160          37.000    39789903.172 6 160217431.710 6        15.073          38.000
C23  22118813.602 8 115178504.725 8       838.883          51.000
C25  22766170.234 6 118549474.705 6     -1788.562          40.000
E05  24114813.930 8 126724192.024 8     -1703.105          51.000    24114817.375 8  97100352.788 8     -1304.974          51.000
E24  22360452.523 8 117505014.235 8     -1471.680          51.000    22360465.266 8  90036379.677 8     -1127.660          51.000
E25  23884503.844 8 125513914.697 8      1260.352          51.000    23884505.484 8  96173013.186 8       965.730          51.000
> 2020 05 16 05 07  0.0000000  0 14        .000000000000
G05  24482210.188 5 128654882.646 5     -3640.891          30.000
G13  20317373.016 8 106768507.827 8      -943.367          51.000    20317371.633 8  83196232.324 8      -735.094          50.000
G15  20389660.562 7 107148384.668 7       682.453          45.000    20389658.859 7  83492254.233 7       531.779          45.000
G19  24419759.672 7 128326705.080 7      3411.863          47.000    24419758.492 6  99994813.470 6      2658.595          40.000
G28  21560277.242 6 113300022.682 6     -1925.227          39.000    21560275.898 6  88285723.469 6     -1500.177          36.000
R02  19219952.938 8 102561309.688 8      -880.098          51.000    19219954.391 8  79769937.631 8      -684.520          48.000
R12  19328259.180 7 103248056.063 7      -667.188          42.000    19328263.141 6  80304095.591 6      -518.921          41.000
R13  21288749.375 5 113680741.417 5      2740.621          33.000    21288751.180 6  88418361.929 6      2131.594          38.000
C05  39789790.703 6 207195879.586 6        21.488          37.000    39789787.906 6 160216967.780 6        16.553          39.000
C23  22114005.453 8 115153466.816 8       831.008          51.000
C25  22776489.719 6 118603209.946 6     -1793.031          41.000
E05  24124562.992 8 126775422.572 8     -1711.680          51.000    24124566.234 8  97139607.336 8     -1311.529          51.000
E24  22368874.078 8 117549269.236 8     -1478.004          51.000    22368886.648 8  90070289.355 8     -1132.464          51.000
E25  23877334.016 8 125476239.769 8      1251.945          51.000    23877335.852 8  96144145.371 8       959.280          51.000
> 2020 05 16 05 07 30.0000000  0 16        .000000000000
G13  20322790.289 8 106796976.520 8      -955.105          51.000    20322789.023 8  83218415.709 8      -744.238          50.000
G15  20385802.211 7 107128108.442 7       668.699          46.000    20385800.461 7  83476454.585 7       521.064          46.000
G19  24400279.078 7 128224330.975 7      3412.527          46.000    24400276.656 6  99915041.397 6      2659.109          38.000
G24  22533808.031 5 118415958.324 5      2697.570          33.000
G28  21571296.328 6 113357929.001 6     -1935.176          41.000    21571294.625 5  88330845.213 5     -1507.935          31.000
R01  22974669.773 5 122812768.086 5     -4411.371          33.000    22974672.039 4  95521034.612 4     -3431.069          29.000
R02  19224963.938 8 102588049.177 8      -903.039          51.000    19224966.148 8  79790735.022 8      -702.364          49.000
R11  21788388.461 5 116430466.371 5     -3305.375          32.000    21788394.023 4  90557098.539 4     -2570.847          28.000
R12  19332039.688 7 103268249.683 7      -679.703          44.000    19332043.766 6  80319801.724 6      -528.661          40.000
R13  21273375.375 5 113598642.317 5      2732.484          33.000    21273378.938 6  88354507.067 6      2125.266          40.000
C05  39789656.828 6 207195182.713 6        24.410          37.000    39789654.062 6 160216428.896 6        19.392          38.000
C23  22109235.062 8 115128625.749 8       824.625          51.000
C25  22786827.242 6 118657039.291 6     -1795.914          41.000
E05  24134353.945 8 126826872.317 8     -1718.844          51.000    24134356.961 8  97179029.849 8     -1317.012          51.000
E24  22377324.117 8 117593674.101 8     -1482.809          51.000    22377336.727 8  90104313.854 8     -1136.193          51.000
E25  23870204.617 8 125438775.177 8      1245.199          51.000    23870206.383 8  96115438.731 8       954.129          51.000
> 2020 05 16 05 08  0.0000000  0 16        .000000000000
G13  20328303.078 8 106825947.228 8      -976.891          50.000    20328301.922 8  83240990.274 8      -761.213          49.000
G15  20382050.242 7 107108391.587 7       645.117          46.000    20382048.617 7  83461090.792 7       502.689          46.000
G17  23323451.164 5 122565559.329 5      2204.887          35.000    23323450.133 5  95505632.900 5      1718.091          33.000
G19  24380822.016 7 128122081.810 7      3403.430          47.000    24380819.039 6  99835366.709 6      2652.023          39.000
G24  22518441.500 5 118335212.449 5      2685.172          34.000
G28  21582398.508 7 113416271.192 7     -1954.992          42.000    21582396.977 6  88376306.587 6     -1523.374          36.000
R01  22999461.367 5 122945293.932 5     -4424.141          35.000    22999464.750 5  95624110.213 5     -3440.998          30.000
R02  19230130.570 8 102615620.078 8      -935.656          51.000    19230133.555 8  79812179.086 8      -727.733          50.000
R12  19335918.117 6 103288968.683 6      -702.051          40.000    19335922.211 6  80335916.481 6      -546.036          40.000
R13  21258077.906 5 113516953.908 5      2713.676          32.000    21258082.203 6  88290971.672 6      2110.637          38.000
C05  39789531.383 6 207194529.094 6        18.355          37.000    39789528.578 6 160215923.506 6        14.085          38.000
C23  22104529.219 8 115104121.468 8       808.441          51.000
C25  22797209.570 6 118711101.898 6     -1808.641          41.000
E05  24144213.500 8 126878682.176 8     -1735.625          51.000    24144216.367 8  97218728.299 8     -1329.880          51.000
E24  22385829.195 8 117638368.966 8     -1497.355          51.000    22385841.898 8  90138560.566 8     -1147.306          51.000
E25  23863142.594 8 125401662.464 8      1228.449          51.000    23863144.047 8  96087001.708 8       941.342          51.000
> 2020 05 16 05 08 30.0000000  0 16        .000000000000
G13  20333919.508 8 106855461.929 8      -988.539          51.000    20333918.297 8  83263988.735 8      -770.290          49.000
G15  20378412.734 7 107089277.076 7       631.406          45.000    20378411.055 7  83446196.363 7       492.005          45.000
G17  23310892.047 5 122499564.328 5      2197.691          30.000    23310888.969 5  95454208.285 5      1712.496          30.000
G19  24361397.055 7 128020002.353 7      3404.055          46.000    24361394.039 6  99755824.266 6      2652.510          39.000
G28  21593590.938 6 113475088.605 6     -1964.441          39.000    21593589.883 6  88422138.310 6     -1530.737          37.000
R01  23024302.734 5 123078082.353 5     -4426.121          35.000    23024306.078 5  95727389.996 5     -3442.542          30.000
R02  19235461.273 8 102644064.585 8      -958.270          51.000    19235464.625 8  79834302.606 8      -745.321          51.000
R12  19339902.695 7 103310253.910 7      -714.691          43.000    19339906.336 6  80352471.658 6      -555.871          39.000
R13  21242864.578 4 113435718.458 4      2703.559          29.000    21242868.641 6  88227788.543 6      2102.768          37.000
C05  39789421.992 6 207193959.944 6        21.914          37.000    39789419.188 6 160215483.401 6        16.664          38.000
C23  22099895.594 8 115079994.818 8       802.207          51.000
C25  22807644.062 6 118765437.782 6     -1811.320          41.000
E02  27421422.609 7 144100550.571 7      2776.285          42.000    27421425.062 7 110414714.224 7      2127.343          43.000
E05  24154149.109 8 126930893.168 8     -1742.738          51.000    24154152.125 8  97258734.108 8     -1335.324          51.000
E24  22394397.109 8 117683394.063 8     -1502.016          51.000    22394409.906 8  90173060.311 8     -1150.871          51.000
E25  23856155.250 8 125364943.088 8      1221.746          51.000    23856156.555 8  96058866.090 8       936.155          51.000
> 2020 05 16 05 09  0.0000000  0 14        .000000000000
G13  20339610.609 8 106885368.639 8     -1004.258          51.000    20339609.555 8  83287292.642 8      -782.539          49.000
G15  20374860.977 7 107070613.750 7       613.727          44.000    20374859.109 7  83431653.496 7       478.228          44.000
G19  24341975.555 7 127917943.614 7      3400.805          45.000    24341973.508 6  99676298.007 6      2649.981          39.000
G28  21604844.195 6 113534226.776 6     -1977.520          40.000    21604843.328 6  88468220.007 6     -1540.924          39.000
R01  23049162.906 5 123210975.305 5     -4432.316          35.000    23049166.258 5  95830751.112 5     -3447.360          30.000
R02  19240926.781 8 102673227.253 8      -984.824          51.000    19240929.977 8  79856984.663 8      -765.974          50.000
R12  19343963.797 6 103331948.537 6      -730.766          41.000    19343966.875 6  80369345.225 6      -568.370          38.000
C05  39789300.047 6 207193326.491 6        21.598          37.000    39789297.148 6 160214991.998 6        16.852          38.000
C23  22095305.586 8 115056094.823 8       792.020          51.000
C25  22818101.438 6 118819895.215 6     -1818.043          41.000
E02  27405588.500 7 144017340.993 7      2772.027          43.000    27405591.305 7 110350956.239 7      2123.991          45.000
E05  24164131.680 8 126983352.586 8     -1753.629          51.000    24164134.953 8  97298930.277 8     -1343.657          51.000
E24  22402998.773 8 117728595.951 8     -1510.457          51.000    22403011.797 8  90207695.518 8     -1157.315          51.000
E25  23849213.602 8 125328464.898 8      1211.219          51.000    23849215.180 8  96030915.288 8       928.062          51.000
> 2020 05 16 05 09 30.0000000  0 17        .000000000000
G13  20345387.109 8 106915723.756 8     -1019.340          51.000    20345386.297 8  83310945.952 8      -794.291          49.000
G15  20371406.016 7 107052458.809 7       596.742          46.000    20371403.906 7  83417506.771 7       464.997          46.000
G17  23285947.531 5 122368475.711 5      2174.121          30.000
G19  24322568.688 6 127815965.340 6      3397.730          41.000    24322565.656 5  99596834.511 5      2647.585          34.000
G24  22472578.469 5 118094196.054 5      2669.234          33.000
G28  21616169.227 6 113593740.191 6     -1990.020          39.000    21616168.547 6  88514594.019 6     -1550.668          40.000
R01  23074051.859 5 123344026.272 5     -4438.156          34.000    23074056.344 5  95934235.141 5     -3451.899          30.000
R02  19246537.406 8 102703164.483 8     -1010.840          51.000    19246540.250 8  79880269.171 8      -786.209          50.000
R12  19348111.617 7 103354107.963 7      -746.258          43.000    19348114.367 6  80386580.369 6      -580.423          38.000
R13  21212622.914 4 113274221.751 4      2680.031          29.000    21212623.727 5  88102168.926 5      2084.472          35.000
C05  39789176.000 6 207192680.389 6        21.781          37.000    39789173.172 6 160214492.391 6        16.963          38.000
C23  22090770.078 8 115032476.900 8       782.660          51.000
C25  22828592.703 6 118874528.801 6     -1823.922          41.000
E02  27389774.789 7 143934238.532 7      2768.430          43.000    27389777.117 7 110287280.316 7      2121.183          44.000
E05  24174172.000 8 127036116.075 8     -1763.820          51.000    24174175.438 8  97339359.413 8     -1351.439          51.000
E24  22411644.570 8 117774029.513 8     -1518.215          51.000    22411657.867 8  90242508.239 8     -1163.307          51.000
E25  23842328.711 8 125292284.081 8      1201.078          51.000    23842330.570 8  96003192.337 8       920.280          51.000
> 2020 05 16 05 10  0.0000000  0 16        .000000000000
G13  20351242.688 8 106946494.483 8     -1036.191          51.000    20351242.016 8  83334923.112 8      -807.422          49.000
G15  20368041.953 7 107034781.172 7       577.832          47.000    20368039.883 7  83403731.993 7       450.259          47.000
G17  23273565.656 5 122303399.299 5      2160.297          32.000    23273575.398 5  95301395.682 5      1683.348          30.000
G19  24303170.875 6 127714038.251 6      3393.324          38.000    24303164.734 5  99517410.920 5      2644.149          34.000
G28  21627558.719 6 113653593.900 6     -2004.523          38.000    21627558.664 6  88561233.333 6     -1561.963          38.000
R01  23098963.789 5 123477199.381 5     -4444.453          34.000    23098969.500 5  96037814.163 5     -3456.797          31.000
R02  19252286.602 8 102733843.083 8     -1038.504          51.000    19252289.219 8  79904130.274 8      -807.728          50.000
R11  21881575.508 4 116928465.481 4     -3330.395          28.000    21881570.875 4  90944373.631 4     -2590.310          27.000
R12  19352340.031 6 103376697.474 6      -763.617          39.000    19352343.133 6  80404149.986 6      -593.924          39.000
C05  39789043.680 6 207191991.663 6        20.164          37.000    39789040.922 6 160213959.814 6        15.722          38.000
C23  22086282.375 8 115009108.812 8       771.352          50.000
C25  22839112.000 7 118929305.540 7     -1831.750          43.000
E02  27373975.070 7 143851211.771 7      2762.836          42.000    27373977.641 7 110223662.367 7      2116.963          44.000
E05  24184264.172 8 127089150.791 8     -1775.777          51.000    24184267.594 8  97379996.373 8     -1360.652          51.000
E24  22420327.984 8 117819661.169 8     -1527.766          51.000    22420341.328 8  90277472.745 8     -1170.665          51.000
E25  23835494.281 8 125256368.318 8      1189.410          51.000    23835496.641 8  95975672.468 8       911.360          51.000
> 2020 05 16 05 10 30.0000000  0 15        .000000000000
G13  20357200.836 8 106977804.312 8     -1041.477          51.000    20357199.953 8  83359320.358 8      -811.540          49.000
G15  20364792.273 7 107017704.683 7       570.344          46.000    20364790.703 7  83390425.624 7       444.421          46.000
G19  24283808.188 7 127612288.913 7      3399.895          43.000    24283800.797 6  99438125.723 6      2649.265          37.000
G24  22442181.266 5 117934432.701 5      2664.406          35.000
G28  21639036.430 7 113713909.209 7     -2007.410          43.000    21639036.359 6  88608232.237 6     -1564.216          38.000
R01  23123921.570 5 123610616.343 5     -4439.914          34.000    23123928.867 5  96141582.850 5     -3453.266          30.000
R02  19258197.789 8 102765387.524 8     -1054.652          51.000    19258200.500 8  79928664.802 8      -820.285          48.000
R12  19356671.852 7 103399840.324 7      -769.191          42.000    19356675.391 6  80422150.007 6      -598.260          37.000
C05  39788926.719 6 207191382.375 6        29.816          37.000    39788923.875 6 160213488.680 6        23.192          38.000
C23  22081865.719 8 114986112.196 8       771.336          50.000
C25  22849682.336 7 118984346.332 7     -1827.980          42.000
E02  27358213.570 6 143768384.396 6      2768.691          41.000    27358216.172 7 110160197.267 7      2121.384          44.000
E05  24194431.570 8 127142579.234 8     -1776.465          51.000    24194434.758 8  97420935.019 8     -1361.193          51.000
E24  22429072.203 8 117865612.670 8     -1525.969          51.000    22429085.359 8  90312682.322 8     -1169.300          51.000
E25  23828733.578 8 125220840.671 8      1188.668          51.000    23828736.672 8  95948449.977 8       910.845          51.000
> 2020 05 16 05 11  0.0000000  0 17        .000000000000
G05  24648449.547 5 129528484.445 5     -3638.965          32.000
G13  20363224.242 8 107009457.382 8     -1065.340          51.000    20363223.141 8  83383985.068 8      -830.135          50.000
G15  20361620.094 7 107001035.121 7       544.398          47.000    20361618.906 7  83377436.330 7       424.207          47.000
G19  24264443.695 7 127510524.712 7      3387.926          45.000    24264438.180 6  99358829.037 6      2639.948          41.000
G24  22427016.977 5 117854751.884 5      2650.160          34.000    22427019.977 5  91834933.704 5      2065.051          34.000
G28  21650564.766 6 113774488.493 6     -2028.035          41.000    21650563.969 6  88655436.828 6     -1580.287          40.000
R01  23148888.039 5 123744074.722 5     -4453.910          35.000    23148895.453 4  96245383.773 4     -3464.152          29.000
R02  19264233.609 8 102797598.493 8     -1089.320          51.000    19264236.422 7  79953717.759 7      -847.252          47.000
R11  21918999.828 5 117128471.633 5     -3337.895          33.000
R12  19361070.250 6 103423335.769 6      -793.625          41.000    19361072.625 6  80440424.167 6      -617.264          38.000
C05  39788787.789 6 207190658.662 6        21.727          37.000    39788784.867 6 160212929.052 6        16.803          38.000
C23  22077483.633 8 114963293.034 8       753.293          51.000
C25  22860266.055 7 119039456.400 7     -1842.637          43.000
E02  27342452.336 6 143685561.734 6      2756.312          36.000    27342455.344 7 110096735.709 7      2111.878          43.000
E05  24204636.539 8 127196205.270 8     -1795.336          51.000    24204639.430 8  97462025.069 8     -1375.617          51.000
E24  22437839.867 8 117911687.153 8     -1542.324          51.000    22437852.914 8  90347986.129 8     -1181.766          51.000
E25  23822009.469 8 125185505.486 8      1170.234          51.000    23822013.125 8  95921374.960 8       896.637          51.000
> 2020 05 16 05 11 30.0000000  0 17        .000000000000
G13  20369350.758 8 107041652.149 8     -1079.641          51.000    20369349.602 8  83409071.869 8      -841.278          50.000
G15  20358563.273 7 106984971.414 7       527.828          47.000    20358562.156 7  83364919.152 7       411.295          47.000
G17  23236837.992 5 122110407.193 5      2127.301          31.000
G19  24245115.094 7 127408947.511 7      3385.340          47.000    24245111.469 7  99279678.030 7      2637.930          43.000
G24  22411905.656 5 117775346.032 5      2644.785          35.000    22411904.672 5  91773059.133 5      2060.881          34.000
G28  21662180.656 6 113835527.588 6     -2039.688          41.000    21662178.688 6  88702999.817 6     -1589.367          38.000
R01  23173899.828 5 123877773.063 5     -4457.773          35.000    23173906.312 4  96349371.367 4     -3467.157          29.000
R02  19270431.773 8 102830676.542 8     -1114.418          51.000    19270434.656 7  79979445.079 7      -866.770          46.000
R11  21937751.430 5 117228668.607 5     -3341.422          33.000    21937752.891 4  91177883.256 4     -2598.887          29.000
R12  19365571.820 7 103447383.197 7      -808.086          45.000    19365575.859 6  80459127.783 6      -628.511          40.000
C05  39788664.617 6 207190017.124 6        22.238          37.000    39788661.594 6 160212432.956 6        17.365          38.000
C23  22073173.555 8 114940847.528 8       744.480          51.000
C25  22870900.930 7 119094831.132 7     -1847.645          43.000
E02  27326729.555 5 143602942.731 5      2753.641          35.000    27326733.195 7 110033430.240 7      2109.582          42.000
E05  24214916.695 8 127250226.581 8     -1804.809          51.000    24214919.148 8  97503417.994 8     -1382.902          51.000
E24  22446668.508 8 117958081.582 8     -1549.293          51.000    22446681.469 8  90383535.098 8     -1187.127          51.000
E25  23815359.625 8 125150561.025 8      1160.828          51.000    23815363.625 8  95894599.322 8       889.448          51.000
> 2020 05 16 05 12  0.0000000  0 17        .000000000000
G13  20375562.375 8 107074294.290 8     -1096.043          51.000    20375561.297 8  83434507.293 8      -854.059          50.000
G15  20355604.008 8 106969420.560 8       509.391          48.000    20355603.172 8  83352801.596 8       396.925          48.000
G19  24225804.250 7 127307465.941 7      3380.734          45.000    24225802.570 7  99200601.519 7      2634.342          45.000
G24  22396829.383 6 117696121.233 6      2637.074          36.000    22396827.812 5  91711325.447 5      2054.863          34.000
G28  21673865.445 7 113896930.004 7     -2053.395          44.000    21673863.117 6  88750845.793 6     -1600.051          37.000
R01  23198937.938 5 124011611.996 5     -4463.551          34.000    23198943.969 4  96453468.250 4     -3471.654          27.000
R02  19276774.727 8 102864524.615 8     -1141.523          51.000    19276777.180 7  80005771.324 7      -887.852          45.000
R11  21956519.562 5 117328968.462 5     -3345.695          35.000    21956524.977 5  91255894.196 5     -2602.211          30.000
R12  19370159.117 7 103471885.087 7      -824.621          43.000    19370162.672 6  80478184.768 6      -641.372          39.000
R13  21138192.492 5 112876760.455 5      2617.672          31.000    21138191.328 5  87793047.824 5      2035.970          32.000
C05  39788539.125 6 207189363.841 6        21.891          37.000    39788536.062 6 160211927.841 6        16.507          38.000
C23  22068916.836 8 114918681.654 8       733.824          50.000
C25  22881568.703 7 119150375.823 7     -1854.672          42.000
E02                                                                  27311031.805 6 109970208.931 6      2105.760          41.000
E05  24225254.023 8 127304547.947 8     -1816.027          51.000    24225255.789 8  97545040.845 8     -1391.507          51.000
E24  22455539.766 8 118004700.034 8     -1558.074          51.000    22455552.617 8  90419255.727 8     -1193.828          51.000
E25  23808766.164 8 125115912.605 8      1149.609          51.000    23808770.125 8  95868050.537 8       880.867          51.000
> 2020 05 16 05 12 30.0000000  0 17        .000000000000
G13  20381869.031 8 107107435.840 8     -1111.309          51.000    20381867.953 8  83460331.872 8      -865.955          50.000
G15  20352752.469 8 106954435.655 8       491.809          48.000    20352751.586 8  83341125.032 8       383.227          48.000
G17  23212698.875 5 121983541.810 5      2102.309          33.000    23212711.883 5  95052146.339 5      1638.166          32.000
G19  24206521.453 7 127206135.779 7      3376.715          44.000    24206521.469 7  99121643.015 7      2631.206          44.000
G28  21685628.773 7 113958745.615 7     -2065.547          42.000    21685626.898 6  88799013.777 6     -1609.517          39.000
R01  23224011.258 5 124145640.932 5     -4469.051          35.000    23224016.781 4  96557712.909 4     -3475.931          25.000
R02  19283271.984 8 102899195.324 8     -1167.605          51.000    19283274.344 7  80032737.394 7      -908.138          46.000
R11  21975316.102 6 117429422.341 6     -3349.223          38.000    21975320.938 5  91334025.025 5     -2604.951          30.000
R12  19374840.281 7 103496892.084 7      -840.078          44.000    19374843.938 6  80497634.654 6      -653.394          41.000
R13  21123526.117 5 112798439.480 5      2605.918          31.000    21123525.047 5  87732131.577 5      2026.828          34.000
C05  39788421.438 6 207188750.757 6        21.684          37.000    39788418.328 6 160211453.748 6        16.616          38.000
C23  22064723.719 8 114896846.860 8       724.125          51.000
C25  22892278.672 7 119206141.164 7     -1860.613          42.000
E02                                                                  27295361.391 6 109907112.352 6      2102.477          40.000
E05  24235658.219 8 127359220.979 8     -1826.445          51.000    24235659.555 8  97586933.159 8     -1399.508          51.000
E24  22464463.359 8 118051593.443 8     -1565.863          51.000    22464476.227 8  90455187.031 8     -1199.811          51.000
E25  23802239.289 8 125081612.365 8      1139.430          51.000    23802242.750 8  95841768.548 8       873.075          51.000
> 2020 05 16 05 13  0.0000000  0 16        .000000000000
G13  20388254.109 8 107140989.681 8     -1125.516          51.000    20388253.148 8  83486477.712 8      -877.028          50.000
G15  20349992.172 8 106939930.797 8       475.293          48.000    20349991.289 8  83329822.528 8       370.358          48.000
G17  23200732.969 6 121920646.279 6      2090.758          39.000    23200752.320 5  95003136.950 5      1629.168          33.000
G19  24187250.680 6 127104873.288 6      3374.320          40.000    24187252.039 6  99042737.180 6      2629.344          39.000
G28  21697453.297 7 114020885.265 7     -2076.719          43.000    21697451.672 6  88847434.314 6     -1618.222          36.000
R01  23249102.680 5 124279768.640 5     -4472.957          32.000
R02  19289907.180 8 102934599.462 8     -1192.422          51.000    19289909.023 7  80060273.946 7      -927.436          47.000
R11  21994126.164 5 117529899.071 5     -3351.812          34.000    21994133.688 4  91412175.486 4     -2606.962          28.000
R12  19379599.641 7 103522314.228 7      -854.426          43.000    19379603.984 6  80517407.427 6      -664.553          41.000
C05  39788294.938 6 207188091.721 6        22.695          37.000    39788291.789 6 160210944.102 6        17.643          38.000
C23  22060577.836 8 114875256.831 8       715.441          51.000
C25  22903013.453 7 119262040.148 7     -1865.613          42.000
E02  27279704.609 5 143355812.705 5      2741.070          32.000    27279705.859 6 109844074.524 6      2100.040          40.000
E05  24246112.281 8 127414158.223 8     -1835.859          51.000    24246113.898 8  97629027.924 8     -1406.706          51.000
E24  22473422.547 8 118098673.683 8     -1572.551          51.000    22473435.656 8  90491261.487 8     -1204.974          51.000
E25  23795762.227 8 125047573.468 8      1130.008          51.000    23795764.992 8  95815686.792 8       865.862          51.000
> 2020 05 16 05 13 30.0000000  0 17        .000000000000
G13  20394728.391 8 107175012.133 8     -1141.445          51.000    20394727.398 8  83512988.695 8      -889.438          50.000
G15  20347334.102 8 106925962.790 8       457.133          49.000    20347333.328 8  83318938.366 8       356.207          48.000
G17  23188837.766 6 121858128.456 6      2077.988          37.000    23188859.984 5  94954421.600 5      1619.203          31.000
G19  24168004.414 7 127003737.905 7      3369.340          42.000    24168006.094 7  98963930.439 7      2625.460          42.000
G24  22351836.289 5 117459696.926 5      2618.914          35.000
G28  21709350.023 7 114083403.264 7     -2089.797          43.000    21709347.641 5  88896149.596 5     -1628.413          35.000
R01  23274222.930 5 124414048.568 5     -4477.555          31.000
R02  19296690.508 8 102970793.318 8     -1219.191          51.000    19296692.070 8  80088424.733 8      -948.260          48.000
R11  22012959.438 4 117630519.600 4     -3357.336          27.000
R12  19384446.844 7 103548206.911 7      -870.398          45.000    19384450.727 6  80537546.148 6      -676.977          41.000
C05  39788170.258 6 207187442.514 6        21.711          37.000    39788167.242 6 160210442.100 6        16.803          38.000
C23  22056489.469 8 114853966.976 8       705.109          51.000
C25  22913784.117 6 119318127.393 6     -1872.168          41.000
E02  27264075.438 6 143273676.586 6      2735.902          36.000    27264076.344 6 109781139.070 6      2096.335          39.000
E05  24256626.766 8 127469415.278 8     -1846.910          51.000    24256629.102 8  97671367.735 8     -1415.111          51.000
E24  22482427.609 8 118145995.636 8     -1581.051          51.000    22482441.102 8  90527521.158 8     -1211.416          51.000
E25  23789345.016 8 125013851.972 8      1119.250          51.000    23789347.297 8  95789848.236 8       857.607          51.000
> 2020 05 16 05 14  0.0000000  0 14        .000000000000
G13  20401283.812 8 107209461.607 8     -1158.578          51.000    20401283.102 8  83539832.426 8      -902.788          50.000
G15  20344770.625 8 106912491.552 8       437.504          50.000    20344769.977 8  83308441.292 8       340.912          50.000
G17  23177004.773 5 121795949.473 5      2064.371          35.000    23177023.789 4  94905970.254 4      1608.583          26.000
G19  24148776.062 7 126902691.777 7      3363.324          44.000    24148777.055 7  98885193.263 7      2620.778          42.000
G28  21721310.500 7 114146255.911 7     -2103.973          42.000    21721308.172 6  88945125.674 6     -1639.462          39.000
R02  19303613.633 8 103007733.790 8     -1247.016          51.000    19303614.945 8  80117156.215 8      -969.901          48.000
R12  19389374.180 7 103574525.802 7      -887.609          45.000    19389378.031 6  80558016.390 6      -690.363          41.000
C05  39788039.523 6 207186762.122 6        19.891          37.000    39788036.570 6 160209915.956 6        15.598          38.000
C23  22052451.117 8 114832935.983 8       693.527          51.000
C25  22924582.891 6 119374360.938 6     -1880.090          41.000
E02  27248463.281 6 143191633.463 6      2729.879          38.000    27248465.188 6 109718274.825 6      2091.896          39.000
E05  24267193.969 8 127524950.105 8     -1858.973          51.000    24267197.008 8  97713920.387 8     -1424.420          51.000
E24  22491470.508 8 118193516.591 8     -1590.535          51.000    22491484.055 8  90563933.308 8     -1218.707          51.000
E25  23782980.094 8 124980406.415 8      1107.043          51.000    23782982.148 8  95764221.118 8       848.215          51.000
> 2020 05 16 05 14 30.0000000  0 15        .000000000000
G13  20407924.625 8 107244360.157 8     -1164.852          51.000    20407923.977 8  83567026.091 8      -907.680          50.000
G15  20342306.047 8 106899539.617 8       428.949          49.000    20342305.594 8  83298348.861 8       334.243          49.000
G17  23165240.836 5 121734133.698 5      2060.582          34.000    23165259.000 5  94857868.309 5      1605.645          30.000
G19  24129570.008 7 126801759.988 7      3368.121          47.000    24129570.117 6  98806545.147 6      2624.510          41.000
G24  22322002.609 5 117302891.627 5      2612.809          30.000    22321992.039 4  91404829.329 4      2035.949          29.000
G28  21733338.500 7 114209463.018 7     -2107.008          43.000    21733336.336 6  88994377.970 6     -1641.824          39.000
R02  19310680.297 8 103045442.345 8     -1263.875          51.000    19310681.367 8  80146485.105 8      -983.014          48.000
R12  19394385.195 7 103601291.602 7      -893.586          45.000    19394388.617 6  80578834.234 6      -695.011          40.000
C05  39787907.094 6 207186072.399 6        28.516          37.000    39787904.133 6 160209382.615 6        22.316          38.000
C23  22048466.625 8 114812185.347 8       692.766          50.000
