     3.02           OBSERVATION DATA    M (MIXED)           RINEX VERSION / TYPE
SAVERINEX           SC600               20200510 115930 LCL PGM / RUN BY / DATE
       G = GPS       R = GLONASS       C = COMPASS          COMMENT
       S = SBAS      J = QZSS          E = GALILEO          COMMENT
BEAN                                                        MARKER NAME
1                                                           MARKER NUMBER
GEODETIC                                                    MARKER TYPE
Unige DICCA         GTER                                    OBSERVER / AGENCY
SC60291900056       SC600               2.12(191226)        REC # / TYPE / VERS
                    HEMA45          NONE                    ANT # / TYPE
  4509407.8091   693652.4678  4442337.6214                  APPROX POSITION XYZ
        0.0000        0.0000        0.0000                  ANTENNA: DELTA H/E/N
G    8 C1C L1C D1C S1C C2Y L2Y D2Y S2Y                      SYS / # / OBS TYPES
R    8 C1C L1C D1C S1C C2P L2P D2P S2P                      SYS / # / OBS TYPES
C    8 C1I L1I D1I S1I C7I L7I D7I S7I                      SYS / # / OBS TYPES
E    8 C1C L1C D1C S1C C7Q L7Q D7Q S7Q                      SYS / # / OBS TYPES
DBHZ                                                        COMMENT
     30.000                                                 INTERVAL
  2020    05    10    09    00    0.0000000     GPS         TIME OF FIRST OBS
  2020    05    10    09    59   30.0000000     GPS         TIME OF LAST OBS
     0                                                      RCV CLOCK OFFS APPL
G L1C  0.00000                                              SYS / PHASE SHIFT
G L2Y  0.00000                                              SYS / PHASE SHIFT
R L1C  0.00000                                              SYS / PHASE SHIFT
R L2P  0.25000                                              SYS / PHASE SHIFT
C L1I  0.00000                                              SYS / PHASE SHIFT
C L7I  0.00000                                              SYS / PHASE SHIFT
E L1C  0.50000                                              SYS / PHASE SHIFT
E L7Q -0.25000                                              SYS / PHASE SHIFT
 16 R02 -4 R03  5 R04  6 R05  1 R06 -4 R07  5 R10 -5 R12 -1 GLONASS SLOT / FRQ #
    R13 -2 R14 -7 R15  0 R16 -1 R17  4 R18 -3 R19  3 R23  3 GLONASS SLOT / FRQ #
 C1C   71.950 C2C   71.950 C2P   71.950                     GLONASS COD/PHS/BIS
    18                                                      LEAP SECONDS
*** Above antenna height is from mark to ANTENNA BOTTOM.    COMMENT
    17     4        0.0000        ANT MEASURE TYPE/HEIGT    COMMENT
    0.0000    0.0000    0.0458    0.0405    0.0000          COMMENT
                    BASE STATION                            COMMENT
                                                            END OF HEADER
> 2020 05 10 09 00  0.0000000  0 12        .000000000000
G02  23647955.664 4 124270845.197 4      1891.520          28.000
G12  20064882.281 8 105441713.698 8      -202.453          51.000    20064880.055 8  82162344.915 8      -157.753          51.000
G24  20917987.906 8 109924756.439 8     -1925.180          51.000    20917990.445 8  85655668.520 8     -1500.140          51.000
G29  23820360.523 5 125176814.417 5      3785.297          35.000
R18  20561472.836 7 109758558.915 7      2933.633          47.000    20561477.539 7  85367790.029 7      2281.714          47.000
C11  22677325.031 6 118086836.327 6       132.160          40.000    22677325.117 7  91312255.996 7       102.267          45.000
C12                                                                  25225330.344 5 101571945.930 5     -2029.110          35.000
C23  21913824.633 8 114111031.591 8       466.484          51.000
C25  23428702.391 6 121999382.368 6     -2015.004          37.000
E05  25924019.312 8 136231634.658 8     -2440.621          48.000    25924021.234 8 104385283.433 8     -1870.137          49.000
E24  21836177.859 8 114749920.289 8      -426.395          51.000    21836190.117 8  87925254.981 8      -326.700          51.000
E25  25140093.367 5 132112082.428 5      1666.738          33.000    25140097.227 5 101228750.929 5      1277.395          34.000
> 2020 05 10 09 00 30.0000000  0 15        .000000000000
G12  20066076.758 8 105447990.310 8      -216.562          51.000    20066074.273 8  82167235.789 8      -168.750          51.000
G24  20929018.469 8 109982721.713 8     -1939.742          51.000    20929021.156 8  85700836.246 8     -1511.487          51.000
G29  23798764.664 5 125063351.853 5      3777.895          31.000
G32  22376496.406 5 117589271.033 5      1274.020          32.000    22376500.727 5  91628023.295 5       992.742          32.000
R17  20536906.844 5 109897123.340 5     -1075.285          34.000
R18  20545046.898 8 109670880.613 8      2910.840          48.000    20545051.922 7  85299595.808 7      2263.987          46.000
C11  22676615.836 6 118083143.910 6       113.262          40.000    22676616.102 7  91309400.750 7        87.759          44.000
C12  25240485.531 4 131433823.134 4     -2635.305          27.000    25240480.906 5 101632951.292 5     -2038.177          33.000
C23  21911165.836 8 114097187.144 8       455.953          51.000
C25  23440331.195 6 122059937.379 6     -2023.039          39.000
E05  25937976.156 7 136304979.149 7     -2449.547          47.000    25937978.492 8 104441482.445 8     -1876.905          48.000
E12  23606929.672 6 124055249.171 6      1796.070          36.000    23606930.695 5  95055325.974 5      1376.569          35.000
E24  21838629.469 8 114762803.894 8      -433.090          51.000    21838641.883 8  87935126.836 8      -331.836          51.000
E25                                                                  25130590.102 5 101190484.617 5      1273.346          35.000
E31  26454533.312 6 139019498.645 6     -2064.246          37.000
> 2020 05 10 09 01  0.0000000  0 11        .000000000000
G12  20067352.180 8 105454692.658 8      -228.773          51.000    20067349.719 8  82172458.392 8      -178.265          51.000
G24  20940132.188 8 110041125.484 8     -1952.355          51.000    20940135.188 8  85746345.656 8     -1521.316          51.000
R18  20528749.875 8 109583886.060 8      2890.230          49.000    20528754.078 7  85231933.380 7      2247.957          46.000
C11  22676016.430 7 118080024.465 7        96.176          43.000    22676016.484 7  91306988.595 7        74.424          44.000
C12                                                                  25255697.500 5 101694227.374 5     -2045.910          30.000
C23  21908567.984 8 114083659.899 8       447.309          51.000
C25  23452010.359 6 122120751.481 6     -2029.844          38.000
E05  25951984.867 7 136378596.333 7     -2456.578          47.000    25951987.461 7 104497890.392 7     -1882.271          47.000
E12  23596711.242 5 124001559.243 5      1784.945          33.000    23596714.672 6  95014187.001 6      1367.608          37.000
E24  21841120.148 8 114775892.894 8      -437.918          51.000    21841132.641 8  87945156.056 8      -335.485          51.000
E25  25121112.602 5 132012318.138 5      1659.020          35.000    25121112.695 5 101152331.517 5      1271.098          34.000
> 2020 05 10 09 01 30.0000000  0 13        .000000000000
G12  20068684.336 8 105461693.654 8      -243.164          50.000    20068682.242 8  82177913.727 8      -189.475          50.000
G24  20951304.977 8 110099841.396 8     -1967.191          48.000    20951308.531 8  85792098.297 8     -1532.876          48.000
G29  23755682.461 5 124836971.320 5      3767.371          32.000
G32  22362147.352 6 117513896.109 6      1235.727          36.000    22362164.641 5  91569312.949 5       962.904          30.000
R15  20837859.578 5 111351153.884 5     -2049.559          32.000
R18  20512557.852 8 109497450.947 8      2866.816          49.000    20512561.297 7  85164706.076 7      2229.746          47.000
C11  22675504.078 7 118077353.152 7        76.805          46.000    22675504.062 7  91304922.974 7        59.514          45.000
C23  21906007.273 8 114070325.491 8       436.531          51.000
C25  23463714.836 5 122181699.228 5     -2038.367          33.000
E05  25966021.117 8 136452358.105 8     -2465.828          48.000    25966023.891 7 104554409.122 7     -1889.374          46.000
E12  23586547.320 6 123948141.921 6      1771.164          39.000    23586550.125 6  94973262.256 6      1357.081          36.000
E24  21843625.883 8 114789061.002 8      -444.965          51.000    21843638.375 8  87955245.905 8      -340.917          51.000
E25  25111638.156 5 131962546.745 5      1654.223          33.000    25111639.695 4 101114166.972 4      1267.569          28.000
> 2020 05 10 09 02  0.0000000  0 14        .000000000000
G12  20070103.750 8 105469152.663 8      -252.805          51.000    20070102.102 8  82183725.942 8      -196.991          51.000
G24  20962567.266 7 110159028.707 7     -1977.316          46.000    20962571.297 7  85838218.273 7     -1540.763          46.000
G29  23734182.977 6 124724016.803 6      3765.129          36.000    23734168.828 5  97187451.958 5      2933.867          35.000
G32  22355144.273 5 117477086.395 5      1219.793          32.000    22355148.398 5  91540629.851 5       950.485          32.000
R17  20555640.297 5 109997397.667 5     -1154.172          32.000    20555640.086 4  85553510.570 4      -897.692          28.000
R18  20496502.055 8 109411741.432 8      2848.336          48.000    20496504.727 7  85098043.132 7      2215.369          45.000
C11  22675107.570 7 118075287.915 7        62.242          46.000    22675107.906 7  91303326.063 7        48.163          42.000
C23  21903514.156 8 114057342.992 8       430.355          51.000
C25  23475474.453 5 122242938.857 5     -2042.758          32.000
E05  25980114.922 7 136526422.313 7     -2470.367          47.000    25980118.359 7 104611159.606 7     -1892.795          46.000
E12  23576469.172 6 123895172.631 6      1761.836          40.000    23576469.102 6  94932675.384 6      1349.790          37.000
E24  21846177.070 8 114802467.945 8      -447.355          51.000    21846189.547 8  87965518.751 8      -342.809          51.000
E25  25102198.438 5 131912942.800 5      1653.855          33.000
E31  26489925.164 5 139205495.881 5     -2068.582          32.000
> 2020 05 10 09 02 30.0000000  0 12        .000000000000
G02  23594787.016 5 123991456.091 5      1834.398          31.000
G12  20071595.789 8 105476993.166 8      -266.500          51.000    20071594.297 8  82189835.413 8      -207.662          51.000
G24  20973904.953 7 110218610.689 7     -1991.320          47.000    20973908.930 7  85884645.780 7     -1551.681          47.000
G29  23712717.422 6 124611223.156 6      3758.395          37.000    23712707.016 6  97099560.976 6      2928.625          36.000
R17  20562203.055 4 110032500.977 4     -1183.195          27.000    20562205.578 5  85580819.014 5      -920.260          31.000
R18  20480568.414 8 109326684.627 8      2825.543          50.000    20480570.375 7  85031887.813 7      2197.641          44.000
C11  22674813.273 7 118073753.863 7        43.512          46.000    22674812.602 6  91302139.787 6        33.558          40.000
C23  21901074.453 8 114044638.210 8       420.133          51.000
E05  25994251.164 7 136600711.507 7     -2478.844          46.000    25994256.273 7 104668082.487 7     -1899.365          47.000
E12  23566459.469 6 123842570.172 6      1748.406          37.000    23566459.680 6  94892369.669 6      1339.715          38.000
E24  21848759.359 8 114816038.065 8      -453.902          51.000    21848771.836 8  87975916.634 8      -347.786          51.000
E31  26501752.953 5 139267649.364 5     -2071.605          32.000
> 2020 05 10 09 03  0.0000000  0 11        .000000000000
G12  20073137.180 8 105485093.264 8      -271.008          51.000    20073135.617 8  82196147.170 8      -211.175          51.000
G24  20985294.992 8 110278465.348 8     -1996.398          50.000    20985298.695 8  85931285.748 8     -1555.635          50.000
G29  23691260.086 6 124498471.156 6      3760.902          39.000    23691254.305 6  97011702.386 6      2930.579          39.000
R17  20568892.289 6 110068250.573 6     -1201.148          37.000    20568890.953 5  85608676.317 5      -934.230          30.000
R18  20464734.523 8 109242160.961 8      2812.000          51.000    20464736.641 7  84966147.208 7      2187.111          46.000
C11  22674597.797 7 118072630.544 7        33.965          46.000    22674596.992 6  91301271.187 6        26.270          40.000
C12  25317102.031 4 131832789.182 4     -2675.984          28.000
C23  21898665.133 8 114032091.598 8       418.895          51.000
E05  26008406.734 7 136675102.377 7     -2477.883          46.000    26008413.547 7 104725083.262 7     -1898.664          47.000
E12  23556496.875 6 123790214.746 6      1744.508          39.000    23556497.078 6  94852253.219 6      1336.656          36.000
E24  21851349.570 8 114829649.923 8      -451.035          51.000    21851362.094 8  87986346.499 8      -345.592          51.000
> 2020 05 10 09 03 30.0000000  0 12        .000000000000
G12  20074757.805 8 105493610.004 8      -290.398          50.000    20074756.289 8  82202783.604 8      -226.284          50.000
G24  20996767.047 8 110338749.945 8     -2016.312          50.000    20996770.359 8  85978260.760 8     -1571.153          50.000
G29  23669841.000 6 124385921.695 6      3748.746          40.000    23669837.695 6  96924001.578 6      2921.098          39.000
R17  20575739.836 5 110104901.778 5     -1235.613          32.000    20575739.422 5  85637182.873 5      -961.026          30.000
R18  20449031.648 8 109158334.476 8      2782.953          51.000    20449033.992 8  84900948.845 8      2164.519          48.000
C11  22674491.039 7 118072074.457 7         9.426          45.000    22674489.750 6  91300841.216 6         7.385          37.000
C12  25332582.844 4 131913405.842 4     -2692.883          28.000    25332584.477 4 102003832.014 4     -2082.108          27.000
C23  21896316.312 8 114019860.466 8       402.914          51.000
C25  23510967.836 6 122427749.919 6     -2063.945          36.000
E05  26022612.156 8 136749751.098 8     -2492.160          48.000    26022618.633 7 104782281.599 7     -1909.643          45.000
E12  23546611.570 6 123738265.978 6      1725.207          38.000    23546610.359 5  94812448.332 5      1321.840          34.000
E24  21853977.719 8 114843461.509 8      -463.285          51.000    21853990.312 8  87996929.408 8      -355.000          51.000
> 2020 05 10 09 04  0.0000000  0 16        .000000000000
G02  23563661.562 5 123827868.433 5      1799.266          32.000
G12  20076465.180 8 105502582.949 8      -303.273          51.000    20076463.906 8  82209775.499 8      -236.317          51.000
G24  21008328.445 8 110399504.200 8     -2029.488          51.000    21008331.219 8  86025601.733 8     -1581.419          51.000
G25  20814623.281 5 109381581.868 5      1619.410          35.000    20814623.062 5  85232406.688 5      1261.881          34.000
G29  23648468.859 6 124273617.451 6      3742.859          39.000    23648467.055 6  96836491.873 6      2916.517          39.000
R15  20895986.250 4 111661796.985 4     -2093.027          29.000    20895990.516 5  86848077.742 5     -1627.910          33.000
R17  20582755.273 5 110142442.044 5     -1262.473          33.000    20582756.703 5  85666380.754 5      -981.923          32.000
R18  20433467.367 8 109075249.792 8      2760.602          51.000    20433470.414 8  84836327.459 8      2147.135          48.000
C11  22674501.227 7 118072125.432 7        -8.383          44.000    22674499.016 5  91300880.660 5        -6.431          35.000
C12  25348136.906 4 131994400.626 4     -2701.906          27.000    25348140.742 4 102066457.062 4     -2090.194          28.000
C23  21894035.773 8 114007985.597 8       393.285          51.000
C25  23522895.391 6 122489847.424 6     -2071.562          39.000
E05  26036874.273 8 136824696.127 8     -2499.570          49.000    26036879.086 7 104839706.974 7     -1915.318          45.000
E12  23536811.148 6 123686765.689 6      1712.457          37.000    23536809.016 5  94772987.111 5      1312.202          35.000
E24  21856651.523 8 114857513.166 8      -468.902          51.000    21856664.250 8  88007696.264 8      -359.289          51.000
E31  26537274.102 5 139454314.749 5     -2077.027          33.000
> 2020 05 10 09 04 30.0000000  0 15        .000000000000
G02  23553423.492 5 123774057.773 5      1789.188          30.000
G12  20078231.273 8 105511864.093 8      -314.184          51.000    20078230.109 8  82217007.540 8      -244.818          51.000
G24  21019950.859 8 110460579.113 8     -2040.785          51.000    21019953.383 8  86073192.590 8     -1590.222          51.000
G25  20805412.109 5 109333172.161 5      1608.910          33.000    20805409.539 5  85194684.896 5      1253.699          34.000
G29  23627115.883 6 124161412.680 6      3738.980          38.000    23627115.875 6  96749059.612 6      2913.494          38.000
R17  20589906.961 6 110180718.967 6     -1287.648          39.000    20589910.031 5  85696151.713 5     -1001.510          33.000
R18  20418014.328 8 108992761.004 8      2739.918          48.000    20418017.953 7  84772169.526 7      2131.047          47.000
C11  22674599.133 7 118072637.098 7       -24.434          42.000    22674598.070 5  91301276.370 5       -18.942          32.000
C12                                                                  25363738.195 4 102129262.054 4     -2095.949          29.000
C23  21891795.672 8 113996321.438 8       385.586          51.000
C25  23534850.438 6 122552090.965 6     -2077.168          38.000
E05  26051164.203 7 136899787.972 7     -2505.207          47.000    26051167.727 7 104897244.839 7     -1919.496          45.000
E12  23527068.469 6 123635567.897 6      1701.629          37.000    23527066.297 5  94733757.689 5      1303.654          35.000
E24  21859342.969 8 114871657.284 8      -472.734          51.000    21859355.906 8  88018533.967 8      -362.219          51.000
E31  26549133.398 5 139516635.536 5     -2077.270          32.000
> 2020 05 10 09 05  0.0000000  0 13        .000000000000
G12  20080074.875 8 105521552.623 8      -334.230          51.000    20080073.797 8  82224557.036 8      -260.439          50.000
G24  21031653.250 8 110522074.367 8     -2061.262          51.000    21031655.602 8  86121110.963 8     -1606.178          51.000
G25  20796270.195 5 109285125.197 5      1590.820          34.000    20796266.836 5  85157245.658 5      1239.597          35.000
G29  23605801.953 6 124049410.282 6      3725.316          38.000    23605803.195 6  96661785.057 6      2902.841          38.000
R15  20919600.219 5 111787991.230 5     -2118.250          32.000    20919599.195 5  86946225.247 5     -1647.525          33.000
R17  20597218.469 5 110219832.763 5     -1322.227          33.000    20597219.539 5  85726573.483 5     -1028.395          34.000
R18  20402691.859 7 108910973.317 7      2709.832          45.000    20402696.297 7  84708556.842 7      2107.647          47.000
C11  22674804.852 7 118073708.406 7       -49.461          42.000    22674804.227 5  91302104.869 5       -38.186          35.000
C23  21889615.398 8 113984967.979 8       368.828          51.000
C25  23546851.289 6 122614579.449 6     -2091.555          39.000
E05  26065500.055 7 136975124.889 7     -2519.863          45.000    26065503.625 7 104954970.500 7     -1930.765          46.000
E12  23517402.375 6 123584774.113 6      1681.910          37.000    23517398.922 5  94694837.812 5      1288.644          33.000
E24  21862071.227 8 114885993.965 8      -485.629          51.000    21862084.242 8  88029519.224 8      -372.084          51.000
> 2020 05 10 09 05 30.0000000  0 13        .000000000000
G12  20081992.148 8 105531627.848 8      -339.859          51.000    20081991.258 8  82232407.860 8      -264.825          51.000
G24  21043431.695 8 110583968.801 8     -2067.277          51.000    21043433.695 8  86169340.372 8     -1610.865          51.000
G25  20787191.766 5 109237421.376 5      1586.832          32.000    20787189.633 5  85120073.757 5      1236.483          31.000
G29  23584523.445 6 123937592.722 6      3726.281          36.000    23584525.867 6  96574654.508 6      2903.593          36.000
R15  20931489.891 6 111851529.632 6     -2120.191          39.000    20931493.023 6  86995643.873 6     -1649.038          36.000
R17  20604679.195 6 110259760.924 6     -1342.121          38.000    20604682.062 5  85757628.764 5     -1043.875          34.000
R18  20387497.625 8 108829870.068 8      2694.480          49.000    20387502.352 7  84645476.546 7      2095.707          46.000
C11  22675113.969 6 118075319.418 6       -60.148          38.000    22675114.414 6  91303350.699 6       -46.897          38.000
C23  21887491.258 8 113973906.177 8       366.230          51.000
C25  23558894.664 6 122677292.883 6     -2091.680          36.000
E05  26079878.039 7 137050685.009 7     -2520.000          44.000    26079882.555 7 105012867.203 7     -1930.852          45.000
E12  23507809.891 6 123534365.939 6      1676.422          37.000    23507806.242 5  94656213.344 5      1284.450          35.000
E24  21864832.367 8 114900503.207 8      -484.105          51.000    21864845.383 8  88040636.707 8      -370.968          51.000
> 2020 05 10 09 06  0.0000000  0 13        .000000000000
G12  20083966.273 8 105542001.439 8      -354.102          51.000    20083965.281 8  82240491.170 8      -275.923          51.000
G24  21055269.492 8 110646174.529 8     -2081.973          51.000    21055270.906 8  86217812.336 8     -1622.316          51.000
G29  23563264.125 5 123825874.391 5      3718.609          32.000    23563267.047 5  96487601.367 5      2897.621          32.000
R15  20943419.320 6 111915268.225 6     -2131.578          39.000    20943421.422 6  87045218.352 6     -1657.891          36.000
R17  20612276.102 6 110300412.059 6     -1370.516          36.000    20612278.469 5  85789246.376 5     -1065.954          34.000
R18  20372416.867 8 108749365.722 8      2670.090          50.000    20372420.656 7  84582862.056 7      2076.737          46.000
C11  22675509.586 6 118077382.804 6       -79.363          38.000    22675511.000 6  91304946.196 6       -61.462          40.000
C23  21885406.398 8 113963049.757 8       355.184          51.000
C25  23570962.523 5 122740144.123 5     -2100.656          34.000
E05  26094282.094 7 137126378.607 7     -2528.543          46.000    26094287.195 7 105070866.196 7     -1937.410          45.000
E12  23498274.750 6 123484257.131 6      1662.035          36.000    23498272.852 6  94617818.330 6      1273.445          37.000
E24  21867609.625 8 114915097.211 8      -491.156          51.000    21867622.617 8  88051819.129 8      -376.314          51.000
E25  25027342.172 5 131519583.494 5      1625.035          34.000    25027342.062 5 100774740.643 5      1245.112          34.000
> 2020 05 10 09 06 30.0000000  0 14        .000000000000
G12  20086022.977 8 105552808.817 8      -367.402          51.000    20086021.508 8  82248912.508 8      -286.288          51.000
G24  21067192.008 8 110708826.424 8     -2095.891          51.000    21067193.117 8  86266631.955 8     -1633.162          51.000
G25  20769208.766 5 109142922.498 5      1561.965          33.000    20769214.625 5  85046448.903 5      1217.122          32.000
R15  20955410.352 5 111979345.482 5     -2142.066          34.000    20955414.734 6  87095056.211 6     -1666.055          38.000
R17  20620033.039 6 110341922.994 6     -1397.949          37.000    20620035.453 5  85821532.615 5     -1087.291          34.000
R18  20357475.062 8 108669602.062 8      2646.500          51.000    20357478.055 7  84520823.687 7      2058.386          46.000
C11  22676018.969 6 118080033.382 6       -98.070          39.000    22676020.195 7  91306995.722 7       -75.780          42.000
C23  21883386.891 8 113952534.423 8       344.891          51.000
C25  23583083.281 6 122803267.842 6     -2108.746          38.000
C28  24966869.297 6 130009043.199 6      3428.352          37.000
E05  26108737.711 7 137202340.014 7     -2536.449          46.000    26108742.727 7 105129070.367 7     -1943.537          45.000
E12                                                                  23488822.398 6  94579758.115 6      1262.942          37.000
E24  21870428.875 8 114929912.123 8      -497.527          51.000    21870441.898 8  88063170.819 8      -381.225          51.000
E25  25018074.766 5 131470885.696 5      1619.895          32.000    25018076.000 4 100737424.081 4      1241.622          29.000
> 2020 05 10 09 07  0.0000000  0 14        .000000000000
G12  20088143.492 8 105563951.476 8      -376.422          51.000    20088141.617 8  82257595.103 8      -293.316          51.000
G24  21079180.508 8 110771826.091 8     -2105.234          51.000    21079181.758 8  86315722.570 8     -1640.445          51.000
G25  20760309.477 5 109096149.783 5      1554.109          34.000    20760325.617 5  85009977.300 5      1210.997          32.000
G32  22290943.430 5 117139702.089 5      1030.348          31.000
R15  20967445.852 5 112043661.890 5     -2146.730          33.000    20967452.273 6  87145079.954 6     -1669.685          37.000
R17  20627931.539 6 110384192.199 6     -1420.738          38.000    20627934.914 5  85854408.720 5     -1105.019          34.000
R18  20342653.969 8 108590483.646 8      2627.133          51.000    20342656.672 7  84459287.173 7      2043.326          47.000
C11  22676622.148 6 118083174.037 6      -112.164          38.000    22676623.453 7  91309424.262 7       -86.799          45.000
C23  21881414.344 8 113942264.178 8       338.793          51.000
C25  23595239.930 6 122866566.902 6     -2112.211          39.000
C28  24947112.078 6 129906171.205 6      3428.543          38.000
E05  26123225.438 7 137278469.700 7     -2539.930          46.000    26123229.828 7 105187403.450 7     -1946.189          44.000
E12                                                                  23479435.297 5  94541959.018 5      1255.878          35.000
E24  21873271.547 8 114944850.334 8      -499.457          51.000    21873284.570 8  88074616.987 8      -382.710          51.000
> 2020 05 10 09 07 30.0000000  0 13        .000000000000
G12  20090333.922 8 105575461.564 8      -390.723          51.000    20090332.000 8  82266563.993 8      -304.459          51.000
G24  21091241.273 8 110835206.093 8     -2119.988          51.000    21091242.820 8  86365109.569 8     -1651.939          51.000
G25  20751473.922 5 109049716.040 5      1541.543          33.000    20751478.156 5  84973795.023 5      1201.193          31.000
R15  20979533.031 5 112108250.447 5     -2158.840          32.000    20979537.430 5  87195315.640 5     -1679.101          34.000
R17  20635978.172 6 110427250.868 6     -1449.312          39.000    20635980.555 5  85887898.718 5     -1127.246          33.000
R18  20327960.266 8 108512047.543 8      2602.215          51.000    20327963.047 7  84398281.360 7      2023.945          46.000
C11  22677325.531 6 118086837.031 6      -131.645          40.000    22677326.594 7  91312256.716 7      -101.962          46.000
C23  21879495.219 8 113932272.278 8       327.531          51.000
C25  23607435.695 4 122930073.825 4     -2121.098          29.000
C28  24927374.961 6 129803402.548 6      3423.145          38.000
E05  26137750.836 7 137354798.549 7     -2548.551          44.000    26137754.234 7 105245889.128 7     -1952.663          43.000
E12                                                                  23470117.203 5  94504447.240 5      1244.738          33.000
E24  21876143.898 8 114959944.666 8      -506.711          51.000    21876156.828 8  88086182.778 8      -388.280          51.000
> 2020 05 10 09 08  0.0000000  0 13        .000000000000
G12  20092583.531 8 105587283.259 8      -403.477          51.000    20092581.773 8  82275775.703 8      -314.397          51.000
G24  21103363.594 8 110898909.743 8     -2133.113          51.000    21103365.328 8  86414748.770 8     -1662.166          51.000
G29  23478590.531 5 123380834.536 5      3694.867          34.000    23478584.086 5  96140905.251 5      2879.102          33.000
R15  20991662.859 6 112173055.490 6     -2167.852          36.000    20991664.484 5  87245719.593 5     -1686.104          32.000
R17  20644161.680 6 110471040.768 6     -1476.137          38.000    20644163.789 5  85921957.568 5     -1148.103          33.000
R18  20313384.375 8 108434241.174 8      2578.664          51.000    20313387.320 7  84337765.354 7      2005.628          46.000
C11  22678119.320 6 118090967.715 6      -149.602          41.000    22678119.867 7  91315450.773 7      -115.823          46.000
C23  21877619.391 8 113922505.119 8       317.594          51.000
C25  23619658.383 6 122993734.170 6     -2128.652          36.000
C28  24907649.445 6 129700685.068 6      3418.652          38.000
E05  26152302.461 7 137431269.776 7     -2555.660          42.000    26152305.531 7 105304483.937 7     -1958.107          43.000
E12                                                                  23460861.344 5  94467181.904 5      1235.091          34.000
E24  21879035.516 8 114975140.248 8      -512.430          51.000    21879048.359 8  88097826.149 8      -392.638          51.000
> 2020 05 10 09 08 30.0000000  0 13        .000000000000
G12  20094917.562 8 105599549.228 8      -415.152          51.000    20094915.992 8  82285333.605 8      -323.492          51.000
G24  21115572.617 8 110963069.910 8     -2145.102          50.000    21115574.922 8  86464743.700 8     -1671.508          50.000
G29  23457509.609 5 123270060.492 5      3688.926          35.000    23457502.547 5  96054587.819 5      2874.494          34.000
R06  22403862.938 6 119551302.834 6     -3125.809          36.000
R17  20652506.227 6 110515695.971 6     -1501.922          40.000    20652508.953 5  85956689.366 5     -1168.161          35.000
R18  20298952.641 8 108357203.846 8      2556.133          51.000    20298955.125 7  84277847.489 7      1988.103          46.000
C11  22679028.156 7 118095697.946 7      -166.648          42.000    22679028.078 7  91319108.482 7      -128.848          46.000
C23  21875812.438 8 113913095.637 8       308.746          51.000
C25  23631939.703 5 123057679.515 5     -2135.391          34.000
C28  24887959.883 6 129598152.955 6      3416.000          40.000
E05  26166905.297 6 137508014.937 6     -2561.730          41.000    26166909.477 7 105363288.638 7     -1962.920          43.000
E12  23451696.578 6 123239492.046 6      1599.277          36.000    23451694.273 5  94430266.462 5      1225.597          34.000
E24  21881971.844 8 114990570.484 8      -517.121          51.000    21881984.617 8  88109649.320 8      -396.263          51.000
> 2020 05 10 09 09  0.0000000  0 15        .000000000000
G02  23464402.969 5 123306285.176 5      1678.562          34.000
G12  20097322.641 8 105612188.537 8      -425.211          51.000    20097321.031 8  82295182.412 8      -331.333          51.000
G24  21127854.594 8 111027614.765 8     -2155.594          48.000    21127857.703 8  86515038.388 8     -1679.680          48.000
G25  20725341.086 5 108912401.122 5      1509.402          33.000    20725343.383 5  84866812.677 5      1176.167          33.000
G29  23436465.703 6 123159479.240 6      3685.059          37.000    23436460.445 6  95968420.565 6      2871.474          37.000
R06  22421473.125 6 119645278.825 6     -3137.363          36.000
R15  21016098.555 5 112303666.942 5     -2183.922          34.000
R17  20660999.398 6 110561141.738 6     -1525.484          38.000    20661001.773 5  85992036.105 5     -1186.485          33.000
R18  20284652.320 8 108280866.829 8      2535.168          50.000    20284654.641 7  84218474.297 7      1971.797          47.000
C11  22680038.789 7 118100957.410 7      -181.816          43.000    22680037.891 7  91323175.398 7      -140.655          47.000
C23  21874060.961 8 113903974.491 8       301.516          51.000
C28  24868292.953 6 129495738.447 6      3414.012          38.000
E05  26181547.062 7 137584961.394 7     -2566.047          43.000    26181552.383 7 105422247.595 7     -1966.162          43.000
E12  23442603.523 6 123191701.473 6      1588.551          36.000    23442601.266 5  94393639.703 5      1217.519          31.000
E24  21884939.430 8 115006164.694 8      -520.316          51.000    21884952.117 8  88121598.130 8      -398.732          51.000
> 2020 05 10 09 09 30.0000000  0 16        .000000000000
G02  23454856.508 5 123256118.057 5      1659.129          33.000
G12  20099784.797 8 105625127.566 8      -444.246          51.000    20099783.250 8  82305264.770 8      -346.166          51.000
G24  21140195.766 7 111092471.115 7     -2175.133          46.000    21140199.734 7  86565575.823 7     -1694.909          46.000
G25  20716749.820 5 108867249.108 5      1492.477          33.000    20716753.914 4  84831629.401 4      1162.972          29.000
G29  23415445.227 5 123049020.532 5      3672.328          35.000    23415439.797 5  95882348.877 5      2861.557          33.000
R06  22439151.562 6 119739614.745 6     -3158.582          37.000
R15  21028381.656 5 112369310.635 5     -2199.336          33.000    21028380.281 4  87398333.871 4     -1710.595          26.000
R17  20669625.891 6 110607302.479 6     -1558.578          37.000    20669628.164 5  86027938.867 5     -1212.224          35.000
R18  20270469.570 8 108205160.416 8      2504.844          48.000    20270472.523 8  84159591.537 8      1948.212          48.000
C11  22681136.273 7 118106673.985 7      -206.035          43.000    22681135.852 7  91327595.830 7      -159.283          47.000
C23  21872351.250 8 113895070.784 8       285.246          51.000
C25  23656610.367 5 123186161.036 5     -2153.527          34.000
C28  24848635.195 6 129393371.957 6      3403.332          37.000
E05  26196213.648 7 137662034.882 7     -2579.105          44.000    26196219.648 7 105481303.897 7     -1976.189          42.000
E12  23433568.750 5 123144227.141 5      1569.285          35.000    23433568.422 4  94357268.320 4      1201.508          29.000
E24  21887924.383 8 115021850.521 8      -532.398          51.000    21887937.008 8  88133617.140 8      -407.942          51.000
> 2020 05 10 09 10  0.0000000  0 14        .000000000000
G12  20102326.203 8 105638483.157 8      -451.008          51.000    20102324.930 8  82315671.723 8      -351.432          51.000
G24  21152618.328 7 111157755.978 7     -2182.195          44.000    21152623.156 7  86616447.193 7     -1700.409          44.000
G29  23394471.531 6 122938804.384 6      3671.094          37.000    23394464.328 6  95796466.176 6      2860.586          37.000
R06  22456919.047 6 119834425.686 6     -3167.328          38.000
R15  21040728.711 6 112435279.827 6     -2203.414          39.000    21040737.086 5  87449643.221 5     -1713.766          35.000
R17  20678406.836 6 110654295.319 6     -1579.309          40.000    20678411.070 5  86064488.920 5     -1228.354          34.000
R18  20256427.375 7 108130207.030 7      2487.000          46.000    20256431.312 7  84101294.449 7      1934.333          47.000
C11  22682343.992 7 118112963.557 7      -217.938          43.000    22682343.516 7  91332459.370 7      -168.735          43.000
C23  21870705.758 8 113886501.522 8       281.113          51.000
C25  23669012.492 6 123250723.292 6     -2155.281          36.000
C28  24829009.445 6 129291171.947 6      3404.855          36.000
E05  26210926.789 7 137739350.913 7     -2580.293          43.000    26210933.031 7 105540546.011 7     -1977.123          42.000
E12  23424617.992 6 123097188.033 6      1561.391          36.000
E24  21890949.047 8 115037745.371 8      -532.309          51.000    21890961.742 8  88145796.305 8      -407.918          51.000
> 2020 05 10 09 10 30.0000000  0 14        .000000000000
G12  20104932.984 8 105652181.933 8      -461.562          51.000    20104931.797 8  82326346.099 8      -359.659          51.000
G24  21165108.672 7 111223395.740 7     -2193.004          46.000    21165114.133 7  86667595.049 7     -1708.834          46.000
G29  23373531.336 6 122828760.511 6      3666.090          37.000    23373521.688 5  95710717.781 5      2856.693          30.000
R06  22474761.172 6 119929633.564 6     -3179.379          38.000
R15  21053121.391 5 112501500.544 5     -2210.605          35.000    21053126.234 5  87501148.228 5     -1719.357          34.000
R17  20687329.945 6 110702044.186 6     -1603.430          41.000    20687332.000 5  86101626.820 5     -1247.115          32.000
R18  20242513.305 7 108055936.391 7      2465.020          47.000    20242517.734 7  84043528.380 7      1917.237          47.000
C11  22683648.109 7 118119754.092 7      -233.852          43.000    22683647.156 7  91337710.110 7      -180.832          43.000
C23  21869110.766 8 113878195.667 8       273.281          51.000
C25  23681447.812 5 123315472.653 5     -2160.691          33.000
C28  24809400.797 5 129189068.736 5      3402.492          31.000
E05  26225672.359 7 137816835.046 7     -2584.789          43.000    26225677.219 6 105599916.911 6     -1980.520          40.000
E12  23415734.898 5 123050511.972 5      1550.672          33.000
E24  21893999.648 8 115053776.773 8      -535.855          51.000    21894012.547 8  88158080.098 8      -410.558          51.000
> 2020 05 10 09 11  0.0000000  0 13        .000000000000
G12  20107614.867 8 105666275.238 8      -479.039          51.000    20107613.508 8  82337327.889 8      -373.277          51.000
G24  21177676.781 8 111289441.049 8     -2210.996          48.000    21177682.062 8  86719058.912 8     -1722.857          48.000
G25  20691380.469 5 108733933.117 5      1462.266          32.000    20691376.906 4  84727752.990 4      1139.443          28.000
R06  22492686.172 6 120025286.810 6     -3198.641          39.000
R15  21065570.477 6 112568025.851 6     -2225.207          38.000    21065574.648 5  87552890.122 5     -1730.711          34.000
R17  20696404.578 5 110750599.373 5     -1634.730          35.000    20696406.250 5  86139391.971 5     -1271.454          33.000
R18  20228738.484 8 107982404.748 8      2435.965          49.000    20228742.703 7  83986337.112 7      1894.642          47.000
C11  22685057.383 6 118127096.335 6      -256.246          39.000    22685057.836 7  91343387.665 7      -198.312          42.000
C23  21867576.320 8 113870205.300 8       258.434          51.000
C25  23693926.250 6 123380460.275 6     -2173.137          38.000
C28  24789822.109 5 129087115.936 5      3393.500          31.000
E05  26240459.430 7 137894537.209 7     -2596.406          42.000    26240461.133 6 105659454.885 6     -1989.442          38.000
E24  21897086.078 8 115069996.609 8      -546.477          51.000    21897099.078 8  88170508.273 8      -418.768          51.000
> 2020 05 10 09 11 30.0000000  0 12        .000000000000
G12  20110381.312 8 105680813.127 8      -488.824          51.000    20110379.930 8  82348656.118 8      -380.902          51.000
G24  21190332.031 8 111355942.371 8     -2221.012          50.000    21190336.469 8  86770878.099 8     -1730.658          50.000
G29  23331799.906 6 122609415.536 6      3649.668          36.000
R06  22510703.859 6 120121432.273 6     -3209.617          39.000
R15  21078086.164 4 112634901.246 4     -2232.852          29.000    21078092.141 6  87604908.896 6     -1736.668          36.000
R17  20705637.570 6 110800010.214 6     -1657.918          39.000    20705640.977 5  86177822.678 5     -1289.492          33.000
R18  20215112.516 8 107909666.941 8      2414.645          50.000    20215116.133 7  83929763.315 7      1878.057          46.000
C11  22686582.438 6 118135040.519 6      -271.730          41.000    22686583.453 6  91349530.518 6      -209.878          36.000
C23  21866112.258 8 113862581.637 8       251.250          51.000
C25  23706461.078 6 123445736.175 6     -2177.676          36.000
E05  26255296.914 6 137972506.404 6     -2600.102          41.000    26255295.273 6 105719197.452 6     -1992.097          37.000
E24  21900218.102 8 115086455.814 8      -549.348          51.000    21900231.031 8  88183119.862 8      -420.980          51.000
> 2020 05 10 09 12  0.0000000  0 15        .000000000000
G02  23408273.805 5 123011308.283 5      1602.742          33.000
G12  20113194.164 8 105695594.577 8      -496.812          51.000    20113192.922 8  82360174.123 8      -387.127          51.000
G24  21203035.773 8 111422697.797 8     -2229.484          51.000    21203039.070 8  86822895.315 8     -1737.261          51.000
G25  20674789.250 4 108646736.465 4      1446.602          29.000
G29  23310968.977 6 122499960.036 6      3647.230          39.000    23310956.219 4  95454468.315 4      2841.998          29.000
R06  22528775.070 6 120217862.380 6     -3219.234          40.000
R15  21090632.039 6 112701934.642 6     -2236.707          37.000    21090635.883 5  87657045.999 5     -1739.655          32.000
R17  20714993.445 6 110850070.675 6     -1679.609          38.000    20714994.438 5  86216758.523 5     -1306.363          32.000
R18  20201597.961 8 107837522.797 8      2394.719          51.000    20201600.703 7  83873651.250 7      1862.562          45.000
C11  22688185.125 6 118143387.644 6      -284.609          37.000    22688187.836 6  91355984.991 6      -220.250          37.000
C23  21864680.531 8 113855127.008 8       245.648          51.000
C25  23719013.281 6 123511101.890 6     -2180.328          39.000
E05  26270146.211 6 138050540.470 6     -2602.398          40.000    26270143.148 6 105778989.747 6     -1993.956          37.000
E12  23389553.508 5 122912931.592 5      1512.738          32.000
E24  21903357.555 8 115102954.185 8      -550.633          51.000    21903370.492 8  88195761.459 8      -421.961          51.000
> 2020 05 10 09 12 30.0000000  0 16        .000000000000
G02  23399163.898 5 122963419.507 5      1585.625          33.000    23399153.922 4  95815622.746 4      1235.552          27.000
G12  20116064.477 8 105710678.009 8      -512.336          51.000    20116063.328 8  82371927.447 8      -399.223          51.000
G24  21215798.867 8 111489766.065 8     -2245.395          50.000    21215801.281 8  86875156.270 8     -1749.658          50.000
G25  20666569.812 6 108603566.567 6      1430.812          36.000
G29  23290166.719 6 122390645.902 6      3636.730          37.000
R06  22546909.773 6 120314633.087 6     -3235.980          37.000
R15  21103217.172 5 112769180.279 5     -2249.285          34.000    21103219.172 5  87709348.162 5     -1749.450          33.000
R17  20724480.328 6 110900838.163 6     -1708.652          38.000    20724481.734 5  86256244.406 5     -1328.952          31.000
R18  20188206.281 8 107766035.848 8      2367.184          51.000    20188208.398 7  83818050.321 7      1841.146          45.000
C11  22689876.680 6 118152196.056 6      -306.098          38.000    22689881.102 6  91362796.126 6      -236.688          36.000
C23  21863292.672 8 113847900.841 8       232.578          51.000
C25  23731595.188 6 123576615.628 6     -2190.945          37.000
E05  26285018.758 6 138128696.714 6     -2611.684          40.000    26285016.547 6 105838875.649 6     -2001.256          39.000
E12                                                                  23380954.805 5  94145413.662 5      1146.181          32.000
E24  21906515.750 8 115119550.975 8      -559.422          51.000    21906528.812 8  88208478.456 8      -428.636          51.000
E25  24908328.047 5 130894147.113 5      1580.281          33.000
> 2020 05 10 09 13  0.0000000  0 15        .000000000000
G12  20119012.438 8 105726169.851 8      -514.742          51.000    20119011.211 8  82383999.008 8      -401.098          51.000
G19  23911828.273 5 125657494.369 5     -3471.684          33.000
G24  21228641.805 8 111557262.605 8     -2248.062          51.000    21228642.164 8  86927739.940 8     -1751.737          51.000
G25  20658422.375 5 108560750.060 5      1429.887          35.000    20658417.844 5  84592755.591 5      1114.207          32.000
G29  23269412.836 5 122281586.776 5      3639.137          33.000
R06  22565127.797 6 120411848.555 6     -3239.348          38.000
R15  21115852.016 6 112836709.976 6     -2249.195          36.000
R17  20734119.711 6 110952419.465 6     -1724.391          37.000    20734119.492 5  86296363.097 5     -1341.193          31.000
R18  20174958.156 8 107695318.214 8      2353.004          49.000    20174960.812 7  83763047.788 7      1830.117          45.000
C11  22691675.914 5 118161571.346 5      -313.734          30.000    22691680.609 6  91370045.588 6      -242.488          39.000
C23  21861969.430 8 113841010.028 8       232.488          51.000
C25  23744224.508 5 123642383.574 5     -2187.523          31.000
E05  26299934.867 6 138207080.382 6     -2608.168          41.000    26299934.773 6 105898935.793 6     -1998.362          40.000
E12                                                                  23372446.562 5  94111134.541 5      1143.885          34.000
E24  21909713.156 8 115136353.377 8      -555.000          51.000    21909726.219 8  88221353.014 8      -425.272          51.000
> 2020 05 10 09 13 30.0000000  0 14        .000000000000
G02  23381172.500 5 122868918.432 5      1546.574          34.000
G12  20122026.453 8 105742009.216 8      -549.988          51.000    20122025.219 8  82396341.352 8      -428.562          51.000
G19  23931710.781 5 125761986.903 5     -3501.938          31.000
G24  21241552.680 8 111625108.198 8     -2283.617          51.000    21241551.188 8  86980606.626 8     -1779.442          51.000
G25  20650336.148 5 108518254.079 5      1394.812          35.000    20650335.609 5  84559641.845 5      1086.864          35.000
G29  23248692.383 5 122172693.663 5      3609.105          32.000    23248667.195 4  95199410.663 4      2812.290          27.000
R06  22583417.750 6 120509443.287 6     -3275.883          40.000
R17  20743898.414 6 111004750.790 6     -1773.664          36.000    20743900.828 5  86337065.292 5     -1379.513          32.000
R18  20161842.883 8 107625312.041 8      2305.238          49.000    20161846.359 7  83708598.587 7      1792.963          45.000
C11  22693574.047 5 118171453.232 5      -353.762          35.000    22693577.688 7  91377686.909 7      -273.717          42.000
C23  21860699.391 8 113834395.587 8       199.832          51.000
E05  26314883.008 6 138285629.250 6     -2637.266          41.000    26314884.711 6 105959122.562 6     -2020.657          41.000
E12  23363999.883 5 122778647.412 5      1455.918          35.000    23364004.516 5  94077164.157 5      1115.600          33.000
E24  21912938.281 8 115153301.146 8      -583.574          51.000    21912951.250 8  88234338.957 8      -447.151          51.000
> 2020 05 10 09 14  0.0000000  0 15        .000000000000
G12  20125126.883 8 105758302.661 8      -555.184          51.000    20125125.828 8  82409037.547 8      -432.611          51.000
G24  21254551.609 8 111693417.275 8     -2289.277          51.000    21254549.695 8  87033834.474 8     -1783.852          51.000
G25  20642331.109 5 108476185.908 5      1390.992          32.000    20642331.930 5  84526861.405 5      1083.887          33.000
G29  23228033.109 5 122064133.965 5      3609.168          33.000    23228012.727 5  95114818.767 5      2812.345          32.000
R06  22601797.969 6 120607521.355 6     -3281.871          40.000
R15  21141313.469 5 112972768.575 5     -2283.527          32.000    21141323.156 5  87867740.597 5     -1776.080          30.000
R17  20753837.422 5 111057938.281 5     -1791.723          35.000    20753839.992 5  86378433.291 5     -1393.562          31.000
R18  20148882.062 8 107556128.395 8      2287.723          49.000    20148885.930 7  83654789.085 7      1779.340          46.000
C11  22695589.477 5 118181947.460 5      -365.121          31.000    22695592.336 7  91385801.563 7      -281.894          44.000
C23  21859503.016 8 113828164.221 8       196.781          51.000
C25  23769618.945 5 123774644.772 5     -2218.141          34.000
C28  24672828.914 5 128477884.446 5      3363.754          33.000
E05  26329882.859 7 138364448.331 7     -2636.410          42.000    26329885.523 7 106019516.382 7     -2020.008          42.000
E12  23355650.695 5 122734771.944 5      1450.023          34.000    23355651.531 5  94043544.501 5      1110.883          35.000
E24  21916211.352 8 115170501.241 8      -582.055          51.000    21916224.359 8  88247518.247 8      -445.978          51.000
> 2020 05 10 09 14 30.0000000  0 14        .000000000000
G12  20128295.406 8 105774953.469 8      -558.801          51.000    20128294.305 8  82422012.201 8      -435.429          51.000
G24  21267620.375 8 111762094.158 8     -2293.203          51.000    21267618.773 8  87087348.896 8     -1786.912          51.000
G29  23207415.906 5 121955785.839 5      3609.730          32.000    23207393.773 5  95030391.690 5      2812.774          32.000
R06  22620249.602 6 120705981.217 6     -3285.980          39.000
R15  21154126.664 6 113041232.293 6     -2284.328          36.000    21154135.391 5  87920992.436 5     -1776.703          30.000
R17  20763918.430 5 111111882.523 5     -1808.355          33.000    20763920.180 5  86420389.920 5     -1406.496          30.000
R18  20136058.414 8 107487674.446 8      2271.789          50.000    20136062.758 8  83601547.179 8      1766.950          48.000
C11                                                                  22697706.508 7  91394316.417 7      -288.784          45.000
C23  21858362.227 8 113822222.523 8       195.332          51.000
C25  23782377.797 5 123841111.932 5     -2216.980          35.000
C28  24653426.789 5 128376864.017 5      3367.109          32.000
E05  26344915.914 6 138443440.672 6     -2633.613          41.000    26344918.648 7 106080042.957 7     -2018.002          43.000
E12  23347376.055 5 122691288.899 5      1445.203          34.000    23347378.141 6  94010227.918 6      1107.094          37.000
E24  21919514.383 8 115187858.718 8      -578.984          51.000    21919527.414 8  88260818.124 8      -443.625          51.000
> 2020 05 10 09 15  0.0000000  0 14        .000000000000
G12  20131527.789 8 105791939.599 8      -575.457          51.000    20131526.445 8  82435248.148 8      -448.408          51.000
G24  21280754.852 8 111831116.178 8     -2310.141          51.000    21280753.773 8  87141132.244 8     -1800.113          51.000
G25  20626505.406 4 108393017.233 4      1371.281          29.000    20626506.508 4  84462062.561 4      1068.534          26.000
R06  22638768.266 7 120804797.139 7     -3303.340          42.000
R15  21166987.719 5 113109948.116 5     -2298.117          31.000    21166996.961 5  87974437.971 5     -1787.437          31.000
R17  20774136.211 5 111166558.826 5     -1838.344          34.000    20774139.984 5  86462915.922 5     -1429.823          30.000
R18  20123368.297 8 107419931.380 8      2242.586          50.000    20123372.734 8  83548858.180 8      1744.237          48.000
C11  22699913.688 5 118204401.194 5      -395.398          35.000    22699915.805 7  91403214.375 7      -305.847          45.000
C23  21857273.016 8 113816549.770 8       181.031          51.000
C25  23795176.984 6 123907762.786 6     -2228.418          39.000
C28  24634046.336 5 128275958.759 5      3357.488          34.000
E05  26359977.773 6 138522582.712 6     -2644.113          40.000    26359979.477 7 106140684.200 7     -2026.042          43.000
E12                                                                  23339177.102 6  93977198.735 6      1093.413          37.000
E24  21922843.234 8 115205351.977 8      -589.027          51.000    21922856.211 8  88274222.041 8      -451.354          51.000
> 2020 05 10 09 15 30.0000000  0 13        .000000000000
G12  20134827.727 8 105809280.775 8      -583.551          51.000    20134826.430 8  82448760.741 8      -454.715          51.000
G24  21293958.633 8 111900502.573 8     -2318.586          51.000    21293957.812 8  87195199.541 8     -1806.693          51.000
G25  20618686.281 5 108351925.224 5      1363.691          35.000    20618687.211 5  84430043.481 5      1062.617          34.000
R06  22657356.836 7 120903985.763 7     -3311.863          43.000
R17  20784490.680 5 111222011.551 5     -1859.898          31.000    20784486.297 4  86505991.098 4     -1446.582          25.000
R18  20110815.320 8 107352922.824 8      2221.820          50.000    20110819.695 8  83496740.409 8      1728.082          49.000
C11  22702222.625 5 118216423.451 5      -408.629          33.000    22702224.070 7  91412510.691 7      -316.216          46.000
C23  21856239.523 8 113811167.040 8       175.000          51.000
C25  23808015.648 6 123974617.374 6     -2231.504          38.000
C28  24614694.039 6 128175191.140 6      3356.980          36.000
E05  26375072.094 5 138601892.998 5     -2645.969          35.000    26375071.242 6 106201454.372 6     -2027.470          41.000
E12  23331044.648 5 122605466.931 5      1417.223          32.000    23331047.938 5  93944473.558 5      1086.020          34.000
E24  21926201.828 8 115223001.560 8      -590.535          51.000    21926214.727 8  88287745.740 8      -452.488          51.000
> 2020 05 10 09 16  0.0000000  0 17        .000000000000
G02  23337584.852 5 122639829.682 5      1498.277          33.000
G12  20138166.594 8 105826826.532 8      -590.637          51.000    20138165.555 8  82462432.754 8      -460.236          51.000
G24  21307203.156 8 111970102.905 8     -2325.934          51.000    21307202.680 8  87249433.551 8     -1812.416          51.000
G25  20610901.641 5 108311016.874 5      1357.797          35.000    20610903.586 5  84398166.879 5      1058.024          34.000
G29  23145752.523 5 121631759.982 5      3592.004          31.000
G32  22203037.250 6 116677718.343 6       684.492          37.000
R06  22675985.391 7 121003389.601 7     -3319.391          43.000
R15  21192836.867 5 113248061.899 5     -2308.062          31.000    21192833.336 4  88081831.920 4     -1795.151          27.000
R17  20794958.562 5 111278033.276 5     -1879.523          30.000
R18  20098372.008 8 107286499.588 8      2201.941          50.000    20098376.695 8  83445077.896 8      1712.624          49.000
C11  22704601.773 6 118228811.698 6      -421.008          38.000    22704602.961 7  91422090.110 7      -325.855          46.000
C23  21855233.195 8 113805926.571 8       169.957          51.000
C25  23820864.781 5 124041526.917 5     -2233.438          34.000
C28  24595340.555 5 128074414.843 5      3356.918          33.000
E05                                                                  26390164.391 6 106262237.168 6     -2027.981          38.000
E12  23322964.742 5 122563006.267 5      1408.957          35.000    23322966.836 6  93911938.717 6      1079.351          38.000
E24  21929561.656 8 115240657.707 8      -591.078          51.000    21929574.578 8  88301274.460 8      -452.880          51.000
> 2020 05 10 09 16 30.0000000  0 15        .000000000000
G02  23329094.023 5 122595224.859 5      1481.480          33.000
G12  20141589.336 8 105844813.141 8      -605.613          51.000    20141588.359 8  82476448.277 8      -471.909          51.000
G24  21320533.195 8 112040152.962 8     -2341.270          51.000    21320533.570 8  87304017.990 8     -1824.366          51.000
G25  20603197.344 5 108270528.864 5      1343.773          33.000    20603199.062 5  84366617.732 5      1047.093          34.000
G29  23125281.953 5 121524194.033 5      3581.363          33.000    23125276.125 5  94694131.421 5      2790.670          33.000
G32  22199209.930 6 116657584.531 6       661.562          37.000    22199201.320 5  90902018.393 5       515.522          33.000
R06  22694698.281 7 121103245.062 7     -3334.664          43.000
R18  20086084.172 8 107220905.474 8      2173.949          50.000    20086088.773 8  83394060.278 8      1690.849          48.000
C11  22707097.180 6 118241800.594 6      -441.809          40.000    22707097.117 7  91432133.885 7      -341.689          46.000
C23  21854299.219 8 113801063.959 8       157.020          51.000
C25  23833768.234 5 124108726.049 5     -2242.863          32.000
C28  24576030.719 5 127973866.933 5      3348.551          31.000
E05                                                                  26405304.570 6 106323212.755 6     -2034.913          36.000
E12  23314978.977 5 122521032.151 5      1392.062          34.000    23314980.203 6  93879776.752 6      1066.807          37.000
E24  21932967.828 8 115258557.456 8      -599.449          51.000    21932980.766 8  88314989.854 8      -459.336          51.000
> 2020 05 10 09 17  0.0000000  0 13        .000000000000
G12  20145121.633 8 105863375.304 8      -617.250          51.000    20145120.469 8  82490912.288 8      -480.974          51.000
G24  21333974.578 8 112110787.561 8     -2353.078          51.000    21333975.594 8  87359057.946 8     -1833.567          51.000
G25  20595597.836 5 108230597.802 5      1332.180          32.000    20595599.109 5  84335536.937 5      1038.068          32.000
G29  23104897.305 5 121417072.831 5      3574.730          33.000    23104894.094 5  94610660.427 5      2785.516          30.000
R06  22713520.500 7 121203685.865 7     -3346.699          43.000
R15  21218918.227 5 113387478.020 5     -2329.043          31.000    21218927.547 5  88190281.520 5     -1811.481          33.000
R18  20073978.078 8 107156281.255 8      2149.234          51.000    20073982.008 8  83343797.023 8      1671.627          48.000
C11  22709732.867 6 118255523.551 6      -458.660          39.000    22709732.312 7  91442745.326 7      -354.680          46.000
C23  21853463.656 8 113796714.283 8       147.379          51.000
C25  23846755.102 5 124176348.782 5     -2250.496          31.000
E05  26420516.289 5 138840750.230 5     -2660.961          33.000    26420518.633 5 106384483.460 5     -2038.900          35.000
E12  23307110.922 6 122479693.456 6      1379.277          36.000    23307111.156 6  93848092.454 6      1056.469          36.000
E24  21936446.195 8 115276836.460 8      -604.578          51.000    21936459.219 8  88328995.839 8      -463.224          51.000
> 2020 05 10 09 17 30.0000000  0 13        .000000000000
G12  20148673.328 8 105882039.833 8      -630.156          51.000    20148672.133 8  82505456.072 8      -491.031          51.000
G24  21347437.164 8 112181533.423 8     -2366.293          51.000    21347438.773 8  87414184.603 8     -1843.865          51.000
G25  20588015.469 5 108190749.679 5      1320.953          34.000    20588016.547 5  84304486.379 5      1029.311          34.000
G29  23084508.133 5 121309926.720 5      3565.871          31.000    23084511.344 5  94527169.745 5      2778.589          32.000
R06  22732361.922 7 121304227.130 7     -3359.367          42.000
R15  21232015.609 5 113457451.809 5     -2339.191          32.000    21232023.203 5  88244704.864 5     -1819.374          31.000
R18  20061964.328 8 107092150.088 8      2123.000          50.000    20061968.023 8  83293917.244 8      1651.222          48.000
C11  22712419.680 6 118269511.827 6      -476.672          39.000    22712418.773 7  91453561.976 7      -368.789          46.000
C23  21852636.969 8 113792410.203 8       136.531          51.000
C25  23859734.172 5 124243926.955 5     -2258.445          33.000
E05  26435717.102 6 138920624.699 6     -2667.223          36.000    26435717.523 6 106445685.908 6     -2043.650          36.000
