     3.02           OBSERVATION DATA    M (MIXED)           RINEX VERSION / TYPE
SAVERINEX           SC600               20200513 155931 LCL PGM / RUN BY / DATE
       G = GPS       R = GLONASS       C = COMPASS          COMMENT
       S = SBAS      J = QZSS          E = GALILEO          COMMENT
BEAN                                                        MARKER NAME
1                                                           MARKER NUMBER
GEODETIC                                                    MARKER TYPE
Unige DICCA         GTER                                    OBSERVER / AGENCY
SC60291900056       SC600               2.12(191226)        REC # / TYPE / VERS
                    HEMA45          NONE                    ANT # / TYPE
  4509407.8091   693652.4678  4442337.6214                  APPROX POSITION XYZ
        0.0000        0.0000        0.0000                  ANTENNA: DELTA H/E/N
G    8 C1C L1C D1C S1C C2Y L2Y D2Y S2Y                      SYS / # / OBS TYPES
R    8 C1C L1C D1C S1C C2P L2P D2P S2P                      SYS / # / OBS TYPES
C    8 C1I L1I D1I S1I C7I L7I D7I S7I                      SYS / # / OBS TYPES
E    8 C1C L1C D1C S1C C7Q L7Q D7Q S7Q                      SYS / # / OBS TYPES
DBHZ                                                        COMMENT
     30.000                                                 INTERVAL
  2020    05    13    13    00    0.0000000     GPS         TIME OF FIRST OBS
  2020    05    13    13    59   30.0000000     GPS         TIME OF LAST OBS
     0                                                      RCV CLOCK OFFS APPL
G L1C  0.00000                                              SYS / PHASE SHIFT
G L2Y  0.00000                                              SYS / PHASE SHIFT
R L1C  0.00000                                              SYS / PHASE SHIFT
R L2P  0.25000                                              SYS / PHASE SHIFT
C L1I  0.00000                                              SYS / PHASE SHIFT
C L7I  0.00000                                              SYS / PHASE SHIFT
E L1C  0.50000                                              SYS / PHASE SHIFT
E L7Q -0.25000                                              SYS / PHASE SHIFT
 11 R01  1 R06 -4 R07  5 R08  6 R10 -5 R11  0 R12 -1 R13 -2 GLONASS SLOT / FRQ #
    R21  4 R22 -3 R23  3                                    GLONASS SLOT / FRQ #
 C1C   71.950 C2C   71.950 C2P   71.950                     GLONASS COD/PHS/BIS
    18                                                      LEAP SECONDS
*** Above antenna height is from mark to ANTENNA BOTTOM.    COMMENT
    17     4        0.0000        ANT MEASURE TYPE/HEIGT    COMMENT
    0.0000    0.0000    0.0458    0.0405    0.0000          COMMENT
                    BASE STATION                            COMMENT
                                                            END OF HEADER
> 2020 05 13 13 00  0.0000000  0 17        .000000000000
G18  20414156.438 8 107277181.148 8       822.500          51.000    20414156.305 8  83592619.974 8       640.909          51.000
G20  24361528.359 5 128020688.528 5      3335.027          31.000
G21  20704827.797 8 108804623.077 8       542.270          50.000    20704825.594 8  84782839.894 8       422.548          50.000
G25  23958325.258 7 125901836.527 7     -3398.328          44.000    23958329.781 7  98105335.531 7     -2648.048          44.000
G31  22107283.586 8 116174551.681 8     -2374.828          49.000    22107283.555 8  90525610.178 8     -1850.518          49.000
R12  21328271.977 8 113931758.542 8     -3777.824          50.000    21328272.750 6  88613602.599 6     -2938.311          41.000
R13  19261372.484 6 102854652.664 6      -104.859          40.000    19261374.625 7  79998072.719 7       -81.557          43.000
R23  19367695.828 8 103604186.787 8       761.688          49.000    19367700.531 6  80580972.425 6       592.424          38.000
R24  21655425.516 8 115801367.913 8      3087.859          50.000    21655426.977 7  90067641.732 7      2401.671          45.000
C05  39626112.703 5 206343566.818 5        16.098          35.000    39626112.883 5 159557934.970 5        12.698          35.000
C11  25076738.148 6 130581168.042 6      2618.375          41.000    25076742.180 8 100973657.336 8      2024.787          49.000
C12  21653944.469 7 112757850.109 7       574.770          47.000    21653943.703 8  87191526.800 8       444.566          51.000
C24  22638059.750 8 117882328.461 8     -1759.309          51.000
C26  25159740.875 5 131013379.544 5     -3436.371          33.000
E02  23774889.391 8 124937877.513 8     -1488.816          51.000    23774891.125 8  95731627.160 8     -1140.766          51.000
E25  27776089.508 7 145964276.292 7     -2953.531          46.000    27776097.305 6 111842752.654 6     -2263.027          41.000
E36  23743851.789 8 124774801.240 8     -1365.293          51.000    23743855.070 8  95606700.086 8     -1046.101          51.000
> 2020 05 13 13 00 30.0000000  0 17        .000000000000
G18  20409520.055 8 107252816.843 8       803.008          51.000    20409520.070 8  83573634.805 8       625.720          51.000
G20  24342494.336 5 127920664.904 5      3334.672          32.000
G21  20701784.531 8 108788630.980 8       525.148          50.000    20701782.328 8  84770378.514 8       409.207          50.000
G25  23977745.688 7 126003892.698 7     -3404.000          43.000    23977750.922 7  98184859.722 7     -2652.471          42.000
G31  22120884.367 8 116246022.906 8     -2388.785          50.000    22120883.930 8  90581302.010 8     -1861.391          50.000
R12  21349530.242 8 114045320.507 8     -3791.883          50.000    21349529.492 6  88701928.459 6     -2949.245          38.000
R13  19262040.758 6 102858222.020 6      -131.957          40.000    19262043.164 7  80000848.883 7      -102.633          44.000
R23  19363481.070 8 103581640.878 8       742.621          48.000    19363485.906 6  80563436.721 6       577.594          37.000
R24  21638140.125 8 115708937.232 8      3075.406          50.000    21638142.734 7  89995751.235 7      2391.983          46.000
C05  39626025.055 5 206343109.375 5        15.543          35.000    39626025.305 5 159557582.001 5        12.013          35.000
C11  25061672.250 6 130502719.078 6      2612.422          39.000    25061677.008 8 100912995.652 8      2020.311          49.000
C12  21650667.422 7 112740786.512 7       563.883          47.000    21650666.953 8  87178332.155 8       436.042          51.000
C24  22648242.109 8 117935347.899 8     -1774.137          51.000
C26  25179550.406 5 131116534.396 5     -3437.848          30.000
E02  23783425.047 8 124982733.638 8     -1500.383          51.000    23783426.891 8  95765997.422 8     -1149.617          51.000
E25  27792965.664 7 146052960.273 7     -2957.371          46.000    27792974.336 7 111910705.246 7     -2266.247          42.000
E36  23751677.148 8 124815923.881 8     -1374.934          51.000    23751680.195 8  95638209.624 8     -1053.482          51.000
> 2020 05 13 13 01  0.0000000  0 18        .000000000000
G18  20404985.953 8 107228989.571 8       786.516          51.000    20404985.789 8  83555068.095 8       612.869          51.000
G20  24323456.336 5 127820617.404 5      3336.824          31.000
G21  20698829.703 8 108773104.416 8       510.969          49.000    20698828.078 8  84758279.909 8       398.157          49.000
G25  23997188.953 7 126106068.456 7     -3406.383          43.000    23997194.633 7  98264477.119 7     -2654.327          43.000
G31  22134555.703 8 116317864.670 8     -2399.602          51.000    22134554.375 8  90637282.538 8     -1869.822          51.000
R12  21370858.250 8 114159253.523 8     -3802.648          50.000    21370857.477 6  88790542.915 6     -2957.618          40.000
R13  19262850.805 6 102862548.815 6      -155.508          40.000    19262853.688 7  80004214.173 7      -120.951          44.000
R22  21254872.758 5 113459927.770 5     -3247.926          34.000    21254876.266 4  88246621.313 4     -2526.158          26.000
R23  19359364.352 8 103559618.135 8       726.602          48.000    19359369.102 6  80546307.945 6       565.135          38.000
R24  21620915.695 8 115616831.836 8      3065.996          50.000    21620919.516 7  89924113.691 7      2384.664          46.000
C05  39625932.008 6 206342624.647 6        17.605          36.000    39625932.289 5 159557208.144 5        13.985          35.000
C11  25046630.438 6 130424395.886 6      2610.105          39.000    25046635.945 8 100852431.223 8      2018.205          49.000
C12  21647444.148 7 112724001.988 7       556.059          47.000    21647444.039 8  87165353.290 8       430.082          51.000
C24  22658500.844 8 117988764.953 8     -1785.910          51.000
C26  25199370.359 4 131219732.085 4     -3440.656          29.000
E02  23792017.281 8 125027887.510 8     -1508.762          51.000    23792018.867 8  95800595.847 8     -1156.058          51.000
E25  27809854.484 7 146141710.311 7     -2958.168          45.000    27809863.609 7 111978708.409 7     -2266.612          43.000
E36  23759547.883 8 124857284.449 8     -1381.371          51.000    23759550.773 8  95669901.474 8     -1058.477          51.000
> 2020 05 13 13 01 30.0000000  0 17        .000000000000
G18  20400566.953 8 107205768.028 8       761.449          51.000    20400566.773 8  83536973.381 8       593.337          51.000
G20  24304427.039 5 127720617.207 5      3329.773          31.000
G21  20695976.164 8 108758111.330 8       488.488          49.000    20695974.844 8  84746596.977 8       380.637          49.000
G25  24016667.969 7 126208430.877 7     -3417.723          44.000    24016673.820 7  98344239.958 7     -2663.164          43.000
G31  22148310.172 8 116390143.177 8     -2418.996          51.000    22148307.969 8  90693603.410 8     -1884.932          51.000
R12  21392268.352 8 114273623.888 8     -3822.109          50.000    21392269.898 7  88879497.593 7     -2972.755          44.000
R13  19263815.945 6 102867703.477 6      -188.312          39.000    19263819.117 7  80008223.359 7      -146.465          44.000
R23  19355358.031 8 103538187.585 8       702.004          48.000    19355363.328 6  80529639.745 6       546.003          38.000
R24  21603765.492 8 115525122.283 8      3047.840          51.000    21603769.695 7  89852784.062 7      2370.542          45.000
C05  39625846.359 5 206342179.388 5        11.523          35.000    39625846.930 5 159556863.839 5         9.170          35.000
C11  25031626.438 6 130346266.782 6      2598.793          41.000    25031632.297 8 100792016.834 8      2009.434          48.000
C12  21644287.461 7 112707563.957 7       539.770          47.000    21644287.508 8  87152642.383 8       417.330          51.000
C24  22668848.352 8 118042646.026 8     -1806.234          51.000
C26  25219213.367 5 131323058.051 5     -3448.758          30.000
E02  23800679.039 8 125073407.223 8     -1525.930          51.000    23800680.641 8  95835474.600 8     -1169.195          51.000
E25  27826768.883 7 146230593.768 7     -2967.316          44.000    27826778.078 7 112046813.785 7     -2273.853          42.000
E36  23767476.555 8 124898949.996 8     -1396.422          51.000    23767479.648 8  95701827.021 8     -1069.977          51.000
> 2020 05 13 13 02  0.0000000  0 16        .000000000000
G18  20396254.398 8 107183105.657 8       747.715          51.000    20396254.352 8  83519314.398 8       582.638          51.000
G20  24285397.148 5 127620627.291 5      3335.066          32.000
G21  20693215.555 8 108743604.792 8       477.188          50.000    20693214.656 8  84735293.171 8       371.834          50.000
G25  24036173.688 7 126310931.937 7     -3417.496          45.000    24036178.789 7  98424110.806 7     -2662.987          44.000
G31  22162138.148 8 116462808.815 8     -2426.801          51.000    22162135.898 8  90750225.955 8     -1891.014          51.000
R12  21413751.195 8 114388380.642 8     -3829.867          51.000    21413754.688 7  88968752.832 7     -2978.786          45.000
R13  19264927.680 6 102873638.883 6      -209.195          41.000    19264930.500 7  80012839.780 7      -162.707          44.000
R23  19351453.258 8 103517300.808 8       688.898          48.000    19351459.234 6  80513394.450 6       535.807          38.000
R24  21586680.656 8 115433762.399 8      3041.238          50.000    21586684.727 7  89781726.414 7      2365.411          44.000
C05  39625759.523 5 206341727.221 5        16.949          35.000    39625760.016 5 159556514.191 5        13.046          35.000
C11  25016651.258 6 130268285.584 6      2598.734          41.000    25016656.969 8 100731716.864 8      2009.446          48.000
C12  21641188.266 7 112691425.435 7       534.699          47.000    21641188.016 8  87140163.068 8       413.442          51.000
C24  22679275.422 8 118096943.455 8     -1815.117          51.000
E02  23809401.453 8 125119245.593 8     -1531.516          51.000    23809403.398 8  95870597.498 8     -1173.493          51.000
E25  27843699.758 7 146319562.881 7     -2965.418          43.000    27843708.289 6 112114984.750 6     -2272.209          41.000
E36  23775454.016 8 124940872.400 8     -1399.969          51.000    23775457.273 8  95733949.375 8     -1072.676          51.000
> 2020 05 13 13 02 30.0000000  0 16        .000000000000
G18  20392047.781 8 107160999.473 8       727.473          51.000    20392047.750 8  83502088.810 8       566.862          50.000
G20  24266368.188 5 127520633.227 5      3333.355          34.000
G21  20690546.945 8 108729581.081 8       459.289          49.000    20690546.609 8  84724365.617 8       357.888          49.000
G25  24055704.938 7 126413567.039 7     -3423.441          45.000    24055708.852 7  98504086.100 7     -2667.620          44.000
G31  22176038.477 8 116535856.002 8     -2441.434          51.000    22176037.039 8  90807145.827 8     -1902.416          51.000
R12  21435305.367 8 114503517.631 8     -3844.363          50.000    21435309.945 7  89058303.827 7     -2990.060          46.000
R13  19266185.422 6 102880352.142 6      -237.117          41.000    19266187.625 7  80018061.226 7      -184.424          44.000
R23  19347649.703 8 103496953.684 8       669.176          48.000    19347655.953 6  80497568.905 6       520.470          38.000
R24  21569660.406 8 115342750.056 8      3027.906          49.000    21569664.164 7  89710939.066 7      2355.038          44.000
C05  39625670.594 6 206341263.990 6        15.711          36.000    39625671.141 6 159556156.731 6        12.251          36.000
C11  25001704.273 7 130190449.688 7      2591.984          42.000    25001708.898 7 100671529.255 7      2004.223          47.000
C12  21638145.914 7 112675582.744 7       523.094          47.000    21638145.328 8  87127912.492 8       404.453          51.000
C24  22689781.336 8 118151652.805 8     -1830.621          51.000
E02  23818184.148 8 125165399.133 8     -1543.859          51.000    23818186.055 8  95905961.888 8     -1182.957          51.000
E25  27860646.102 6 146408613.301 6     -2969.578          41.000    27860653.102 6 112183217.998 6     -2275.577          38.000
E36  23783479.578 8 124983047.144 8     -1410.133          51.000    23783482.781 8  95766265.086 8     -1080.485          51.000
> 2020 05 13 13 03  0.0000000  0 16        .000000000000
G18  20387950.094 8 107139466.028 8       707.852          51.000    20387949.922 8  83485309.507 8       551.573          49.000
G20  24247344.516 5 127420661.009 5      3331.348          32.000
G21  20687973.141 8 108716056.013 8       442.180          49.000    20687972.922 8  84713826.637 8       344.556          50.000
G25  24075264.406 7 126516351.260 7     -3428.934          45.000    24075267.320 7  98584177.585 7     -2671.899          45.000
G31  22190013.836 8 116609298.610 8     -2455.066          51.000    22190013.719 8  90864373.829 8     -1913.036          51.000
R12  21456933.227 8 114619048.126 8     -3857.941          51.000    21456938.758 7  89148160.844 7     -3000.621          45.000
R13  19267591.406 6 102887860.695 6      -263.719          40.000    19267593.875 7  80023901.191 7      -205.115          44.000
R23  19343950.125 8 103477162.051 8       650.082          48.000    19343956.109 5  80482175.421 5       505.619          35.000
R24  21552708.805 8 115252102.976 8      3015.062          50.000    21552712.289 7  89640435.815 7      2345.052          44.000
C05  39625583.195 5 206340808.868 5        14.094          35.000
C11  24986788.445 7 130112775.756 7      2586.246          42.000    24986791.352 7 100611466.848 7      1999.907          45.000
C12  21635163.227 7 112660051.766 7       512.133          46.000    21635162.961 8  87115902.957 8       396.110          51.000
C24  22700368.828 8 118206788.942 8     -1845.340          51.000
E02  23827030.125 8 125211883.819 8     -1555.348          51.000    23827031.727 8  95941580.005 8     -1191.730          51.000
E25  27877610.852 6 146497760.446 6     -2973.570          40.000    27877614.766 5 112251525.329 5     -2278.438          35.000
E36  23791556.000 8 125025489.141 8     -1419.512          51.000    23791559.250 8  95798785.575 8     -1087.654          51.000
> 2020 05 13 13 03 30.0000000  0 17        .000000000000
G18  20383957.508 8 107118485.261 8       690.438          51.000    20383957.250 8  83468960.875 8       538.006          49.000
G20  24228321.977 4 127320690.345 4      3331.801          29.000
G21  20685490.633 8 108703009.053 8       427.195          51.000    20685490.133 8  84703660.179 8       332.879          50.000
G25  24094847.742 7 126619263.112 7     -3432.172          43.000    24094850.562 7  98664368.538 7     -2674.423          43.000
G29  21883326.820 6 114997662.221 6     -2324.879          36.000
G31  22204060.086 8 116683113.855 8     -2466.414          51.000    22204061.000 8  90921892.198 8     -1921.881          51.000
R12  21478629.992 8 114734948.439 8     -3869.098          50.000    21478635.562 7  89238305.498 7     -3009.298          42.000
R13  19269142.695 6 102896143.809 6      -288.629          41.000    19269144.984 7  80030343.619 7      -224.489          44.000
R23  19340350.469 7 103457904.651 7       633.309          46.000    19340355.703 5  80467197.457 5       492.573          34.000
R24  21535822.234 8 115161801.651 8      3004.543          50.000    21535824.922 7  89570201.479 7      2336.867          43.000
C05  39625492.820 6 206340337.680 6        16.715          36.000    39625493.180 6 159555439.458 6        12.523          36.000
C11  24971899.914 7 130035244.081 7      2582.219          43.000    24971901.117 7 100551514.492 7      1996.796          45.000
C12  21632236.164 7 112644811.754 7       503.520          46.000    21632236.430 8  87104118.430 8       389.356          51.000
C24  22711034.102 8 118262330.488 8     -1857.836          50.000
E02  23835935.117 8 125258679.123 8     -1564.676          51.000    23835936.258 8  95977436.107 8     -1198.916          51.000
E25  27894589.828 6 146586982.904 6     -2974.754          38.000    27894589.977 5 112319890.359 5     -2279.159          33.000
E36  23799679.070 8 125068176.853 8     -1426.730          51.000    23799682.633 8  95831494.347 8     -1093.215          51.000
> 2020 05 13 13 04  0.0000000  0 18        .000000000000
G18  20380079.992 8 107098108.632 8       667.648          51.000    20380079.734 8  83453082.998 8       520.246          49.000
G20  24209309.492 5 127220781.352 5      3328.855          32.000
G21  20683108.844 8 108690491.115 8       406.910          50.000    20683108.320 8  84693905.947 8       317.073          50.000
G25  24114464.242 7 126722352.415 7     -3440.699          42.000    24114467.953 7  98744697.773 7     -2681.067          42.000
G31  22218186.836 8 116757350.594 8     -2483.039          51.000    22218187.945 8  90979738.990 8     -1934.836          51.000
R12  21500404.836 8 114851267.233 8     -3885.664          51.000    21500408.172 6  89328775.508 6     -3022.189          38.000
R13  19270848.828 6 102905254.301 6      -319.055          41.000    19270851.000 7  80037429.558 7      -248.154          44.000
R22  21365136.445 5 114048468.685 5     -3290.688          34.000    21365138.891 5  88704371.379 5     -2559.427          33.000
R23  19336860.102 7 103439232.590 7       611.066          46.000    19336865.094 5  80452674.783 5       475.274          34.000
R24  21519010.125 8 115071899.410 8      2988.574          49.000    21519012.438 7  89500277.525 7      2324.447          43.000
C05  39625409.625 5 206339904.419 5        12.277          35.000    39625409.984 6 159555104.385 6         9.823          36.000
C11  24957048.945 7 129957905.838 7      2573.254          44.000    24957048.680 7 100491711.735 7      1989.873          47.000
C12  21629374.617 7 112629913.150 7       489.453          45.000    21629375.117 8  87092597.877 8       378.531          51.000
C24  22721787.141 8 118318326.805 8     -1875.672          50.000
C26  25318630.164 5 131840753.740 5     -3460.543          31.000
E02  23844908.703 8 125305835.868 8     -1579.402          51.000    23844909.164 8  96013569.121 8     -1210.170          50.000
E25  27911592.648 6 146676330.998 6     -2982.039          36.000    27911589.406 5 112388412.616 5     -2284.646          32.000
E36  23807858.430 8 125111160.162 8     -1439.160          51.000    23807862.133 8  95864429.616 8     -1102.733          51.000
> 2020 05 13 13 04 30.0000000  0 18        .000000000000
G18  20376307.641 8 107078285.148 8       651.277          51.000    20376307.461 8  83437636.157 8       507.489          49.000
G20  24190299.359 5 127120882.173 5      3329.969          33.000
G21  20680817.758 8 108678450.905 8       393.199          51.000    20680817.250 8  84684523.992 8       306.392          50.000
G25  24134104.891 7 126825566.931 7     -3442.688          42.000    24134109.492 7  98825124.599 7     -2682.617          42.000
G29  21909947.820 5 115137552.241 5     -2337.375          32.000    21909940.938 5  89717544.321 5     -1821.331          32.000
G31  22232383.914 8 116831955.214 8     -2493.195          51.000    22232383.719 8  91037872.412 8     -1942.753          51.000
R12  21522248.164 8 114967949.672 8     -3895.555          51.000    21522249.969 7  89419528.324 7     -3029.882          42.000
R13  19272700.125 7 102915141.435 7      -342.805          42.000    19272702.555 7  80045119.536 7      -266.626          44.000
R23  19333469.234 7 103421092.992 7       595.414          46.000    19333473.953 5  80438566.209 5       463.100          34.000
R24  21502263.398 8 114982345.466 8      2979.004          49.000    21502265.391 7  89430624.478 7      2317.003          43.000
C05  39625323.695 5 206339457.383 5        14.715          35.000    39625324.211 6 159554759.699 6        11.608          36.000
C11  24942225.555 7 129880710.778 7      2570.551          43.000    24942224.328 7 100432019.697 7      1987.565          47.000
C12  21626569.125 7 112615304.793 7       481.887          46.000    21626569.531 8  87081301.759 8       372.592          51.000
C24  22732617.656 8 118374725.950 8     -1886.891          50.000
C26  25338554.898 5 131944502.825 5     -3458.828          32.000
E02  23853941.297 8 125353302.646 8     -1587.660          51.000    23853940.773 8  96049939.679 8     -1216.477          49.000
E25  27928609.594 5 146765752.491 5     -2982.641          35.000    27928604.141 5 112456930.173 5     -2285.140          33.000
E36  23816084.117 8 125154386.631 8     -1445.125          51.000    23816087.742 8  95897551.202 8     -1107.363          51.000
> 2020 05 13 13 05  0.0000000  0 16        .000000000000
G18  20372647.281 8 107059049.727 8       632.172          51.000    20372647.102 8  83422647.529 8       492.601          50.000
G21  20678624.234 8 108666922.560 8       376.637          51.000    20678623.219 8  84675540.852 8       293.483          49.000
G25  24153776.422 7 126928940.104 7     -3447.590          45.000    24153781.156 7  98905675.031 7     -2686.437          45.000
G31  22246657.289 8 116906959.879 8     -2505.988          51.000    22246654.516 8  91096317.527 8     -1952.721          51.000
R12  21544165.625 8 115085027.659 8     -3908.254          51.000    21544168.648 7  89510588.877 7     -3039.756          45.000
R13  19274703.680 7 102925840.243 7      -369.391          42.000    19274706.062 7  80053440.809 7      -287.304          43.000
R23  19330184.023 7 103403520.298 7       577.074          45.000    19330188.914 5  80424898.538 5       448.836          33.000
R24  21485588.648 8 114893176.084 8      2966.664          50.000    21485590.562 7  89361270.571 7      2307.405          43.000
C05                                                                  39625242.398 5 159554430.480 5        11.031          35.000
C11  24927436.117 7 129803693.664 7      2565.152          43.000    24927434.234 7 100372465.228 7      1983.433          47.000
C12  21623826.008 7 112601020.477 7       471.574          46.000    21623826.414 8  87070256.228 8       364.585          51.000
C24  22743532.016 8 118431560.958 8     -1900.895          50.000
C26  25358496.719 6 132048336.914 6     -3461.473          36.000
E02  23863039.383 8 125401113.759 8     -1598.656          51.000    23863038.281 8  96086574.115 8     -1224.959          50.000
E25  27945645.867 5 146855361.022 5     -2985.055          35.000    27945641.266 5 112525529.760 5     -2287.217          34.000
E36  23824362.383 8 125197889.670 8     -1453.895          51.000    23824365.961 8  95930884.701 8     -1114.014          51.000
> 2020 05 13 13 05 30.0000000  0 17        .000000000000
G18  20369088.891 8 107040350.632 8       613.820          51.000    20369088.969 8  83408076.805 8       478.305          51.000
G21  20676518.039 8 108655853.788 8       360.785          51.000    20676516.594 8  84666915.842 8       281.131          50.000
G25  24173468.227 7 127032418.737 7     -3451.484          46.000    24173472.336 7  98986307.622 7     -2689.471          46.000
G29  21936702.211 5 115278165.895 5     -2348.660          34.000
G31  22260996.258 8 116982309.892 8     -2517.922          50.000    22260991.844 8  91155031.738 8     -1962.020          51.000
R12  21566146.891 8 115202445.396 8     -3920.031          48.000    21566150.602 8  89601913.697 8     -3048.916          48.000
R13  19276849.375 7 102937298.490 7      -395.238          42.000    19276851.805 7  80062352.777 7      -307.408          44.000
R23  19326994.914 7 103386461.152 7       559.527          45.000    19326999.852 5  80411630.350 5       435.188          33.000
R24  21468975.852 8 114804340.022 8      2955.078          49.000    21468978.414 7  89292175.869 7      2298.394          44.000
C05                                                                  39625154.562 6 159554076.485 6        11.635          36.000
C11  24912670.930 7 129726803.753 7      2560.129          43.000    24912668.516 8 100313009.091 8      1979.950          48.000
C12  21621135.328 7 112587008.458 7       461.988          47.000    21621135.703 8  87059421.244 8       357.293          51.000
C24  22754520.383 8 118488779.100 8     -1914.137          51.000
C26  25378443.805 6 132152202.503 6     -3463.453          38.000
E02  23872192.734 8 125449217.043 8     -1608.758          51.000    23872192.250 8  96123432.449 8     -1232.726          51.000
E25                                                                  27962690.727 6 112594170.965 6     -2289.084          36.000
E36  23832683.203 8 125241616.112 8     -1461.750          51.000    23832686.773 8  95964389.384 8     -1120.060          51.000
> 2020 05 13 13 06  0.0000000  0 18        .000000000000
G18  20365638.656 8 107022219.990 8       593.938          51.000    20365638.930 8  83393949.034 8       462.808          51.000
G20  24133294.773 5 126821316.351 5      3325.871          33.000
G21  20674505.016 8 108645275.891 8       343.480          51.000    20674503.586 8  84658673.346 8       267.647          50.000
G25  24193186.023 7 127136033.608 7     -3456.918          45.000    24193188.562 7  99067046.377 7     -2693.705          46.000
G29  21950128.039 5 115348709.437 5     -2354.691          33.000    21950133.375 5  89882105.621 5     -1834.828          33.000
G31  22275406.023 8 117058034.869 8     -2531.305          48.000    22275402.109 8  91214038.149 8     -1972.445          48.000
R12  21588196.422 7 115320232.074 7     -3933.109          43.000    21588201.281 8  89693525.504 8     -3059.085          48.000
R13  19279142.992 6 102949548.601 6      -422.414          41.000    19279146.117 7  80071880.611 7      -328.547          44.000
R23  19323907.797 7 103369946.919 7       540.508          44.000    19323912.742 5  80398785.941 5       420.395          32.000
R24  21452430.984 7 114715870.498 7      2941.961          47.000    21452435.031 7  89223366.251 7      2288.192          43.000
C05  39625066.461 6 206338117.769 6        14.441          36.000    39625066.938 5 159553723.828 5        10.883          35.000
C11  24897935.773 7 129650073.010 7      2554.184          42.000    24897933.117 7 100253676.056 7      1975.072          46.000
C12  21618502.984 7 112573299.933 7       451.012          47.000    21618503.234 8  87048820.923 8       348.866          51.000
C24  22765588.500 8 118546410.729 8     -1928.855          51.000
C26  25398401.984 6 132256129.794 6     -3465.910          37.000
E02  23881407.602 8 125497644.163 8     -1620.406          50.000    23881408.422 8  96160538.954 8     -1241.616          51.000
E25  27979753.727 6 147034588.815 6     -2991.125          36.000    27979757.773 6 112662877.440 6     -2291.841          38.000
E36  23841052.523 8 125285596.656 8     -1471.137          51.000    23841056.086 8  95998088.767 8     -1127.229          51.000
> 2020 05 13 13 06 30.0000000  0 16        .000000000000
G18  20362301.141 8 107004681.469 8       574.031          51.000    20362301.562 8  83380282.659 8       447.300          51.000
G20  24114312.938 5 126721556.565 5      3322.961          34.000
G21  20672589.898 8 108635212.206 8       326.168          51.000    20672588.273 8  84650831.509 8       254.157          50.000
G25  24212933.734 7 127239806.997 7     -3462.391          45.000    24212935.016 7  99147908.642 7     -2697.970          44.000
G31  22289890.797 7 117134156.038 7     -2544.785          47.000    22289887.906 7  91273353.308 7     -1982.949          47.000
R12  21610314.266 6 115438408.272 6     -3946.633          41.000    21610324.594 8  89785440.451 8     -3069.600          48.000
R13  19281589.422 7 102962615.317 7      -450.008          42.000    19281593.133 7  80082043.610 7      -350.003          44.000
R23  19320926.164 7 103354000.890 7       521.281          43.000    19320931.867 5  80386383.482 5       405.444          33.000
R24  21435959.602 7 114627792.974 7      2928.672          47.000    21435963.727 6  89154861.551 6      2277.856          41.000
C05  39624983.672 6 206337686.123 6        13.238          36.000    39624984.211 5 159553390.007 5        10.611          35.000
C11  24883234.805 6 129573525.268 6      2547.633          41.000    24883232.656 7 100194484.461 7      1970.218          47.000
C12  21615933.195 7 112559917.846 7       439.934          47.000    21615933.359 8  87038473.056 8       340.224          51.000
C24  22776740.047 8 118604477.797 8     -1943.559          51.000
C26  25418375.875 6 132360139.951 6     -3469.375          36.000
E02  23890688.656 8 125546418.325 8     -1632.312          50.000    23890690.844 8  96197911.376 8     -1250.679          51.000
E36  23849474.461 8 125329853.567 8     -1480.504          51.000    23849477.984 8  96031999.909 8     -1134.412          51.000
> 2020 05 13 13 07  0.0000000  0 18        .000000000000
G18  20359075.391 8 106987730.792 8       556.945          50.000    20359075.797 8  83367074.328 8       433.983          50.000
G20  24095341.492 5 126621872.057 5      3324.090          34.000
G21  20670771.555 8 108625657.494 8       311.762          50.000    20670769.648 8  84643386.277 8       242.931          49.000
G25  24232710.047 7 127343733.224 7     -3465.156          43.000    24232711.742 7  99228889.986 7     -2700.125          43.000
G29  21977087.250 5 115490362.259 5     -2365.793          31.000
G31  22304449.703 8 117210666.260 8     -2555.004          48.000    22304447.633 7  91332971.637 7     -1990.912          47.000
R12  21632509.344 8 115556966.676 8     -3956.426          48.000    21632519.023 7  89877652.510 7     -3077.223          47.000
R13  19284188.094 6 102976494.101 6      -474.508          41.000    19284192.219 7  80092838.195 7      -369.062          44.000
R22  21476595.445 5 114643456.128 5     -3321.695          33.000
R23  19318050.047 7 103338617.635 7       505.070          43.000    19318056.281 5  80374418.735 5       392.832          32.000
R24  21419561.344 7 114540103.875 7      2918.242          47.000    21419564.383 6  89086658.988 6      2269.744          40.000
C05  39624904.695 5 206337275.647 5        15.449          35.000    39624905.320 5 159553073.336 5        11.735          35.000
C11  24868567.820 6 129497156.610 6      2544.480          41.000    24868566.812 7 100135431.404 7      1967.527          47.000
C12  21613425.156 7 112546857.348 7       431.832          47.000    21613425.117 8  87028373.872 8       333.923          51.000
C24  22787973.742 8 118662974.568 8     -1955.234          51.000
C26  25438364.234 6 132464226.598 6     -3468.820          36.000
E02  23900035.344 8 125595534.799 8     -1641.172          51.000    23900038.414 8  96235546.077 8     -1257.476          51.000
E36  23857947.812 8 125374381.096 8     -1486.945          51.000    23857951.125 8  96066118.413 8     -1139.333          51.000
> 2020 05 13 13 07 30.0000000  0 17        .000000000000
G18  20355952.078 8 106971318.908 8       536.520          50.000    20355952.523 8  83354285.815 8       418.064          49.000
G20  24076373.953 5 126522189.967 5      3321.430          33.000
G21  20669040.656 8 108616562.483 8       293.934          50.000    20669038.930 8  84636299.283 8       229.042          49.000
G25  24252505.711 7 127447761.909 7     -3471.070          43.000    24252508.742 7  99309951.187 7     -2704.733          43.000
G29  21990609.234 4 115561433.101 4     -2373.754          28.000    21990612.188 4  90047878.364 4     -1849.681          29.000
G31  22319073.336 8 117287513.987 8     -2568.820          50.000    22319072.016 8  91392852.938 8     -2001.681          50.000
R12  21654767.180 8 115675854.176 8     -3970.020          51.000    21654774.633 7  89970120.491 7     -3087.796          45.000
R13  19286930.133 7 102991135.766 7      -502.406          42.000    19286933.914 7  80104226.137 7      -390.760          43.000
R23  19315269.336 6 103323746.512 6       485.277          41.000    19315275.242 4  80362852.353 4       377.441          29.000
R24  21403226.961 8 114452754.631 8      2904.211          48.000    21403230.016 6  89018720.717 6      2258.831          41.000
C05  39624820.125 6 206336834.687 6        13.906          36.000    39624820.805 5 159552732.637 5        10.276          35.000
C11  24853926.102 6 129420918.703 6      2537.473          41.000    24853926.555 7 100076479.475 7      1962.002          47.000
C12  21610969.508 7 112534069.333 7       420.184          47.000    21610969.156 8  87018485.372 8       324.855          51.000
C24  22799279.641 8 118721851.023 8     -1970.500          50.000
C26  25458357.805 6 132568339.300 6     -3472.227          36.000
E02  23909438.219 8 125644944.113 8     -1653.508          51.000    23909441.477 8  96273405.145 8     -1267.036          51.000
E36  23866463.117 8 125419128.906 8     -1496.898          51.000    23866466.125 8  96100405.696 8     -1146.989          51.000
> 2020 05 13 13 08  0.0000000  0 15        .000000000000
G18  20352941.328 8 106955498.434 8       518.910          50.000    20352942.016 8  83341958.177 8       404.346          50.000
G21  20667407.195 8 108607979.398 8       278.973          49.000    20667405.508 8  84629611.190 8       217.381          49.000
G25  24272331.008 7 127551944.399 7     -3473.711          44.000    24272335.133 7  99391132.253 7     -2706.794          44.000
G31  22333771.047 8 117364749.474 8     -2579.465          51.000    22333770.383 8  91453036.394 8     -2009.973          51.000
R12  21677095.789 8 115795120.937 8     -3980.309          50.000    21677101.148 7  90062883.418 7     -3095.799          44.000
R13  19289825.242 7 103006593.353 7      -527.230          42.000    19289828.578 7  80116248.670 7      -410.068          44.000
R23  19312594.711 7 103309439.610 7       469.145          43.000    19312599.641 5  80351724.759 5       364.890          31.000
R24  21386966.641 8 114365799.720 8      2893.473          50.000    21386969.766 6  88951089.144 6      2250.479          41.000
C05  39624740.211 5 206336419.469 5        14.992          35.000    39624741.016 5 159552410.740 5        11.665          35.000
C11  24839320.422 6 129344864.297 6      2533.672          40.000    24839321.516 8 100017669.401 8      1959.072          48.000
C12  21608575.969 7 112521605.420 7       411.574          47.000    21608575.445 8  87008847.474 8       318.246          51.000
C24  22810668.055 8 118781157.859 8     -1982.531          49.000
C26  25478366.367 5 132672528.371 5     -3473.426          30.000
E02  23918906.859 8 125694698.465 8     -1662.727          51.000    23918910.000 8  96311528.579 8     -1273.998          51.000
E36  23875030.039 8 125464148.233 8     -1503.641          51.000    23875033.141 8  96134901.011 8     -1152.143          51.000
> 2020 05 13 13 08 30.0000000  0 16        .000000000000
G18  20350032.273 8 106940211.618 8       501.008          50.000    20350032.898 8  83330046.362 8       390.396          50.000
G21  20665860.062 8 108599850.030 8       263.738          49.000    20665858.266 8  84623276.625 8       205.510          49.000
G25  24292174.602 7 127656221.668 7     -3477.199          45.000    24292179.258 7  99472387.161 7     -2709.512          45.000
G29  22017758.344 5 115704106.274 5     -2381.992          34.000    22017758.016 6  90159042.851 6     -1856.104          36.000
G31  22348531.133 8 117442312.304 8     -2590.594          51.000    22348531.094 8  91513474.925 8     -2018.648          51.000
R12  21699482.906 8 115914704.793 8     -3991.086          48.000    21699486.281 6  90155892.960 6     -3104.181          41.000
R13  19292862.148 6 103022808.561 6      -552.961          41.000    19292865.211 7  80128860.458 7      -430.081          44.000
R23  19310014.508 7 103295637.409 7       451.992          42.000    19310019.961 5  80340989.748 5       351.553          34.000
R24  21370769.352 8 114279181.244 8      2881.996          51.000    21370771.094 6  88883719.238 6      2241.553          40.000
C05                                                                  39624654.625 5 159552063.001 5        11.998          35.000
C11  24824739.242 6 129268936.385 6      2529.121          41.000    24824741.086 8  99958957.164 8      1955.562          49.000
C12  21606233.664 8 112509407.822 8       402.441          48.000    21606233.078 8  86999415.512 8       311.136          51.000
C24  22822128.273 8 118840836.374 8     -1995.113          50.000
C26  25498378.289 5 132776734.548 5     -3473.535          33.000
E02  23928429.828 8 125744739.728 8     -1672.543          51.000    23928432.672 8  96349871.856 8     -1281.568          51.000
E36  23883637.297 8 125509380.017 8     -1510.996          51.000    23883640.789 8  96169559.140 8     -1157.803          51.000
> 2020 05 13 13 09  0.0000000  0 15        .000000000000
G18  20347237.461 8 106925524.749 8       479.023          50.000    20347237.977 8  83318602.054 8       373.265          51.000
G21  20664411.656 8 108592239.759 8       244.621          48.000    20664410.414 8  84617346.563 8       190.614          49.000
G25  24312048.727 7 127760658.645 7     -3484.422          45.000    24312053.133 7  99553766.481 7     -2715.140          45.000
G31  22363365.539 8 117520265.946 8     -2605.410          51.000    22363365.977 8  91574217.995 8     -2030.190          51.000
R12  21721940.391 7 116034669.961 7     -4005.562          46.000    21721942.844 6  90249199.130 6     -3115.441          40.000
R13  19296053.453 6 103039849.014 6      -582.242          40.000    19296056.562 7  80142114.158 7      -452.855          44.000
R23  19307541.250 7 103282406.403 7       431.012          43.000    19307546.930 5  80330698.946 5       335.231          33.000
R24  21354647.633 8 114192967.753 8      2866.523          50.000    21354647.703 6  88816664.346 6      2229.521          39.000
C05  39624573.492 5 206335551.275 5        12.750          35.000    39624574.562 5 159551741.144 5         9.956          35.000
C11  24810195.195 6 129193201.217 6      2520.574          41.000    24810197.711 7  99900393.939 7      1949.355          47.000
C12  21603955.102 8 112497541.755 8       389.562          48.000    21603954.438 8  86990239.906 8       301.259          51.000
C24  22833672.984 8 118900950.819 8     -2011.613          51.000
C26  25518405.750 5 132881021.386 5     -3477.914          32.000
E02  23938019.680 8 125795133.714 8     -1686.043          51.000    23938022.031 8  96388485.385 8     -1291.897          51.000
E36  23892297.375 8 125554889.232 8     -1522.078          51.000    23892300.898 8  96204429.828 8     -1166.208          51.000
> 2020 05 13 13 09 30.0000000  0 16        .000000000000
G18  20344550.250 8 106911402.870 8       461.875          51.000    20344550.969 8  83307598.009 8       359.903          51.000
G20  24000583.250 5 126123932.200 5      3315.316          33.000
G21  20663055.477 8 108585113.438 8       229.977          48.000    20663054.359 8  84611793.602 8       179.203          48.000
G25  24331946.375 7 127865219.107 7     -3486.805          44.000    24331950.203 7  99635242.038 7     -2716.994          45.000
G31  22378267.070 8 117598573.239 8     -2615.559          51.000    22378267.867 8  91635236.649 8     -2038.101          51.000
R12  21744462.289 7 116154977.621 7     -4015.277          47.000    21744465.258 7  90342771.663 7     -3122.997          42.000
R13  19299392.523 6 103057679.207 6      -607.000          40.000    19299395.758 7  80155982.078 7      -472.111          44.000
R23  19305167.672 6 103269710.060 6       415.008          41.000    19305173.656 5  80320824.010 5       322.787          34.000
R24  21338594.719 8 114107124.989 8      2855.789          49.000    21338594.273 6  88749897.788 6      2221.169          40.000
C05  39624492.914 5 206335131.434 5        15.203          35.000    39624493.898 5 159551416.502 5        11.342          34.000
C11  24795681.773 6 129117624.396 6      2517.254          41.000    24795683.906 7  99841953.163 7      1946.479          46.000
C12  21601733.328 8 112485972.106 8       381.441          48.000    21601732.680 8  86981293.529 8       294.861          51.000
C24  22845295.227 8 118961465.176 8     -2023.184          51.000
E02  23947669.734 8 125845845.125 8     -1695.035          51.000    23947671.500 8  96427342.149 8     -1298.805          51.000
E15  27096520.375 6 142393182.204 6      2789.582          40.000    27096527.469 7 109106483.574 7      2137.346          42.000
E36  23901003.375 8 125600639.614 8     -1528.348          51.000    23901006.539 8  96239485.304 8     -1171.060          51.000
> 2020 05 13 13 10  0.0000000  0 17        .000000000000
G18  20341969.320 8 106897839.780 8       442.602          51.000    20341970.445 8  83297029.403 8       344.887          51.000
G20  23981661.781 5 126024500.050 5      3313.500          34.000
G21  20661790.141 8 108578464.032 8       213.414          48.000    20661788.703 8  84606612.233 8       166.294          48.000
G25  24351865.781 7 127969895.677 7     -3491.586          43.000    24351869.250 7  99716808.049 7     -2720.722          43.000
G31  22393233.820 8 117677224.998 8     -2627.594          51.000    22393234.719 8  91696523.716 8     -2047.476          51.000
R12  21767046.820 8 116275618.474 8     -4027.043          49.000    21767050.648 7  90436603.359 7     -3132.145          44.000
R13  19302878.703 6 103076292.785 6      -633.793          41.000    19302881.508 7  80170459.293 7      -492.950          44.000
R22  21589131.547 4 115244248.652 4     -3352.926          27.000
R23  19302892.641 7 103257540.841 7       396.602          42.000    19302899.484 5  80311359.080 5       308.468          34.000
R24  21322608.953 8 114021647.459 8      2843.004          48.000    21322609.680 6  88683415.261 6      2211.222          41.000
C05  39624410.867 6 206334704.241 6        14.254          36.000    39624411.648 5 159551084.384 5        11.025          35.000
C11  24781197.453 6 129042200.318 6      2511.125          40.000    24781199.156 7  99783630.492 7      1941.933          46.000
C12  21599567.055 8 112474692.339 8       371.035          48.000    21599566.422 8  86972571.300 8       286.829          51.000
C24  22856993.133 8 119022371.834 8     -2036.973          51.000
E02  23957378.789 8 125896867.357 8     -1706.145          51.000    23957379.883 8  96466437.082 8     -1307.332          51.000
E15  27080610.141 6 142309572.806 6      2784.848          39.000    27080616.344 7 109042419.279 7      2133.886          42.000
E36  23909753.875 8 125646623.720 8     -1536.891          51.000    23909756.805 8  96274719.859 8     -1177.644          51.000
> 2020 05 13 13 10 30.0000000  0 17        .000000000000
G18  20339493.758 8 106884830.003 8       421.605          51.000    20339494.789 8  83286891.922 8       328.524          50.000
G20  23962749.016 6 125925111.787 6      3309.328          37.000
G21  20660614.328 8 108572285.637 8       195.359          48.000    20660613.266 8  84601797.881 8       152.228          48.000
G25  24371806.062 7 128074681.613 7     -3497.379          42.000    24371809.547 6  99798459.309 6     -2725.233          41.000
G29  22072459.016 5 115991557.641 5     -2408.074          31.000    22072438.141 5  90382933.218 5     -1876.412          33.000
G31  22408264.602 8 117756213.244 8     -2641.375          51.000    22408265.125 8  91758072.968 8     -2058.214          51.000
R12  21789692.164 7 116396583.791 7     -4040.422          47.000    21789696.953 7  90530687.436 7     -3142.550          45.000
R13  19306510.633 6 103095684.336 6      -662.355          40.000    19306513.047 7  80185541.602 7      -515.165          45.000
R23  19300715.914 6 103245892.590 6       376.777          41.000    19300722.203 5  80302299.297 5       293.049          34.000
R24  21306691.117 8 113936530.794 8      2828.375          49.000    21306693.180 6  88617213.436 6      2199.847          41.000
C05  39624325.906 5 206334261.300 5        12.551          35.000    39624326.750 5 159550742.653 5         9.309          35.000
C11  24766741.453 6 128966924.068 6      2504.055          39.000    24766742.578 7  99725422.127 7      1936.288          45.000
C12  21597455.445 8 112463696.584 8       359.109          49.000    21597454.578 8  86964068.696 8       277.620          51.000
C24  22868764.992 8 119083663.978 8     -2052.230          51.000
E02  23967146.000 8 125948194.584 8     -1718.824          51.000    23967146.617 8  96505765.735 8     -1317.030          51.000
E15  27064718.492 6 142226070.044 6      2778.879          39.000    27064725.836 7 108978436.657 7      2129.202          42.000
E36  23918547.516 8 125692834.824 8     -1547.016          51.000    23918550.656 8  96310128.343 8     -1185.373          51.000
> 2020 05 13 13 11  0.0000000  0 16        .000000000000
G18  20337137.359 8 106872446.748 8       404.285          51.000    20337138.367 8  83277242.651 8       315.030          51.000
G20  23943859.898 6 125825843.438 6      3309.023          38.000
G21  20659542.148 8 108566651.033 8       180.715          49.000    20659541.250 8  84597407.279 8       140.817          49.000
G25  24391780.750 7 128179648.825 7     -3499.863          43.000    24391784.891 7  99880251.822 7     -2727.172          43.000
G31  22423373.086 8 117835608.924 8     -2651.348          51.000    22423373.250 8  91819939.704 8     -2065.985          51.000
R12  21812410.578 7 116517944.530 7     -4050.059          43.000    21812416.930 7  90625079.099 7     -3150.046          45.000
R13  19310301.695 6 103115927.942 6      -686.926          40.000    19310304.273 7  80201286.619 7      -534.276          45.000
R23  19298650.234 7 103234838.530 7       360.652          43.000    19298656.422 5  80293701.705 5       280.507          34.000
R24  21290855.539 8 113851850.486 8      2817.391          50.000    21290857.773 6  88551351.038 6      2191.307          41.000
C05  39624252.461 5 206333879.393 5        13.605          35.000    39624253.141 5 159550446.524 5        10.650          35.000
C11  24752327.344 6 128891868.668 6      2500.160          38.000    24752328.555 7  99667384.546 7      1933.092          47.000
C12  21595412.234 8 112453056.959 8       350.602          48.000    21595411.273 8  86955841.468 8       271.098          51.000
C24  22880624.031 8 119145412.786 8     -2064.008          51.000
E02  23976985.250 8 125999899.702 8     -1727.848          51.000    23976985.703 8  96545383.942 8     -1323.977          51.000
E15  27048861.641 6 142142748.041 6      2776.246          38.000    27048869.789 6 108914592.566 6      2127.233          41.000
E36  23927398.094 8 125739344.918 8     -1553.383          51.000    23927401.508 8  96345765.948 8     -1190.269          51.000
> 2020 05 13 13 11 30.0000000  0 17        .000000000000
G18  20334882.047 8 106860594.536 8       385.637          51.000    20334883.328 8  83268007.189 8       300.496          50.000
G20  23924976.148 6 125726602.658 6      3306.910          38.000
G21  20658555.453 8 108561464.200 8       164.832          50.000    20658554.148 8  84593365.567 8       128.441          50.000
G25  24411771.648 7 128284700.748 7     -3503.613          44.000    24411776.461 7  99962110.349 7     -2730.091          43.000
G31  22438540.383 8 117915314.056 8     -2662.488          48.000    22438540.664 8  91882047.565 8     -2074.666          48.000
R12  21835182.844 7 116639600.400 7     -4060.734          42.000    21835191.938 7  90719700.335 7     -3158.349          43.000
R13  19314234.062 6 103136926.464 6      -713.105          41.000    19314236.414 7  80217618.797 7      -554.638          44.000
R22  21645797.875 5 115546737.277 5     -3366.922          30.000
R23  19296677.352 7 103224280.648 7       343.031          43.000    19296682.766 5  80285490.013 5       266.802          34.000
R24  21275083.328 8 113767510.759 8      2805.055          48.000    21275085.930 6  88485753.505 6      2181.706          41.000
C05  39624172.109 5 206333460.994 5        13.977          35.000    39624172.867 5 159550122.995 5        10.780          35.000
C11  24737937.727 6 128816939.927 6      2494.969          39.000    24737939.523 8  99609444.934 8      1929.226          48.000
C12  21593419.047 8 112442678.369 8       341.023          48.000    21593418.414 8  86947816.099 8       263.644          51.000
C24  22892551.578 8 119207522.226 8     -2076.934          51.000
E02  23986878.398 8 126051886.895 8     -1738.242          51.000    23986878.695 8  96585218.271 8     -1331.888          51.000
E15  27033021.227 6 142059512.362 6      2772.305          37.000    27033030.141 6 108850814.576 6      2124.380          40.000
E36  23936287.250 8 125786057.308 8     -1561.027          51.000    23936290.617 8  96381558.555 8     -1196.103          51.000
> 2020 05 13 13 12  0.0000000  0 17        .000000000000
G18  20332735.023 8 106849311.570 8       366.383          51.000    20332736.242 8  83259215.281 8       285.493          50.000
G20  23906105.805 6 125627430.717 6      3304.410          37.000
G21  20657661.078 8 108556762.645 8       148.441          51.000    20657659.711 8  84589702.021 8       115.669          50.000
G25  24431785.586 7 128389874.481 7     -3508.109          43.000    24431791.000 7 100044063.790 7     -2733.595          43.000
G26  20545735.133 5 107968568.100 5      1224.309          35.000    20545736.047 5  84131351.589 5       954.010          34.000
G31  22453773.023 7 117995364.371 7     -2674.328          47.000    22453773.906 7  91944424.418 7     -2083.892          47.000
R12  21858019.000 7 116761587.478 7     -4071.918          46.000    21858028.242 6  90814579.154 6     -3167.050          38.000
R13  19318315.281 7 103158719.517 7      -739.742          42.000    19318317.172 7  80234568.929 7      -575.355          44.000
R23  19294803.578 7 103214257.023 7       324.910          43.000    19294808.672 5  80277693.884 5       252.708          33.000
R24  21259381.922 8 113683551.412 8      2792.098          48.000    21259385.602 6  88420451.809 6      2171.635          41.000
C05  39624092.258 5 206333045.145 5        13.914          35.000    39624093.047 5 159549801.442 5        10.376          35.000
C11  24723579.609 6 128742176.276 6      2489.062          38.000    24723582.211 8  99551632.962 8      1924.701          48.000
C12  21591483.336 8 112432598.388 8       330.734          48.000    21591482.859 8  86940021.612 8       255.817          51.000
C24  22904554.875 8 119270028.782 8     -2090.410          51.000
E02  23996832.375 8 126104194.094 8     -1749.117          51.000    23996832.922 8  96625297.794 8     -1340.236          51.000
E15  27017205.383 6 141976402.005 6      2768.465          38.000    27017214.641 6 108787132.687 6      2120.947          40.000
E36  23945221.938 8 125833009.062 8     -1569.242          51.000    23945225.008 8  96417534.550 8     -1202.394          51.000
> 2020 05 13 13 12 30.0000000  0 17        .000000000000
G18  20330695.945 8 106838596.006 8       348.035          51.000    20330697.180 8  83250865.501 8       271.196          51.000
G20  23887249.266 5 125528328.489 5      3302.137          31.000    23887250.336 4  97814294.766 4      2573.106          25.000
G21  20656858.648 8 108552544.142 8       132.871          51.000    20656857.398 8  84586414.888 8       103.536          51.000
G25  24451822.219 6 128495166.907 6     -3511.250          41.000    24451827.742 6 100126109.724 6     -2736.042          41.000
G26  20538786.211 5 107932057.302 5      1210.277          33.000    20538788.297 5  84102901.606 5       943.079          32.000
G31  22469070.336 7 118075755.447 7     -2685.180          45.000    22469071.555 7  92007066.833 7     -2092.348          45.000
R12  21880917.367 7 116883900.524 7     -4082.070          47.000    21880923.133 5  90909711.328 5     -3174.953          34.000
R13  19322544.953 7 103181304.855 7      -765.707          43.000    19322546.648 7  80252135.268 7      -595.550          44.000
R23  19293028.984 7 103204764.934 7       307.711          43.000    19293033.883 5  80270311.134 5       239.331          34.000
R24  21243751.781 8 113599971.618 8      2779.891          48.000    21243754.977 6  88355445.317 6      2162.137          40.000
C05  39624012.523 5 206332630.288 5        13.773          35.000    39624013.414 5 159549482.084 5        11.233          35.000
C11  24709253.211 6 128667576.348 6      2484.234          38.000    24709256.359 8  99493947.549 8      1921.001          48.000
C12  21589604.594 7 112422814.806 7       321.496          47.000    21589604.180 8  86932456.328 8       248.559          51.000
C24  22916633.367 8 119332929.237 8     -2102.859          50.000
E02  24006846.594 8 126156819.102 8     -1759.137          51.000    24006847.938 8  96665620.814 8     -1347.886          51.000
E15  27001414.062 6 141893416.138 6      2764.625          38.000    27001422.516 6 108723546.159 6      2118.128          39.000
E36  23954201.516 8 125880197.122 8     -1576.488          51.000    23954204.508 8  96453691.624 8     -1207.962          51.000
> 2020 05 13 13 13  0.0000000  0 18        .000000000000
G18  20328765.766 8 106828452.933 8       330.527          51.000    20328767.195 8  83242961.818 8       257.554          51.000
G21  20656148.875 8 108548813.531 8       118.156          51.000    20656147.617 8  84583507.927 8        92.070          51.000
G25  24471881.984 6 128600582.023 6     -3514.406          36.000    24471887.633 6 100208251.261 6     -2738.501          36.000
G26  20531921.695 5 107895983.831 5      1197.246          32.000    20531924.836 5  84074792.374 5       932.913          32.000
G29  22141498.945 5 116354370.142 5     -2431.422          32.000    22141499.078 5  90665718.595 5     -1894.624          32.000
G31  22484433.695 7 118156489.811 7     -2694.727          46.000    22484434.031 7  92069976.717 7     -2099.790          46.000
R12  21903877.234 8 117006541.660 8     -4091.426          48.000    21903880.969 6  91005098.716 6     -3182.223          40.000
R13  19326923.375 7 103204687.869 7      -790.789          42.000    19326925.383 7  80270322.022 7      -615.058          43.000
R22  21702717.703 5 115850530.941 5     -3378.828          34.000
R23  19291354.461 7 103195808.280 7       291.555          42.000    19291360.039 5  80263344.890 5       226.768          34.000
R24  21228193.672 8 113516777.826 8      2768.672          48.000    21228196.422 6  88290739.091 6      2153.411          40.000
C05  39623933.969 5 206332221.561 5        15.598          35.000    39623934.945 5 159549166.046 5        12.052          34.000
C11  24694959.047 6 128593145.747 6      2480.496          37.000    24694962.945 7  99436393.117 7      1917.835          47.000
C12  21587783.438 7 112413332.326 7       313.012          47.000    21587783.344 8  86925123.885 8       242.034          51.000
C24  22928787.875 8 119396227.296 8     -2114.723          48.000
E02  24016922.086 8 126209766.666 8     -1768.277          51.000    24016924.180 8  96706190.994 8     -1354.896          51.000
E15  26985648.250 6 141810560.799 6      2761.586          40.000    26985654.484 6 108660059.624 6      2115.961          38.000
E36  23963226.852 8 125927625.475 8     -1582.934          51.000    23963230.172 8  96490032.809 8     -1212.903          51.000
> 2020 05 13 13 13 30.0000000  0 16        .000000000000
G18  20326943.312 8 106818876.449 8       309.012          51.000    20326944.812 8  83235499.627 8       240.788          51.000
G21  20655530.477 8 108545563.977 8        99.590          51.000    20655529.117 8  84580975.808 8        77.602          50.000
G25  24491962.570 4 128706131.602 4     -3519.488          29.000    24491968.750 4 100290482.806 4     -2742.461          28.000
G26  20525139.422 5 107860343.596 5      1179.730          33.000    20525140.805 5  84047020.882 5       919.277          33.000
G31  22499861.469 8 118237559.595 8     -2708.605          48.000    22499860.758 8  92133147.913 8     -2110.605          49.000
R12  21926896.883 8 117129501.808 8     -4104.664          50.000    21926901.156 7  91100734.317 7     -3192.516          43.000
R13  19331450.008 6 103228861.848 6      -819.520          41.000    19331452.406 7  80289123.984 7      -637.404          43.000
R23  19289778.734 7 103187380.482 7       271.352          44.000    19289783.906 5  80256789.916 5       211.045          33.000
