     3.04           OBSERVATION DATA    M (MIXED)           RINEX VERSION / TYPE
Convert 2.6.2       NovAtel             20200515 160743 UTC PGM / RUN BY / DATE 
Rinex Version 3.04 Observation File                         COMMENT             
                                                            MARKER NAME         
                                                            MARKER NUMBER       
                                                            MARKER TYPE         
                                                            OBSERVER / AGENCY   
                    NovAtel GPSCard                         REC # / TYPE / VERS 
                                                            ANT # / TYPE        
        0.0000        0.0000        0.0000                  APPROX POSITION XYZ 
        0.0000        0.0000        0.0000                  ANTENNA: DELTA H/E/N
G    8 C1C L1C D1C S1C C2W L2W D2W S2W                      SYS / # / OBS TYPES 
R    8 C1C L1C D1C S1C C2P L2P D2P S2P                      SYS / # / OBS TYPES 
E    8 C1C L1C D1C S1C C7Q L7Q D7Q S7Q                      SYS / # / OBS TYPES 
C    8 C2I L2I D2I S2I C7I L7I D7I S7I                      SYS / # / OBS TYPES 
DBHZ                                                        SIGNAL STRENGTH UNIT
    30.000                                                  INTERVAL            
  2020    05    12    03    00    0.0000000     GPS         TIME OF FIRST OBS   
  2020    05    12    03    59   30.0000000     GPS         TIME OF LAST OBS    
G L1C  0.00000  07 G30 G07 G28 G05 G13 G09 G15              SYS / PHASE SHIFT   
G L2W  0.00000  05 G30 G07 G28 G05 G15                      SYS / PHASE SHIFT   
R L1C  0.00000  05 R15 R05 R14 R04 R16                      SYS / PHASE SHIFT   
R L2P  0.25000  05 R15 R05 R14 R04 R16                      SYS / PHASE SHIFT   
E L1C  0.50000  05 E05 E03 E25 E02 E24                      SYS / PHASE SHIFT   
E L7Q -0.25000  05 E05 E03 E25 E02 E24                      SYS / PHASE SHIFT   
C L2I  0.00000  05 C19 C05 C22 C26 C21                      SYS / PHASE SHIFT   
C L7I  0.00000  01 C05                                      SYS / PHASE SHIFT   
  5 R15  0 R05  1 R14 -7 R04  6 R16 -1                      GLONASS SLOT / FRQ #
 C1C  -71.950 C2C  -71.950 C2P  -71.950                     GLONASS COD/PHS/BIS 
     0     0     0     0GPS                                 LEAP SECONDS        
                                                            END OF HEADER       
> 2020 05 12 03 00  0.0000000  0 15      -0.000000000000
G30  20405677.281 8 107232586.355 8      -501.645          51.000    20405678.516 8  83557884.468 8      -390.892          51.000  
G07  21971698.102 7 115462055.897 7     -2169.324          43.000    21971693.992 7  89970432.071 7     -1690.386          43.000  
G28  22317840.586 8 117281059.662 8      2748.711          51.000    22317841.102 8  91387906.838 8      2141.853          48.000  
G05  20560180.727 8 108044453.222 8      -139.527          51.000    20560179.305 8  84190469.518 8      -108.723          51.000  
R15  19308244.133 8 103177014.488 8      1235.074          51.000    19308244.664 8  80248812.134 8       960.617          48.000  
R05  19342709.117 7 103397487.609 7      1055.293          46.000    19342711.008 6  80420266.686 6       820.784          40.000  
R14  20612546.656 6 109876103.304 6     -2835.449          37.000    20612549.891 5  85459181.376 5     -2205.350          30.000  
R04  20682148.703 8 110751563.383 8     -2528.387          50.000    20682150.992 7  86140141.943 7     -1966.523          45.000  
E05  26555548.617 6 139550334.709 6     -2275.176          36.000    26555552.383 5 106928200.127 5     -1743.252          33.000  
E03  23472656.516 8 123349655.053 8      -438.996          51.000    23472657.781 8  94514644.067 8      -336.350          51.000  
E25  24014762.656 8 126198480.377 8       278.270          51.000    24014765.305 8  96697542.650 8       213.241          51.000  
E02  25296642.789 8 132934744.357 8      2766.160          51.000    25296644.562 8 101859151.992 8      2119.461          51.000  
C19  24455681.961 7 127347146.974 7     -2945.668          43.000                                                                  
C05  39799991.195 6 207248996.124 6         0.512          37.000    39799988.398 6 160258057.289 6         0.365          40.000  
C22  21894653.414 8 114011190.265 8      -660.594          51.000                                                                  
> 2020 05 12 03 00 30.0000000  0 15      -0.000000000000
G30  20408584.812 8 107247865.612 8      -516.438          51.000    20408585.953 8  83569790.377 8      -402.419          51.000  
G07  21984108.016 6 115527270.461 6     -2177.656          41.000    21984104.180 6  90021248.587 6     -1696.875          41.000  
G28  22302183.148 8 117198772.632 8      2737.703          51.000    22302182.773 8  91323787.065 8      2133.276          48.000  
G05  20561035.852 8 108048947.712 8      -159.418          51.000    20561034.695 8  84193971.702 8      -124.222          51.000  
R15  19301382.250 8 103140348.644 8      1209.949          51.000    19301383.219 7  80220294.286 7       941.072          47.000  
R05  19336838.109 7 103366103.806 7      1037.695          46.000    19336839.828 7  80395857.056 7       807.096          42.000  
R14  20628551.344 5 109961433.655 5     -2852.945          35.000    20628558.750 5  85525549.379 5     -2218.958          30.000  
R04  20696358.320 8 110827654.456 8     -2543.727          50.000    20696360.398 7  86199323.899 7     -1978.454          45.000  
E05  26568557.203 5 139618677.600 5     -2280.172          35.000    26568557.641 5 106980566.663 5     -1747.158          35.000  
E03  23475188.312 8 123362960.372 8      -447.320          51.000    23475190.148 8  94524839.032 8      -342.749          51.000  
E25  24013218.406 8 126190365.109 8       263.449          51.000    24013220.836 8  96691324.469 8       201.843          51.000  
E02  25280876.477 8 132851891.923 8      2758.105          51.000    25280878.125 8 101795667.654 8      2113.355          51.000  
C19  24472672.055 7 127435631.696 7     -2952.434          43.000                                                                  
C05  39799992.414 6 207249003.279 6         0.043          37.000    39799989.547 6 160258062.043 6        -0.027          40.000  
C22  21898502.180 8 114031231.042 8      -674.777          51.000                                                                  
> 2020 05 12 03 01  0.0000000  0 16      -0.000000000000
G30  20411560.438 8 107263502.550 8      -525.703          51.000    20411561.562 8  83581975.002 8      -409.636          51.000  
G07  21996549.828 7 115592653.100 7     -2181.039          43.000    21996546.602 6  90072196.093 6     -1699.511          41.000  
G13  21792061.344 5 114518011.856 5      2304.094          35.000                                                                  
G28  22286573.797 8 117116739.671 8      2731.625          51.000    22286572.641 8  91259865.268 8      2128.537          48.000  
G05  20561988.969 8 108053956.358 8      -174.027          51.000    20561988.039 8  84197874.535 8      -135.606          51.000  
R15  19294644.789 8 103104349.897 8      1190.359          51.000    19294646.484 8  80192295.256 8       925.835          48.000  
R05  19331051.438 7 103335168.502 7      1025.250          47.000    19331053.516 7  80371796.252 7       797.417          42.000  
R14  20644638.102 5 110047194.783 5     -2864.465          35.000    20644651.414 5  85592252.446 5     -2227.917          33.000  
R04  20710638.422 8 110904121.536 8     -2553.648          51.000    20710639.961 7  86258798.291 7     -1986.171          45.000  
E05  26581575.094 5 139687118.920 5     -2279.438          32.000    26581572.164 5 107032977.296 5     -1746.697          34.000  
E03  23477751.422 8 123376429.895 8      -450.246          51.000    23477753.555 8  94535159.832 8      -344.979          51.000  
E25  24011743.188 8 126182611.112 8       253.902          51.000    24011745.031 8  96685383.081 8       194.561          51.000  
E02  25265139.258 8 132769192.267 8      2755.637          51.000    25265140.586 8 101732300.385 8      2111.451          51.000  
C19  24489686.977 7 127524235.219 7     -2953.980          44.000                                                                  
C05  39799979.180 6 207248934.974 6         5.184          37.000    39799976.477 6 160258009.230 6         3.878          40.000  
C22  21902416.609 8 114051614.113 8      -683.691          51.000                                                                  
> 2020 05 12 03 01 30.0000000  0 16      -0.000000000000
G30  20414628.586 8 107279625.258 8      -545.039          51.000    20414629.664 8  83594538.161 8      -424.706          51.000  
G07  22009047.898 6 115658331.587 6     -2193.742          41.000    22009044.609 6  90123374.077 6     -1709.413          41.000  
G13  21778952.234 5 114449118.744 5      2293.809          30.000                                                                  
G28  22271037.367 8 117035092.782 8      2715.527          51.000    22271035.898 7  91196244.311 7      2115.996          47.000  
G05  20563064.742 8 108059608.693 8      -198.645          51.000    20563063.609 8  84202278.962 8      -154.788          51.000  
R15  19288056.859 8 103069150.366 8      1160.414          51.000    19288059.930 8  80164917.884 8       902.544          49.000  
R05  19325373.766 7 103304815.542 7      1002.461          47.000    19325375.492 7  80348188.402 7       779.692          43.000  
R14  20660830.484 5 110133513.962 5     -2885.820          33.000    20660850.195 5  85659389.664 5     -2244.521          35.000  
R04  20725013.273 8 110981095.413 8     -2573.773          51.000    20725014.188 7  86318666.864 7     -2001.827          45.000  
E05                                                                  26594620.883 6 107085530.824 6     -1754.108          36.000  
E03  23480370.422 8 123390193.251 8      -463.301          51.000    23480372.523 8  94545705.782 8      -355.021          51.000  
E25  24010361.164 8 126175347.385 8       234.324          51.000    24010362.906 8  96679817.376 8       179.550          51.000  
E02  25249455.844 8 132686776.101 8      2742.902          50.000    25249456.656 8 101669150.334 8      2101.652          50.000  
C19  24506750.867 8 127613084.345 8     -2965.273          48.000                                                                  
C05  39799976.305 6 207248920.275 6        -0.078          36.000    39799973.555 6 160257997.850 6         0.045          40.000  
C22  21906421.383 8 114072467.725 8      -702.465          51.000                                                                  
> 2020 05 12 03 02  0.0000000  0 15      -0.000000000000
G30  20417798.984 8 107296285.324 8      -557.832          51.000    20417799.930 8  83607520.032 8      -434.674          51.000  
G07  22021611.727 6 115724356.564 6     -2200.051          38.000    22021608.500 6  90174822.065 6     -1714.329          38.000  
G28  22255584.109 8 116953887.204 8      2705.965          49.000    22255582.906 7  91132967.251 7      2108.545          46.000  
G05  20564272.953 8 108065957.684 8      -216.801          51.000    20564271.836 8  84207226.226 8      -168.936          51.000  
R15  19281629.031 8 103034804.091 8      1137.156          51.000    19281632.445 8  80138204.103 8       884.455          48.000  
R05  19319815.188 7 103275100.509 7       986.391          47.000    19319816.555 7  80325076.726 7       767.193          43.000  
R14  20677138.523 5 110220441.273 5     -2901.207          34.000    20677159.391 4  85726999.896 4     -2256.495          29.000  
R04  20739492.133 8 111058629.040 8     -2587.230          51.000    20739492.828 7  86378970.754 7     -2012.291          45.000  
E05                                                                  26607717.109 6 107138267.364 6     -1756.170          37.000  
E03  23483055.398 8 123404303.558 8      -469.777          51.000    23483057.344 8  94556517.579 8      -359.974          51.000  
E25  24009082.273 8 126168626.431 8       221.320          51.000    24009084.055 8  96674667.566 8       169.607          51.000  
E02  25233836.492 8 132604697.664 8      2736.582          49.000    25233836.719 8 101606259.036 8      2096.911          49.000  
C19  24523872.680 8 127702230.125 8     -2970.094          50.000                                                                  
C05  39799993.727 6 207249010.347 6         1.566          37.000    39799990.992 6 160258068.268 6         1.163          40.000  
C22  21910526.734 8 114093844.221 8      -714.895          51.000                                                                  
> 2020 05 12 03 02 30.0000000  0 14      -0.000000000000
G30  20421025.453 8 107313240.334 8      -572.715          51.000    20421026.328 8  83620731.737 8      -446.271          51.000  
G07  22034195.320 5 115790485.122 5     -2208.371          35.000    22034192.883 5  90226350.875 5     -1720.803          35.000  
G28  22240168.680 7 116872884.368 7      2694.035          47.000    22240167.852 7  91069848.190 7      2099.249          44.000  
G05  20565567.742 8 108072762.342 8      -237.043          51.000    20565566.703 8  84212528.540 8      -184.709          51.000  
R15  19275315.109 8 103001066.210 8      1111.734          51.000    19275318.914 8  80111963.549 8       864.682          48.000  
R05  19314330.422 8 103245780.463 8       968.059          49.000    19314331.625 7  80302272.240 7       752.938          44.000  
R04  20754029.594 8 111136475.443 8     -2602.793          50.000    20754029.703 7  86439517.956 7     -2024.398          45.000  
E05                                                                  26620814.656 6 107191001.907 6     -1759.878          37.000  
E03  23485760.703 8 123418519.984 8      -478.316          51.000    23485762.516 8  94567410.696 8      -366.454          51.000  
E25  24007860.828 8 126162206.866 8       206.281          51.000    24007862.242 8  96669748.675 8       158.009          51.000  
E02  25218235.625 8 132522717.137 8      2728.430          49.000    25218235.445 8 101543442.793 8      2090.550          48.000  
C19  24541005.102 8 127791432.361 8     -2977.000          51.000                                                                  
C05  39799985.617 6 207248968.033 6         1.152          37.000    39799982.875 6 160258035.566 6         0.668          41.000  
C22  21914686.805 8 114115504.749 8      -729.359          51.000                                                                  
> 2020 05 12 03 03  0.0000000  0 15      -0.000000000000
G30  20424336.430 8 107330639.680 8      -587.211          51.000    20424337.297 8  83634289.678 8      -457.564          51.000  
G07  22046827.234 6 115856866.350 6     -2216.406          37.000    22046825.875 6  90278076.528 6     -1727.070          36.000  
G28  22224820.836 7 116792237.543 7      2682.426          45.000    22224820.156 6  91007006.580 6      2090.206          41.000  
G05  20566977.875 8 108080172.953 8      -257.047          51.000    20566976.758 8  84218303.042 8      -200.296          51.000  
R15  19269144.203 8 102968090.184 8      1086.590          51.000    19269147.875 8  80086315.551 8       845.126          48.000  
R05  19308948.727 8 103217010.466 8       950.055          50.000    19308950.188 7  80279895.567 7       738.932          45.000  
R14  20709990.836 6 110395512.471 6     -2935.035          37.000    20709998.797 5  85863170.006 5     -2282.809          30.000  
R04  20768653.703 8 111214786.981 8     -2618.008          51.000    20768653.820 7  86500426.901 7     -2036.232          46.000  
E05                                                                  26633941.273 6 107243849.573 6     -1763.302          37.000  
E03  23488514.953 8 123432993.437 8      -486.676          51.000    23488516.898 8  94578500.747 8      -372.875          51.000  
E25  24006725.133 8 126156238.904 8       191.637          51.000    24006726.555 8  96665175.838 8       146.803          51.000  
E02  25202682.578 8 132440986.528 8      2720.320          50.000    25202682.273 8 101480818.034 8      2084.403          48.000  
C19  24558175.727 8 127880838.979 8     -2983.492          50.000                                                                  
C05  39799980.586 6 207248941.539 6         0.746          36.000    39799977.750 6 160258015.053 6         0.743          40.000  
C22  21918929.922 8 114137598.597 8      -743.598          51.000                                                                  
> 2020 05 12 03 03 30.0000000  0 15      -0.000000000000
G30  20427729.000 8 107348468.178 8      -601.148          51.000    20427729.820 8  83648182.012 8      -468.427          51.000  
G07  22059504.484 6 115923484.722 6     -2224.492          40.000    22059503.625 6  90329986.910 6     -1733.374          39.000  
G28  22209538.898 7 116711935.603 7      2671.305          44.000    22209537.758 6  90944433.693 6      2081.537          41.000  
G05  20568500.617 8 108088175.345 8      -276.395          51.000    20568499.648 8  84224538.667 8      -215.372          51.000  
R15  19263113.281 8 102935862.035 8      1062.078          51.000    19263116.453 7  80061249.213 7       826.061          47.000  
R05  19303667.359 8 103188778.555 8       932.352          49.000    19303669.047 7  80257937.404 7       725.162          44.000  
R14  20726548.641 4 110483797.685 4     -2951.328          29.000    20726558.977 4  85931836.355 4     -2295.472          26.000  
R04  20783361.914 8 111293548.500 8     -2632.617          51.000    20783362.383 7  86561685.822 7     -2047.595          46.000  
E05                                                                  26647093.945 5 107296799.443 5     -1766.415          35.000  
E03  23491315.469 8 123447710.248 8      -494.340          51.000    23491317.773 8  94589777.263 8      -378.780          51.000  
E25  24005672.688 8 126150708.359 8       177.266          51.000    24005674.352 8  96660938.153 8       135.854          51.000  
E02  25187175.016 8 132359493.221 8      2712.824          51.000    25187175.047 8 101418375.119 8      2078.584          49.000  
C19  24575381.211 8 127970434.915 8     -2989.383          49.000                                                                  
C05  39799975.852 6 207248916.853 6         0.887          36.000    39799972.953 6 160257995.958 6         0.924          40.000  
C22  21923253.086 8 114160112.010 8      -757.176          51.000                                                                  
> 2020 05 12 03 04  0.0000000  0 16      -0.000000000000
G09  24343043.656 5 127923556.90525     -3035.539          31.000                                                                  
G30  20431201.133 8 107366715.044 8      -616.617          51.000    20431202.109 8  83662400.364 8      -480.478          51.000  
G07  22072224.766 6 115990328.658 6     -2233.387          40.000    22072223.367 6  90382073.107 6     -1740.299          40.000  
G28  22194320.672 7 116631971.257 7      2658.402          42.000    22194319.984 7  90882123.824 7      2071.483          42.000  
G05  20570134.227 8 108096760.531 8      -297.254          51.000    20570133.383 8  84231228.416 8      -231.626          51.000  
R15  19257220.742 8 102904372.611 8      1035.891          51.000    19257223.570 7  80036757.447 7       805.693          47.000  
R05  19298485.266 8 103161077.187 8       913.047          51.000    19298486.555 7  80236391.902 7       710.148          44.000  
R14  20743197.766 5 110572559.251 5     -2967.738          34.000    20743193.305 4  86000839.11024     -2308.241          25.000  
R04  20798152.266 8 111372749.105 8     -2648.773          51.000    20798152.688 7  86623286.286 7     -2060.157          47.000  
E05                                                                  26660270.797 5 107349843.932 5     -1770.734          35.000  
E03  23494160.578 8 123462661.255 8      -503.719          51.000    23494163.141 8  94601233.223 8      -385.937          51.000  
E25  24004701.680 8 126145605.334 8       161.559          51.000    24004703.367 8  96657028.052 8       123.762          51.000  
E02  25171711.070 8 132278229.101 8      2703.438          51.000    25171711.703 8 101356107.808 8      2071.481          50.000  
C19  24592620.883 8 128060209.429 8     -2996.828          50.000                                                                  
C05  39799969.672 6 207248885.378 6        -0.414          37.000    39799966.781 6 160257970.869 6        -0.359          40.000  
C22  21927654.891 8 114183035.559 8      -772.367          51.000                                                                  
> 2020 05 12 03 04 30.0000000  0 15      -0.000000000000
G30  20434755.453 8 107385393.208 8      -629.582          51.000    20434756.555 8  83676954.775 8      -490.584          51.000  
G07  22084990.672 5 116057410.753 5     -2239.602          34.000    22084988.492 5  90434344.896 5     -1745.142          34.000  
G28  22179170.930 7 116552361.180 7      2647.855          45.000    22179170.508 7  90820089.921 7      2063.261          43.000  
G05  20571881.273 8 108105942.043 8      -315.707          51.000    20571880.430 8  84238382.831 8      -246.006          51.000  
R15  19251469.047 8 102873636.646 8      1012.266          51.000    19251471.273 7  80012851.694 7       787.318          47.000  
R05  19293405.258 8 103133922.830 8       896.203          50.000    19293406.367 7  80215271.854 7       697.047          45.000  
R14  20759940.180 6 110661808.324 6     -2982.938          38.000    20759950.047 5  86070272.944 5     -2320.066          30.000  
R04  20813026.766 8 111452401.882 8     -2662.383          50.000    20813027.688 7  86685238.434 7     -2070.743          47.000  
E05                                                                  26673473.312 5 107402993.633 5     -1773.003          32.000  
E03  23497053.062 8 123477860.922 8      -510.656          51.000    23497055.484 8  94612879.709 8      -391.255          51.000  
E25  24003814.477 8 126140943.679 8       148.191          51.000    24003816.336 8  96653456.148 8       113.609          51.000  
E02  25156293.742 8 132197209.707 8      2696.824          51.000    25156294.852 8 101294028.022 8      2066.426          51.000  
C19  24609898.000 8 128150175.312 8     -3001.867          50.000                                                                  
C05  39799964.664 6 207248858.149 6         1.141          36.000    39799961.797 6 160257950.583 6         0.903          40.000  
C22  21932138.398 8 114206383.320 8      -785.172          51.000                                                                  
> 2020 05 12 03 05  0.0000000  0 14      -0.000000000000
G30  20438385.305 8 107404468.171 8      -643.281          51.000    20438386.344 8  83691818.383 8      -501.258          51.000  
G07  22097795.133 5 116124696.151 5     -2247.988          32.000    22097792.523 5  90486775.138 5     -1751.677          30.000  
G28  22164084.102 8 116473074.660 8      2636.734          48.000    22164083.344 7  90758308.211 7      2054.599          43.000  
G05  20573735.703 8 108115686.937 8      -335.191          51.000    20573734.711 8  84245976.249 8      -261.188          51.000  
R15  19245851.844 8 102843620.540 8       987.578          50.000    19245853.977 7  79989505.840 7       768.116          47.000  
R05  19288421.672 8 103107283.565 8       878.477          50.000    19288423.078 7  80194552.426 7       683.260          46.000  
R04  20827978.773 8 111532472.047 8     -2676.832          48.000    20827980.336 7  86747515.227 7     -2081.981          47.000  
E05                                                                  26686693.031 5 107456254.905 5     -1776.346          30.000  
E03  23499986.641 8 123493276.361 8      -518.418          51.000    23499988.641 8  94624691.549 8      -397.209          51.000  
E25  24003005.008 8 126136689.908 8       134.082          51.000    24003006.914 8  96650196.780 8       102.687          51.000  
E02  25140917.000 8 132116403.273 8      2689.039          51.000    25140918.445 8 101232111.410 8      2060.470          51.000  
C19  24627205.859 8 128240298.386 8     -3007.625          51.000                                                                  
C05  39799954.500 6 207248806.142 6         1.395          37.000    39799951.602 6 160257909.601 6         0.764          40.000  
C22  21936697.062 8 114230122.448 8      -798.754          51.000                                                                  
> 2020 05 12 03 05 30.0000000  0 13      -0.000000000000
G30  20442103.180 8 107424005.833 8      -660.363          51.000    20442104.234 8  83707042.551 8      -514.569          51.000  
G07  22110650.281 6 116192249.960 6     -2257.676          38.000    22110647.008 6  90539414.432 6     -1759.231          38.000  
G28  22149072.391 8 116394181.457 8      2621.871          49.000    22149070.992 7  90696832.998 7      2043.017          44.000  
G05  20575710.367 8 108126062.411 8      -357.707          51.000    20575709.141 8  84254061.032 8      -278.733          51.000  
R15  19240382.195 8 102814392.707 8       959.809          50.000    19240384.211 7  79966773.081 7       746.521          46.000  
R05  19283547.469 8 103081230.020 8       857.312          51.000    19283549.352 7  80174288.547 7       666.796          46.000  
R04  20843020.477 7 111613026.715 7     -2694.465          47.000    20843023.062 7  86810168.905 7     -2095.692          45.000  
E03  23502974.156 8 123508975.020 8      -529.238          51.000    23502975.734 8  94636720.399 8      -405.523          51.000  
E25  24002285.742 8 126132910.731 8       116.844          51.000    24002287.609 8  96647301.061 8        89.554          51.000  
E02  25125593.781 8 132035878.245 8      2678.176          51.000    25125595.500 8 101170410.424 8      2052.116          51.000  
C19  24644556.398 8 128330643.893 8     -3016.531          51.000                                                                  
C05  39799951.945 6 207248792.766 6        -1.477          36.000    39799949.016 6 160257899.228 6        -1.211          40.000  
C22  21941343.555 8 114254319.470 8      -815.445          51.000                                                                  
> 2020 05 12 03 06  0.0000000  0 15      -0.000000000000
G30  20445900.203 8 107443959.095 8      -669.117          51.000    20445901.258 8  83722590.549 8      -521.390          51.000  
G07  22123547.547 6 116260025.271 6     -2259.348          37.000    22123543.586 6  90592226.310 6     -1760.531          37.000  
G13  21662673.992 5 113838119.48025      2235.910          33.000                                                                  
G28  22134126.945 8 116315638.252 8      2615.203          48.000    22134125.289 7  90635630.527 7      2037.821          45.000  
G05  20577796.195 8 108137022.332 8      -372.211          51.000    20577794.883 8  84262601.230 8      -290.035          51.000  
R15  19235051.344 8 102785906.676 8       940.137          50.000    19235053.305 7  79944617.275 7       731.218          47.000  
R05  19278774.742 8 103055717.505 8       844.312          51.000    19278776.789 7  80154445.468 7       656.688          47.000  
R14  20810745.914 5 110932525.03325     -3026.648          33.000    20810727.695 4  86280835.86224     -2354.060          26.000  
R04  20858143.953 8 111694018.306 8     -2704.012          49.000    20858147.508 7  86873162.360 7     -2103.121          46.000  
E03  23506006.977 8 123524911.400 8      -532.250          51.000    23506008.062 8  94648931.390 8      -407.783          51.000  
E25  24001647.945 8 126129559.984 8       107.488          51.000    24001649.734 8  96644733.619 8        82.373          51.000  
E02  25110315.562 8 131955590.202 8      2675.270          51.000    25110317.430 8 101108891.017 8      2049.925          51.000  
C19  24661940.336 8 128421165.153 8     -3017.414          51.000                                                                  
C05  39799948.297 6 207248773.465 6         3.676          37.000    39799945.297 6 160257884.280 6         3.024          40.000  
C22  21946069.406 8 114278928.947 8      -824.277          51.000                                                                  
> 2020 05 12 03 06 30.0000000  0 15      -0.000000000000
G30  20449766.031 8 107464274.790 8      -686.871          51.000    20449767.117 8  83738420.963 8      -535.224          51.000  
G07  22136476.555 6 116327968.028 6     -2271.156          36.000    22136472.555 6  90645168.696 6     -1769.730          37.000  
G28  22119238.125 7 116237395.187 7      2599.273          47.000    22119236.609 7  90574661.931 7      2025.408          46.000  
G05  20579983.195 8 108148514.579 8      -395.609          51.000    20579981.938 8  84271556.199 8      -308.267          51.000  
R15  19229849.648 8 102758109.921 8       911.203          51.000    19229851.602 7  79922997.591 7       708.714          47.000  
R05  19274093.781 8 103030695.261 8       822.113          51.000    19274095.812 7  80134983.727 7       639.422          46.000  
R16  22327262.211 6 119267850.899 6      4139.391          37.000                                                                  
R14  20827819.125 5 111023608.267 5     -3046.684          32.000    20827810.273 4  86351680.922 4     -2369.640          28.000  
R04  20873340.477 8 111775392.688 8     -2722.602          50.000    20873343.914 7  86936453.522 7     -2117.579          46.000  
E03  23509074.930 8 123541033.900 8      -544.266          51.000    23509076.031 8  94661284.996 8      -417.044          51.000  
E25  24001081.828 8 126126585.378 8        89.207          51.000    24001083.688 8  96642454.397 8        68.356          51.000  
E02  25095072.789 8 131875488.605 8      2663.234          51.000    25095074.625 8 101047514.470 8      2040.643          51.000  
C19  24679347.312 8 128511809.447 8     -3027.246          49.000                                                                  
C05  39799933.562 6 207248696.754 6        -0.043          36.000    39799930.602 6 160257824.966 6        -0.118          40.000  
C22  21950864.883 8 114303899.499 8      -842.109          51.000                                                                  
> 2020 05 12 03 07  0.0000000  0 14      -0.000000000000
G30  20453729.383 8 107485102.969 8      -699.738          51.000    20453730.617 8  83754650.713 8      -545.251          51.000  
G07  22149465.555 6 116396227.780 6     -2277.590          38.000    22149462.859 6  90698358.183 6     -1774.746          37.000  
G28  22104435.359 8 116159606.606 8      2588.465          48.000    22104434.117 7  90514047.480 7      2016.986          46.000  
G05  20582300.211 8 108160690.270 8      -414.230          51.000    20582298.789 8  84281043.743 8      -322.774          51.000  
R15  19224805.695 8 102731156.434 8       887.461          50.000    19224807.359 7  79902033.764 7       690.248          47.000  
R05  19269533.703 8 103006319.448 8       804.773          51.000    19269535.742 7  80116024.755 7       625.935          47.000  
R16  22304044.945 6 119143826.394 6      4130.762          37.000                                                                  
R04  20888637.547 8 111857302.853 8     -2736.156          51.000    20888640.031 7  87000161.397 7     -2128.122          45.000  
E03  23512207.000 8 123557494.192 8      -551.305          51.000    23512208.469 8  94673897.420 8      -422.381          51.000  
E25  24000615.930 8 126124137.904 8        75.676          51.000    24000617.891 8  96640579.080 8        57.991          51.000  
E02  25079894.531 8 131795726.155 8      2656.121          50.000    25079896.398 8 100986397.791 8      2035.133          51.000  
C19  24696806.055 7 128602725.496 7     -3032.059          47.000                                                                  
C05  39799936.547 6 207248712.501 6         0.820          37.000    39799933.633 6 160257837.128 6         0.791          40.000  
C22  21955758.570 8 114329381.047 8      -854.852          51.000                                                                  
> 2020 05 12 03 07 30.0000000  0 14      -0.000000000000
G30  20457760.758 8 107506287.801 8      -713.402          51.000    20457762.234 8  83771158.366 8      -555.898          51.000  
G07  22162485.227 6 116464648.755 6     -2284.332          40.000    22162484.492 6  90751673.203 6     -1780.006          39.000  
G28  22089690.383 8 116082120.605 8      2576.363          50.000    22089688.914 7  90453668.796 7      2007.556          45.000  
G05  20584717.891 8 108173395.078 8      -433.516          51.000    20584716.211 8  84290943.599 8      -337.804          51.000  
R15  19219890.023 8 102704889.166 8       862.832          51.000    19219892.039 8  79881603.670 8       671.092          48.000  
R05  19265065.773 8 102982434.649 8       786.652          51.000    19265067.859 8  80097447.693 8       611.841          48.000  
R16  22280870.727 6 119020029.698 6      4121.582          36.000                                                                  
R04  20904004.969 8 111939590.000 8     -2750.512          51.000    20904006.469 7  87064162.487 7     -2139.290          46.000  
E03  23515374.086 8 123574138.037 8      -559.180          51.000    23515375.828 8  94686650.486 8      -428.475          51.000  
E25  24000221.000 8 126122062.562 8        61.754          51.000    24000222.789 8  96638988.901 8        47.291          51.000  
E02  25064751.578 8 131716149.663 8      2648.191          50.000    25064753.094 8 100925423.605 8      2029.018          51.000  
C19  24714287.172 7 128693758.809 7     -3037.699          46.000                                                                  
C05  39799927.844 6 207248667.390 6         1.312          37.000    39799925.008 6 160257802.248 6         0.825          40.000  
C22  21960720.969 8 114355220.449 8      -868.578          51.000                                                                  
> 2020 05 12 03 08  0.0000000  0 15      -0.000000000000
G30  20461868.562 8 107527874.637 8      -727.172          51.000    20461870.156 8  83787979.293 8      -566.625          51.000  
G07  22175544.383 6 116533275.944 6     -2291.969          38.000    22175544.305 6  90805148.890 6     -1785.956          38.000  
G28  22075012.609 8 116004986.214 8      2564.340          51.000    22075010.664 7  90393564.088 7      1998.188          45.000  
G05  20587244.938 8 108186675.230 8      -453.191          51.000    20587243.172 8  84301291.766 8      -353.136          51.000  
R15  19215111.844 8 102679355.352 8       838.004          51.000    19215114.156 8  79861744.047 8       651.781          48.000  
R05  19260698.852 8 102959090.419 8       768.211          51.000    19260700.828 8  80079291.064 8       597.497          48.000  
R16  22257749.250 5 118896510.882 5      4111.867          35.000    22257754.352 4  92475094.331 4      3198.120          26.000  
R14  20879620.812 5 111299704.359 5     -3090.980          33.000    20879611.484 4  86566427.178 4     -2404.099          26.000  
R04  20919451.023 8 112022300.419 8     -2765.000          50.000    20919452.312 7  87128492.767 7     -2150.556          46.000  
E03  23518585.078 8 123591012.379 8      -567.195          51.000    23518587.070 8  94699580.165 8      -434.631          51.000  
E25  23999905.789 8 126120405.628 8        47.363          51.000    23999907.602 8  96637719.319 8        36.309          51.000  
E02  25049652.703 8 131636807.126 8      2640.094          48.000    25049654.297 8 100864628.683 8      2022.897          51.000  
C19  24731799.289 7 128784954.358 7     -3043.375          45.000                                                                  
C05  39799916.469 6 207248607.572 6         1.527          37.000    39799913.500 6 160257755.991 6         1.045          40.000  
C22  21965761.195 8 114381463.872 8      -882.422          51.000                                                                  
> 2020 05 12 03 08 30.0000000  0 14      -0.000000000000
G30  20466060.898 8 107549905.537 8      -739.914          51.000    20466062.422 8  83805146.220 8      -576.557          51.000  
G07  22188650.820 6 116602150.632 6     -2298.254          36.000    22188649.273 5  90858817.427 5     -1790.851          35.000  
G28  22060410.688 8 115928249.161 8      2553.047          51.000    22060408.391 7  90333769.000 7      1989.391          45.000  
G05  20589889.789 8 108200573.937 8      -471.863          50.000    20589887.805 8  84312121.939 8      -367.686          50.000  
R15  19210479.203 8 102654599.322 8       813.973          51.000    19210481.570 8  79842489.364 8       633.090          48.000  
R05  19256441.547 8 102936332.774 8       750.664          51.000    19256443.531 8  80061590.676 8       583.850          48.000  
R16  22234688.328 6 118773317.304 6      4102.980          36.000    22234691.625 4  92379272.111 4      3191.208          24.000  
R04  20934983.414 8 112105476.968 8     -2778.504          48.000    20934985.141 7  87193185.660 7     -2161.056          47.000  
E03  23521848.375 8 123608160.881 8      -574.426          51.000    23521850.406 8  94712719.912 8      -440.124          51.000  
E25  23999678.156 8 126119210.010 8        33.988          51.000    23999680.156 8  96636803.210 8        26.040          51.000  
E02  25034606.195 7 131557743.291 7      2632.523          46.000    25034608.586 8 100804047.297 8      2017.153          51.000  
C19  24749351.070 7 128876353.729 7     -3048.414          45.000                                                                  
C05  39799910.430 6 207248576.003 6         1.922          37.000    39799907.508 6 160257731.556 6         1.728          40.000  
C22  21970887.117 8 114408154.240 8      -895.359          51.000                                                                  
> 2020 05 12 03 09  0.0000000  0 16      -0.000000000000
G30  20470328.211 8 107572330.895 8      -747.031          51.000    20470330.000 8  83822620.521 8      -582.099          51.000  
G07  22201794.742 5 116671222.798 5     -2298.477          34.000    22201791.508 5  90912639.900 5     -1791.015          34.000  
G13  21586885.102 5 113439817.57225      2200.305          33.000                                                                  
G28  22045875.547 8 115851863.556 8      2547.320          51.000    22045873.078 7  90274247.755 7      1984.926          45.000  
G05  20592643.086 8 108215042.517 8      -484.707          50.000    20592641.086 8  84323396.147 8      -377.694          50.000  
R15  19205982.945 8 102630571.747 8       795.973          51.000    19205985.258 8  79823801.258 8       619.090          48.000  
R05  19252285.117 8 102914114.829 8       738.766          51.000    19252287.055 8  80044310.049 8       574.596          48.000  
R16  22211680.047 5 118650402.530 5      4099.664          35.000                                                                  
R14  20914588.234 5 111486080.348 5     -3112.336          31.000    20914581.062 4  86711410.745 4     -2420.709          27.000  
R04  20950592.000 7 112189069.470 7     -2786.125          45.000    20950595.812 8  87258202.085 8     -2166.987          48.000  
E03  23525154.617 8 123625535.535 8      -575.766          51.000    23525156.688 8  94726032.954 8      -441.156          51.000  
E25  23999529.133 8 126118426.948 8        26.340          51.000    23999531.188 8  96636203.215 8        20.251          51.000  
E02  25019604.102 7 131478911.149 7      2630.934          47.000    25019607.062 8 100743643.416 8      2015.980          51.000  
C19  24766933.547 7 128967907.796 7     -3047.473          46.000                                                                  
C05  39799900.469 6 207248524.582 6         9.094          37.000    39799897.602 6 160257691.784 6         7.071          40.000  
C22  21976089.547 8 114435243.596 8      -902.641          51.000                                                                  
> 2020 05 12 03 09 30.0000000  0 15      -0.000000000000
G30  20474675.469 8 107595176.759 8      -767.891          51.000    20474677.414 8  83840422.483 8      -598.357          51.000  
G07  22214981.414 5 116740518.441 5     -2312.727          32.000    22214978.203 5  90966636.527 5     -1802.122          33.000  
G28  22031412.047 7 115775859.204 7      2527.863          46.000    22031410.422 7  90215023.590 7      1969.764          43.000  
G05  20595510.172 8 108230108.206 8      -511.469          51.000    20595508.023 8  84335135.649 8      -398.547          51.000  
R15  19201628.117 8 102607300.472 8       763.852          51.000    19201630.797 8  79805701.408 8       594.107          49.000  
R05  19248235.430 8 102892466.085 8       712.762          51.000    19248237.078 8  80027472.142 8       554.370          49.000  
R16  22188729.219 5 118527797.439 5      4082.234          34.000    22188718.617 4  92188258.367 4      3175.078          27.000  
R14  20932189.273 5 111579934.171 5     -3134.234          30.000    20932185.391 4  86784388.965 4     -2437.738          28.000  
R04  20966284.594 8 112273104.372 8     -2807.801          49.000    20966289.047 7  87323562.583 7     -2183.845          47.000  
E03  23528509.180 8 123643164.069 8      -591.195          51.000    23528511.344 8  94739540.515 8      -452.991          51.000  
E25  23999463.875 8 126118083.426 8         4.887          51.000    23999466.078 8  96635940.003 8         3.673          51.000  
E02  25004652.836 8 131400339.390 8      2615.508          50.000    25004655.344 8 100683439.084 8      2004.029          51.000  
C19  24784551.062 7 129059642.379 7     -3059.988          46.000                                                                  
C05  39799891.984 6 207248480.389 6         2.359          36.000    39799889.125 6 160257657.637 6         1.556          40.000  
C22  21981373.727 8 114462759.043 8      -923.566          51.000                                                                  
> 2020 05 12 03 10  0.0000000  0 16      -0.000000000000
G30  20479094.805 8 107618400.685 8      -780.852          50.000    20479096.656 8  83858519.041 8      -608.456          51.000  
G07  22228202.352 5 116809994.826 5     -2319.137          30.000    22228200.234 5  91020774.018 5     -1807.120          32.000  
G28  22017012.375 7 115700197.385 7      2516.074          45.000    22017012.094 7  90156066.307 7      1960.575          42.000  
G05  20598483.055 8 108245729.222 8      -530.418          51.000    20598480.703 8  84347307.880 8      -413.313          51.000  
R15  19197406.922 8 102584743.509 8       739.527          51.000    19197409.836 8  79788157.115 8       575.191          48.000  
R05  19244284.695 8 102871346.762 8       694.711          51.000    19244286.039 8  80011046.016 8       540.331          49.000  
R16  22165827.156 5 118405463.109 5      4072.945          34.000    22165823.047 5  92093109.494 5      3167.847          30.000  
R14  20949867.148 5 111674170.818 5     -3148.449          32.000    20949871.820 4  86857717.65324     -2448.791          25.000  
R04  20982052.867 8 112357538.608 8     -2821.531          51.000    20982056.094 7  87389233.659 7     -2194.525          45.000  
E05  26820256.992 5 140941398.989 5     -2360.043          34.000                                                                  
E03  23531904.500 8 123661005.626 8      -598.645          51.000    23531906.641 8  94753211.310 8      -458.687          51.000  
E25  23999474.242 8 126118137.836 8        -8.746          51.000    23999476.625 8  96635981.692 8        -6.654          51.000  
E02  24989743.977 8 131321988.264 8      2607.672          51.000    24989745.719 8 100623403.809 8      1998.084          51.000  
C19  24802194.602 7 129151515.485 7     -3065.199          46.000                                                                  
C05  39799877.070 6 207248402.684 6         2.574          37.000    39799874.211 6 160257597.517 6         2.166          40.000  
C22  21986731.711 8 114490659.728 8      -936.809          51.000                                                                  
> 2020 05 12 03 10 30.0000000  0 16      -0.000000000000
G30  20483596.008 8 107642054.890 8      -795.469          51.000    20483597.969 8  83876950.897 8      -619.846          51.000  
G07  22241467.172 5 116879703.760 5     -2327.418          32.000    22241466.477 5  91075092.629 5     -1813.579          31.000  
G28  22002688.898 7 115624934.156 7      2502.363          46.000    22002689.031 6  90097419.675 6      1949.894          41.000  
G05  20601571.609 8 108261959.153 8      -550.988          51.000    20601569.320 8  84359954.599 8      -429.339          51.000  
R15  19193329.320 8 102562955.183 8       713.648          51.000    19193332.469 8  79771210.656 8       555.060          48.000  
R05  19240443.297 8 102850813.403 8       674.801          51.000    19240444.914 8  79995075.621 8       524.845          49.000  
R16  22142986.047 5 118283456.351 5      4061.750          35.000    22142984.695 5  91998215.333 5      3159.143          33.000  
R14  20967634.391 5 111768863.001 5     -3163.945          35.000    20967637.773 4  86931385.625 4     -2460.847          29.000  
R04  20997905.844 8 112442425.205 8     -2836.953          51.000    20997907.133 7  87455256.545 7     -2206.522          44.000  
E05                                                                  26833747.344 5 108048381.215 5     -1812.237          32.000  
E03  23535350.617 8 123679114.044 8      -607.871          51.000    23535352.836 8  94767086.592 8      -465.796          51.000  
E25  23999570.352 8 126118643.259 8       -24.312          51.000    23999572.922 8  96636368.958 8       -18.638          51.000  
E02  24974887.398 8 131243912.608 8      2597.938          51.000    24974888.578 8 100563579.616 8      1990.667          51.000  
C19  24819874.391 7 129243578.763 7     -3071.754          46.000                                                                  
C05  39799865.914 6 207248344.280 6         1.504          36.000    39799862.961 6 160257552.354 6         1.332          40.000  
C22  21992173.844 8 114518998.586 8      -951.820          51.000                                                                  
> 2020 05 12 03 11  0.0000000  0 16      -0.000000000000
G30  20488180.062 8 107666143.999 8      -810.516          51.000    20488181.961 8  83895721.637 8      -631.571          51.000  
G07  22254776.852 6 116949649.475 6     -2336.324          36.000    22254777.242 6  91129595.836 6     -1820.516          36.000  
G28  21988444.000 8 115550077.747 8      2488.156          48.000    21988443.211 6  90039090.015 6      1938.827          41.000  
G05  20604776.906 8 108278803.553 8      -571.980          51.000    20604774.773 8  84373080.110 8      -445.699          51.000  
R15  19189396.633 8 102541941.531 8       687.207          50.000    19189399.992 8  79754866.702 8       534.494          49.000  
R05  19236713.000 8 102830873.653 8       654.441          51.000    19236714.945 8  79979566.937 8       509.013          50.000  
R16  22120208.195 5 118161786.412 5      4049.508          35.000    22120208.695 5  91903583.170 5      3149.618          33.000  
R14  20985484.273 4 111864012.526 4     -3179.477          29.000    20985483.430 4  87005390.794 4     -2472.933          27.000  
R04  21013844.023 8 112527769.244 8     -2852.688          51.000    21013843.969 7  87521635.182 7     -2218.760          44.000  
E05                                                                  26847264.320 5 108102813.705 5     -1816.553          33.000  
E03  23538848.531 8 123697495.550 8      -617.543          51.000    23538850.977 8  94781171.113 8      -473.168          51.000  
E25  23999753.328 8 126119605.087 8       -39.867          51.000    23999756.102 8  96637105.941 8       -30.533          51.000  
E02  24960083.797 8 131166119.683 8      2588.117          50.000    24960085.305 8 100503972.057 8      1983.059          51.000  
C19  24837591.469 7 129335836.795 7     -3078.883          46.000                                                                  
C05  39799859.508 6 207248310.944 6         0.176          37.000    39799856.586 6 160257526.576 6         0.181          40.000  
C22  21997701.227 8 114547781.403 8      -967.148          51.000                                                                  
> 2020 05 12 03 11 30.0000000  0 15      -0.000000000000
G30  20492843.812 8 107690652.042 8      -822.297          51.000    20492845.367 8  83914818.834 8      -640.748          51.000  
G07  22268128.414 6 117019815.732 6     -2340.488          36.000    22268129.500 5  91184270.861 5     -1823.761          33.000  
G28  21974274.703 8 115475616.088 8      2476.996          50.000    21974273.492 7  89981067.945 7      1930.127          43.000  
G05  20608096.141 8 108296247.315 8      -589.863          51.000    20608094.367 8  84386672.639 8      -459.634          51.000  
R15  19185605.961 8 102521687.329 8       664.203          50.000    19185609.680 8  79739113.450 8       516.603          49.000  
R05  19233091.180 8 102811514.632 8       637.219          51.000    19233093.672 8  79964509.912 8       495.615          50.000  
R16  22097491.391 5 118040441.202 5      4041.230          35.000    22097492.500 5  91809203.567 5      3143.180          33.000  
R04  21029863.719 8 112613554.111 8     -2865.199          50.000    21029863.391 7  87588356.670 7     -2228.492          44.000  
E05                                                                  26860809.305 5 108157352.085 5     -1818.184          33.000  
E03  23542395.727 8 123716135.882 8      -624.168          51.000    23542398.023 8  94795453.957 8      -478.244          51.000  
E25  24000020.258 8 126121008.297 8       -52.652          51.000    24000023.203 8  96638181.134 8       -40.407          51.000  
E02  24945330.719 8 131088596.237 8      2581.148          49.000    24945332.953 8 100444570.970 8      1977.728          51.000  
C19  24855342.734 7 129428273.766 7     -3082.512          46.000                                                                  
C05  39799855.141 6 207248288.221 6         1.668          37.000    39799852.227 6 160257508.966 6         1.731          40.000  
C22  22003310.906 8 114576993.594 8      -979.316          51.000                                                                  
> 2020 05 12 03 12  0.0000000  0 16      -0.000000000000
G30  20497578.875 8 107715534.861 8      -836.230          51.000    20497580.352 8  83934208.059 8      -651.608          51.000  
G07  22281513.680 5 117090158.097 5     -2348.254          35.000    22281515.531 5  91239083.120 5     -1829.806          31.000  
G13  21512514.617 5 113049027.08825      2149.555          32.000                                                                  
G28  21960172.805 8 115401508.662 8      2463.945          49.000    21960171.359 7  89923321.889 7      1919.958          44.000  
G05  20611521.438 8 108314247.618 8      -609.801          51.000    20611519.680 8  84400698.861 8      -475.170          51.000  
R15  19181949.586 8 102502148.704 8       638.902          51.000    19181953.023 8  79723916.744 8       496.924          49.000  
R05  19229570.359 8 102792694.905 8       617.840          51.000    19229573.391 8  79949872.335 8       480.542          51.000  
R16  22074827.477 5 117919380.208 5      4030.152          34.000    22074829.734 5  91715045.052 5      3134.567          33.000  
R04  21045957.383 8 112699735.066 8     -2879.711          50.000    21045957.305 7  87655386.295 7     -2239.776          46.000  
E05                                                                  26874371.617 5 108211959.257 5     -1821.737          33.000  
E03  23545984.164 8 123734992.450 8      -632.617          51.000    23545986.102 8  94809902.496 8      -484.745          51.000  
E25  24000362.969 8 126122809.511 8       -67.055          51.000    24000365.977 8  96639561.283 8       -51.436          51.000  
E02  24930621.328 8 131011300.760 8      2572.242          50.000    24930623.758 8 100385344.551 8      1970.967          50.000  
C19  24873119.852 7 129520845.924 7     -3088.520          46.000                                                                  
C05  39799844.578 6 207248233.511 6         2.031          36.000    39799841.734 6 160257466.686 6         1.411          40.000  
C22  22008994.844 8 114606592.583 8      -993.539          51.000                                                                  
> 2020 05 12 03 12 30.0000000  0 15      -0.000000000000
G30  20502390.305 8 107740818.653 8      -847.598          51.000    20502392.055 8  83953909.722 8      -660.466          51.000  
G28  21946143.883 8 115327785.646 8      2452.922          48.000    21946142.344 7  89865875.385 7      1911.368          43.000  
G05  20615057.766 8 108332831.219 8      -627.379          51.000    20615055.891 8  84415179.590 8      -488.867          51.000  
R15  19178432.438 8 102483353.404 8       616.090          51.000    19178435.773 8  79709298.181 8       479.181          48.000  
R05  19226156.133 8 102774444.207 8       600.832          51.000    19226159.164 8  79935677.354 8       467.314          50.000  
R16  22052222.312 5 117798633.838 5      4021.301          34.000    22052226.305 5  91621131.250 5      3127.679          32.000  
R14  21039472.531 6 112151846.554 6     -3217.918          36.000                                                                  
R04  21062129.344 7 112786338.838 7     -2891.988          47.000    21062130.523 7  87722744.817 7     -2249.325          47.000  
E05  26887958.016 5 141297172.370 5     -2379.566          32.000    26887957.297 5 108266663.938 5     -1823.733          33.000  
E03  23549619.156 8 123754093.126 8      -638.863          51.000    23549620.625 8  94824538.087 8      -489.525          51.000  
E25  24000786.641 8 126125035.760 8       -79.453          51.000    24000789.508 8  96641267.105 8       -60.814          51.000  
E02  24915961.633 8 130934262.027 8      2565.551          51.000    24915963.492 8 100326314.877 8      1965.873          50.000  
C19  24890928.305 7 129613579.231 7     -3091.941          47.000                                                                  
C05  39799833.172 6 207248174.037 6         3.852          37.000    39799830.344 6 160257420.676 6         3.268          40.000  
C22  22014758.320 8 114636605.576 8     -1005.488          51.000                                                                  
> 2020 05 12 03 13  0.0000000  0 15      -0.000000000000
G30  20507276.484 8 107766495.465 8      -863.496          51.000    20507278.297 8  83973917.639 8      -672.854          51.000  
G07  22308400.102 5 117231444.740 5     -2362.340          33.000    22308398.094 5  91349150.465 5     -1840.785          33.000  
G28  21932187.414 8 115254442.655 8      2437.488          48.000    21932185.641 7  89808725.003 7      1899.345          45.000  
G05  20618703.789 8 108351991.443 8      -649.305          51.000    20618701.812 8  84430109.634 8      -505.952          51.000  
R15  19175053.000 8 102465294.451 8       588.621          51.000    19175056.227 8  79695252.341 8       457.816          48.000  
R05  19222847.492 8 102756757.768 8       579.055          51.000    19222850.484 8  79921921.226 8       450.376          50.000  
R16  22029675.852 5 117678198.491 5      4008.359          35.000    22029681.414 5  91527459.323 5      3117.614          30.000  
R04  21078378.984 8 112873357.229 8     -2908.625          49.000    21078381.086 7  87790425.796 7     -2262.264          47.000  
E05  26901564.203 5 141368673.003 5     -2386.824          34.000    26901563.375 5 108321456.962 5     -1828.780          31.000  
E03  23553299.305 8 123773431.616 8      -649.727          51.000    23553300.422 8  94839355.892 8      -497.825          51.000  
E25  24001289.875 8 126127679.944 8       -96.176          51.000    24001292.500 8  96643293.166 8       -73.687          51.000  
E02  24901350.312 8 130857474.794 8      2554.324          51.000    24901351.211 8 100267477.930 8      1957.151          50.000  
C19  24908766.930 7 129706465.907 7     -3099.758          47.000                                                                  
C05  39799819.672 6 207248104.192 6         1.750          36.000    39799816.688 6 160257365.920 6         1.127          40.000  
C22  22020600.242 8 114667025.836 8     -1021.809          51.000                                                                  
> 2020 05 12 03 13 30.0000000  0 16      -0.000000000000
G30  20512240.531 8 107792581.232 8      -875.898          51.000    20512242.031 8  83994244.187 8      -682.518          51.000  
G07  22321902.008 5 117302392.245 5     -2368.324          34.000    22321897.703 4  91404434.201 4     -1845.451          28.000  
G28  21918307.219 8 115181499.320 8      2425.105          51.000    21918305.398 7  89751886.088 7      1889.693          45.000  
G05  20622462.680 8 108371745.011 8      -667.852          51.000    20622460.820 8  84445502.003 8      -520.407          51.000  
R15  19171814.906 8 102447989.178 8       564.719          51.000    19171817.781 8  79681792.711 8       439.226          48.000  
R05  19219648.031 8 102739654.920 8       560.809          51.000    19219651.234 8  79908619.009 8       436.185          51.000  
R16  22007191.477 5 117558094.373 5      3998.238          34.000    22007197.836 4  91434045.056 4      3109.741          27.000  
R14  21075908.227 4 112346050.35424     -3246.672          29.000                                                                  
R04  21094710.078 8 112960806.483 8     -2921.746          51.000    21094711.773 7  87858441.913 7     -2272.470          46.000  
E05                                                                  26915194.547 5 108376340.149 5     -1831.105          32.000  
E03  23557027.906 8 123793025.416 8      -656.906          51.000    23557028.812 8  94854369.327 8      -503.353          51.000  
E25  24001875.867 8 126130758.722 8      -109.387          51.000    24001878.312 8  96645652.237 8       -83.783          51.000  
E02  24886790.430 8 130780957.552 8      2546.504          51.000    24886790.523 8 100208847.855 8      1951.218          51.000  
