     3.02           OBSERVATION DATA    M (MIXED)           RINEX VERSION / TYPE
SAVERINEX           SC600               20200519 015933 LCL PGM / RUN BY / DATE
       G = GPS       R = GLONASS       C = COMPASS          COMMENT
       S = SBAS      J = QZSS          E = GALILEO          COMMENT
BEAN                                                        MARKER NAME
1                                                           MARKER NUMBER
GEODETIC                                                    MARKER TYPE
Unige DICCA         GTER                                    OBSERVER / AGENCY
SC60291900056       SC600               2.12(191202)        REC # / TYPE / VERS
                    HEMA45          NONE                    ANT # / TYPE
  4509407.8091   693652.4678  4442337.6214                  APPROX POSITION XYZ
        0.0000        0.0000        0.0000                  ANTENNA: DELTA H/E/N
G    8 C1C L1C D1C S1C C2Y L2Y D2Y S2Y                      SYS / # / OBS TYPES
R    8 C1C L1C D1C S1C C2P L2P D2P S2P                      SYS / # / OBS TYPES
C    8 C1I L1I D1I S1I C7I L7I D7I S7I                      SYS / # / OBS TYPES
E    8 C1C L1C D1C S1C C7Q L7Q D7Q S7Q                      SYS / # / OBS TYPES
DBHZ                                                        COMMENT
     30.000                                                 INTERVAL
  2020    05    18    23    00    0.0000000     GPS         TIME OF FIRST OBS
  2020    05    18    23    59   30.0000000     GPS         TIME OF LAST OBS
     0                                                      RCV CLOCK OFFS APPL
G L1C  0.00000                                              SYS / PHASE SHIFT
G L2Y  0.00000                                              SYS / PHASE SHIFT
R L1C  0.00000                                              SYS / PHASE SHIFT
R L2P  0.25000                                              SYS / PHASE SHIFT
C L1I  0.00000                                              SYS / PHASE SHIFT
C L7I  0.00000                                              SYS / PHASE SHIFT
E L1C  0.50000                                              SYS / PHASE SHIFT
E L7Q -0.25000                                              SYS / PHASE SHIFT
 13 R01  1 R02 -4 R03  5 R08  6 R09 -2 R10 -5 R11  0 R12 -1 GLONASS SLOT / FRQ #
    R13 -2 R17  4 R18 -3 R22 -3 R23  3                      GLONASS SLOT / FRQ #
 C1C   71.950 C2C   71.950 C2P   71.950                     GLONASS COD/PHS/BIS
    18                                                      LEAP SECONDS
*** Above antenna height is from mark to ANTENNA BOTTOM.    COMMENT
    17     4        0.0000        ANT MEASURE TYPE/HEIGT    COMMENT
    0.0000    0.0000    0.0458    0.0405    0.0000          COMMENT
                    BASE STATION                            COMMENT
                                                            END OF HEADER
> 2020 05 18 23 00  0.0000000  0 14        .000000000000
G04  20862605.172 8 109633783.224 8     -1682.285          51.000    20862605.633 8  85428937.988 8     -1310.872          50.000
G07  23426783.508 7 123108589.992 7      3259.309          46.000    23426785.852 7  95928765.828 7      2539.721          46.000
G09  20337598.641 8 106874879.711 8       588.988          51.000    20337599.875 8  83279137.691 8       458.955          51.000
G19  23938150.211 7 125795812.309 7     -2990.484          44.000    23938147.258 6  98022717.454 6     -2330.251          40.000
R02  19569736.352 6 104427862.434 6      -282.949          37.000    19569740.703 5  81221687.209 5      -220.078          30.000
R11  21682424.984 5 115864294.757 5       -97.570          31.000    21682423.781 4  90116673.951 4       -75.888          28.000
R12  21795366.055 5 116426945.522 5      3213.324          31.000    21795369.344 4  90554338.005 4      2499.258          25.000
R17  20874557.055 8 111704010.460 8     -3171.707          51.000    20874556.109 7  86880857.468 7     -2466.883          42.000
C19  21750202.211 5 113259004.720 5       706.297          35.000
C20  23176763.102 5 120687479.900 5     -1722.684          32.000
E04  26769818.461 5 140676338.792 5     -2295.609          34.000    26769816.211 5 107790960.513 5     -1759.033          32.000
E05  24770707.469 5 130170900.787 5      1573.301          35.000    24770708.961 5  99741381.778 5      1205.501          32.000
E09  21634841.141 8 113691941.044 8      -643.953          51.000    21634843.156 8  87114604.908 8      -493.395          51.000
E36  24355560.305 8 127989332.465 8     -2021.508          51.000    24355564.469 8  98069758.809 8     -1549.007          51.000
> 2020 05 18 23 00 30.0000000  0 15        .000000000000
G03  22751469.680 6 119559791.396 6     -2661.301          37.000    22751472.992 6  93163470.168 6     -2073.747          37.000
G04  20872243.398 8 109684432.577 8     -1693.812          51.000    20872243.797 8  85468404.993 8     -1319.854          50.000
G07  23408195.898 7 123010909.152 7      3253.230          45.000    23408195.805 7  95852650.874 7      2534.985          45.000
G09  20334278.695 8 106857433.725 8       574.629          51.000    20334280.180 8  83265543.430 8       447.763          51.000
G19  23955246.531 7 125885654.615 7     -2998.680          44.000    23955245.734 6  98092724.464 6     -2336.634          37.000
R02  19571359.297 5 104436523.446 5      -294.348          30.000    19571364.602 5  81228423.436 5      -228.952          32.000
R11  21683061.492 5 115867635.488 5      -125.137          33.000    21683052.773 4  90119272.188 4       -97.335          27.000
R17  20892394.570 8 111799459.489 8     -3191.031          51.000    20892393.688 7  86955095.572 7     -2481.916          44.000
C19  21746157.711 5 113237942.010 5       698.281          34.000
C20  23186706.672 6 120739257.253 6     -1728.461          36.000
C29  25771565.664 5 134199291.116 5     -3257.012          30.000
E04  26782925.516 5 140745224.047 5     -2296.723          30.000    26782923.633 5 107843745.484 5     -1760.183          32.000
E05  24761744.227 5 130123844.082 5      1567.332          32.000    24761745.164 6  99705286.922 6      1201.104          37.000
E09  21638536.703 8 113711361.535 8      -650.262          51.000    21638538.570 8  87129485.548 8      -498.282          51.000
E36  24367136.016 8 128050163.765 8     -2033.445          51.000    24367140.750 8  98116369.807 8     -1558.074          51.000
> 2020 05 18 23 01  0.0000000  0 16        .000000000000
G03  22766668.133 6 119639662.831 6     -2670.453          37.000    22766664.672 5  93225707.474 5     -2080.873          33.000
G04  20881932.469 8 109735348.983 8     -1706.961          51.000    20881932.891 8  85508080.088 8     -1330.099          50.000
G06  21202989.492 6 111422509.622 6      1009.059          36.000    21202985.023 5  86822694.750 5       786.279          35.000
G07  23389629.375 7 122913338.316 7      3245.367          43.000    23389628.242 7  95776621.665 7      2528.858          43.000
G09  20331026.664 8 106840344.393 8       558.422          51.000    20331027.953 8  83252227.055 8       435.134          51.000
G19  23972374.766 7 125975663.825 7     -3008.258          45.000    23972375.695 6  98162861.531 6     -2344.100          39.000
R01  22859944.562 5 122199410.876 5     -3015.613          31.000
R11  21683841.602 6 115871836.834 6      -153.258          36.000
R12  21759435.281 6 116235031.165 6      3178.957          36.000    21759441.391 4  90405014.904 4      2472.528          24.000
R17  20910325.617 8 111895409.478 8     -3212.094          49.000    20910324.672 7  87029723.331 7     -2498.295          44.000
C19  21742141.539 5 113217034.187 5       688.711          33.000
C20  23196670.781 6 120791138.432 6     -1736.500          36.000
E04                                                                  26796026.156 5 107896493.689 5     -1762.541          30.000
E05                                                                  24752802.734 6  99669271.707 6      1195.016          39.000
E09  21642254.648 8 113730899.734 8      -658.633          51.000    21642256.500 8  87144456.378 8      -504.679          51.000
E36  24378766.094 8 128111277.606 8     -2047.121          51.000    24378770.438 8  98163197.293 8     -1568.663          51.000
> 2020 05 18 23 01 30.0000000  0 15        .000000000000
G03  22781933.062 6 119719882.318 6     -2675.266          37.000    22781928.695 6  93288216.053 6     -2084.623          36.000
G04  20891712.203 8 109786741.472 8     -1716.172          51.000    20891712.594 8  85548126.153 8     -1337.277          50.000
G06  21197285.305 5 111392537.635 5       992.223          35.000    21197286.242 5  86799339.923 5       773.157          35.000
G07  23371124.844 6 122816090.656 6      3241.398          41.000    23371122.766 6  95700844.300 6      2525.765          41.000
G09  20327882.531 8 106823821.979 8       546.176          51.000    20327883.484 8  83239352.461 8       425.592          51.000
G19  23989574.320 7 126066047.189 7     -3014.188          44.000    23989575.383 6  98233290.064 6     -2348.721          40.000
R02  19574788.070 5 104454818.899 5      -314.695          30.000
R11  21684758.039 5 115876768.237 5      -178.309          31.000    21684761.094 4  90126388.206 4      -138.672          26.000
R12  21741630.477 5 116139918.685 5      3164.555          31.000
R17  20928389.195 8 111992070.761 8     -3228.875          48.000    20928388.523 7  87104904.266 7     -2511.350          45.000
C19  21738195.500 5 113196490.454 5       683.473          31.000
C20  23206696.047 5 120843332.082 5     -1740.438          31.000
E05  24743911.438 5 130030132.025 5      1555.836          35.000    24743919.680 6  99633497.442 6      1192.185          37.000
E09  21646035.062 8 113750765.742 8      -662.840          51.000    21646036.859 8  87159678.385 8      -507.872          51.000
E36  24390489.781 8 128172883.331 8     -2056.848          51.000    24390492.789 8  98210401.638 8     -1575.993          51.000
> 2020 05 18 23 02  0.0000000  0 14        .000000000000
G03  22797220.453 5 119800212.571 5     -2681.184          31.000    22797217.008 4  93350811.049 4     -2089.228          27.000
G04  20901537.141 8 109838371.757 8     -1726.527          51.000    20901537.391 8  85588357.528 8     -1345.346          50.000
G06  21191673.672 5 111363043.943 5       973.582          34.000    21191673.922 5  86776357.739 5       758.632          34.000
G07  23352637.781 6 122718932.097 6      3235.367          36.000    23352633.992 5  95625136.323 5      2521.068          35.000
G09  20324801.359 8 106807629.532 8       532.723          51.000    20324802.047 8  83226734.993 8       415.109          51.000
G19  24006799.602 7 126156564.934 7     -3020.910          45.000    24006799.211 6  98303823.318 6     -2353.959          39.000
R02  19576578.570 5 104464355.057 5      -324.777          30.000
R12  21723898.617 6 116045202.722 6      3148.730          40.000
R17  20946539.289 7 112089198.147 7     -3246.930          44.000    20946539.727 7  87180447.786 7     -2525.390          46.000
C19  21734274.242 5 113176076.589 5       676.871          35.000
C20  23216732.500 4 120895620.118 4     -1745.008          28.000
E05  24735040.734 5 129983521.382 5      1550.715          34.000    24735051.758 5  99597782.788 5      1188.198          35.000
E09  21649832.672 8 113770722.406 8      -668.242          51.000    21649834.438 8  87174969.846 8      -511.997          51.000
E36  24402261.641 8 128234742.947 8     -2067.707          51.000    24402262.305 8  98257800.520 8     -1584.326          50.000
> 2020 05 18 23 02 30.0000000  0 13        .000000000000
G03  22812537.883 5 119880696.665 5     -2683.746          32.000    22812540.633 5  93413524.426 5     -2091.231          33.000
G04  20911418.188 8 109890297.124 8     -1733.223          51.000    20911418.336 8  85628818.833 8     -1350.566          51.000
G09  20321794.195 8 106791825.618 8       522.816          51.000    20321794.594 8  83214420.261 8       407.389          51.000
G19  24024060.984 7 126247272.606 7     -3024.129          46.000    24024059.242 6  98374504.571 6     -2356.464          41.000
R02  19578437.961 5 104474278.343 5      -330.480          33.000
R12  21706253.555 7 115950948.046 7      3136.582          43.000
R17  20964784.172 7 112186847.399 7     -3261.148          44.000    20964788.953 7  87256397.283 7     -2536.449          47.000
C19  21730390.234 6 113155851.091 6       673.457          37.000
C20  23226821.328 5 120948102.125 5     -1746.422          35.000
E04  26835420.789 5 141021084.807 5     -2296.109          34.000    26835423.578 5 108055131.957 5     -1759.856          31.000
E05                                                                  24726208.227 4  99562193.837 4      1187.189          29.000
E09  21653658.477 8 113790828.079 8      -670.234          51.000    21653660.250 8  87190375.489 8      -513.589          51.000
E36  24414092.500 8 128296914.002 8     -2075.137          51.000    24414091.039 8  98305438.034 8     -1590.088          49.000
> 2020 05 18 23 03  0.0000000  0 13        .000000000000
G03  22827903.875 5 119961420.570 5     -2695.164          32.000    22827897.945 5  93476435.216 5     -2100.110          31.000
G04  20921365.789 8 109942572.239 8     -1748.742          51.000    20921365.984 8  85669552.677 8     -1362.656          51.000
G09  20318871.438 8 106776466.147 8       504.156          51.000    20318871.695 8  83202451.841 8       392.849          51.000
G19  24041368.352 7 126338223.253 7     -3036.148          44.000    24041366.633 7  98445375.175 7     -2365.827          42.000
R02  19580354.930 5 104484486.770 5      -345.648          34.000
R12  21688705.875 6 115857216.171 6      3115.340          39.000    21688706.766 5  90111121.911 5      2423.042          34.000
R17  20983138.742 8 112285071.703 8     -3284.086          48.000    20983144.820 7  87332793.948 7     -2554.289          46.000
C19  21726554.211 6 113135870.289 6       661.293          38.000
C20  23236919.875 5 121000700.968 5     -1756.797          34.000
E04  26848556.383 6 141090100.088 6     -2301.801          36.000    26848551.531 5 108108011.726 5     -1763.685          34.000
E05  24717390.172 5 129890762.636 5      1539.195          34.000
E09  21657523.250 8 113811138.522 8      -680.824          51.000    21657524.898 8  87205938.032 8      -521.709          51.000
E36  24425992.391 8 128359451.362 8     -2091.129          50.000    24425990.828 8  98353356.265 8     -1602.255          50.000
> 2020 05 18 23 03 30.0000000  0 13        .000000000000
G04  20931378.055 8 109995187.126 8     -1758.926          51.000    20931378.375 8  85710551.297 8     -1370.592          51.000
G07  23297365.609 6 122428482.319 6      3216.703          37.000    23297357.727 6  95398819.341 6      2506.525          38.000
G09  20316031.602 8 106761542.493 8       490.656          51.000    20316032.172 8  83190823.025 8       382.330          51.000
G19  24058719.359 7 126429404.820 7     -3042.668          45.000    24058718.742 7  98516425.785 7     -2370.910          42.000
R02  19582322.898 5 104495023.617 5      -356.555          30.000
R12  21671255.336 6 115764003.096 6      3098.812          39.000    21671258.844 5  90038622.802 5      2410.188          35.000
R17  21001599.969 8 112383858.474 8     -3301.668          49.000    21001605.445 7  87409628.079 7     -2567.964          46.000
C19  21722763.430 6 113116126.216 6       654.652          37.000
C20  23247050.203 5 121053483.005 5     -1762.098          32.000
E04  26861699.414 6 141159156.953 6     -2302.289          38.000    26861691.867 6 108160925.449 6     -1763.912          36.000
E05  24708618.438 5 129844665.594 5      1534.023          35.000
E09  21661425.547 8 113831644.948 8      -686.367          51.000    21661426.852 8  87221650.743 8      -525.879          51.000
E36  24437959.203 8 128422345.420 8     -2101.914          49.000    24437959.812 8  98401547.867 8     -1610.617          51.000
> 2020 05 18 23 04  0.0000000  0 12        .000000000000
G04  20941449.141 8 110048111.479 8     -1768.961          51.000    20941449.742 8  85751791.050 8     -1378.411          51.000
G07  23279018.133 6 122332063.762 6      3211.324          40.000    23279009.828 6  95323688.116 6      2502.337          38.000
G09  20313269.352 8 106747025.501 8       477.492          51.000    20313269.945 8  83179511.098 8       372.072          51.000
G19  24076108.445 7 126520785.592 7     -3049.008          46.000    24076108.852 6  98587631.635 6     -2375.847          40.000
R01  22961621.961 5 122742980.805 5     -3024.785          31.000    22961625.312 4  95466796.528 4     -2352.614          28.000
R12  21653897.391 6 115671283.672 6      3082.754          40.000    21653900.477 5  89966507.733 5      2397.694          31.000
R17  21020160.539 8 112483174.280 8     -3318.965          48.000    21020165.336 7  87486873.706 7     -2581.417          46.000
C19  21719011.109 6 113096590.752 6       647.938          36.000
E04  26874842.602 5 141228226.427 5     -2302.242          35.000    26874836.438 5 108213848.834 5     -1763.720          35.000
E05                                                                  24699881.633 5  99456187.095 5      1171.251          31.000
E09  21665359.742 8 113852318.088 8      -691.555          51.000    21665360.750 8  87237491.207 8      -529.884          51.000
E36  24449988.797 8 128485566.085 8     -2112.406          50.000    24449991.617 8  98449989.715 8     -1618.600          51.000
> 2020 05 18 23 04 30.0000000  0 15        .000000000000
G04  20951581.133 8 110101355.894 8     -1780.074          51.000    20951582.000 8  85793280.206 8     -1387.071          51.000
G07  23260707.070 6 122235837.096 6      3204.434          40.000    23260700.695 6  95248706.334 6      2496.964          39.000
G09  20310586.641 8 106732927.078 8       463.164          51.000    20310586.977 8  83168525.327 8       360.907          51.000
G19  24093537.344 7 126612374.248 7     -3056.309          47.000    24093537.914 6  98658999.466 6     -2381.539          39.000
R01  22978603.500 5 122833775.147 5     -3028.016          31.000    22978611.680 4  95537414.317 4     -2355.123          27.000
R02  19586445.828 6 104517006.199 6      -376.820          36.000
R11  21693448.523 5 115923136.125 5      -337.793          32.000
R12  21636635.695 6 115579075.172 6      3065.082          40.000    21636634.898 4  89894790.013 4      2383.956          29.000
R17  21038820.680 8 112583027.140 8     -3337.203          48.000    21038825.625 7  87564537.060 7     -2595.602          45.000
C19  21715300.305 5 113077276.334 5       639.887          34.000
C20  23267395.430 5 121159419.087 5     -1772.309          34.000
E04  26887990.078 5 141297341.406 5     -2303.066          33.000    26887983.898 5 108266791.080 5     -1764.870          33.000
E05                                                                  24691168.625 5  99421104.050 5      1167.507          31.000
E09  21669327.953 8 113873169.702 8      -698.023          51.000    21669328.828 8  87253468.413 8      -534.819          51.000
E36  24462083.906 8 128549124.282 8     -2124.137          51.000    24462087.609 8  98498690.161 8     -1627.603          51.000
> 2020 05 18 23 05  0.0000000  0 13        .000000000000
G03  22889732.352 4 120286359.212 4     -2720.918          29.000    22889722.422 4  93729598.260 4     -2120.196          28.000
G04  20961772.539 8 110154912.126 8     -1790.793          51.000    20961773.352 8  85835012.339 8     -1395.423          50.000
G07  23242431.406 6 122139798.321 6      3197.703          38.000    23242426.914 6  95173870.941 6      2491.714          39.000
G09  20307982.055 8 106719240.207 8       448.957          51.000    20307982.539 8  83157860.217 8       349.837          51.000
G19  24111004.039 7 126704160.994 7     -3063.316          46.000    24111004.305 6  98730521.640 6     -2386.997          39.000
R01  22995596.320 5 122924623.501 5     -3029.801          32.000    22995606.031 4  95608074.089 4     -2356.518          26.000
R12  21619467.297 5 115487375.053 5      3047.520          31.000    21619468.531 5  89823467.648 5      2370.293          33.000
R17  21057578.539 7 112683406.087 7     -3355.078          47.000    21057583.531 7  87642609.605 7     -2609.505          44.000
C19  21711631.953 6 113058176.736 6       632.555          37.000
C20  23277635.430 6 121212682.025 6     -1778.371          37.000
E04                                                                  26901137.008 5 108319746.710 5     -1766.028          32.000
E09  21673328.633 8 113894192.590 8      -704.004          51.000    21673329.609 8  87269576.864 8      -539.447          51.000
E36  24474242.266 8 128613011.963 8     -2135.484          51.000    24474246.062 8  98547643.044 8     -1636.253          51.000
> 2020 05 18 23 05 30.0000000  0 12        .000000000000
G03  22905281.914 5 120368069.112 5     -2726.883          33.000    22905276.203 4  93793270.409 4     -2124.841          29.000
G04  20972025.625 8 110208792.476 8     -1800.734          51.000    20972026.328 8  85876997.026 8     -1403.170          49.000
G07  23224194.344 6 122043963.348 6      3192.008          37.000    23224190.102 6  95099194.336 6      2487.279          37.000
G09  20305458.250 8 106705978.414 8       435.617          51.000    20305459.172 8  83147526.360 8       339.442          51.000
G19  24128510.383 7 126796156.560 7     -3069.203          45.000    24128509.812 6  98802206.473 6     -2391.590          40.000
R01  23012602.945 4 123015539.730 4     -3031.488          28.000    23012612.641 4  95678801.767 4     -2357.821          26.000
R12  21602396.820 5 115396110.490 5      3030.512          35.000    21602405.227 6  89752580.038 6      2357.068          36.000
R17  21076437.211 8 112784321.207 8     -3372.004          49.000    21076441.445 7  87721099.124 7     -2622.670          43.000
C19  21708008.562 6 113039306.088 6       625.547          37.000
E04                                                                  26914295.711 5 108372715.164 5     -1765.277          30.000
E09  21677364.273 8 113915400.186 8      -709.316          51.000    21677365.469 8  87285826.844 8      -543.496          51.000
E36  24486465.586 8 128677241.641 8     -2146.000          51.000    24486469.031 8  98596857.963 8     -1644.386          51.000
> 2020 05 18 23 06  0.0000000  0 13        .000000000000
G03  22920865.320 5 120449975.835 5     -2733.262          35.000    22920866.289 6  93857093.800 6     -2129.814          36.000
G04  20982336.203 8 110262974.697 8     -1811.344          51.000    20982336.836 8  85919216.936 8     -1411.437          48.000
G07  23205992.984 6 121948314.672 6      3185.129          39.000    23205989.320 6  95024662.934 6      2481.922          40.000
G09  20303011.453 8 106693120.679 8       421.625          51.000    20303012.430 8  83137507.346 8       328.539          51.000
G19  24146051.688 7 126888336.749 7     -3075.898          43.000    24146049.953 6  98874035.150 6     -2396.804          41.000
R01  23029619.273 5 123106513.399 5     -3032.816          31.000
R12  21585429.047 6 115305447.470 6      3013.297          37.000    21585430.539 5  89682064.284 5      2343.675          34.000
R17  21095392.070 8 112885746.918 8     -3389.590          48.000    21095394.469 6  87799985.756 6     -2636.351          41.000
C19  21704425.352 6 113020644.403 6       618.160          38.000
C20  23298180.008 5 121319742.057 5     -1789.113          31.000
E04                                                                  26927458.492 5 108425703.419 5     -1766.312          34.000
E09  21681430.992 8 113936771.430 8      -715.250          51.000    21681432.344 8  87302202.213 8      -548.001          51.000
E36  24498749.703 8 128741791.333 8     -2157.180          51.000    24498752.555 8  98646318.079 8     -1652.811          51.000
> 2020 05 18 23 06 30.0000000  0 12        .000000000000
G03  22936489.656 5 120532089.017 5     -2740.438          32.000    22936492.750 5  93921078.114 5     -2135.409          32.000
G04  20992708.305 8 110317480.294 8     -1821.984          51.000    20992708.797 8  85961688.832 8     -1419.728          48.000
G07  23187832.430 7 121852877.531 7      3177.820          43.000    23187829.484 7  94950296.353 7      2476.224          42.000
G09  20300646.000 8 106680689.747 8       407.598          51.000    20300646.883 8  83127820.907 8       317.609          51.000
G19  24163631.648 7 126980721.440 7     -3082.660          42.000    24163629.070 6  98946023.213 6     -2402.073          41.000
R12  21568558.891 6 115215322.533 6      2995.570          41.000    21568560.312 6  89611967.157 6      2329.888          36.000
R17  21114445.984 7 112987702.601 7     -3407.137          47.000    21114446.258 6  87879284.617 6     -2649.995          41.000
C19  21700886.531 6 113002214.813 6       610.734          38.000
C20  23308510.297 5 121373524.125 5     -1795.277          31.000
E04                                                                  26940626.281 5 108478715.933 5     -1767.372          35.000
E09  21685533.242 8 113958328.914 8      -721.320          51.000    21685534.562 8  87318720.283 8      -552.703          51.000
E36  24511098.523 8 128806682.697 8     -2168.383          51.000    24511100.672 8  98696040.006 8     -1661.476          51.000
> 2020 05 18 23 07  0.0000000  0 13        .000000000000
G03  22952150.883 5 120614367.652 5     -2746.926          32.000    22952155.227 5  93985235.423 5     -2140.459          31.000
G04  21003139.039 8 110372294.165 8     -1833.012          51.000    21003139.320 7  86004400.922 7     -1428.321          46.000
G07  23169710.453 7 121757640.877 7      3170.434          46.000    23169707.766 7  94876085.978 7      2470.468          46.000
G09  20298358.969 8 106668671.660 8       392.973          51.000    20298360.031 8  83118456.180 8       306.212          51.000
G19  24181247.531 7 127073294.101 7     -3089.594          43.000    24181244.219 7  99018157.750 7     -2407.476          43.000
R11  21704794.641 5 115983747.585 5      -470.883          31.000
R12  21551787.508 7 115125726.462 7      2977.160          43.000    21551788.898 6  89542281.319 6      2315.572          37.000
R17  21133593.961 7 113090170.234 7     -3424.934          46.000    21133594.438 6  87958981.636 6     -2663.837          41.000
C19  21697389.180 6 112984004.422 6       602.648          37.000
C20  23318867.969 5 121427451.107 5     -1800.754          30.000
E04  26953793.375 5 141643144.683 5     -2308.156          34.000    26953794.766 6 108531743.256 6     -1768.527          36.000
E09  21689668.336 8 113980058.686 8      -728.023          51.000    21689669.547 8  87335370.366 8      -557.836          51.000
E36  24523509.070 8 128871900.836 8     -2180.113          51.000    24523510.641 8  98746012.326 8     -1670.560          51.000
> 2020 05 18 23 07 30.0000000  0 10        .000000000000
G04  21013626.391 8 110427405.875 8     -1842.109          51.000    21013626.641 7  86047345.097 7     -1435.410          45.000
G07  23151625.242 7 121662598.134 7      3164.652          47.000    23151623.016 7  94802026.711 7      2465.963          47.000
G09  20296148.750 8 106657057.244 8       380.203          51.000    20296149.977 8  83109405.998 8       296.262          51.000
G19  24198897.148 7 127166042.265 7     -3094.613          45.000    24198893.203 7  99090428.990 7     -2411.387          42.000
R12  21535113.750 7 115036654.334 7      2960.180          43.000    21535114.367 5  89473002.988 5      2302.359          35.000
R17  21152836.438 7 113193136.599 7     -3440.570          47.000    21152836.398 7  88039066.583 7     -2675.999          43.000
C19  21693932.266 5 112966004.723 5       595.805          32.000
E04  26966964.906 5 141712359.900 5     -2307.500          35.000    26966966.211 6 108584778.210 6     -1768.279          36.000
E09  21693834.336 8 114001951.382 8      -732.539          51.000    21693835.594 8  87352145.299 8      -561.338          51.000
E36  24535979.062 8 128937435.498 8     -2189.801          49.000    24535980.672 8  98796227.195 8     -1677.929          51.000
> 2020 05 18 23 08  0.0000000  0 11        .000000000000
G04  21024169.008 8 110482807.941 8     -1862.219          51.000    21024169.039 7  86090515.524 7     -1451.080          44.000
G07  23133576.031 8 121567746.286 8      3147.863          48.000    23133574.312 8  94728116.182 8      2452.880          48.000
G09  20294014.227 8 106645840.194 8       356.578          51.000    20294015.352 8  83100665.421 8       277.853          51.000
G19  24216578.648 7 127258957.042 7     -3110.543          46.000    24216574.250 7  99162830.051 7     -2423.803          42.000
R02  19602703.312 5 104603741.327 5      -457.945          32.000
R12  21518537.422 7 114948104.783 7      2931.945          45.000    21518537.703 5  89404131.058 5      2280.405          35.000
R17  21172170.406 7 113296591.296 7     -3467.379          47.000    21172170.219 7  88119531.324 7     -2696.850          44.000
C19  21690515.594 6 112948210.407 6       578.789          37.000
C20  23339687.250 5 121535859.882 5     -1820.961          33.000
E09  21698030.062 8 114024000.687 8      -748.254          51.000    21698031.523 8  87369040.211 8      -573.325          51.000
E36  24548507.273 8 129003279.427 8     -2210.617          48.000    24548510.117 8  98846679.033 8     -1693.876          51.000
> 2020 05 18 23 08 30.0000000  0 10        .000000000000
G04  21034793.852 8 110538641.933 8     -1861.141          51.000    21034793.703 7  86134022.535 7     -1450.239          45.000
G07  23115590.430 8 121473230.873 8      3152.109          48.000    23115589.289 8  94654467.803 8      2456.189          48.000
G09  20291982.383 8 106635163.219 8       354.082          51.000    20291983.562 8  83092345.719 8       275.911          51.000
G19  24234318.336 7 127352177.843 7     -3105.152          45.000    24234313.844 7  99235469.599 7     -2419.599          43.000
R12  21502086.789 7 114860227.388 7      2925.367          42.000    21502087.805 5  89335781.911 5      2275.283          34.000
R17  21191621.102 8 113400675.723 8     -3472.668          48.000    21191621.750 7  88200485.907 7     -2700.964          46.000
C19  21687166.344 6 112930763.634 6       582.750          41.000
C20  23350154.250 4 121590381.611 4     -1814.953          26.000
E09  21702282.805 8 114046349.219 8      -742.602          51.000    21702284.438 8  87386164.415 8      -569.012          51.000
E36  24561121.977 8 129069574.330 8     -2210.125          49.000    24561126.086 8  98897476.432 8     -1693.448          51.000
> 2020 05 18 23 09  0.0000000  0 11        .000000000000
G03  23015172.094 5 120945538.753 5     -2770.141          34.000
G04  21045447.555 8 110594627.365 8     -1871.277          50.000    21045447.562 7  86177647.526 7     -1458.138          45.000
G07  23097615.828 7 121378774.664 7      3145.078          47.000    23097615.250 8  94580865.534 8      2450.710          48.000
G09  20290000.195 8 106624747.015 8       340.336          51.000    20290001.414 8  83084229.186 8       265.197          51.000
G19  24252062.461 7 127445422.895 7     -3110.902          44.000    24252057.984 6  99308128.046 6     -2424.080          41.000
R12  21485709.102 6 114772743.087 6      2907.051          38.000    21485711.695 5  89267738.559 5      2261.036          33.000
R17  21211135.516 8 113505101.674 8     -3489.062          49.000    21211136.734 7  88281706.097 7     -2713.715          45.000
C19  21683830.062 6 112913388.365 6       575.586          41.000
C20  23360621.859 4 121644810.081 4     -1820.430          29.000
E09  21706539.453 8 114068717.675 8      -748.449          51.000    21706541.227 8  87403303.895 8      -573.538          51.000
E36  24573769.805 8 129136039.926 8     -2220.895          51.000    24573774.977 8  98948404.606 8     -1701.742          51.000
> 2020 05 18 23 09 30.0000000  0 10        .000000000000
G03  23031020.211 5 121028825.171 5     -2779.219          31.000    23031016.352 5  94308155.965 5     -2165.625          31.000
G04  21056167.773 8 110650962.392 8     -1884.113          49.000    21056168.156 7  86221544.956 7     -1468.140          45.000
G07  23079691.047 8 121284581.373 8      3135.215          48.000    23079691.023 8  94507468.131 8      2443.025          48.000
G09  20288105.555 8 106614790.922 8       323.949          51.000    20288106.703 8  83076471.192 8       252.428          51.000
G19  24269848.141 7 127538888.627 7     -3119.559          43.000    24269843.555 7  99380958.523 7     -2430.825          42.000
R12  21469440.586 5 114685859.185 5      2886.000          33.000    21469445.922 4  89200162.254 4      2244.664          27.000
R17  21230750.914 8 113610068.088 8     -3508.121          51.000    21230752.219 7  88363346.621 7     -2728.539          45.000
C19  21680544.773 6 112896283.047 6       565.164          41.000
E09  21710837.797 8 114091305.370 8      -756.895          51.000    21710839.711 8  87420611.351 8      -579.943          51.000
E36  24586488.453 8 129202874.524 8     -2234.242          51.000    24586494.008 8  98999615.538 8     -1711.928          51.000
> 2020 05 18 23 10  0.0000000  0 12        .000000000000
G04  21066944.109 8 110707592.443 8     -1899.449          49.000    21066944.523 7  86265672.274 7     -1480.090          45.000
G07  23061806.742 8 121190600.134 8      3122.293          48.000    23061806.844 8  94434235.974 8      2432.956          48.000
G09  20286288.344 8 106605241.494 8       304.781          51.000    20286289.258 8  83069030.083 8       237.492          51.000
G19  24287664.992 7 127632518.544 7     -3130.570          44.000    24287659.727 6  99453916.876 6     -2439.408          40.000
R02  19613222.602 5 104659899.189 5      -495.660          31.000    19613227.281 5  81402173.729 5      -385.513          30.000
R11  21723289.125 5 116082674.377 5      -635.816          32.000
R12  21453278.062 6 114599526.132 6      2862.000          36.000    21453281.578 4  89133012.229 4      2226.003          29.000
R17  21250456.609 8 113715516.820 8     -3529.941          51.000    21250457.234 7  88445362.253 7     -2745.510          45.000
C19  21677301.141 7 112879395.442 7       552.695          42.000
E05  24597452.773 5 129260484.903 5      1455.406          32.000
E09  21715167.570 8 114114058.832 8      -768.094          51.000    21715169.688 8  87438045.832 8      -588.545          51.000
E36  24599267.070 8 129270023.673 8     -2250.379          51.000    24599272.688 8  99051067.497 8     -1724.322          51.000
> 2020 05 18 23 10 30.0000000  0 11        .000000000000
G04  21077787.664 8 110764575.235 8     -1902.977          49.000    21077787.703 7  86310074.442 7     -1482.839          45.000
G07  23043974.812 8 121096892.152 8      3121.449          49.000    23043974.414 8  94361216.769 8      2432.298          49.000
G09  20284559.820 8 106596157.577 8       297.469          51.000    20284560.484 8  83061951.714 8       231.794          51.000
G19  24305523.953 7 127726368.743 7     -3129.637          44.000    24305517.828 6  99527046.839 6     -2438.681          40.000
R02  19616010.031 6 104674771.793 6      -499.160          36.000    19616013.289 5  81413740.907 5      -388.236          31.000
R12  21437232.133 6 114513808.189 6      2849.199          36.000    21437236.023 4  89066342.894 4      2216.047          28.000
R17  21270262.695 8 113821503.806 8     -3539.355          51.000    21270262.352 7  88527796.557 7     -2752.832          45.000
C19  21674111.281 7 112862784.806 7       551.359          43.000
E05  24589144.438 5 129216819.451 5      1456.562          33.000    24589138.562 5  99010273.996 5      1116.118          33.000
E09  21719540.023 8 114137036.911 8      -767.246          51.000    21719542.414 8  87455652.422 8      -587.881          51.000
E36  24612116.508 8 129337545.236 8     -2254.465          51.000    24612121.938 8  99102804.804 8     -1727.417          51.000
> 2020 05 18 23 11  0.0000000  0 11        .000000000000
G04  21088676.453 8 110821795.661 8     -1912.637          48.000    21088676.328 7  86354661.777 7     -1490.366          46.000
G07  23026173.828 8 121003346.516 8      3114.070          49.000    23026172.664 8  94288324.098 8      2426.548          49.000
G09  20282898.219 8 106587425.230 8       283.750          51.000    20282898.781 8  83055147.292 8       221.104          51.000
G19  24323402.812 7 127820322.467 7     -3134.934          42.000    24323396.672 6  99600257.488 6     -2442.808          40.000
R02  19618839.023 6 104689888.614 6      -509.414          38.000    19618847.414 5  81425498.459 5      -396.211          31.000
R12  21421279.695 5 114428594.410 5      2830.836          31.000    21421283.016 4  89000065.536 4      2201.770          29.000
R17  21290146.648 8 113927909.069 8     -3555.133          50.000    21290146.938 7  88610556.218 7     -2765.103          46.000
C19  21670953.023 7 112846338.978 7       544.152          44.000
E05                                                                  24580838.711 6  98976848.037 6      1111.679          36.000
E09  21723933.633 8 114160125.643 8      -772.793          51.000    21723936.195 8  87473343.802 8      -592.188          51.000
E36  24625014.656 8 129405324.240 8     -2264.945          51.000    24625019.867 8  99154739.379 8     -1735.496          51.000
> 2020 05 18 23 11 30.0000000  0 12        .000000000000
G03  23094768.742 4 121363797.141 4     -2802.719          29.000
G04  21099625.016 8 110879330.271 8     -1921.535          49.000    21099625.078 7  86399493.954 7     -1497.297          45.000
G06  21105900.734 5 110912275.461 5       607.168          30.000    21105898.922 5  86425129.855 5       473.118          30.000
G07  23008418.891 8 120910043.834 8      3107.379          49.000    23008417.211 8  94215620.761 8      2421.337          49.000
G09  20281318.250 8 106579122.089 8       271.012          51.000    20281318.820 8  83048677.312 8       211.178          51.000
G19  24341315.812 6 127914454.635 6     -3139.211          41.000    24341310.141 6  99673607.226 6     -2446.138          36.000
R02  19621730.992 6 104705328.796 6      -518.625          40.000    19621735.094 5  81437507.414 5      -403.378          31.000
R17  21310122.156 8 114034807.706 8     -3569.902          50.000    21310124.312 7  88693699.641 7     -2776.591          46.000
C19  21667841.164 7 112830135.790 7       537.559          42.000
E05                                                                  24572572.961 5  98943563.663 5      1108.450          35.000
E09  21728363.125 8 114183402.686 8      -777.520          51.000    21728365.711 8  87491179.456 8      -595.732          51.000
E36  24637975.844 8 129473437.292 8     -2274.402          51.000    24637981.359 8  99206929.890 8     -1742.721          51.000
> 2020 05 18 23 12  0.0000000  0 13        .000000000000
G04  21110588.883 8 110936945.920 8     -1939.332          49.000    21110589.141 7  86444389.270 7     -1511.168          45.000
G07  22990666.367 8 120816755.387 8      3091.727          49.000    22990664.836 8  94142928.493 8      2409.138          49.000
G09  20279775.719 8 106571016.145 8       249.215          51.000    20279776.195 8  83042360.984 8       194.193          51.000
G19  24359217.688 6 128008530.393 6     -3152.613          36.000    24359213.219 6  99746913.082 6     -2456.576          36.000
R02  19624640.625 6 104720856.647 6      -536.945          41.000    19624645.188 5  81449584.541 5      -417.624          33.000
R11  21738583.953 5 116164365.430 5      -742.195          35.000    21738600.492 5  90350096.531 5      -577.260          30.000
R12  21389656.289 4 114259703.331 4      2786.250          27.000    21389664.641 4  88868687.700 4      2167.074          27.000
R17  21330145.672 8 114141959.657 8     -3593.793          51.000    21330148.430 7  88777040.058 7     -2795.172          45.000
C19  21664731.750 7 112813946.174 7       521.812          43.000
C20  23424124.016 5 121975621.889 5     -1861.301          30.000
E05                                                                  24564298.188 4  98910248.423 4      1098.276          29.000
E09  21732784.258 8 114206636.040 8      -791.188          51.000    21732786.773 8  87508981.636 8      -606.241          51.000
E36  24650955.977 8 129541651.396 8     -2292.922          51.000    24650961.938 8  99259197.850 8     -1756.923          51.000
> 2020 05 18 23 12 30.0000000  0 10        .000000000000
G04  21121688.422 8 110995273.950 8     -1944.027          50.000    21121688.344 7  86489839.669 7     -1514.830          46.000
G07  22973037.203 8 120724116.219 8      3089.285          49.000    22973036.172 8  94070742.136 8      2407.235          49.000
G09  20278391.055 8 106563739.828 8       240.812          51.000    20278391.336 8  83036691.122 8       187.646          51.000
G19  24377227.273 5 128103179.073 5     -3151.762          30.000    24377224.836 5  99820665.304 5     -2455.921          33.000
R02  19627687.008 6 104737114.431 6      -542.020          36.000    19627693.234 5  81462229.522 5      -421.571          34.000
R17  21350337.383 8 114250005.051 8     -3604.113          51.000    21350339.055 7  88861075.321 7     -2803.202          45.000
C19  21661745.750 7 112798397.764 7       519.512          44.000
C20  23434852.195 5 122031550.530 5     -1861.883          32.000
E09  21737317.344 8 114230458.188 8      -791.715          51.000    21737319.828 8  87527234.967 8      -606.624          51.000
E36  24664075.938 8 129610597.982 8     -2298.332          51.000    24664081.539 8  99312027.056 8     -1760.979          51.000
> 2020 05 18 23 13  0.0000000  0 11        .000000000000
G03  23142946.961 5 121616998.988 5     -2822.520          35.000    23142937.281 6  94766471.564 6     -2199.357          36.000
G04  21132792.344 8 111053624.920 8     -1951.184          50.000    21132791.867 7  86535307.945 7     -1520.406          46.000
G07  22955401.203 8 120631440.587 8      3083.898          49.000    22955400.617 8  93998527.374 8      2403.038          49.000
G09  20277033.273 8 106556604.762 8       229.699          51.000    20277033.602 8  83031131.331 8       178.986          51.000
G19  24395215.109 4 128197720.491 4     -3154.461          29.000    24395213.984 4  99894322.321 4     -2458.018          29.000
R02  19630739.367 5 104753403.893 5      -549.160          35.000    19630747.281 5  81474899.126 5      -427.125          34.000
R11  21747150.055 5 116210175.246 5      -786.637          32.000
R17  21370564.469 8 114358238.736 8     -3616.844          50.000    21370564.352 7  88945257.038 7     -2813.104          43.000
C19  21658752.406 7 112782809.194 7       514.641          45.000
E09  21741831.531 8 114254180.781 8      -794.938          51.000    21741833.977 8  87545412.011 8      -609.081          51.000
E36  24677204.773 8 129679587.717 8     -2306.188          51.000    24677209.086 8  99364889.317 8     -1767.115          51.000
> 2020 05 18 23 13 30.0000000  0 12        .000000000000
G04  21143961.305 8 111112317.793 8     -1960.832          51.000    21143960.781 7  86581042.645 7     -1527.921          46.000
G07  22937820.156 8 120539051.893 8      3076.047          50.000    22937819.797 8  93926536.216 8      2396.920          50.000
G09  20275763.375 8 106549931.003 8       216.102          51.000    20275763.664 8  83025930.991 8       168.391          51.000
G19  24413241.445 5 128292450.298 5     -3159.820          34.000    24413240.891 5  99968137.679 5     -2462.201          34.000
R02  19633859.422 6 104770049.966 6      -559.520          40.000    19633865.641 5  81487846.039 5      -435.185          31.000
R11  21751653.625 6 116234228.027 6      -813.375          36.000
R12  21343141.789 6 114011205.787 6      2734.445          38.000    21343141.195 5  88675368.847 5      2126.794          34.000
R17  21390886.266 8 114466983.177 8     -3631.938          48.000    21390885.961 7  89029836.056 7     -2824.837          43.000
C19  21655812.680 7 112767498.627 7       507.047          44.000
C20  23456335.234 6 122143284.463 6     -1870.363          36.000
E09  21746387.727 8 114278123.946 8      -800.520          51.000    21746390.172 8  87563758.061 8      -613.349          51.000
E36  24690402.906 8 129748939.652 8     -2316.488          51.000    24690405.359 8  99418029.097 8     -1774.948          51.000
> 2020 05 18 23 14  0.0000000  0 14        .000000000000
G03  23175238.305 5 121786671.161 5     -2834.512          34.000    23175244.008 5  94898748.938 5     -2208.720          34.000
G04  21155179.594 8 111171270.258 8     -1969.840          50.000    21155179.375 7  86626979.629 7     -1534.940          47.000
G06  21090005.719 5 110828700.629 5       506.773          33.000    21090005.719 5  86360019.392 5       394.888          35.000
G07  22920279.281 8 120446871.728 8      3068.777          51.000    22920278.312 8  93854707.562 8      2391.255          51.000
G09  20274565.758 8 106543637.331 8       203.008          51.000    20274565.891 8  83021026.825 8       158.188          51.000
G19  24431290.422 6 128387295.883 6     -3163.617          37.000    24431289.484 5 100042043.236 5     -2465.171          33.000
R02  19637030.461 5 104786970.308 5      -568.969          35.000    19637033.820 5  81501006.181 5      -442.534          31.000
R11  21756294.945 5 116259008.067 5      -839.277          30.000
R12  21327836.320 6 113929449.446 6      2715.430          39.000    21327839.398 5  88611780.784 5      2112.010          34.000
R17  21411286.227 8 114576151.134 8     -3646.371          48.000    21411287.961 7  89114744.467 7     -2836.066          44.000
C19  21652910.602 7 112752386.450 7       499.848          44.000
C20  23467125.578 6 122199458.803 6     -1875.293          37.000
E09  21750970.445 8 114302206.504 8      -805.527          51.000    21750972.859 8  87582210.929 8      -617.267          51.000
E36  24703654.273 8 129818571.492 8     -2326.188          51.000    24703655.109 8  99471383.334 8     -1782.406          51.000
> 2020 05 18 23 14 30.0000000  0 13        .000000000000
G04  21166456.719 8 111230532.594 8     -1980.520          50.000    21166456.852 7  86673158.077 7     -1543.262          47.000
G06  21087165.977 5 110813795.565 5       487.301          31.000    21087165.680 4  86348417.003 4       379.718          28.000
G07  22902788.664 8 120354954.483 8      3059.434          51.000    22902786.352 8  93783083.793 8      2383.974          51.000
G09  20273450.180 8 106537775.106 8       188.223          51.000    20273450.375 8  83016458.861 8       146.667          51.000
G19  24449370.781 6 128482305.408 6     -3169.859          40.000    24449368.945 5 100116076.504 5     -2470.023          31.000
R02  19640263.234 6 104804217.760 6      -580.383          37.000    19640264.844 5  81514420.832 5      -451.409          32.000
R11  21761086.172 6 116284600.369 6      -866.340          36.000
R12  21312645.289 7 113848311.040 7      2694.258          42.000    21312650.156 4  88548673.133 4      2095.528          25.000
R17  21431774.750 8 114685791.269 8     -3662.414          48.000    21431777.992 7  89200020.145 7     -2848.544          44.000
C19  21650056.258 7 112737524.434 7       491.230          44.000
C20  23477948.719 5 122255818.756 5     -1881.879          35.000
E09  21755589.492 8 114326479.903 8      -812.168          51.000    21755591.750 8  87600810.023 8      -622.322          51.000
E36  24716968.188 8 129888533.614 8     -2337.469          51.000    24716968.117 8  99524990.659 8     -1791.041          51.000
> 2020 05 18 23 15  0.0000000  0 13        .000000000000
G04  21177791.766 8 111290099.417 8     -1993.051          50.000    21177792.031 7  86719573.775 7     -1553.030          46.000
G06  21084446.750 5 110799514.483 5       464.434          32.000    21084448.328 5  86337284.112 5       361.902          33.000
G07  22885347.828 8 120263298.810 8      3048.605          51.000    22885344.234 8  93711663.850 8      2375.540          51.000
G09  20272415.828 8 106532339.962 8       171.898          51.000    20272416.195 8  83012223.686 8       133.947          51.000
G19  24467480.992 6 128577471.827 6     -3177.141          41.000    24467479.234 4 100190232.137 4     -2475.700          29.000
R02  19643554.742 5 104821787.436 5      -592.891          33.000    19643558.250 5  81528086.245 5      -461.134          34.000
R12  21297571.578 6 113767790.586 6      2671.160          40.000    21297573.781 6  88486078.147 6      2077.575          36.000
R17  21452349.664 7 114795895.501 7     -3680.133          47.000    21452354.570 7  89285656.786 7     -2862.326          45.000
R18  20757132.422 6 110802974.855 6      -219.445          37.000
C19  21647249.523 7 112722909.169 7       480.812          44.000
C20  23488805.688 6 122312360.470 6     -1889.953          38.000
E09  21760244.125 8 114350939.858 8      -820.758          51.000    21760246.008 8  87619552.075 8      -628.922          51.000
E36  24730343.461 8 129958820.655 8     -2350.633          51.000    24730343.586 8  99578846.949 8     -1801.113          51.000
> 2020 05 18 23 15 30.0000000  0 13        .000000000000
G04  21189177.922 8 111349934.413 8     -1998.555          50.000    21189178.188 7  86766198.443 7     -1557.315          46.000
G06  21081839.445 4 110785813.009 4       448.777          28.000    21081839.445 4  86326606.926 4       349.697          28.000
G07  22867950.242 8 120171872.224 8      3044.039          51.000    22867946.289 8  93640422.396 8      2371.982          51.000
G09  20271456.008 8 106527296.667 8       161.934          51.000    20271456.484 8  83008293.838 8       126.182          51.000
G19  24485613.812 7 128672757.451 7     -3177.602          42.000    24485611.844 4 100264480.673 4     -2476.044          24.000
R02  19646900.375 5 104839644.118 5      -599.477          35.000    19646904.672 5  81541974.816 5      -466.257          34.000
R12  21282607.539 6 113687856.988 6      2654.781          38.000    21282612.039 6  88423907.631 6      2064.830          38.000
R17  21473003.570 7 114906423.661 7     -3690.871          46.000    21473009.625 7  89371623.180 7     -2870.674          44.000
R18  20758426.273 4 110809885.995 4      -244.117          28.000
C19  21644483.742 7 112708506.720 7       476.820          44.000
C20  23499692.609 6 122369049.271 6     -1891.617          39.000
E09  21764927.625 8 114375551.211 8      -822.566          51.000    21764929.148 8  87638410.115 8      -630.242          51.000
E36  24743773.055 8 130029396.381 8     -2357.027          51.000    24743774.359 8  99632924.448 8     -1805.986          51.000
> 2020 05 18 23 16  0.0000000  0 13        .000000000000
G04  21200606.641 8 111409992.556 8     -2008.844          50.000    21200606.750 7  86812996.998 7     -1565.333          45.000
G06  21079335.102 5 110772652.119 5       426.742          34.000    21079331.445 5  86316349.809 5       332.526          30.000
G07  22850588.000 8 120080633.801 8      3034.961          50.000    22850584.656 8  93569327.531 8      2364.905          50.000
G09  20270562.375 8 106522601.144 8       147.535          51.000    20270563.102 8  83004634.991 8       114.962          51.000
G19  24503760.156 6 128768115.312 6     -3183.023          41.000    24503756.711 4 100338785.498 4     -2480.272          29.000
R02  19650292.938 6 104857743.821 6      -610.586          40.000    19650297.391 5  81556052.322 5      -474.900          34.000
R12  21267746.031 5 113608469.780 5      2633.824          31.000    21267750.586 6  88362162.046 6      2048.527          36.000
R17  21493727.500 7 115017327.066 7     -3706.344          47.000    21493733.906 7  89457881.410 7     -2882.709          43.000
C19  21641750.633 7 112694274.337 7       468.430          44.000
C20  23510599.414 6 122425842.124 6     -1898.320          36.000
E04  27191439.383 5 142891972.650 5     -2318.113          34.000
E09  21769631.547 8 114400270.028 8      -828.988          51.000    21769633.070 8  87657350.509 8      -635.205          51.000
E36  24757248.484 8 130100215.698 8     -2367.918          51.000    24757251.500 8  99687188.609 8     -1814.397          51.000
> 2020 05 18 23 16 30.0000000  0 14        .000000000000
G04  21212091.859 8 111470347.665 8     -2015.543          50.000    21212091.797 7  86860026.953 7     -1570.553          45.000
G06  21076948.367 5 110760108.462 5       408.645          35.000    21076943.242 5  86306575.465 5       318.424          33.000
G07  22833276.086 8 119989660.623 8      3029.180          50.000    22833273.664 8  93498439.334 8      2360.400          50.000
G09  20269749.195 8 106518328.326 8       136.582          51.000    20269750.164 8  83001305.520 8       106.428          51.000
G19  24521933.609 6 128863617.273 6     -3184.477          39.000    24521928.617 5 100413202.578 5     -2481.401          30.000
R02  19653745.719 7 104876162.452 7      -617.957          42.000    19653749.820 5  81570377.971 5      -480.633          33.000
R12  21253004.203 5 113529709.885 5      2616.734          35.000    21253005.805 5  88300904.240 5      2035.229          32.000
R17  21514536.453 8 115128678.245 8     -3717.805          48.000    21514542.070 7  89544487.871 7     -2891.626          43.000
R18  20761457.922 5 110826055.011 5      -297.984          33.000
C19  21639064.891 7 112680287.159 7       463.285          45.000
C20  23521539.516 6 122482813.533 6     -1900.617          38.000
E04  27204663.438 5 142961471.549 5     -2316.422          34.000
E09  21774370.141 8 114425171.303 8      -831.879          51.000    21774371.922 8  87676430.703 8      -637.462          51.000
E36  24770784.219 8 130171352.541 8     -2375.293          51.000    24770788.898 8  99741696.068 8     -1820.066          51.000
> 2020 05 18 23 17  0.0000000  0 15        .000000000000
G04  21223638.625 8 111531026.559 8     -2027.648          51.000    21223638.594 7  86907309.196 7     -1579.989          44.000
G06  21074684.844 6 110748211.704 6       386.211          38.000    21074679.273 5  86297305.266 5       300.944          35.000
G07  22816020.961 8 119898984.850 8      3017.918          51.000    22816019.164 8  93427782.882 8      2351.624          50.000
G09  20269021.766 8 106514506.021 8       120.285          51.000    20269022.773 8  82998327.095 8        93.729          51.000
G19  24540138.695 5 128959288.309 5     -3191.051          35.000    24540133.625 5 100487751.447 5     -2486.542          34.000
R02  19657263.000 6 104894928.598 6      -631.152          41.000    19657267.352 5  81584973.907 5      -490.899          33.000
R11  21787231.797 5 116424301.584 5      -997.945          34.000
R12  21238381.648 5 113451610.276 5      2592.383          32.000    21238386.070 4  88240159.953 4      2016.298          27.000
R17  21535434.602 7 115240501.503 7     -3734.863          47.000    21535438.328 7  89631461.504 7     -2904.894          42.000
C19  21636431.992 7 112666573.732 7       452.996          45.000
C20  23532520.125 6 122539991.616 6     -1908.961          37.000
E04                                                                  27217899.383 6 109595194.377 6     -1777.336          36.000
E05  24483682.695 5 128662590.895 5      1383.840          34.000    24483674.258 5  98585619.383 5      1060.453          33.000
E09  21779148.805 8 114450282.988 8      -840.262          51.000    21779150.789 8  87695672.112 8      -643.879          51.000
E36  24784386.125 8 130242833.706 8     -2388.066          51.000    24784391.633 8  99796467.347 8     -1829.868          51.000
> 2020 05 18 23 17 30.0000000  0 13        .000000000000
G04  21235233.945 8 111591960.463 8     -2035.266          50.000    21235234.000 7  86954790.148 7     -1585.921          45.000
G06  21072531.531 6 110736895.637 6       367.348          37.000    21072526.711 5  86288487.601 5       286.248          35.000
G07  22798810.219 8 119808541.168 8      3011.102          51.000    22798808.773 8  93357307.288 8      2346.313          51.000
G09  20268367.148 8 106511066.413 8       108.422          51.000    20268368.102 8  82995646.891 8        84.485          51.000
G19  24558362.570 5 129055058.390 5     -3194.227          31.000
R02  19660832.320 7 104913974.237 7      -639.176          43.000    19660836.336 5  81599787.080 5      -497.137          32.000
R12  21223882.227 5 113374163.845 5      2573.652          31.000    21223868.039 4  88179852.209 4      2001.730          26.000
R17  21556407.656 7 115352723.964 7     -3747.195          47.000    21556407.836 6  89718745.614 6     -2914.488          39.000
C19  21633838.672 7 112653067.947 7       446.770          44.000
C20  23543527.773 6 122597309.614 6     -1912.754          37.000
E04                                                                  27231135.445 6 109648493.521 6     -1776.648          39.000
E09  21783954.750 8 114475537.444 8      -844.070          51.000    21783956.711 8  87715022.913 8      -646.764          51.000
E36  24798041.188 8 130314590.443 8     -2396.316          51.000    24798046.594 8  99851449.784 8     -1836.145          51.000
> 2020 05 18 23 18  0.0000000  0 13        .000000000000
G04  21246881.977 8 111653171.278 8     -2044.465          50.000    21246882.016 7  87002486.877 7     -1593.089          44.000
G06  21070493.250 6 110726184.440 6       347.496          37.000    21070489.812 6  86280141.230 6       270.776          36.000
G07  22781648.547 8 119718355.012 8      3002.312          51.000    22781647.141 8  93287032.389 8      2339.467          51.000
G09  20267789.867 8 106508032.462 8        94.793          51.000    20267790.719 8  82993282.767 8        73.865          51.000
G19  24576609.266 5 129150953.927 5     -3197.844          31.000
R02  19664458.000 6 104933322.356 6      -649.656          38.000    19664460.305 5  81614835.619 5      -505.288          33.000
R17  21577458.203 7 115465364.694 7     -3761.082          45.000    21577455.109 6  89806355.046 6     -2925.286          38.000
R18  20767226.266 5 110856888.624 5      -384.070          30.000
C19  21631288.812 7 112639793.364 7       439.137          45.000
C20  23554566.883 6 122654790.624 6     -1918.301          38.000
E04  27244370.289 5 143170133.633 5     -2319.051          33.000    27244374.852 6 109701805.760 6     -1776.986          40.000
E09  21788792.188 8 114500957.672 8      -849.562          51.000    21788794.133 8  87734500.743 8      -650.963          51.000
E36  24811753.156 8 130386644.575 8     -2406.211          51.000    24811758.008 8  99906660.091 8     -1843.741          51.000
> 2020 05 18 23 18 30.0000000  0 12        .000000000000
G04  21258579.234 8 111714640.667 8     -2045.430          50.000    21258579.234 7  87050385.102 7     -1593.841          45.000
G06  21068567.141 6 110716062.169 6       335.867          37.000    21068563.664 6  86272253.786 6       261.718          37.000
G07  22764532.969 8 119628411.731 8      3001.746          50.000    22764531.430 8  93216946.747 8      2339.026          50.000
