     3.02           OBSERVATION DATA    M (MIXED)           RINEX VERSION / TYPE
SAVERINEX           SC600               20200513 075931 LCL PGM / RUN BY / DATE
       G = GPS       R = GLONASS       C = COMPASS          COMMENT
       S = SBAS      J = QZSS          E = GALILEO          COMMENT
BEAN                                                        MARKER NAME
1                                                           MARKER NUMBER
GEODETIC                                                    MARKER TYPE
Unige DICCA         GTER                                    OBSERVER / AGENCY
SC60291900056       SC600               2.12(191226)        REC # / TYPE / VERS
                    HEMA45          NONE                    ANT # / TYPE
  4509407.8091   693652.4678  4442337.6214                  APPROX POSITION XYZ
        0.0000        0.0000        0.0000                  ANTENNA: DELTA H/E/N
G    8 C1C L1C D1C S1C C2Y L2Y D2Y S2Y                      SYS / # / OBS TYPES
R    8 C1C L1C D1C S1C C2P L2P D2P S2P                      SYS / # / OBS TYPES
C    8 C1I L1I D1I S1I C7I L7I D7I S7I                      SYS / # / OBS TYPES
E    8 C1C L1C D1C S1C C7Q L7Q D7Q S7Q                      SYS / # / OBS TYPES
DBHZ                                                        COMMENT
     30.000                                                 INTERVAL
  2020    05    13    05    00    0.0000000     GPS         TIME OF FIRST OBS
  2020    05    13    05    59   30.0000000     GPS         TIME OF LAST OBS
     0                                                      RCV CLOCK OFFS APPL
G L1C  0.00000                                              SYS / PHASE SHIFT
G L2Y  0.00000                                              SYS / PHASE SHIFT
R L1C  0.00000                                              SYS / PHASE SHIFT
R L2P  0.25000                                              SYS / PHASE SHIFT
C L1I  0.00000                                              SYS / PHASE SHIFT
C L7I  0.00000                                              SYS / PHASE SHIFT
E L1C  0.50000                                              SYS / PHASE SHIFT
E L7Q -0.25000                                              SYS / PHASE SHIFT
 12 R04  6 R05  1 R06 -4 R07  5 R09 -2 R10 -7 R15  0 R16 -1 GLONASS SLOT / FRQ #
    R17  4 R18 -3 R19  3 R20  2                             GLONASS SLOT / FRQ #
 C1C   71.950 C2C   71.950 C2P   71.950                     GLONASS COD/PHS/BIS
    18                                                      LEAP SECONDS
*** Above antenna height is from mark to ANTENNA BOTTOM.    COMMENT
    17     4        0.0000        ANT MEASURE TYPE/HEIGT    COMMENT
    0.0000    0.0000    0.0458    0.0405    0.0000          COMMENT
                    BASE STATION                            COMMENT
                                                            END OF HEADER
> 2020 05 13 05 00  0.0000000  0 15        .000000000000
G05  23684694.461 5 124463896.273 5     -3567.215          34.000    23684698.344 5  96984877.060 5     -2779.651          34.000
G13  20173522.578 8 106012581.444 8      -360.508          51.000    20173520.477 8  82607202.499 8      -280.915          49.000
G17  23880780.867 5 125494351.005 5      2588.168          31.000
G28  21195343.734 6 111382310.189 6     -1370.426          38.000    21195342.508 6  86791440.122 6     -1067.867          38.000
R06  20931096.094 7 111692326.707 7     -3586.828          47.000
R07  19298732.883 8 103307642.549 8       220.016          51.000    19298734.555 8  80350381.709 8       171.123          48.000
R09  19475536.812 8 103998365.158 8       940.594          51.000    19475537.844 8  80887543.501 8       731.573          49.000
R10  21772730.023 8 116060916.550 8      3123.828          49.000
C05  39788120.578 6 207187184.213 6        19.602          36.000    39788118.266 6 160210250.595 6        15.045          39.000
C19  24117741.586 7 125587420.484 7     -3188.184          44.000
C22  22398147.344 8 116633009.674 8      -736.824          51.000
E09  22295467.281 8 117163452.869 8     -1757.934          51.000    22295470.805 8  89774619.648 8     -1346.988          51.000
E24  21918194.289 8 115180882.120 8      1123.582          51.000    21918208.172 8  88255574.660 8       860.906          51.000
E25  27328555.547 6 143612545.631 6      2821.949          41.000    27328550.328 6 110040774.614 6      2162.114          37.000
E31  24337960.766 8 127896883.292 8     -1584.699          51.000    24337962.922 8  97998938.175 8     -1214.256          51.000
> 2020 05 13 05 00 30.0000000  0 15        .000000000000
G05  23705072.930 5 124570980.489 5     -3572.148          34.000    23705076.281 5  97068319.225 5     -2783.495          34.000
G13  20175622.953 8 106023618.317 8      -376.383          51.000    20175620.977 8  82615802.652 8      -293.285          50.000
G17  23866028.305 5 125416816.572 5      2579.250          32.000    23866021.891 5  97727373.136 5      2009.811          30.000
G28  21203212.211 6 111423661.824 6     -1387.223          38.000    21203211.117 6  86823662.164 6     -1080.953          37.000
R06  20951303.531 7 111800160.246 7     -3603.094          46.000
R07  19297572.539 8 103301430.069 8       193.102          51.000    19297574.156 8  80345549.770 8       150.190          49.000
R09  19470302.758 8 103970415.103 8       921.641          51.000    19470303.938 8  80865804.571 8       716.832          50.000
R10  21755182.523 8 115967375.734 8      3111.227          49.000
C05  39788008.727 6 207186601.373 6        18.395          36.000    39788006.352 6 160209799.907 6        14.124          39.000
C19  24136128.953 7 125683162.958 7     -3195.871          45.000
C22  22402440.188 8 116655364.790 8      -754.492          51.000
E09  22305532.312 8 117216341.886 8     -1769.098          51.000    22305535.523 8  89815144.977 8     -1355.506          51.000
E24  21911811.922 8 115147342.800 8      1111.273          51.000    21911826.125 8  88229875.713 8       851.471          51.000
E25  27312456.164 6 143527945.523 6      2816.809          40.000    27312450.688 6 109975951.186 6      2158.415          37.000
E31  24347031.461 8 127944550.716 8     -1594.219          51.000    24347033.930 8  98035462.556 8     -1221.529          51.000
> 2020 05 13 05 01  0.0000000  0 16        .000000000000
G05  23725475.000 5 124678189.212 5     -3576.242          35.000    23725477.789 5  97151858.347 5     -2786.682          34.000
G13  20177811.234 8 106035117.222 8      -391.258          51.000    20177809.242 8  82624762.834 8      -304.876          50.000
G17  23851320.328 5 125339525.246 5      2572.012          33.000    23851313.195 5  97667146.116 5      2004.168          32.000
G28  21211172.688 6 111465496.277 6     -1402.863          36.000    21211171.680 5  86856260.456 5     -1093.140          35.000
G30  23036592.516 5 121058109.813 5     -2723.691          31.000
R06  20971599.750 7 111908465.464 7     -3618.441          45.000
R07  19296559.875 8 103296008.109 8       167.312          51.000    19296561.328 8  80341332.682 8       130.132          49.000
R09  19465171.867 8 103943016.256 8       903.816          50.000    19465172.945 8  80844494.350 8       702.968          49.000
R10  21737702.180 8 115874194.280 8      3099.832          48.000
C05  39787899.523 6 207186033.072 6        18.633          36.000    39787897.211 6 160209360.455 6        14.372          38.000
C19  24154555.875 7 125779113.874 7     -3202.023          44.000
C22  22406831.586 8 116678232.462 8      -771.020          51.000
E09  22315657.344 8 117269547.275 8     -1779.125          51.000    22315659.891 8  89855912.712 8     -1363.214          51.000
E24  21905496.219 8 115114152.946 8      1100.258          51.000    21905510.367 8  88204444.533 8       843.061          51.000
E25  27296383.734 6 143443488.697 6      2812.488          40.000    27296378.898 6 109911237.552 6      2154.826          37.000
E31  24356152.945 8 127992485.168 8     -1602.594          51.000    24356155.617 8  98072191.550 8     -1227.976          51.000
> 2020 05 13 05 01 30.0000000  0 17        .000000000000
G05  23745896.016 5 124785495.781 5     -3579.715          34.000    23745897.938 5  97235473.772 5     -2789.385          34.000
G13  20180082.984 8 106047055.049 8      -406.543          51.000    20180080.672 8  82634065.028 8      -316.787          50.000
G15  20588240.164 5 108191930.994 5      1261.785          35.000    20588238.414 5  84305381.528 5       983.218          35.000
G17  23836652.430 5 125262450.711 5      2563.500          33.000    23836646.523 5  97607071.740 5      1997.532          33.000
G28  21219220.516 6 111507789.079 6     -1419.145          40.000    21219220.109 6  86889215.869 6     -1105.827          38.000
G30  23052144.836 4 121139838.124 4     -2726.789          29.000    23052149.680 4  94394698.588 4     -2124.771          29.000
R06  20991979.188 7 112017215.215 7     -3633.754          46.000
R07  19295690.328 8 103291353.702 8       140.938          51.000    19295691.828 8  80337712.581 8       109.618          49.000
R09  19460139.492 8 103916144.040 8       885.523          51.000    19460140.594 8  80823593.748 8       688.740          49.000
R10  21720284.070 7 115781350.112 7      3087.848          46.000
C05  39787788.742 6 207185456.098 6        17.816          36.000    39787786.305 6 160208914.288 6        13.765          39.000
C19  24173017.555 7 125875248.014 7     -3208.844          44.000
C22  22411316.617 8 116701589.025 8      -788.000          51.000
E09  22325837.664 8 117323045.019 8     -1789.473          51.000    22325838.836 8  89896904.456 8     -1371.220          49.000
E24  21899242.664 8 115081289.093 8      1088.559          51.000    21899256.344 8  88179263.136 8       834.114          51.000
E25  27280334.039 6 143359152.501 6      2807.883          40.000    27280330.586 6 109846616.314 6      2151.447          37.000
E31  24365320.570 8 128040661.794 8     -1611.273          51.000    24365323.305 8  98109106.092 8     -1234.651          51.000
> 2020 05 13 05 02  0.0000000  0 16        .000000000000
G05  23766335.289 5 124892899.266 5     -3581.941          33.000    23766336.141 5  97319164.771 5     -2791.129          33.000
G13  20182438.734 8 106059434.558 8      -420.820          51.000    20182436.328 8  82643711.393 8      -327.912          50.000
G15  20581072.141 5 108154262.815 5      1246.625          31.000    20581070.281 5  84276029.748 5       971.399          30.000
G17  23822031.219 5 125185623.134 5      2556.410          32.000    23822026.383 5  97547195.998 5      1992.014          34.000
G28  21227355.750 6 111550540.381 6     -1433.383          41.000    21227355.250 5  86922528.528 5     -1116.925          35.000
R06  21012441.703 7 112126408.482 7     -3647.699          44.000
R07  19294964.852 8 103287470.428 8       115.816          51.000    19294966.297 8  80334692.259 8        90.079          48.000
R09  19455206.273 8 103889800.247 8       868.668          51.000    19455207.195 8  80803104.145 8       675.631          48.000
R10  21702930.219 8 115688846.619 8      3077.012          48.000
C05  39787676.844 6 207184873.492 6        18.922          36.000    39787674.258 6 160208463.012 6        14.668          39.000
C19  24191514.750 7 125971565.458 7     -3214.277          44.000
C22  22415895.859 8 116725436.113 8      -803.824          51.000
E09  22336073.633 8 117376836.804 8     -1798.719          51.000    22336073.352 8  89938121.487 8     -1378.149          49.000
E24  21893051.328 8 115048753.264 8      1078.348          51.000    21893064.523 8  88154333.097 8       826.287          51.000
E25  27264307.695 6 143274939.901 6      2804.199          40.000    27264306.188 6 109782089.796 6      2148.825          38.000
E31  24374534.461 8 128089081.324 8     -1618.738          51.000    24374537.203 8  98146206.763 8     -1240.332          51.000
> 2020 05 13 05 02 30.0000000  0 16        .000000000000
G05  23786797.867 5 125000419.968 5     -3584.926          34.000    23786796.375 5  97402946.986 5     -2793.455          32.000
G13  20184883.016 8 106072279.188 8      -434.957          51.000    20184880.656 8  82653720.188 8      -338.928          51.000
G15  20573996.359 5 108117080.232 5      1232.125          34.000    20573994.578 5  84247055.523 5       960.091          35.000
G17  23807453.109 6 125109022.325 6      2549.336          36.000    23807453.367 5  97487541.946 5      1986.483          34.000
G28  21235582.641 6 111593771.079 6     -1447.613          38.000    21235581.570 6  86956214.808 6     -1128.007          38.000
R06  21032990.352 7 112236065.060 7     -3661.703          42.000
R07  19294388.008 8 103284382.491 8        90.641          51.000    19294389.258 8  80332290.516 8        70.498          48.000
R09  19450376.031 8 103864007.552 8       851.633          50.000    19450377.117 8  80783043.173 8       662.381          48.000
R10  21685645.703 8 115596708.319 8      3066.133          49.000
C05  39787567.844 6 207184305.970 6        19.609          36.000    39787565.273 6 160208024.165 6        15.076          39.000
C19  24210051.117 7 126068086.905 7     -3219.750          43.000
C22  22420573.805 8 116749795.926 8      -819.559          51.000
E09  22346369.977 8 117430944.985 8     -1807.984          51.000    22346369.258 8  89979580.968 8     -1385.249          50.000
E24  21886926.664 8 115016568.387 8      1067.926          51.000    21886939.484 8  88129671.963 8       818.272          51.000
E25  27248309.570 6 143190874.667 6      2800.668          40.000    27248310.328 6 109717676.195 6      2145.889          38.000
E31  24383798.750 8 128137765.248 8     -1626.227          51.000    24383801.422 8  98183510.025 8     -1246.058          51.000
> 2020 05 13 05 03  0.0000000  0 16        .000000000000
G05  23807276.797 6 125108028.861 6     -3588.082          36.000    23807272.266 5  97486798.048 5     -2795.911          31.000
G13  20187410.875 8 106085563.251 8      -450.180          51.000    20187408.523 8  82664071.394 8      -350.789          51.000
G15  20567008.523 6 108080356.197 6      1216.355          37.000    20567006.766 6  84218439.358 6       947.806          37.000
G17  23792919.742 5 125032666.177 5      2541.562          34.000    23792924.969 5  97428043.605 5      1980.438          32.000
G28  21243895.414 7 111637453.220 7     -1463.570          42.000    21243894.125 6  86990252.844 6     -1140.447          37.000
R06  21053620.141 6 112346155.523 6     -3676.648          41.000
R07  19293954.781 8 103282063.967 8        64.441          51.000    19293956.078 8  80330487.195 8        50.121          48.000
R09  19445643.641 8 103838738.850 8       833.574          49.000    19445645.461 8  80763389.732 8       648.336          48.000
R10  21668424.734 8 115504908.996 8      3054.258          48.000
C05  39787457.141 6 207183728.566 6        19.254          36.000    39787454.383 6 160207577.650 6        15.118          39.000
C19  24228621.258 7 126164784.385 7     -3226.215          44.000
C22  22425345.484 8 116774642.020 8      -836.297          51.000
E09  22356721.727 8 117485342.864 8     -1818.078          51.000    22356720.805 8  90021262.453 8     -1393.103          51.000
E24  21880863.859 8 114984708.187 8      1056.637          51.000    21880876.453 8  88105259.588 8       809.634          51.000
E25  27232334.945 6 143106931.442 6      2796.180          38.000    27232337.844 6 109653356.020 6      2142.482          37.000
E31  24393108.156 8 128186685.989 8     -1634.559          51.000    24393110.742 8  98220994.740 8     -1252.484          51.000
> 2020 05 13 05 03 30.0000000  0 16        .000000000000
G05  23827773.977 6 125215735.635 6     -3591.727          37.000    23827765.859 5  97570725.440 5     -2798.751          35.000
G13  20190024.805 8 106099299.862 8      -465.285          51.000    20190022.523 8  82674775.237 8      -362.560          51.000
G15  20560110.891 6 108044105.856 6      1200.535          37.000    20560109.492 6  84190192.371 6       935.482          37.000
G17  23778433.938 5 124956517.016 5      2532.605          33.000    23778443.695 5  97368736.931 5      1973.456          33.000
G28  21252296.125 6 111681597.414 6     -1479.062          38.000    21252294.172 6  87024650.871 6     -1152.513          36.000
R06  21074334.891 7 112456689.803 7     -3691.695          46.000
R07  19293668.078 8 103280529.053 8        38.215          51.000    19293668.914 7  80329293.375 7        29.723          47.000
R09  19441011.891 8 103814006.260 8       815.707          50.000    19441013.648 7  80744153.273 7       634.439          47.000
R10  21651269.750 8 115413463.508 8      3042.414          48.000
C05  39787346.719 6 207183154.712 6        19.508          36.000    39787344.039 6 160207133.143 6        15.127          38.000
C19  24247227.648 7 126261668.302 7     -3232.387          45.000
C22  22430213.023 8 116799986.404 8      -852.988          51.000
E09  22367131.141 8 117540042.502 8     -1828.211          51.000    22367130.008 8  90063175.147 8     -1400.840          51.000
E24  21874865.055 8 114953185.174 8      1045.312          51.000    21874877.773 8  88081105.593 8       800.903          51.000
E25  27216386.828 6 143023123.641 6      2791.449          37.000    27216390.867 6 109589139.653 6      2138.762          36.000
E31  24402464.688 8 128235854.734 8     -1642.914          51.000    24402467.297 8  98258669.478 8     -1258.880          51.000
> 2020 05 13 05 04  0.0000000  0 16        .000000000000
G05  23848287.836 6 125323533.014 6     -3594.277          37.000    23848278.492 6  97654723.375 6     -2800.736          36.000
G13  20192724.195 8 106113485.459 8      -480.055          51.000    20192721.891 8  82685828.940 8      -374.069          51.000
G15  20553301.922 5 108008326.852 5      1184.961          33.000    20553301.742 5  84162312.634 5       923.346          33.000
G17  23763995.922 5 124880641.814 5      2525.156          33.000    23764008.188 5  97309621.229 5      1967.660          31.000
G28  21260783.367 6 111726197.252 6     -1494.168          40.000    21260781.695 6  87059404.034 6     -1164.284          38.000
R06  21095131.695 8 112567659.740 8     -3705.859          48.000
R07  19293526.898 8 103279774.240 8        12.453          51.000    19293527.812 8  80328706.280 8         9.686          48.000
R09  19436480.125 8 103789805.106 8       798.102          49.000    19436481.406 8  80725330.153 8       620.746          48.000
R10  21634180.047 7 115322368.340 7      3030.898          47.000
C05  39787236.078 6 207182578.445 6        19.379          37.000    39787233.414 6 160206687.521 6        15.230          39.000
C19  24265868.984 7 126358732.650 7     -3238.117          44.000
C22  22435175.703 8 116825824.535 8      -869.156          51.000
E09  22377597.234 8 117595039.315 8     -1837.914          51.000    22377595.867 8  90105315.556 8     -1408.239          51.000
E24  21868929.555 8 114921995.222 8      1034.457          51.000    21868942.422 8  88057206.811 8       792.621          51.000
E25  27200464.672 6 142939448.032 6      2787.484          37.000    27200469.023 5 109525024.527 5      2135.577          35.000
E31  24411867.352 8 128285266.039 8     -1650.766          51.000    24411869.969 8  98296530.086 8     -1264.872          51.000
> 2020 05 13 05 04 30.0000000  0 16        .000000000000
G05  23868814.008 6 125431396.512 6     -3597.684          36.000    23868805.180 5  97738772.892 5     -2803.390          34.000
G13  20195504.859 8 106128098.219 8      -495.176          51.000    20195502.391 8  82697215.510 8      -385.851          51.000
G15  20546578.531 6 107972998.639 6      1168.871          36.000    20546579.297 6  84134784.170 6       910.809          36.000
G17  23749607.016 5 124805027.103 5      2516.680          31.000
G28  21269353.125 7 111771229.673 7     -1509.305          42.000    21269351.398 6  87094494.180 6     -1176.085          37.000
R06  21116005.250 7 112679040.536 7     -3720.469          47.000
R07  19293527.594 8 103279778.470 8       -13.734          51.000    19293528.711 8  80328709.553 8       -10.682          48.000
R09  19432043.312 8 103766112.537 8       780.312          49.000    19432044.695 8  80706902.618 8       606.910          48.000
R10  21617151.938 7 115231602.485 7      3019.062          45.000
C05  39787120.906 6 207181978.926 6        19.555          36.000    39787118.281 6 160206223.963 6        14.810          39.000
C19  24284540.211 7 126455953.635 7     -3243.980          43.000
C22  22440229.188 8 116852134.084 8      -885.707          51.000
E09  22388115.430 8 117650310.808 8     -1847.879          51.000    22388113.734 8  90147666.432 8     -1415.880          51.000
E24  21863053.430 8 114891116.303 8      1023.199          51.000    21863066.305 8  88033546.340 8       784.016          51.000
E25  27184564.672 6 142855883.448 6      2782.711          38.000    27184567.391 5 109460994.501 5      2132.153          33.000
E31  24421311.773 8 128334896.554 8     -1658.934          51.000    24421314.227 8  98334558.651 8     -1271.119          51.000
> 2020 05 13 05 05  0.0000000  0 16        .000000000000
G13  20198378.828 8 106143201.509 8      -514.883          51.000    20198376.305 8  82708984.306 8      -401.207          50.000
G15  20539950.828 5 107938185.720 5      1147.715          35.000    20539953.594 5  84107667.239 5       894.326          35.000
G24  23006418.070 5 120899541.692 5      2862.797          34.000
G28  21278016.398 6 111816755.644 6     -1529.086          41.000    21278014.383 5  87129968.950 5     -1191.496          34.000
G30  23161664.523 5 121715348.709 5     -2758.203          35.000    23161661.711 5  94843159.229 5     -2149.246          35.000
R06  21136966.312 7 112790892.250 7     -3739.406          45.000
R07  19293682.102 8 103280606.414 8       -44.602          51.000    19293683.477 8  80329353.506 8       -34.693          48.000
R09  19427713.805 8 103742991.745 8       757.859          50.000    19427714.922 7  80688919.767 7       589.446          47.000
R10  21600198.109 7 115141230.701 7      3002.516          46.000
C05                                                                  39787010.641 6 160205790.682 6        11.321          39.000
C19  24303253.633 6 126553391.678 6     -3254.633          41.000
C22  22445384.625 8 116878976.970 8      -906.824          51.000
E09  22398697.578 8 117705919.403 8     -1862.457          51.000    22398695.609 8  90190275.610 8     -1427.116          51.000
E24  21857248.281 8 114860611.333 8      1007.371          51.000    21857261.641 8  88010172.400 8       771.867          51.000
E25  27168698.109 6 142772493.728 6      2773.625          37.000    27168697.555 5 109397091.441 5      2125.526          31.000
E31  24430809.578 8 128384807.847 8     -1671.586          51.000    24430811.836 8  98372802.350 8     -1280.838          51.000
> 2020 05 13 05 05 30.0000000  0 14        .000000000000
G13  20201336.727 8 106158745.588 8      -525.133          51.000    20201334.148 8  82721096.583 8      -409.194          50.000
G15  20533413.703 5 107903833.756 5      1137.590          35.000    20533416.234 5  84080906.303 5       886.425          33.000
G28  21286763.445 7 111862722.552 7     -1538.996          42.000    21286761.594 5  87165787.333 5     -1199.218          35.000
R06  21158004.680 7 112903161.206 7     -3748.809          44.000
R07  19293981.242 8 103282207.395 8       -65.855          51.000    19293982.414 8  80330598.724 8       -51.221          48.000
R09  19423481.547 8 103720390.759 8       745.105          49.000    19423482.477 7  80671341.241 7       579.526          46.000
R10  21583309.133 7 115051203.041 7      2995.555          46.000
C05  39786903.586 6 207180847.338 6        19.504          36.000    39786900.914 6 160205348.890 6        15.311          38.000
C19  24321999.289 6 126650994.553 6     -3255.531          37.000
C22  22450632.148 8 116906302.407 8      -918.465          51.000
E09  22409334.023 8 117761813.895 8     -1867.441          51.000    22409332.062 8  90233103.837 8     -1430.939          51.000
E24  21851504.266 8 114830429.598 8      1001.152          50.000    21851518.258 8  87987046.132 8       767.123          51.000
E25  27152855.695 6 142689228.999 6      2773.930          38.000
E31  24440350.867 8 128434947.890 8     -1674.629          51.000    24440353.180 8  98411221.330 8     -1283.190          51.000
> 2020 05 13 05 06  0.0000000  0 14        .000000000000
G13  20204371.844 8 106174695.350 8      -540.371          51.000    20204369.219 8  82733524.967 8      -421.068          50.000
G17  23706728.914 6 124579708.533 6      2491.023          37.000    23706727.273 6  97075076.065 6      1941.063          37.000
G28  21295587.523 7 111909093.332 7     -1554.418          42.000    21295585.680 5  87201920.382 5     -1211.238          35.000
R06  21179113.852 7 113015807.812 7     -3763.180          44.000
R07  19294418.219 8 103284546.335 8       -92.242          51.000    19294419.477 8  80332417.891 8       -71.744          48.000
R09  19419339.773 8 103698273.041 8       727.191          48.000    19419340.109 7  80654138.582 7       565.593          45.000
R10  21566478.047 7 114961484.777 7      2983.570          45.000
C05  39786785.086 6 207180230.216 6        19.602          36.000    39786782.484 6 160204871.714 6        14.909          38.000
C19  24340769.484 5 126748725.458 5     -3261.523          32.000
C22  22455965.281 8 116934074.963 8      -935.160          51.000
E09  22420017.961 8 117817958.625 8     -1877.590          51.000    22420016.469 8  90276123.784 8     -1438.703          51.000
E24  21845815.086 8 114800535.844 8       989.719          50.000    21845829.219 8  87964140.536 8       758.359          51.000
E25  27137029.547 6 142606054.969 6      2769.043          37.000
E31  24449928.758 8 128485280.179 8     -1682.875          51.000    24449931.344 8  98449787.609 8     -1289.470          51.000
> 2020 05 13 05 06 30.0000000  0 15        .000000000000
G13  20207499.547 8 106191131.751 8      -555.395          51.000    20207496.875 8  82746332.532 8      -432.775          50.000
G15  20520605.672 5 107836518.086 5      1105.258          30.000
G17  23692533.008 5 124505112.196 5      2482.336          35.000    23692530.969 5  97016949.003 5      1934.285          35.000
G28  21304503.344 6 111955946.594 6     -1569.020          40.000    21304501.508 6  87238429.451 6     -1222.610          37.000
R06  21200308.953 7 113128910.616 7     -3777.012          46.000
R07  19295008.883 8 103287706.334 8      -118.379          51.000    19295009.859 8  80334875.664 8       -92.072          48.000
R09  19415303.359 7 103676720.333 7       709.629          47.000    19415304.180 7  80637375.374 7       551.937          45.000
R10  21549720.375 7 114872158.830 7      2971.637          45.000
C05  39786673.156 6 207179647.430 6        19.609          36.000    39786670.586 6 160204421.047 6        15.175          38.000
C19  24359578.781 5 126846662.345 5     -3267.652          33.000
C22  22461399.508 8 116962374.168 8      -951.465          51.000
E09  22430764.773 8 117874433.796 8     -1887.277          51.000    22430763.852 8  90319396.911 8     -1446.072          50.000
E24  21840196.492 8 114771010.781 8       978.754          51.000    21840210.211 8  87941517.446 8       749.957          51.000
E25  27121236.266 6 142523053.347 6      2764.711          39.000
E31  24459558.414 8 128535884.115 8     -1690.648          51.000    24459560.961 8  98488562.034 8     -1295.351          51.000
> 2020 05 13 05 07  0.0000000  0 15        .000000000000
G13  20210712.219 8 106208014.312 8      -570.602          51.000    20210709.305 8  82759487.761 8      -444.625          50.000
G17  23678385.352 6 124430772.556 6      2473.199          38.000    23678383.492 6  96959021.970 6      1927.168          38.000
G28  21313502.672 7 112003239.263 7     -1584.246          43.000    21313501.023 6  87275280.913 6     -1234.481          36.000
G30  23224685.008 5 122046543.450 5     -2768.207          31.000
R06  21221581.539 7 113242424.539 7     -3791.121          46.000
R07  19295744.812 8 103291645.847 8      -144.777          50.000    19295745.664 8  80337939.726 8      -112.605          48.000
R09  19411364.711 8 103655689.427 8       691.895          49.000    19411366.133 7  80621017.987 7       538.140          45.000
R10  21533029.078 7 114783184.229 7      2959.645          46.000
C05  39786559.883 6 207179056.691 6        19.734          36.000    39786557.352 6 160203965.015 6        14.985          39.000
C19  24378416.281 5 126944761.911 5     -3272.570          33.000
C22  22466927.070 8 116991158.176 8      -967.918          51.000
E09  22441566.484 8 117931197.244 8     -1897.203          51.000    22441565.844 8  90362890.925 8     -1453.731          50.000
E24  21834640.586 8 114741812.703 8       967.461          51.000    21834653.648 8  87919144.885 8       741.373          51.000
E25  27105467.633 6 142440183.331 6      2759.895          40.000
E31  24469231.617 8 128586716.697 8     -1698.539          51.000    24469233.734 8  98527511.663 8     -1301.469          51.000
> 2020 05 13 05 07 30.0000000  0 15        .000000000000
G13  20214011.438 8 106225350.874 8      -585.863          51.000    20214008.289 8  82772996.764 8      -456.520          49.000
G15  20508165.656 5 107771126.157 5      1073.211          33.000    20508169.188 5  83977511.004 5       836.262          34.000
G17  23664289.703 5 124356700.183 5      2463.965          35.000    23664287.766 5  96901303.294 5      1919.976          35.000
G28  21322586.609 7 112050976.626 7     -1598.859          42.000    21322584.852 5  87312478.873 5     -1245.864          35.000
R06  21242932.172 7 113356353.939 7     -3804.785          47.000
R07  19296627.836 8 103296373.067 8      -171.090          50.000    19296628.523 7  80341616.453 7      -133.070          47.000
R09  19407525.594 8 103635187.483 8       674.156          48.000    19407526.930 7  80605072.010 7       524.344          44.000
R10  21516405.445 7 114694569.618 7      2947.430          45.000
C05  39786446.703 6 207178467.433 6        19.375          36.000    39786444.242 6 160203509.344 6        15.048          38.000
C19  24397286.133 6 127043029.546 6     -3278.430          37.000
C22  22472549.117 8 117020433.797 8      -984.418          51.000
E09  22452424.289 8 117988255.875 8     -1907.223          51.000    22452424.344 8  90406611.128 8     -1461.405          51.000
E24  21829148.445 8 114712948.977 8       956.184          51.000    21829161.234 8  87897028.525 8       732.675          51.000
E25  27089724.961 6 142357453.154 6      2755.129          39.000    27089737.211 6 109079142.869 6      2111.204          37.000
E31  24478949.461 8 128637784.048 8     -1706.477          51.000    24478951.297 8  98566641.171 8     -1307.548          51.000
> 2020 05 13 05 08  0.0000000  0 15        .000000000000
G13  20217394.148 8 106243126.475 8      -600.594          51.000    20217390.898 8  82786847.872 8      -467.995          49.000
G15  20502081.742 5 107739154.695 5      1057.176          34.000    20502085.500 5  83952598.193 5       823.773          34.000
G17  23650243.180 6 124282883.225 6      2455.867          38.000    23650238.680 6  96843783.473 6      1913.654          36.000
G28  21331752.125 7 112099142.141 7     -1613.391          42.000    21331750.195 5  87350010.447 5     -1257.188          35.000
R06  21264357.547 7 113470680.127 7     -3818.188          47.000
R07  19297655.078 8 103301873.794 8      -196.961          49.000    19297655.914 8  80345894.798 8      -153.192          48.000
R09  19403782.539 8 103615198.426 8       657.000          48.000    19403783.047 7  80589525.025 7       511.000          43.000
R10  21499846.680 7 114606301.283 7      2935.648          45.000
C05  39786331.016 6 207177864.082 6        19.352          36.000    39786328.273 6 160203042.756 6        15.157          38.000
C19  24416184.922 6 127141448.626 6     -3283.621          38.000
C22  22478262.633 8 117050185.717 8     -1000.387          51.000
E09  22463335.102 8 118045594.324 8     -1916.781          51.000    22463336.211 8  90450545.758 8     -1468.706          51.000
E24  21823717.078 8 114684404.682 8       945.352          51.000    21823729.945 8  87875156.942 8       724.324          51.000
E25  27074005.586 6 142274848.989 6      2750.340          37.000    27074012.641 6 109015848.751 6      2107.346          38.000
E31  24488708.852 8 128689070.010 8     -1713.984          51.000    24488710.922 8  98605938.195 8     -1313.343          51.000
> 2020 05 13 05 08 30.0000000  0 15        .000000000000
G13  20220866.531 8 106261373.701 8      -616.098          51.000    20220863.297 8  82801066.467 8      -480.079          49.000
G15  20496094.406 5 107707686.706 5      1040.301          35.000    20496097.203 5  83928077.681 5       810.624          34.000
G17  23636251.273 6 124209356.463 6      2446.586          37.000    23636245.008 5  96786489.898 5      1906.437          34.000
G28  21341004.906 7 112147765.653 7     -1628.336          42.000    21341003.000 5  87387898.943 5     -1268.830          34.000
R06  21285862.594 7 113585432.161 7     -3832.148          47.000
R07  19298832.875 8 103308180.651 8      -223.711          50.000    19298834.070 7  80350800.127 7      -173.997          47.000
R09  19400141.484 8 103595753.976 8       639.070          48.000    19400140.898 7  80574401.556 7       497.055          43.000
R10  21483358.938 8 114518411.798 8      2923.297          48.000
C05  39786218.531 6 207177278.952 6        19.266          36.000    39786215.727 6 160202589.560 6        14.656          38.000
C19  24435117.836 6 127240048.567 6     -3289.441          39.000
C22  22484073.375 8 117080444.687 8     -1017.129          51.000
E09  22474304.914 8 118103243.703 8     -1926.844          51.000    22474307.047 8  90494718.661 8     -1476.371          51.000
E24  21818352.625 8 114656211.445 8       933.957          51.000    21818365.477 8  87853554.332 8       715.653          51.000
E25  27058315.805 5 142192403.146 5      2745.773          35.000    27058319.891 6 108952675.987 6      2103.877          40.000
E31  24498515.594 8 128740604.886 8     -1721.945          51.000    24498518.055 8  98645425.950 8     -1319.401          51.000
> 2020 05 13 05 09  0.0000000  0 15        .000000000000
G13  20224425.672 8 106280077.031 8      -630.547          51.000    20224422.672 8  82815640.463 8      -491.335          49.000
G15  20490199.586 5 107676708.183 5      1025.246          32.000    20490201.328 5  83903938.561 5       798.893          33.000
G17  23622311.703 6 124136107.247 6      2437.234          36.000    23622305.383 5  96729392.754 5      1899.153          31.000
G28  21350341.648 7 112196829.976 7     -1642.332          42.000    21350339.602 6  87426130.860 6     -1279.742          37.000
R06  21307443.977 7 113700591.493 7     -3844.715          47.000
R07  19300159.078 8 103315278.566 8      -249.211          51.000    19300159.938 7  80356320.744 7      -193.831          47.000
R09  19396598.898 7 103576837.704 7       622.230          47.000    19396598.570 7  80559688.923 7       483.960          44.000
R10  21466940.438 7 114430886.754 7      2912.020          47.000
C05  39786106.453 6 207176694.833 6        19.812          36.000    39786103.570 6 160202137.839 6        15.598          38.000
C19  24454083.289 6 127338812.001 6     -3293.777          41.000
C22  22489978.445 8 117111194.710 8     -1032.559          51.000
E09  22485330.969 8 118161187.959 8     -1935.770          51.000    22485333.680 8  90539117.544 8     -1483.276          51.000
E24  21813051.945 8 114628353.660 8       923.613          51.000    21813064.766 8  87832208.752 8       707.731          51.000
E25  27042652.602 5 142110099.229 5      2741.637          34.000    27042656.328 6 108889613.493 6      2100.606          40.000
E31  24508366.508 8 128792371.889 8     -1728.809          51.000    24508369.117 8  98685091.564 8     -1324.669          51.000
> 2020 05 13 05 09 30.0000000  0 15        .000000000000
G13  20228071.117 8 106299233.814 8      -645.270          51.000    20228068.344 8  82830567.816 8      -502.807          50.000
G15  20484396.695 5 107646232.256 5      1009.309          32.000    20484398.805 5  83880179.353 5       786.477          32.000
G19  24800684.602 7 130328476.002 7      3441.180          47.000    24800679.469 6 101554635.533 6      2681.442          40.000
G28  21359761.477 6 112246329.567 6     -1655.938          39.000    21359759.500 6  87464701.986 6     -1290.341          37.000
R06  21329100.031 7 113816150.771 7     -3857.754          46.000
R07  19301632.727 8 103323164.874 8      -275.012          51.000    19301633.375 8  80362454.518 8      -213.898          48.000
R09  19393154.438 7 103558445.442 7       605.297          46.000    19393154.586 7  80545383.823 7       470.786          43.000
R10  21450589.531 7 114343723.711 7      2900.359          44.000
C05  39785994.062 6 207176110.529 6        20.266          36.000    39785991.133 6 160201685.216 6        15.994          38.000
C19  24473080.359 7 127437733.742 7     -3299.043          43.000
C22  22495977.453 8 117142431.933 8     -1048.461          51.000
E09  22496412.938 8 118219423.331 8     -1945.133          51.000    22496415.500 8  90583739.481 8     -1490.373          51.000
E24  21807814.141 8 114600827.990 8       912.914          51.000    21807827.039 8  87811117.658 8       699.497          51.000
E25  27027015.898 5 142027931.721 5      2737.242          35.000    27027020.695 6 108826659.321 6      2097.352          39.000
E31  24518260.711 8 128844366.418 8     -1736.000          51.000    24518263.367 8  98724931.509 8     -1330.146          51.000
> 2020 05 13 05 10  0.0000000  0 17        .000000000000
G13  20231798.469 8 106318821.233 8      -660.527          51.000    20231795.945 8  82845830.732 8      -514.697          49.000
G15  20478682.828 5 107616203.834 5       992.605          34.000    20478685.102 5  83856790.850 5       773.465          35.000
G19  24781042.117 8 130225254.774 8      3440.375          48.000    24781037.906 6 101474203.427 6      2680.812          38.000
G24  22844318.953 5 120047711.768 5      2811.484          35.000
G28  21369258.953 6 112296239.254 6     -1671.027          39.000    21369257.586 6  87503592.681 6     -1302.099          37.000
R06  21350825.797 7 113932084.011 7     -3871.035          43.000
R07  19303249.148 8 103331816.661 8      -301.629          51.000    19303249.672 7  80369183.680 7      -234.603          47.000
R09  19389803.266 7 103540553.130 7       587.652          46.000    19389804.016 7  80531467.586 7       457.063          42.000
R10  21434300.680 7 114256901.221 7      2888.188          44.000
C05  39785877.000 6 207175501.188 6        20.785          36.000    39785874.141 6 160201214.057 6        15.912          38.000
C19  24492103.219 7 127536788.929 7     -3304.504          44.000
C22  22502065.781 8 117174132.824 8     -1064.812          51.000
E05  23738767.344 6 124748060.343 6       729.664          41.000    23738768.570 6  95586185.188 6       558.974          38.000
E09  22507546.055 8 118277926.158 8     -1954.863          51.000    22507548.219 8  90628566.340 8     -1497.876          51.000
E24  21802634.836 8 114573611.229 8       901.746          51.000    21802647.734 8  87790263.256 8       690.966          51.000
E25  27011401.539 5 141945873.339 5      2732.500          34.000    27011408.891 6 108763796.424 6      2093.674          38.000
E31  24528193.609 8 128896564.018 8     -1743.594          51.000    24528196.398 8  98764927.063 8     -1335.973          51.000
> 2020 05 13 05 10 30.0000000  0 17        .000000000000
G13  20235616.016 8 106338883.147 8      -674.277          51.000    20235614.016 8  82861463.384 8      -525.411          50.000
G15  20473066.234 5 107586689.130 5       977.551          33.000    20473068.523 5  83833792.465 5       761.728          34.000
G19  24761407.039 8 130122071.621 8      3441.102          48.000    24761404.328 7 101393801.010 7      2681.381          42.000
G28  21378842.477 6 112346600.630 6     -1683.547          37.000    21378841.086 6  87542835.315 6     -1311.855          36.000
R06  21372628.188 6 114048431.393 6     -3882.770          37.000
R07  19305016.547 8 103341278.481 8      -326.484          51.000    19305017.141 7  80376542.879 7      -253.932          47.000
R09  19386554.133 7 103523204.107 7       571.711          46.000    19386554.422 7  80517973.910 7       444.664          42.000
R10  21418084.719 7 114170463.523 7      2877.328          45.000
R16  21511568.766 5 114910911.700 5     -3304.578          30.000
C05  39785763.633 6 207174910.982 6        21.523          36.000    39785760.914 6 160200757.649 6        16.752          38.000
C19  24511159.742 7 127636018.547 7     -3308.105          44.000
C22  22508251.461 8 117206339.714 8     -1079.641          51.000
E05  23734639.758 7 124726365.681 7       719.504          43.000    23734637.938 6  95569562.016 6       551.254          38.000
E09  22518738.055 8 118336739.316 8     -1963.211          51.000    22518739.844 8  90673630.949 8     -1504.255          51.000
E24  21797522.398 8 114546746.685 8       892.047          51.000    21797535.430 8  87769678.734 8       683.484          51.000
E25  26995818.867 6 141863995.408 6      2728.773          37.000    26995829.469 5 108701058.757 5      2091.001          35.000
E31  24538173.156 8 128949006.796 8     -1749.793          51.000    24538176.164 8  98805110.494 8     -1340.762          51.000
> 2020 05 13 05 11  0.0000000  0 16        .000000000000
G13  20239516.281 8 106359379.807 8      -690.934          51.000    20239514.836 8  82877434.804 8      -538.390          50.000
G15  20467539.641 5 107557645.596 5       959.930          31.000    20467541.211 5  83811159.920 5       747.997          30.000
G19  24741772.500 7 130018889.867 7      3438.922          47.000    24741770.867 7 101313399.707 7      2679.682          43.000
G28  21388503.852 6 112397371.639 6     -1699.426          37.000    21388502.594 6  87582397.193 6     -1324.225          36.000
R06  21394496.812 6 114165149.042 6     -3897.008          37.000
R07  19306927.336 8 103351509.792 8      -354.379          51.000    19306928.430 7  80384500.560 7      -275.631          47.000
R09  19383399.008 7 103506356.771 7       552.680          44.000    19383399.180 7  80504870.440 7       429.862          42.000
R10  21401934.062 7 114084370.900 7      2863.504          46.000
C05  39785646.305 6 207174299.950 6        20.266          36.000    39785643.547 6 160200285.128 6        15.891          38.000
C19  24530241.914 7 127735380.689 7     -3314.656          45.000
C22  22514526.438 8 117239011.988 8     -1097.305          51.000
E05  23730573.188 7 124704991.281 7       706.680          43.000    23730569.461 6  95553184.264 6       541.269          39.000
E09  22529981.078 8 118395821.908 8     -1974.355          51.000    22529982.539 8  90718902.012 8     -1512.842          51.000
E24  21792469.297 8 114520193.976 8       879.387          51.000    21792482.719 8  87749333.150 8       673.843          51.000
E25  26980260.352 5 141782241.326 5      2723.094          35.000    26980275.742 5 108638416.038 5      2085.835          32.000
E31  24548191.461 8 129001653.176 8     -1758.707          51.000    24548194.562 8  98845449.926 8     -1347.608          51.000
> 2020 05 13 05 11 30.0000000  0 17        .000000000000
G13  20243505.469 8 106380343.398 8      -707.582          51.000    20243504.500 8  82893770.070 8      -551.363          51.000
G15  20462109.398 5 107529108.808 5       941.578          35.000    20462110.234 5  83788923.404 5       733.700          35.000
G17  23553407.750 5 123773982.878 5      2389.008          34.000    23553409.922 5  96447267.182 5      1861.571          31.000
G19  24722145.062 8 129915745.214 8      3436.516          48.000    24722143.805 7 101233027.290 7      2677.804          42.000
G28  21398249.539 6 112448582.853 6     -1715.289          36.000    21398247.852 5  87622302.004 5     -1336.589          31.000
R06  21416445.320 7 114282266.572 7     -3911.527          43.000
R07  19308988.062 8 103362543.717 8      -382.109          51.000    19308989.789 7  80393082.467 7      -297.196          47.000
R09  19380343.703 7 103490042.879 7       533.980          44.000    19380344.359 7  80492181.842 7       415.321          42.000
R10  21385854.391 7 113998657.040 7      2849.930          45.000
C05  39785531.086 6 207173700.068 6        19.273          36.000    39785528.273 6 160199821.287 6        14.604          38.000
C19  24549355.414 7 127834905.275 7     -3321.055          44.000
C22  22520896.141 8 117272180.854 8     -1114.855          51.000
E05  23726573.188 7 124683970.449 7       693.871          42.000    23726570.094 6  95537077.375 6       531.775          39.000
E09  22541281.336 8 118455205.521 8     -1985.348          51.000    22541282.797 8  90764403.717 8     -1521.240          51.000
E24  21787481.758 8 114493985.146 8       867.023          51.000    21787495.297 8  87729251.070 8       664.367          51.000
E25  26964732.328 5 141700644.301 5      2716.348          35.000    26964754.945 4 108575892.569 4      2080.872          29.000
E31  24558254.391 8 129054533.990 8     -1767.457          51.000    24558257.344 8  98885968.977 8     -1354.252          51.000
> 2020 05 13 05 12  0.0000000  0 17        .000000000000
G13  20247581.594 8 106401763.338 8      -720.184          51.000    20247580.922 8  82910460.922 8      -561.182          51.000
G15  20456773.648 5 107501067.536 5       927.914          31.000    20456774.047 5  83767073.074 5       723.047          31.000
G17  23539791.781 6 123702430.877 6      2381.527          38.000    23539796.805 6  96391512.416 6      1855.733          37.000
G19  24702523.062 8 129812629.348 8      3438.109          48.000    24702521.812 6 101152677.269 6      2679.046          40.000
G28  21408076.633 5 112500200.608 5     -1726.609          33.000    21408073.867 5  87662539.363 5     -1345.404          34.000
R06  21438467.016 7 114399769.118 7     -3921.777          47.000
R07  19311197.234 8 103374369.601 8      -405.930          51.000    19311198.492 7  80402280.354 7      -315.723          46.000
R09  19377386.531 7 103474250.419 7       519.219          46.000    19377387.242 7  80479898.797 7       403.840          44.000
R10  21369843.828 7 113913311.542 7      2840.203          44.000
C05  39785415.977 6 207173100.437 6        21.207          36.000    39785413.180 6 160199357.555 6        16.610          38.000
C19  24568497.289 7 127934579.183 7     -3323.527          42.000
C22  22527358.422 8 117305834.447 8     -1128.422          51.000
E05  23722637.906 6 124663293.018 6       685.070          40.000    23722636.352 6  95521233.620 6       524.891          40.000
E09  22552636.625 8 118514878.334 8     -1992.465          51.000    22552638.195 8  90810127.034 8     -1526.655          51.000
E24  21782557.531 8 114468108.841 8       858.480          51.000    21782570.695 8  87709423.789 8       657.797          51.000
E25  26949234.258 5 141619174.791 5      2713.980          35.000    26949228.992 5 108513373.033 5      2079.681          34.000
E31  24568359.523 8 129107636.723 8     -1772.336          51.000    24568362.164 8  98926658.075 8     -1358.033          51.000
> 2020 05 13 05 12 30.0000000  0 17        .000000000000
G13  20251743.680 8 106423634.634 8      -737.363          51.000    20251742.859 8  82927503.486 8      -574.569          51.000
G15  20451530.406 5 107473517.895 5       908.957          31.000    20451531.406 5  83745605.851 5       708.278          32.000
G17  23526230.844 5 123631169.422 5      2369.773          32.000    23526237.438 5  96335984.049 5      1846.586          32.000
G19  24682905.844 7 129709540.021 7      3434.988          46.000    24682904.414 6 101072347.893 6      2676.614          39.000
G28  21417982.875 6 112552258.006 6     -1743.520          38.000    21417980.219 6  87703103.573 6     -1358.584          36.000
R06  21460559.219 8 114517648.564 8     -3936.379          48.000
R07  19313553.492 8 103386982.044 8      -434.371          51.000    19313554.891 7  80412089.995 7      -337.847          47.000
R09  19374525.672 7 103458973.230 7       499.953          45.000    19374526.516 7  80468016.581 7       388.852          43.000
R10  21353901.172 7 113828330.014 7      2826.082          43.000
C05  39785299.891 6 207172495.713 6        19.641          36.000    39785297.047 6 160198889.956 6        15.172          39.000
C19  24587666.094 6 128034395.259 6     -3330.121          39.000
C22  22533912.703 8 117339966.873 8     -1146.461          51.000
E05  23718766.438 7 124642954.825 7       671.355          42.000    23718766.367 6  95505649.788 6       514.583          40.000
E09  22564045.383 8 118574834.540 8     -2004.055          51.000    22564047.570 8  90856067.498 8     -1535.568          51.000
E24  21777695.648 8 114442559.736 8       845.375          51.000    21777708.586 8  87689847.215 8       647.773          51.000
E25  26933767.023 6 141537882.566 6      2707.059          36.000    26933760.453 6 108451071.972 6      2074.180          37.000
E31  24578505.562 8 129160954.811 8     -1781.605          51.000    24578507.930 8  98967512.176 8     -1365.120          51.000
> 2020 05 13 05 13  0.0000000  0 16        .000000000000
G13  20255985.609 8 106445925.635 8      -753.754          51.000    20255984.531 8  82944873.100 8      -587.341          51.000
G15  20446375.430 6 107446429.680 6       891.484          37.000    20446376.555 6  83724498.048 6       694.666          37.000
G19  24663287.664 7 129606448.660 7      3432.605          44.000    24663286.406 6 100992016.951 6      2674.758          39.000
G28  21427962.281 6 112604700.688 6     -1757.742          36.000    21427960.180 6  87743968.015 6     -1369.666          36.000
R06  21482714.781 7 114635867.863 7     -3949.977          47.000
R07  19316050.586 8 103400348.753 8      -461.922          51.000    19316051.805 7  80422486.301 7      -359.273          47.000
R09  19371755.258 7 103444177.916 7       481.465          46.000    19371756.055 7  80456509.111 7       374.473          45.000
R10  21338020.891 7 113743681.050 7      2812.246          44.000
C05  39785176.812 6 207171854.360 6        18.180          37.000    39785173.898 6 160198394.000 6        14.248          39.000
C19  24606855.055 6 128134319.673 6     -3336.188          37.000
C22  22540552.969 8 117374545.523 8     -1163.734          51.000
E05  23714954.055 7 124622924.731 7       658.898          42.000    23714955.281 7  95490302.048 7       504.852          42.000
E09  22575501.594 8 118635041.433 8     -2014.734          51.000    22575504.875 8  90902200.040 8     -1543.713          51.000
E24  21772889.930 8 114417305.585 8       833.312          51.000    21772903.062 8  87670496.638 8       638.545          51.000
E25  26918323.758 6 141456685.233 6      2700.863          37.000    26918312.211 6 108388855.910 6      2069.843          40.000
E31  24588686.258 8 129214454.811 8     -1789.980          51.000    24588688.508 8  99008505.675 8     -1371.523          51.000
> 2020 05 13 05 13 30.0000000  0 16        .000000000000
G13  20260324.805 8 106468727.550 8      -768.836          51.000    20260323.633 8  82962640.821 8      -599.093          51.000
G15  20441326.523 6 107419895.328 6       875.070          37.000    20441327.023 6  83703821.927 6       681.873          37.000
G19  24643686.258 7 129503449.687 7      3431.562          43.000    24643685.414 6 100911758.019 6      2673.945          39.000
G28  21438031.766 6 112657618.018 6     -1771.980          40.000    21438029.547 6  87785202.310 6     -1380.764          36.000
R06  21504950.297 7 114754517.028 7     -3962.312          46.000
R07  19318705.883 8 103414563.037 8      -488.180          50.000    19318707.180 7  80433541.849 7      -379.695          47.000
R09  19369092.453 7 103429956.406 7       464.270          45.000    19369093.508 7  80445447.924 7       361.099          45.000
R10  21322221.211 7 113659458.383 7      2800.004          44.000
C05  39785064.125 6 207171268.711 6        18.570          37.000    39785061.023 6 160197939.587 6        14.420          38.000
C19  24626081.234 5 128234440.877 5     -3340.812          34.000
C22  22547295.906 8 117409660.143 8     -1179.648          51.000
E05  23711218.062 7 124603295.057 7       647.613          43.000    23711221.195 7  95475261.111 7       496.109          43.000
E09  22587023.031 8 118695589.721 8     -2024.164          51.000    22587027.188 8  90948594.161 8     -1550.905          51.000
E24  21768157.594 8 114392437.485 8       822.363          51.000    21768170.930 8  87651441.868 8       630.105          51.000
E25  26902915.445 6 141375690.913 6      2695.941          36.000    26902901.578 6 108326795.371 6      2066.018          41.000
E31  24598918.742 8 129268226.669 8     -1797.133          51.000    24598920.945 8  99049707.482 8     -1376.973          51.000
> 2020 05 13 05 14  0.0000000  0 15        .000000000000
G13  20264744.508 8 106491952.556 8      -781.449          51.000    20264743.148 8  82980738.219 8      -608.921          51.000
G15  20436366.523 6 107393827.468 6       861.238          37.000    20436366.367 6  83683509.287 6       671.095          38.000
G19  24624086.656 7 129400457.587 7      3432.562          42.000    24624085.703 6 100831504.466 6      2674.724          40.000
G28  21448174.742 6 112710919.548 6     -1783.195          39.000    21448172.195 6  87826735.918 6     -1389.503          38.000
R06  21527248.398 7 114873502.465 7     -3971.938          45.000
R07  19321503.094 8 103429534.910 8      -511.879          51.000    19321504.227 7  80445186.626 7      -398.128          47.000
R09  19366519.711 7 103416217.879 7       449.746          43.000    19366520.883 7  80434762.371 7       349.803          44.000
R10  21306484.789 7 113575572.494 7      2790.406          43.000
C05  39784944.766 6 207170647.114 6        20.883          36.000    39784941.719 6 160197458.915 6        16.178          38.000
C22  22554124.852 8 117445222.038 8     -1193.031          51.000
E05  23707541.852 7 124583978.229 7       638.398          43.000    23707546.086 7  95460459.869 7       489.115          43.000
E09  22598592.930 8 118756390.124 8     -2031.141          51.000    22598597.492 8  90995181.458 8     -1556.302          51.000
E24  21763482.055 8 114367866.658 8       813.824          51.000    21763494.992 8  87632614.849 8       623.583          51.000
E25  26887526.039 5 141294811.766 5      2693.289          35.000    26887512.391 7 108264823.111 7      2063.905          43.000
E31  24609185.836 8 129322180.503 8     -1801.762          51.000    24609187.977 8  99091048.718 8     -1380.589          51.000
> 2020 05 13 05 14 30.0000000  0 16        .000000000000
G05  24282088.930 5 127603244.198 5     -3635.145          32.000
G13  20269250.703 8 106515632.606 8      -796.980          51.000    20269249.109 8  82999190.199 8      -621.021          51.000
G15  20431501.531 6 107368259.555 6       844.031          40.000    20431500.875 6  83663586.232 6       657.687          40.000
G19  24604495.672 7 129297507.662 7      3430.809          43.000    24604495.016 7 100751283.820 7      2673.363          42.000
G28  21458396.117 7 112764635.130 7     -1797.426          42.000    21458394.023 6  87868592.269 6     -1400.592          36.000
R06  21549614.781 7 114992853.410 7     -3984.562          45.000
R07  19324448.406 8 103445296.717 8      -538.629          51.000    19324448.984 8  80457445.807 8      -418.934          48.000
R09  19364043.305 7 103402993.826 7       432.191          45.000    19364044.070 7  80424476.971 7       336.149          44.000
R10  21290817.969 7 113492057.168 7      2777.574          45.000
C05  39784824.977 6 207170023.290 6        21.066          37.000    39784821.898 6 160196976.545 6        15.843          38.000
C22  22561045.445 8 117481262.135 8     -1209.414          51.000
E05  23703931.656 7 124565007.215 7       626.527          43.000    23703935.266 7  95445923.632 7       480.231          42.000
E09  22610217.133 8 118817474.018 8     -2040.961          51.000    22610221.422 8  91041985.974 8     -1563.865          51.000
E24  21758869.312 8 114343624.956 8       802.441          51.000    21758881.828 8  87614040.019 8       614.867          51.000
E25  26872163.305 6 141214080.578 6      2688.457          37.000    26872150.906 7 108202964.253 7      2060.058          43.000
E31  24619493.414 8 129376346.955 8     -1809.172          51.000    24619495.320 8  99132552.857 8     -1386.243          51.000
> 2020 05 13 05 15  0.0000000  0 16        .000000000000
G13  20273843.469 8 106539767.775 8      -810.883          51.000    20273841.656 8  83017996.821 8      -631.860          50.000
G15  20426731.328 6 107343192.674 6       828.469          38.000    20426730.438 6  83644053.631 6       645.563          38.000
G19  24584913.594 7 129194603.327 7      3430.688          45.000    24584913.641 7 100671098.677 7      2673.263          44.000
G28  21468696.203 6 112818763.075 6     -1809.957          41.000    21468694.305 6  87910769.849 6     -1410.356          38.000
R06  21572048.992 7 115112566.981 7     -3995.219          45.000
R07  19327541.055 8 103461849.337 8      -563.711          50.000    19327541.555 8  80470320.053 8      -438.445          48.000
R09  19361663.375 7 103390283.575 7       416.250          45.000    19361663.672 7  80414591.239 7       323.750          44.000
R10  21275221.336 7 113408913.442 7      2766.629          45.000
C05  39784704.797 6 207169397.483 6        22.066          36.000    39784701.688 6 160196492.586 6        17.145          38.000
C19  24683911.156 5 128535590.252 5     -3350.434          33.000
C22  22568057.812 8 117517779.697 8     -1223.992          51.000
E05  23700387.195 7 124546383.167 7       616.359          43.000    23700389.891 7  95431653.238 7       472.437          42.000
E09  22621895.234 8 118878840.839 8     -2048.961          51.000    22621899.133 8  91089007.290 8     -1569.923          51.000
E24  21754319.156 8 114319712.259 8       793.027          51.000    21754331.398 8  87595717.299 8       607.641          51.000
E25  26856828.211 6 141133498.414 6      2684.793          40.000    26856817.094 7 108141219.530 7      2057.263          43.000
E31  24629841.273 8 129430724.779 8     -1814.750          51.000    24629842.977 8  99174218.970 8     -1390.475          51.000
> 2020 05 13 05 15 30.0000000  0 16        .000000000000
G13  20278524.133 8 106564365.377 8      -827.473          51.000    20278522.195 8  83037163.770 8      -644.784          49.000
G15  20422058.227 6 107318634.833 6       810.211          40.000    20422057.422 6  83624917.602 6       631.333          40.000
G19  24565342.000 7 129091754.084 7      3427.539          44.000    24565342.750 7 100590956.472 7      2670.810          44.000
