     3.02           OBSERVATION DATA    M (MIXED)           RINEX VERSION / TYPE
SAVERINEX           SC600               20200514 115930 LCL PGM / RUN BY / DATE
       G = GPS       R = GLONASS       C = COMPASS          COMMENT
       S = SBAS      J = QZSS          E = GALILEO          COMMENT
BEAN                                                        MARKER NAME
1                                                           MARKER NUMBER
GEODETIC                                                    MARKER TYPE
Unige DICCA         GTER                                    OBSERVER / AGENCY
SC60291900056       SC600               2.12(191226)        REC # / TYPE / VERS
                    HEMA45          NONE                    ANT # / TYPE
  4509407.8091   693652.4678  4442337.6214                  APPROX POSITION XYZ
        0.0000        0.0000        0.0000                  ANTENNA: DELTA H/E/N
G    8 C1C L1C D1C S1C C2Y L2Y D2Y S2Y                      SYS / # / OBS TYPES
R    8 C1C L1C D1C S1C C2P L2P D2P S2P                      SYS / # / OBS TYPES
C    4 C1I L1I D1I S1I                                      SYS / # / OBS TYPES
E    8 C1C L1C D1C S1C C7Q L7Q D7Q S7Q                      SYS / # / OBS TYPES
DBHZ                                                        COMMENT
     30.000                                                 INTERVAL
  2020    05    14    09    00    0.0000000     GPS         TIME OF FIRST OBS
  2020    05    14    09    59   30.0000000     GPS         TIME OF LAST OBS
     0                                                      RCV CLOCK OFFS APPL
G L1C  0.00000                                              SYS / PHASE SHIFT
G L2Y  0.00000                                              SYS / PHASE SHIFT
R L1C  0.00000                                              SYS / PHASE SHIFT
R L2P  0.25000                                              SYS / PHASE SHIFT
C L1I  0.00000                                              SYS / PHASE SHIFT
E L1C  0.50000                                              SYS / PHASE SHIFT
E L7Q -0.25000                                              SYS / PHASE SHIFT
 13 R01  1 R02 -4 R07  5 R08  6 R09 -2 R10 -5 R11  0 R12 -1 GLONASS SLOT / FRQ #
    R19  3 R20  2 R21  4 R22 -3 R23  3                      GLONASS SLOT / FRQ #
 C1C   71.950 C2C   71.950 C2P   71.950                     GLONASS COD/PHS/BIS
    18                                                      LEAP SECONDS
*** Above antenna height is from mark to ANTENNA BOTTOM.    COMMENT
    17     4        0.0000        ANT MEASURE TYPE/HEIGT    COMMENT
    0.0000    0.0000    0.0458    0.0405    0.0000          COMMENT
                    BASE STATION                            COMMENT
                                                            END OF HEADER
> 2020 05 14 09 00  0.0000000  0 16        .000000000000
G02  23331450.586 5 122607635.854 5      1486.453          35.000
G12  20140346.844 8 105838234.239 8      -598.465          51.000    20140345.867 8  82471343.816 8      -466.333          51.000
G24  21320064.625 8 112037687.883 8     -2341.324          50.000    21320065.828 8  87302093.897 8     -1824.408          50.000
G25  20595396.227 5 108229533.149 5      1333.613          34.000    20595394.898 5  84334709.871 5      1039.185          34.000
G29  23119422.492 5 121493524.332 5      3579.832          35.000    23119420.961 5  94670231.795 5      2789.486          34.000
R02  22573102.789 7 120454422.657 7     -3426.105          47.000    22573106.914 7  93686778.491 7     -2664.752          44.000
R12  19599253.539 6 104695741.712 6       684.051          39.000    19599257.500 5  81430001.639 5       532.036          32.000
R21  20782234.062 6 111209946.929 6     -1699.781          39.000    20782237.391 6  86496626.889 6     -1322.055          36.000
R22  20302533.852 8 108376290.989 8      2750.750          51.000    20302538.219 8  84292675.801 8      2139.472          50.000
C27  25533425.836 5 132959248.872 5     -2798.012          30.000
C29  23161617.555 8 120608607.632 8      2713.855          51.000
C30  22358964.047 7 116429016.372 7      -338.078          45.000
E01  24680557.852 7 129697211.479 7     -1374.496          45.000    24680561.031 6  99378428.357 6     -1053.179          41.000
E04  27379468.680 5 143880078.042 5     -2992.605          31.000
E31  23842331.016 5 125292293.031 5       806.082          31.000    23842330.016 5  96003182.243 5       618.084          31.000
E33  25907389.359 8 136144247.128 8      2710.895          51.000    25907394.188 8 104318319.934 8      2077.167          51.000
> 2020 05 14 09 00 30.0000000  0 17        .000000000000
G02  23323012.000 5 122563281.012 5      1475.684          31.000
G12  20143803.156 8 105856397.051 8      -607.293          51.000    20143802.062 8  82485496.638 8      -473.215          51.000
G24  21333471.367 8 112108141.556 8     -2350.484          51.000    21333473.266 8  87356992.873 8     -1831.546          51.000
G25  20587820.828 5 108189724.700 5      1325.223          33.000    20587819.234 5  84303690.328 5      1032.641          34.000
G29  23099032.664 5 121386238.233 5      3574.098          31.000
R02  22592403.594 7 120557412.270 7     -3434.531          47.000    22592407.383 7  93766881.457 7     -2671.302          44.000
R12  19595448.406 5 104675394.308 5       676.176          35.000    19595455.641 5  81414187.306 5       525.914          32.000
R21  20791842.133 5 111261350.774 5     -1722.484          31.000    20791843.125 5  86536607.586 5     -1339.707          35.000
R22  20287144.594 8 108294143.133 8      2731.059          51.000    20287148.984 8  84228783.026 8      2124.154          50.000
C27  25549576.250 5 133043349.010 5     -2803.117          32.000
C29  23146019.992 8 120527382.332 8      2706.340          51.000
C30  22360967.273 7 116439448.514 7      -352.320          46.000
E01  24688423.094 7 129738543.711 7     -1375.723          47.000    24688426.516 7  99410098.481 7     -1054.044          43.000
E04  27396566.234 5 143969927.951 5     -2991.055          31.000
E26  24324718.352 5 127827232.867 5       384.188          35.000
E31                                                                  23837748.352 5  95984729.044 5       616.597          33.000
E33  25891940.555 8 136063061.985 8      2706.711          49.000    25891945.734 8 104256113.144 8      2073.943          51.000
> 2020 05 14 09 01  0.0000000  0 14        .000000000000
G02  23314639.375 5 122519253.473 5      1456.418          32.000
G12  20147321.258 8 105874884.676 8      -623.988          51.000    20147319.953 8  82499902.569 8      -486.225          51.000
G24  21346941.555 8 112178927.939 8     -2367.316          50.000    21346944.117 8  87412151.093 8     -1844.662          50.000
G25  20580302.758 5 108150190.519 5      1309.156          31.000    20580308.461 5  84272885.257 5      1020.125          31.000
R02  22611762.883 7 120660715.559 7     -3450.809          46.000    22611766.461 7  93847228.419 7     -2683.965          44.000
R12  19591702.969 5 104655358.652 5       659.246          35.000    19591710.695 5  81398621.452 5       512.753          30.000
R21  20801584.125 6 111313492.946 6     -1752.934          37.000    20801585.812 5  86577162.704 5     -1363.396          35.000
R22  20271877.812 8 108212647.440 8      2703.266          51.000    20271881.906 8  84165397.509 8      2102.540          48.000
C27  25565769.352 5 133127673.236 5     -2817.113          31.000
C29  23130476.766 8 120446443.160 8      2690.789          51.000
C30  22363063.453 7 116450362.997 7      -374.113          45.000
E01  24696307.250 8 129779973.433 8     -1384.848          48.000    24696310.961 7  99441843.337 7     -1061.138          43.000
E31                                                                  23833186.617 5  95966369.612 5       608.898          31.000
E33  25876526.664 7 135982066.095 7      2694.395          46.000    25876532.258 8 104194051.333 8      2064.560          51.000
> 2020 05 14 09 01 30.0000000  0 13        .000000000000
G02  23306356.570 5 122475723.957 5      1447.152          30.000
G12  20150912.281 8 105893755.801 8      -633.246          51.000    20150910.984 8  82514607.342 8      -493.439          51.000
G24  21360486.133 8 112250105.249 8     -2376.891          50.000    21360489.289 8  87467613.918 8     -1852.123          50.000
G25  20572856.102 5 108111088.439 5      1300.559          34.000    20572861.438 5  84242425.489 5      1013.422          34.000
R02  22631191.180 7 120764388.575 7     -3459.699          44.000    22631194.930 7  93927862.954 7     -2690.880          44.000
R12  19588029.578 5 104635724.423 5       649.691          35.000    19588035.102 5  81383367.329 5       505.312          31.000
R21  20811477.391 5 111366431.614 5     -1775.934          35.000    20811479.977 6  86618337.183 6     -1381.282          37.000
R22  20256745.070 8 108131868.011 8      2682.852          51.000    20256748.766 7  84102569.105 7      2086.662          47.000
C27  25582017.086 5 133212278.222 5     -2822.668          32.000
C29  23114999.688 8 120365850.898 8      2682.832          51.000
C30  22365262.930 7 116461818.006 7      -388.676          44.000
E01  24704221.117 7 129821560.031 7     -1386.758          46.000    24704224.891 7  99473708.397 7     -1062.676          44.000
E33  25861159.430 7 135901320.810 7      2689.371          43.000    25861165.859 8 104132181.515 8      2060.753          51.000
> 2020 05 14 09 02  0.0000000  0 17        .000000000000
G02  23298144.641 5 122432578.986 5      1425.695          33.000    23298138.047 5  95401974.488 5      1110.931          33.000
G06  23481347.750 5 123395314.183 5       285.836          35.000    23481351.539 5  96152191.328 5       222.723          35.000
G12  20154560.742 8 105912928.546 8      -651.047          51.000    20154559.523 8  82529547.142 8      -507.309          51.000
G24  21374089.492 8 112321592.183 8     -2395.004          50.000    21374093.141 8  87523318.006 8     -1866.237          50.000
G25  20565463.711 5 108072238.393 5      1283.129          35.000    20565470.086 6  84212152.738 6       999.841          36.000
G29  23038036.188 6 121065746.729 6      3543.422          36.000    23038048.797 6  94336907.078 6      2761.108          36.000
G32  22187794.148 5 116597691.886 5       586.191          35.000
R02  22650671.969 7 120868344.276 7     -3476.945          44.000    22650675.953 7  94008717.352 7     -2704.294          43.000
R11  21061761.242 5 112547682.021 5     -2253.406          31.000    21061759.320 4  87537063.375 4     -1752.649          27.000
R12  19584410.484 5 104616412.503 5       632.602          35.000    19584414.477 5  81368329.394 5       492.023          33.000
R21  20821502.453 6 111420081.341 6     -1807.348          36.000    20821507.234 5  86660064.787 5     -1405.718          35.000
R22  20241731.656 8 108051726.078 8      2653.688          50.000    20241734.812 7  84040236.539 7      2063.982          46.000
C27  25598303.570 5 133297081.567 5     -2836.188          32.000
C29  23099573.859 8 120285527.192 8      2666.062          51.000
C30  22367551.062 7 116473732.715 7      -411.668          44.000
E01  24712149.094 7 129863222.553 7     -1397.004          45.000    24712153.141 7  99505631.586 7     -1070.291          44.000
E33  25845825.648 7 135820747.047 7      2676.047          44.000    25845832.117 8 104070443.152 8      2050.492          51.000
> 2020 05 14 09 02 30.0000000  0 17        .000000000000
G02  23290023.219 5 122389910.069 5      1417.152          34.000
G12  20158291.320 8 105932532.762 8      -657.152          51.000    20158290.117 8  82544823.141 8      -512.067          51.000
G24  21387776.297 8 112393517.823 8     -2401.277          49.000    21387780.383 8  87579363.951 8     -1871.125          49.000
G25  20558150.461 6 108033804.557 6      1278.168          36.000    20558154.117 6  84182204.308 6       995.975          36.000
G29  23017809.820 6 120959451.331 6      3541.090          39.000    23017819.109 6  94254079.517 6      2759.291          40.000
G32  22184485.516 6 116580302.874 6       572.031          37.000    22184500.219 5  90841815.605 5       445.726          32.000
R02  22670230.086 7 120972711.072 7     -3482.082          44.000    22670233.727 7  94089891.484 7     -2708.286          43.000
R11  21074429.289 5 112615332.443 5     -2257.910          34.000    21074418.664 4  87589680.343 4     -1756.146          29.000
R12  19580872.945 6 104597492.729 6       626.680          36.000    19580879.383 5  81353626.187 5       487.418          34.000
R21  20831687.086 5 111474572.432 5     -1826.473          30.000    20831689.094 5  86702446.650 5     -1420.593          34.000
R22  20226863.195 8 107972357.701 8      2636.273          51.000    20226866.227 8  83978505.610 8      2050.438          48.000
C27  25614652.609 5 133382210.557 5     -2839.723          30.000
C29  23084225.211 8 120205603.375 8      2660.922          51.000
C30  22369952.180 7 116486235.937 7      -423.125          42.000
E01  24720116.570 7 129905091.445 7     -1395.559          47.000    24720120.562 7  99537712.965 7     -1069.354          44.000
E31  23819693.281 6 125173341.642 6       781.922          36.000
E33  25830550.797 7 135740477.440 7      2674.102          46.000    25830556.492 8 104008937.867 8      2048.927          51.000
> 2020 05 14 09 03  0.0000000  0 17        .000000000000
G12  20162072.812 8 105952404.876 8      -666.973          51.000    20162071.531 8  82560307.904 8      -519.719          51.000
G24  21401515.352 8 112465718.438 8     -2411.227          48.000    21401519.836 8  87635624.155 8     -1878.878          48.000
G25  20550885.555 6 107995624.600 6      1268.559          38.000    20550883.039 6  84152453.796 6       988.493          36.000
G29  22997612.516 6 120853308.798 6      3535.676          40.000    22997618.742 6  94171371.060 6      2755.072          40.000
G32  22181274.344 6 116563424.387 6       554.000          36.000    22181297.219 4  90828663.134 4       431.670          29.000
R02  22689833.508 7 121077318.273 7     -3491.012          45.000    22689837.320 7  94171252.596 7     -2715.234          44.000
R11  21087128.398 6 112683174.220 6     -2265.461          37.000    21087118.000 4  87642476.563 4     -1762.025          28.000
R12  19577380.141 5 104578846.014 5       616.598          35.000    19577387.680 5  81339123.568 5       479.576          34.000
R21  20841995.211 4 111529736.487 4     -1850.250          29.000    20841998.430 5  86745352.117 5     -1439.080          34.000
R22  20212109.914 8 107893601.182 8      2614.879          51.000    20212112.602 8  83917250.535 8      2033.795          49.000
C27  25631032.922 4 133467512.703 4     -2845.270          28.000
C29  23068922.758 8 120125920.078 8      2651.992          51.000
C30  22372434.891 6 116499165.743 6      -438.195          41.000
E01  24728092.164 7 129947004.081 7     -1397.867          44.000    24728095.961 7  99569827.844 7     -1071.126          45.000
E26  24314924.289 5 127775798.992 5       307.785          33.000    24314913.422 5  97906125.416 5       235.380          32.000
E31  23815243.922 5 125149937.892 5       778.582          30.000
E33  25815303.266 7 135660351.220 7      2668.375          46.000    25815308.883 8 103947542.475 8      2044.614          51.000
> 2020 05 14 09 03 30.0000000  0 15        .000000000000
G12  20165945.062 8 105972754.493 8      -682.484          51.000    20165943.758 8  82576164.756 8      -531.806          51.000
G24  21415346.719 8 112538403.228 8     -2427.066          49.000    21415351.320 8  87692261.625 8     -1891.221          49.000
G25  20543708.445 6 107957908.985 6      1253.195          36.000    20543705.930 6  84123065.023 6       976.516          36.000
G29  22977484.336 6 120747531.818 6      3523.543          41.000    22977488.797 6  94088947.479 6      2745.621          41.000
G32  22178199.836 6 116547267.175 6       530.609          37.000    22178194.227 5  90815999.955 5       413.441          33.000
R02  22709521.406 7 121182376.093 7     -3505.590          47.000    22709525.812 7  94252964.171 7     -2726.573          44.000
R12  19573980.914 5 104560693.421 5       601.551          34.000    19573991.602 5  81325000.545 5       467.873          34.000
R21  20852469.805 6 111585784.993 6     -1879.070          36.000    20852471.836 5  86788945.426 5     -1461.502          32.000
R22  20197511.930 8 107815673.658 8      2587.582          51.000    20197514.594 8  83856640.261 8      2012.564          49.000
C29  23053706.812 8 120046687.614 8      2637.273          51.000
C30  22375040.234 7 116512729.949 7      -459.367          42.000
E01  24736116.102 7 129989170.745 7     -1406.141          43.000    24736120.031 7  99602137.338 7     -1077.352          45.000
E26  24313242.273 5 127766949.133 5       288.586          32.000    24313226.859 5  97899355.567 5       220.861          33.000
E31                                                                  23810834.656 5  95876396.090 5       590.111          34.000
E33  25800123.609 7 135580580.693 7      2656.793          47.000    25800129.406 8 103886419.647 8      2035.754          49.000
> 2020 05 14 09 04  0.0000000  0 15        .000000000000
G12  20169863.789 8 105993347.830 8      -692.215          51.000    20169862.578 8  82592211.506 8      -539.388          51.000
G24  21429225.914 8 112611337.703 8     -2437.086          50.000    21429230.008 8  87749093.666 8     -1899.031          50.000
G25  20536574.266 5 107920425.024 5      1243.508          32.000    20536575.383 5  84093856.622 5       968.961          30.000
G29  22957381.977 7 120641889.786 7      3517.551          43.000    22957384.484 7  94006629.055 7      2740.949          43.000
G32  22175218.438 6 116531598.730 6       512.445          38.000    22175207.023 3  90803790.997 3       399.323          23.000
R02  22729248.266 7 121287642.280 7     -3514.109          46.000    22729253.188 7  94334837.832 7     -2733.196          44.000
R12  19570624.328 5 104542787.284 5       591.391          33.000    19570636.633 5  81311060.624 5       459.967          34.000
R21  20863065.320 4 111642478.062 4     -1902.340          28.000    20863067.289 5  86833040.002 5     -1479.595          33.000
R22  20183025.336 8 107738341.673 8      2565.934          51.000    20183027.906 8  83796493.184 8      1995.726          48.000
C29  23038533.383 8 119967677.084 8      2628.242          51.000
C30  22377722.875 7 116526697.002 7      -473.938          43.000
E01  24744143.961 7 130031358.393 7     -1408.223          42.000    24744147.797 7  99634462.966 7     -1079.216          45.000
E26  24311629.180 5 127758472.717 5       275.477          34.000    24311609.664 5  97892851.196 5       211.220          33.000
E31                                                                  23806439.961 5  95858705.960 5       587.749          33.000
E33  25784967.844 7 135500934.913 7      2650.840          47.000    25784973.602 8 103825392.402 8      2031.358          48.000
> 2020 05 14 09 04 30.0000000  0 14        .000000000000
G12  20173860.875 8 106014352.381 8      -709.488          51.000    20173859.828 8  82608578.687 8      -552.848          51.000
G24  21443184.625 8 112684689.490 8     -2454.391          51.000    21443187.914 8  87806250.857 8     -1912.515          51.000
G25  20529517.047 6 107883341.240 6      1227.199          37.000    20529520.250 6  84064960.146 6       956.259          37.000
G29  22937337.938 7 120536553.432 7      3503.609          44.000    22937338.391 7  93924548.809 7      2730.085          44.000
R02  22749045.062 7 121393283.853 7     -3530.062          45.000    22749050.008 7  94417003.434 7     -2745.604          42.000
R11  21125593.727 5 112888705.015 5     -2302.359          33.000
R12  19567352.484 5 104525211.390 5       573.605          34.000    19567356.961 5  81297419.266 5       446.138          31.000
R21  20873800.703 5 111699937.873 5     -1932.973          30.000    20873804.812 5  86877728.754 5     -1503.423          30.000
R22  20168682.867 8 107661780.038 8      2536.680          51.000    20168685.117 7  83736945.253 7      1972.976          47.000
C29  23023435.047 8 119889057.361 8      2611.664          51.000
C30  22380514.438 7 116541233.151 7      -496.227          43.000
E01  24752207.266 6 130073735.671 6     -1418.133          38.000    24752211.812 7  99666933.852 7     -1086.669          45.000
E31                                                                  23802082.703 5  95841131.182 5       579.683          32.000
E33  25769868.188 8 135421584.311 8      2637.645          48.000    25769872.906 7 103764591.382 7      2021.049          46.000
> 2020 05 14 09 05  0.0000000  0 14        .000000000000
G02  23250584.492 4 122182645.155 4      1349.059          29.000
G12  20177913.422 8 106035648.528 8      -713.215          51.000    20177912.469 8  82625173.087 8      -555.752          51.000
G24  21457200.125 8 112758338.953 8     -2458.520          51.000    21457202.328 8  87863640.015 8     -1915.733          51.000
G25  20522513.906 6 107846539.100 6      1223.406          36.000    20522517.320 5  84036283.120 5       953.307          35.000
G29  22917329.852 7 120431405.981 7      3503.227          43.000    22917328.875 7  93842615.758 7      2729.787          44.000
R02  22768888.883 7 121499175.610 7     -3532.281          45.000    22768892.945 6  94499363.619 6     -2747.330          41.000
R12  19564132.312 6 104508037.267 6       569.898          36.000    19564137.781 5  81284058.824 5       443.251          32.000
R21  20884692.805 5 111758133.287 5     -1949.988          34.000    20884691.703 5  86922991.797 5     -1516.664          33.000
R22  20154462.047 8 107585871.169 8      2520.828          51.000    20154464.398 7  83677905.095 7      1960.650          46.000
C29  23008389.609 8 119810712.465 8      2608.383          51.000
C30  22383392.836 7 116556219.894 7      -505.609          44.000
E01  24760283.883 6 130116183.590 6     -1414.652          38.000    24760288.758 7  99699458.858 7     -1084.002          45.000
E31                                                                  23797742.789 5  95823647.718 5       581.987          31.000
E33  25754802.836 8 135342411.950 8      2637.652          49.000    25754806.609 8 103703926.898 8      2021.004          48.000
> 2020 05 14 09 05 30.0000000  0 13        .000000000000
G12  20182032.539 8 106057294.650 8      -729.129          51.000    20182031.539 8  82642040.185 8      -568.155          51.000
G24  21471283.203 8 112832343.716 8     -2474.430          51.000    21471284.547 8  87921306.022 8     -1928.130          51.000
G25  20515575.609 6 107810077.937 6      1207.855          37.000    20515578.195 6  84007871.871 6       941.189          36.000
G29  22897369.555 6 120326508.846 6      3490.492          41.000    22897367.680 6  93760877.780 6      2719.867          41.000
G32  22166955.422 4 116488145.019 4       450.070          29.000
R02  22788790.148 7 121605372.681 7     -3546.730          45.000    22788794.102 6  94581961.273 6     -2758.571          41.000
R12  19560978.836 5 104491242.923 5       553.723          35.000    19560976.227 4  81270954.489 4       430.673          28.000
R22  20140375.500 8 107510678.685 8      2492.609          51.000    20140377.648 7  83619422.115 7      1938.696          46.000
C29  22993408.656 8 119732702.947 8      2592.984          50.000
C30  22386368.367 7 116571715.184 7      -526.742          44.000
E01  24768386.422 6 130158761.306 6     -1423.074          38.000    24768390.500 7  99732083.360 7     -1090.593          46.000
E31  23793442.211 5 125035406.165 5       750.863          35.000    23793435.211 5  95806304.299 5       574.867          33.000
E33  25739783.312 8 135263479.031 8      2625.305          51.000    25739787.055 8 103643445.870 8      2011.579          51.000
> 2020 05 14 09 06  0.0000000  0 14        .000000000000
G12  20186216.359 8 106079280.566 8      -737.891          51.000    20186215.203 8  82659172.064 8      -574.980          51.000
G24  21485431.773 8 112906693.151 8     -2483.484          51.000    21485432.812 8  87979240.587 8     -1935.186          51.000
G25  20508700.797 6 107773948.290 6      1199.387          39.000    20508702.469 6  83979718.945 6       934.590          39.000
G29  22877456.188 6 120221854.709 6      3485.332          37.000    22877452.953 6  93679329.161 6      2715.846          37.000
R02  22808746.359 7 121711860.954 7     -3554.043          44.000    22808750.992 6  94664785.434 6     -2764.256          41.000
R12  19557892.523 6 104474748.286 6       544.309          39.000    19557890.359 4  81258132.892 4       423.345          29.000
R21  20906854.523 5 111876765.519 5     -2000.625          35.000    20906854.148 5  87015260.674 5     -1556.048          30.000
R22  20126421.953 8 107436195.881 8      2471.512          51.000    20126424.258 7  83561491.098 7      1922.287          47.000
C29  22978490.484 8 119655021.116 8      2584.414          49.000
C30  22389439.781 7 116587708.744 7      -540.863          45.000
E01  24776512.195 6 130201459.234 6     -1424.602          38.000    24776516.008 7  99764799.972 7     -1091.748          46.000
E09  23968830.094 7 125957052.760 7     -1689.035          42.000
E31  23789159.430 5 125012877.664 5       747.457          31.000    23789157.055 5  95789070.584 5       572.999          32.000
E33  25724808.062 8 135184777.841 8      2620.105          51.000    25724811.680 8 103583142.375 8      2007.553          51.000
> 2020 05 14 09 06 30.0000000  0 12        .000000000000
G12  20190471.312 8 106101640.370 8      -753.027          51.000    20190469.914 8  82676595.278 8      -586.775          51.000
G24  21499652.383 8 112981421.095 8     -2498.586          51.000    21499652.945 8  88037470.099 8     -1946.950          51.000
G25  20501895.180 5 107738185.601 5      1184.125          35.000    20501895.188 5  83951851.922 5       922.695          34.000
R02  22828762.961 7 121818671.771 7     -3567.148          42.000    22828767.875 6  94747860.444 6     -2774.452          40.000
R12  19554878.688 6 104458650.814 6       528.883          38.000    19554877.516 4  81245616.312 4       411.356          28.000
R22  20112608.773 8 107362461.743 8      2443.703          51.000    20112611.773 8  83504142.365 8      1900.661          49.000
C29  22963642.055 8 119577703.640 8      2569.793          48.000
C30  22392613.625 7 116604234.612 7      -561.105          45.000
E01  24784666.703 6 130244312.475 6     -1432.254          36.000    24784671.352 7  99797635.631 7     -1097.567          47.000
E09  23978515.633 7 126007941.782 7     -1703.766          44.000    23978515.117 5  96551536.724 5     -1305.522          35.000
E31  23784910.711 5 124990549.385 5       739.895          31.000    23784913.219 5  95771985.694 5       566.612          33.000
E33  25709883.680 8 135106345.449 8      2608.574          51.000    25709886.781 8 103523044.836 8      1998.715          51.000
> 2020 05 14 09 07  0.0000000  0 16        .000000000000
G02  23220520.820 5 122024673.380 5      1289.422          32.000
G12  20194799.859 8 106124387.045 8      -761.238          51.000    20194798.453 8  82694319.952 8      -593.173          51.000
G24  21513947.266 8 113056540.500 8     -2506.980          51.000    21513947.250 8  88096004.671 8     -1953.491          51.000
G25  20495161.828 5 107702803.685 5      1176.656          35.000    20495160.734 5  83924281.639 5       916.878          33.000
G29  22837779.133 6 120013313.114 6      3467.840          36.000    22837786.383 5  93516887.902 5      2702.213          35.000
R02  22848841.164 7 121925814.030 7     -3573.414          42.000    22848845.539 6  94831193.278 6     -2779.322          39.000
R12  19551937.508 6 104442984.168 6       520.203          37.000    19551930.898 4  81233369.870 4       404.602          27.000
R21  20929591.562 5 111998520.835 5     -2050.129          31.000    20929586.750 4  87109910.973 4     -1594.551          29.000
R22  20098939.312 8 107289493.709 8      2422.934          51.000    20098943.125 8  83447389.466 8      1884.504          50.000
C29  22948866.914 8 119500766.005 8      2561.719          49.000
C30  22395891.906 7 116621305.676 7      -574.723          45.000
E01                                                                  24792858.250 7  99830600.894 7     -1098.348          47.000
E09  23988272.328 7 126059208.910 7     -1711.609          44.000    23988271.492 6  96590819.329 6     -1311.505          36.000
E26  24303764.188 5 127717105.008 5       185.141          32.000
E31  23780703.453 5 124968456.431 5       737.672          34.000    23780705.570 5  95755034.363 5       565.292          33.000
E33  25695013.180 8 135028197.591 8      2603.617          50.000    25695015.500 8 103463165.298 8      1994.973          51.000
> 2020 05 14 09 07 30.0000000  0 15        .000000000000
G12  20199157.516 8 106147286.701 8      -770.836          51.000    20199156.289 8  82712163.830 8      -600.651          51.000
G24  21528271.500 8 113131816.602 8     -2516.754          49.000    21528271.578 8  88154661.348 8     -1961.107          49.000
G25  20488457.219 5 107667569.968 5      1167.363          35.000    20488457.227 6  83896826.778 6       909.634          36.000
G29  22817988.586 6 119909301.562 6      3461.094          41.000    22817986.734 6  93435840.045 6      2696.965          41.000
R02  22868937.883 7 122033031.528 7     -3580.891          45.000    22868937.906 6  94914581.774 6     -2785.134          37.000
R11  21203926.180 5 113307309.297 5     -2352.352          31.000    21203915.062 5  88127904.274 5     -1829.598          31.000
R12  19549028.781 6 104427444.442 6       510.188          37.000    19549024.414 4  81221293.402 4       396.809          28.000
R22  20085370.305 8 107217068.066 8      2400.613          51.000    20085374.586 8  83391061.132 8      1867.147          50.000
C29  22934121.430 8 119423979.195 8      2552.094          50.000
C30  22399230.297 7 116638690.258 7      -589.547          44.000
E01                                                                  24801032.609 7  99863517.249 7     -1100.243          47.000
E09  23998055.828 7 126110619.645 7     -1721.094          44.000    23998056.828 6  96630211.935 6     -1318.808          38.000
E26                                                                  24302738.922 5  97857046.537 5       131.361          30.000
E31  23776486.680 5 124946273.840 5       734.441          34.000    23776489.484 5  95738069.152 5       562.981          31.000
E33  25680152.117 8 134950103.181 8      2597.312          50.000    25680153.984 8 103403326.750 8      1990.116          50.000
> 2020 05 14 09 08  0.0000000  0 14        .000000000000
G12  20203632.758 8 106170803.980 8      -784.176          51.000    20203631.719 8  82730488.974 8      -611.046          51.000
G24  21542713.531 8 113207713.655 8     -2530.207          48.000    21542714.555 7  88213801.887 7     -1971.587          47.000
G25  20481869.898 6 107632949.820 6      1153.660          37.000    20481869.555 5  83869849.954 5       898.950          35.000
G29  22798299.070 7 119805871.664 7      3450.363          44.000
R02  22889139.648 7 122140838.834 7     -3592.012          47.000    22889139.172 6  94998420.872 6     -2793.790          38.000
R12  19546238.594 6 104412545.108 6       496.617          36.000    19546233.422 4  81209699.040 4       386.264          27.000
R22  20071989.781 8 107145650.863 8      2374.352          51.000    20071993.656 8  83335507.636 8      1846.718          50.000
C29  22919494.016 8 119347806.196 8      2538.941          51.000
C30  22402717.281 6 116656848.804 6      -608.336          41.000
E01  24809288.984 6 130373689.850 6     -1441.859          38.000    24809283.812 8  99896741.320 8     -1104.825          48.000
E09  24007954.359 7 126162637.928 7     -1734.129          44.000    24007957.258 6  96670070.099 6     -1328.676          38.000
E26  24301865.297 5 127707135.149 5       154.695          34.000
E31  23772350.766 5 124924546.350 5       728.062          32.000    23772352.398 4  95721411.859 4       557.465          29.000
E33  25665389.922 8 134872529.669 8      2587.203          50.000    25665390.398 7 103343887.323 7      1982.441          47.000
> 2020 05 14 09 08 30.0000000  0 14        .000000000000
G12  20208132.508 8 106194450.016 8      -794.047          51.000    20208131.430 8  82748914.454 8      -618.738          51.000
G24  21557180.461 7 113283743.160 7     -2540.145          47.000    21557182.688 7  88273045.646 7     -1979.330          47.000
G25  20475306.156 5 107598455.421 5      1144.426          35.000    20475309.844 5  83842971.169 5       891.757          35.000
G29  22778616.570 7 119702437.076 7      3443.055          46.000    22778611.648 7  93274604.145 7      2682.903          47.000
R02  22909351.461 7 122248688.540 7     -3599.777          47.000    22909352.305 6  95082303.920 6     -2799.827          39.000
R11  21230470.352 5 113449240.165 5     -2371.176          30.000    21230465.328 4  88238282.588 4     -1844.248          26.000
R12  19543474.047 6 104397668.143 6       485.652          37.000    19543474.766 4  81198219.318 4       377.727          27.000
R21  20964688.008 5 112186244.134 5     -2121.379          32.000    20964682.570 4  87255976.027 4     -1649.974          25.000
R22  20058705.125 8 107074739.479 8      2351.254          51.000    20058709.656 8  83280353.846 8      1828.753          50.000
C29  22904891.703 8 119271765.209 8      2528.793          51.000
C30  22406259.836 6 116675296.746 6      -623.574          40.000
E01  24817526.445 6 130416963.517 6     -1444.871          37.000    24817518.969 8  99929899.105 8     -1106.989          48.000
E09  24017875.289 7 126214774.040 7     -1743.594          43.000    24017879.328 6  96710018.573 6     -1336.126          39.000
E33  25650634.164 8 134794990.807 8      2580.332          51.000    25650631.891 7 103284474.484 7      1977.126          44.000
> 2020 05 14 09 09  0.0000000  0 12        .000000000000
G12  20212714.508 8 106218527.898 8      -808.031          51.000    20212712.977 8  82767676.425 8      -629.635          51.000
G24  21571730.664 8 113360206.856 8     -2554.309          48.000    21571733.492 8  88332627.737 8     -1990.370          48.000
G25  20468823.383 5 107564390.873 5      1129.938          34.000    20468829.086 5  83816427.365 5       880.474          34.000
G29  22759001.547 7 119599359.255 7      3431.723          46.000    22758998.438 7  93194283.829 7      2674.073          47.000
R02  22929629.602 7 122356900.409 7     -3611.488          45.000    22929632.977 6  95166468.622 6     -2808.938          39.000
R12  19540797.891 6 104383431.479 6       470.492          36.000    19540795.250 4  81187113.667 4       365.938          27.000
R22  20045575.820 8 107004655.646 8      2324.051          51.000    20045579.711 8  83225844.199 8      1807.592          48.000
C29  22890372.281 8 119196158.985 8      2514.660          51.000
C30  22409915.812 6 116694334.343 6      -642.695          38.000
E01                                                                  24825795.109 8  99963223.338 8     -1112.266          49.000
E09  24027876.039 7 126267330.168 7     -1757.309          43.000    24027881.344 6  96750288.849 6     -1346.386          38.000
E33  25635943.594 8 134717792.306 8      2569.285          51.000    25635936.750 6 103225322.473 6      1968.604          41.000
> 2020 05 14 09 09 30.0000000  0 13        .000000000000
G12  20217356.641 8 106242921.832 8      -815.480          51.000    20217354.656 8  82786684.685 8      -635.436          51.000
G24  21586342.039 8 113436989.388 8     -2561.773          49.000    21586344.883 8  88392458.240 8     -1996.190          48.000
G25  20462400.844 5 107530634.431 5      1122.750          33.000    20462396.836 5  83790112.223 5       874.864          33.000
G29  22739431.742 7 119496522.324 7      3426.828          46.000    22739429.984 7  93114151.212 7      2670.259          46.000
R02  22949951.523 7 122465353.618 7     -3616.070          43.000    22949957.414 6  95250821.071 6     -2812.502          38.000
R11  21257239.477 5 113592209.802 5     -2390.055          31.000
R12  19538185.016 6 104369477.869 6       462.559          38.000    19538183.375 4  81176254.942 4       359.765          27.000
R21  20988766.094 5 112315122.407 5     -2168.254          35.000    20988786.938 5  87356206.817 5     -1686.420          30.000
R22  20032580.055 8 106935285.827 8      2303.402          51.000    20032583.859 7  83171889.901 7      1791.535          47.000
C29  22875914.539 8 119120875.772 8      2506.887          51.000
E01  24834093.430 5 130504025.178 5     -1451.789          33.000    24834090.305 8  99996626.225 8     -1112.497          49.000
E09  24037934.773 7 126320190.129 7     -1764.137          43.000    24037939.805 6  96790791.916 6     -1351.714          38.000
E33  25621296.664 8 134640821.448 8      2564.840          51.000    25621286.328 6 103166344.884 6      1965.246          41.000
> 2020 05 14 09 10  0.0000000  0 13        .000000000000
G12  20222055.375 8 106267613.735 8      -829.625          51.000    20222053.352 8  82805925.132 8      -646.461          51.000
G24  21601010.602 8 113514071.918 8     -2576.055          48.000    21601013.203 8  88452522.495 8     -2007.318          48.000
G25  20456038.297 6 107497182.895 6      1108.754          36.000    20456032.617 5  83764046.191 5       863.964          34.000
G29  22719904.531 7 119393911.044 7      3415.285          44.000    22719903.945 7  93034194.414 7      2661.264          44.000
R02  22970314.914 7 122574025.645 7     -3627.582          43.000    22970322.375 6  95335343.771 6     -2821.453          38.000
R11  21270691.234 5 113664109.206 5     -2401.980          33.000
R12  19535633.508 6 104355820.457 6       447.262          37.000    19535633.984 5  81165648.169 5       347.867          30.000
R21  21001006.078 6 112380579.225 6     -2194.895          36.000    21001026.719 5  87407117.732 5     -1707.137          31.000
R22  20019715.695 8 106866615.311 8      2275.715          51.000    20019719.320 8  83118479.502 8      1770.000          48.000
C29  22861515.656 8 119045900.054 8      2492.426          50.000
E01  24842409.859 5 130547722.930 5     -1459.055          35.000    24842401.984 8 100030094.371 8     -1117.899          49.000
E09  24048047.578 6 126373334.859 6     -1777.746          41.000    24048049.984 5  96831513.193 5     -1362.295          34.000
E33  25606690.391 8 134564062.700 8      2553.500          51.000    25606680.242 7 103107529.791 7      1956.689          43.000
> 2020 05 14 09 10 30.0000000  0 15        .000000000000
G12  20226828.867 8 106292698.623 8      -840.746          51.000    20226827.078 8  82825471.807 8      -655.124          51.000
G24  21615754.391 8 113591549.778 8     -2587.320          49.000    21615756.664 8  88512894.805 8     -2016.094          49.000
G25  20449747.703 5 107464125.617 5      1097.480          35.000    20449745.773 5  83738287.335 5       855.183          34.000
G29  22700438.617 7 119291623.608 7      3406.004          42.000    22700439.203 7  92954489.929 7      2654.029          42.000
R02  22990738.070 7 122683009.781 7     -3636.156          45.000    22990747.016 6  95420109.174 6     -2828.122          40.000
R12  19533159.266 6 104342607.404 6       435.219          41.000    19533159.977 5  81155370.822 5       338.503          31.000
R22  20007001.992 8 106798735.632 8      2250.945          51.000    20007004.602 8  83065684.238 8      1750.735          48.000
C29  22847194.531 8 118971328.845 8      2480.840          50.000
C30  22421437.266 6 116754299.008 6      -691.230          37.000
E01                                                                  24850748.461 8 100063701.454 8     -1121.054          49.000
E04  27738873.062 5 145768760.929 5     -2996.355          32.000
E09  24058231.773 6 126426858.881 6     -1788.324          38.000    24058229.688 5  96872525.064 5     -1370.427          33.000
E26  24298504.422 5 127689489.602 5        78.719          34.000    24298507.086 6  97840016.663 6        60.595          37.000
E31                                                                  23751945.297 5  95639231.935 5       538.552          33.000
E33  25592142.961 8 134487614.088 8      2545.043          51.000    25592135.125 7 103048952.341 7      1950.080          46.000
> 2020 05 14 09 11  0.0000000  0 15        .000000000000
G12  20231662.203 8 106318097.819 8      -851.137          51.000    20231660.633 8  82845263.382 8      -663.223          51.000
G24  21630557.906 8 113669342.582 8     -2597.680          49.000    21630559.680 8  88573512.533 8     -2024.166          49.000
G25  20443516.992 5 107431384.524 5      1087.531          30.000    20443518.602 5  83712774.795 5       847.424          31.000
G29  22681019.891 7 119189583.864 7      3398.020          43.000    22681021.969 7  92874978.400 7      2647.804          42.000
R02  23011204.578 7 122792221.767 7     -3643.473          47.000    23011214.836 6  95505051.746 6     -2833.815          41.000
R11  21297782.203 5 113808897.234 5     -2420.336          32.000
R12  19530751.359 6 104329738.076 6       423.848          39.000    19530752.477 5  81145361.338 5       329.659          33.000
R22  19994423.398 8 106731595.267 8      2226.867          51.000    19994425.469 7  83013463.520 7      1732.008          47.000
C29  22832936.961 8 118897086.280 8      2469.953          49.000
C30  22425469.773 6 116775292.760 6      -706.984          38.000
E01                                                                  24859114.656 8 100097387.423 8     -1123.634          49.000
E04  27755978.742 5 145858651.955 5     -2994.801          32.000
E09  24068470.719 5 126480682.281 5     -1798.762          35.000    24068467.453 5  96913744.242 5     -1378.083          30.000
E31                                                                  23747943.023 5  95623130.616 5       535.199          31.000
E33  25577639.578 8 134411399.111 8      2537.246          51.000    25577634.898 8 102990553.883 8      1944.124          49.000
> 2020 05 14 09 11 30.0000000  0 15        .000000000000
G12  20236548.367 8 106343774.674 8      -863.133          51.000    20236546.938 8  82865271.305 8      -672.571          51.000
G24  21645414.281 8 113747413.699 8     -2609.738          49.000    21645416.289 8  88634347.149 8     -2033.562          49.000
G29  22661643.078 7 119087758.638 7      3388.059          45.000    22661645.516 7  92795634.064 7      2640.046          45.000
R02  23031706.594 7 122901620.805 7     -3652.418          47.000    23031717.000 6  95590139.814 6     -2840.773          41.000
R11  21311374.953 5 113881615.490 5     -2430.348          34.000    21311377.055 4  88574528.667 4     -1890.273          24.000
R12  19528399.133 6 104317177.628 6       410.742          40.000    19528401.383 5  81135592.047 5       319.466          33.000
R21  21038518.117 4 112581333.584 4     -2265.590          28.000    21038536.773 4  87563289.060 4     -1762.116          25.000
R22  19981973.844 8 106665142.089 8      2201.062          51.000    19981976.609 7  82961775.634 7      1711.937          47.000
C29  22818736.031 8 118823138.803 8      2457.441          48.000
C30  22429586.023 7 116796723.037 7      -724.168          43.000
E01                                                                  24867493.320 8 100131125.035 8     -1127.357          49.000
E04  27773071.438 5 145948466.428 5     -2994.676          34.000
E09  24078760.141 5 126534767.655 5     -1809.973          35.000    24078755.961 5  96955171.318 5     -1386.308          30.000
E31                                                                  23743959.070 5  95607090.265 5       530.518          30.000
E33  25563173.461 8 134335384.050 8      2527.953          49.000    25563172.914 8 102932308.630 8      1936.985          51.000
> 2020 05 14 09 12  0.0000000  0 16        .000000000000
G02  23151127.445 5 121660026.654 5      1137.242          33.000
G12  20241513.891 8 106369868.973 8      -878.852          51.000    20241512.484 8  82885604.513 8      -684.819          51.000
G24  21660350.320 8 113825902.821 8     -2625.375          49.000    21660352.945 8  88695507.502 8     -2045.747          49.000
G29  22642334.773 7 118986290.416 7      3374.359          46.000    22642337.109 7  92716567.938 7      2629.371          46.000
R02  23052269.711 8 123011345.023 8     -3664.895          48.000    23052278.984 6  95675480.786 6     -2850.480          41.000
R11  21325049.555 5 113954702.561 5     -2444.562          35.000
R12  19526131.867 6 104305069.891 6       393.738          37.000    19526134.953 5  81126174.886 5       306.241          34.000
R22  19969680.672 8 106599520.616 8      2171.305          51.000    19969683.477 7  82910736.781 7      1688.796          47.000
C29  22804618.523 8 118749627.427 8      2441.035          49.000
C30  22433811.898 7 116818728.232 7      -745.133          43.000
E01  24875919.922 5 130723862.307 5     -1480.289          33.000    24875911.016 8 100165021.983 8     -1134.203          48.000
E04  27790175.719 5 146038343.153 5     -2998.855          34.000
E09  24089127.570 6 126589254.121 6     -1825.246          39.000    24089125.852 5  96996920.629 5     -1398.329          33.000
E26  24297530.016 5 127684378.700 5        28.977          33.000    24297534.930 6  97836095.343 6        22.358          37.000
E31                                                                  23740023.703 5  95591236.861 5       523.568          32.000
E33  25548772.469 8 134259711.406 8      2514.500          48.000    25548775.336 8 102874325.726 8      1926.713          51.000
> 2020 05 14 09 12 30.0000000  0 18        .000000000000
G02  23144661.336 6 121626010.558 6      1128.078          37.000    23144667.297 5  94773540.237 5       879.022          34.000
G12  20246543.852 8 106396302.184 8      -884.000          51.000    20246542.391 8  82906201.810 8      -688.831          51.000
G24  21675351.109 8 113904730.383 8     -2630.480          50.000    21675354.125 8  88756931.566 8     -2049.728          50.000
G25  20425212.820 6 107335237.325 6      1053.633          36.000
G29  22623080.172 8 118885103.733 8      3371.039          48.000    22623082.477 8  92637721.184 8      2626.784          48.000
G32  22141941.805 5 116356678.083 5       175.793          30.000
R02  23072877.797 7 123121310.824 7     -3666.664          46.000    23072885.875 6  95761009.669 6     -2851.853          41.000
R11  21338780.195 5 114028078.976 5     -2447.609          35.000
R12  19523934.961 6 104293337.028 6       387.379          39.000    19523939.570 5  81117049.334 5       301.292          34.000
R22  19957529.977 8 106534659.022 8      2152.172          51.000    19957532.531 7  82860288.931 7      1673.914          46.000
C29  22790570.609 8 118676476.985 8      2435.090          50.000
C30  22438133.477 7 116841230.381 7      -755.660          45.000
E01                                                                  24884353.508 8 100199018.823 8     -1132.679          48.000
E04  27807275.086 5 146128216.607 5     -2991.789          31.000
E09  24099557.430 6 126644062.376 6     -1829.492          39.000    24099558.133 6  97038916.545 6     -1401.929          36.000
E26  24297387.891 5 127683636.029 5        20.348          32.000    24297388.086 6  97835522.455 6        15.489          37.000
E31                                                                  23736120.430 5  95575514.098 5       524.257          34.000
E33  25534422.188 8 134184305.424 8      2511.871          48.000    25534427.273 8 102816547.128 8      1924.704          51.000
> 2020 05 14 09 13  0.0000000  0 17        .000000000000
G02  23138281.492 5 121592474.756 5      1109.777          35.000    23138277.852 4  94747397.337 4       864.762          29.000
G12  20251635.148 8 106423057.607 8      -898.168          51.000    20251633.688 8  82927050.190 8      -699.871          51.000
G24  21690413.359 8 113983880.185 8     -2644.512          51.000    21690416.617 8  88818606.713 8     -2060.658          51.000
G25  20419245.945 5 107303870.493 5      1038.270          35.000    20419251.078 5  83613380.012 5       809.038          35.000
G29  22603876.625 8 118784185.241 8      3358.402          49.000    22603878.750 8  92559083.425 8      2616.937          49.000
R02  23093526.883 7 123231497.957 7     -3677.500          46.000    23093534.742 7  95846710.727 7     -2860.281          42.000
R11  21352562.102 5 114101728.297 5     -2460.254          34.000
R12  19521806.570 6 104281964.626 6       372.199          41.000    19521811.336 5  81108204.104 5       289.491          34.000
R21  21077214.641 5 112788445.973 5     -2336.289          30.000
R22  19945518.875 8 106470544.241 8      2123.723          51.000    19945521.859 8  82810421.918 8      1651.784          48.000
C29  22776589.664 8 118603673.789 8      2419.992          51.000
C30  22442547.203 7 116864213.155 7      -774.910          45.000
E01  24892817.242 5 130812638.832 5     -1485.809          33.000    24892818.688 7 100233103.633 7     -1138.408          47.000
E09  24110045.680 6 126699175.274 6     -1843.102          41.000    24110048.484 6  97081145.833 6     -1412.271          39.000
E26  24297328.320 5 127683326.975 5         1.586          34.000    24297329.453 6  97835288.695 6         1.506          38.000
E31                                                                  23732244.836 6  95559898.246 6       518.073          36.000
E33  25520120.508 8 134109152.425 8      2499.914          48.000    25520127.000 8 102758962.392 8      1915.495          51.000
> 2020 05 14 09 13 30.0000000  0 16        .000000000000
G12  20256790.250 8 106450147.833 8      -906.984          51.000    20256788.859 8  82948159.463 8      -706.741          51.000
G24  21705539.016 8 114063363.356 8     -2653.301          51.000    21705542.445 8  88880541.625 8     -2067.507          51.000
G25  20413341.055 5 107272845.325 5      1030.250          34.000    20413345.250 5  83589204.421 5       802.783          35.000
G29  22584726.961 8 118683550.188 8      3351.195          51.000    22584728.297 8  92480666.546 8      2611.324          51.000
R02  23114219.484 7 123341915.828 7     -3682.809          45.000    23114227.391 7  95932591.267 7     -2864.410          42.000
R11  21366397.438 5 114175663.989 5     -2468.617          31.000    21366420.461 4  88803300.852 4     -1920.036          26.000
R12  19519748.328 7 104270967.086 7       361.875          42.000    19519752.656 5  81099650.453 5       281.455          35.000
R21  21090400.219 5 112858915.202 5     -2357.875          34.000
R22  19933650.227 8 106407192.489 8      2100.645          50.000    19933654.336 8  82761148.372 8      1633.835          50.000
C29  22762678.227 8 118531232.568 8      2410.145          51.000
C30  22447055.641 7 116887688.623 7      -789.074          47.000
E01  24901310.086 6 130857250.354 6     -1487.547          36.000    24901307.984 7 100267286.460 7     -1139.806          46.000
E09  24120594.609 7 126754604.253 7     -1851.375          42.000    24120599.734 6  97123617.324 6     -1418.595          40.000
E26  24297356.828 5 127683477.518 5       -10.840          33.000    24297360.523 6  97835404.064 6        -8.491          38.000
E31                                                                  23728397.344 5  95544399.569 5       515.735          35.000
E33  25505869.891 8 134034267.369 8      2493.250          48.000    25505876.539 8 102701582.956 8      1910.388          51.000
> 2020 05 14 09 14  0.0000000  0 14        .000000000000
G12  20262000.273 8 106477526.406 8      -920.098          51.000    20261999.047 8  82969493.412 8      -716.959          51.000
G24  21720719.242 8 114143133.537 8     -2666.457          51.000    21720722.812 8  88942700.158 8     -2077.759          51.000
G29  22565623.086 8 118583155.270 8      3339.887          51.000    22565622.711 8  92402436.801 8      2602.512          51.000
R02  23134945.727 7 123452512.544 7     -3692.066          46.000    23134953.492 7  96018610.887 7     -2871.610          42.000
R11  21380279.555 5 114249838.876 5     -2479.379          30.000
R12  19517751.547 7 104260299.209 7       347.496          43.000    19517755.234 5  81091353.192 5       270.272          35.000
R22  19921916.078 8 106344560.071 8      2073.164          49.000    19921921.734 8  82712434.240 8      1612.461          51.000
C29  22748827.703 8 118459109.813 8      2396.156          49.000
C30  22451649.203 7 116911610.527 7      -807.449          45.000
E01  24909815.359 6 130901944.200 6     -1493.586          37.000    24909812.602 7 100301532.431 7     -1144.595          45.000
E09  24131194.977 7 126810301.948 7     -1863.613          43.000    24131201.359 6  97166294.795 6     -1428.044          41.000
E26  24297464.523 5 127684033.061 5       -28.613          34.000    24297468.375 6  97835833.645 6       -21.487          37.000
E31                                                                  23724569.180 5  95528983.252 5       510.527          34.000
E33  25491662.391 8 133959606.553 8      2482.191          48.000    25491668.164 8 102644375.307 8      1902.035          51.000
> 2020 05 14 09 14 30.0000000  0 15        .000000000000
G02  23119646.070 5 121494568.744 5      1065.762          33.000
G12  20267280.141 8 106505272.144 8      -929.297          51.000    20267279.078 8  82991113.469 8      -724.127          51.000
G24  21735968.977 8 114223269.066 8     -2675.523          51.000    21735972.242 8  89005143.381 8     -2084.823          51.000
G29  22546580.297 8 118483081.883 8      3332.121          51.000    22546578.336 8  92324457.597 8      2596.461          51.000
R02  23155719.492 7 123563364.955 7     -3697.508          45.000    23155726.789 6  96104829.372 6     -2875.839          40.000
R11  21394220.859 5 114324225.051 5     -2486.289          34.000    21394248.414 4  88918960.860 4     -1933.786          26.000
R12  19515831.359 7 104250043.083 7       336.547          42.000    19515834.523 5  81083376.189 5       261.759          35.000
R22  19910332.477 8 106282730.640 8      2049.246          51.000    19910339.086 8  82664344.661 8      1593.858          51.000
C29  22735053.781 8 118387386.155 8      2385.836          48.000
C30  22456343.820 7 116936056.651 7      -821.895          47.000
E01  24918349.453 5 130946810.112 5     -1495.871          33.000    24918348.516 7 100335902.536 7     -1146.405          44.000
E09  24141861.484 7 126866346.422 7     -1872.219          44.000    24141868.594 7  97209237.943 7     -1434.518          42.000
E26  24297665.531 5 127685093.277 5       -41.117          30.000    24297667.031 6  97836638.335 6       -31.706          36.000
E31  23720773.945 6 124653522.427 6       663.020          36.000    23720776.008 5  95513710.552 5       507.771          32.000
E33  25477513.312 8 133885251.427 8      2475.094          49.000    25477517.984 8 102587401.909 8      1896.500          51.000
> 2020 05 14 09 15  0.0000000  0 15        .000000000000
G02  23113602.406 6 121462812.634 6      1049.395          37.000
G12  20272614.211 8 106533303.237 8      -940.957          51.000    20272613.344 8  83012955.890 8      -733.213          51.000
G24  21751272.516 8 114303687.687 8     -2687.152          51.000    21751274.922 8  89067807.208 8     -2093.888          51.000
G29  22527583.281 8 118383251.769 8      3321.629          50.000    22527580.844 8  92246667.956 8      2588.285          50.000
R02  23176524.516 7 123674386.433 7     -3705.262          43.000    23176530.852 6  96191179.358 6     -2881.873          38.000
R12  19513973.383 7 104240117.796 7       323.617          45.000    19513976.062 6  81075656.496 6       251.702          36.000
R21  21130627.219 5 113074146.203 5     -2426.539          33.000
R22  19898885.805 8 106221624.789 8      2022.941          51.000    19898891.891 8  82616817.885 8      1573.399          51.000
C29  22721341.156 8 118315983.341 8      2372.965          48.000
C30  22461124.047 7 116960946.209 7      -838.859          46.000
E01  24926898.625 6 130991747.419 6     -1500.977          37.000    24926900.242 7 100370334.961 7     -1150.141          43.000
E09  24152578.312 7 126922655.305 7     -1883.285          44.000    24152584.656 6  97252383.699 6     -1442.962          41.000
E26                                                                  24297946.578 6  97837756.347 6       -43.798          36.000
E31  23717002.047 6 124633697.223 6       657.133          38.000    23717002.797 5  95498541.828 5       503.745          31.000
E33  25463407.797 8 133811123.199 8      2465.270          51.000    25463410.734 8 102530602.347 8      1888.997          51.000
> 2020 05 14 09 15 30.0000000  0 15        .000000000000
G02  23107664.000 5 121431593.102 5      1034.773          34.000
G12  20278005.625 8 106561635.640 8      -951.328          51.000    20278004.781 8  83035033.089 8      -741.295          51.000
G24  21766632.453 8 114384404.827 8     -2697.496          50.000    21766634.094 8  89130703.644 8     -2101.945          50.000
G29  22508635.148 8 118283683.295 8      3312.719          49.000    22508633.555 8  92169082.135 8      2581.339          49.000
R02  23197363.742 7 123785589.240 7     -3711.656          42.000    23197368.547 6  96277670.361 6     -2886.847          37.000
R12  19512180.727 7 104230541.359 7       311.438          44.000    19512181.633 6  81068208.193 6       242.232          36.000
R21  21144277.969 4 113147253.439 4     -2448.688          29.000
R22  19887578.617 8 106161262.099 8      1997.738          51.000    19887583.656 8  82569869.151 8      1553.796          51.000
C29  22707693.914 8 118244919.381 8      2361.270          49.000
C30  22465991.672 7 116986294.326 7      -854.586          46.000
E01  24935467.820 6 131036782.421 6     -1504.621          38.000    24935470.273 7 100404842.385 7     -1152.832          42.000
E09  24163348.062 7 126979243.446 7     -1892.762          43.000    24163352.797 6  97295743.400 6     -1450.235          41.000
E26  24298304.453 5 127688446.613 5       -71.359          35.000    24298305.820 5  97839200.212 5       -54.813          33.000
E31  23713253.734 6 124613995.721 6       653.164          38.000    23713253.438 5  95483443.945 5       500.333          32.000
E33  25449349.156 8 133737240.176 8      2456.840          51.000    25449350.758 8 102473990.699 8      1882.469          51.000
> 2020 05 14 09 16  0.0000000  0 16        .000000000000
G02  23101800.266 5 121400807.101 5      1020.352          34.000    23101792.852 4  94597971.438 4       795.079          28.000
G12  20283487.766 8 106590444.869 8      -961.512          51.000    20283486.719 8  83057481.832 8      -749.230          51.000
G24  21782081.836 7 114465595.620 7     -2707.410          47.000    21782083.484 7  89193969.156 7     -2109.673          47.000
G25  20384773.078 5 107122706.016 5       974.578          33.000
