     3.02           OBSERVATION DATA    M (MIXED)           RINEX VERSION / TYPE
SAVERINEX           SC600               20200504 155931 LCL PGM / RUN BY / DATE
       G = GPS       R = GLONASS       C = COMPASS          COMMENT
       S = SBAS      J = QZSS          E = GALILEO          COMMENT
BEAN                                                        MARKER NAME
1                                                           MARKER NUMBER
GEODETIC                                                    MARKER TYPE
Unige DICCA         GTER                                    OBSERVER / AGENCY
SC60291900056       SC600               2.12(191226)        REC # / TYPE / VERS
                    HEMA45          NONE                    ANT # / TYPE
  4509407.8091   693652.4678  4442337.6214                  APPROX POSITION XYZ
        0.0000        0.0000        0.0000                  ANTENNA: DELTA H/E/N
G    8 C1C L1C D1C S1C C2Y L2Y D2Y S2Y                      SYS / # / OBS TYPES
R    8 C1C L1C D1C S1C C2P L2P D2P S2P                      SYS / # / OBS TYPES
C    8 C1I L1I D1I S1I C7I L7I D7I S7I                      SYS / # / OBS TYPES
E    8 C1C L1C D1C S1C C7Q L7Q D7Q S7Q                      SYS / # / OBS TYPES
DBHZ                                                        COMMENT
     30.000                                                 INTERVAL
  2020    05    04    13    00    0.0000000     GPS         TIME OF FIRST OBS
  2020    05    04    13    59   30.0000000     GPS         TIME OF LAST OBS
     0                                                      RCV CLOCK OFFS APPL
G L1C  0.00000                                              SYS / PHASE SHIFT
G L2Y  0.00000                                              SYS / PHASE SHIFT
R L1C  0.00000                                              SYS / PHASE SHIFT
R L2P  0.25000                                              SYS / PHASE SHIFT
C L1I  0.00000                                              SYS / PHASE SHIFT
C L7I  0.00000                                              SYS / PHASE SHIFT
E L1C  0.50000                                              SYS / PHASE SHIFT
E L7Q -0.25000                                              SYS / PHASE SHIFT
 13 R05  1 R06 -4 R07  5 R08  6 R09 -2 R10 -5 R11  0 R12 -1 GLONASS SLOT / FRQ #
    R19  3 R20  2 R21  4 R22 -3 R23  3                      GLONASS SLOT / FRQ #
 C1C   71.950 C2C   71.950 C2P   71.950                     GLONASS COD/PHS/BIS
    18                                                      LEAP SECONDS
*** Above antenna height is from mark to ANTENNA BOTTOM.    COMMENT
    17     4        0.0000        ANT MEASURE TYPE/HEIGT    COMMENT
    0.0000    0.0000    0.0458    0.0405    0.0000          COMMENT
                    BASE STATION                            COMMENT
                                                            END OF HEADER
> 2020 05 04 13 00  0.0000000  0 16        .000000000000
G18  20941521.094 8 110048491.266 8      1957.941          51.000    20941521.180 7  85752067.123 7      1525.669          47.000
G21  21062259.883 8 110682940.478 8      1515.777          51.000    21062258.070 8  86246457.829 8      1181.125          50.000
G25  22581241.352 6 118665211.525 6     -2904.617          40.000    22581242.914 6  92466386.589 6     -2263.338          39.000
G29  20925781.359 8 109965713.575 8     -1700.902          51.000    20925781.078 8  85687576.979 8     -1325.378          51.000
G31  21342775.492 8 112157044.028 8     -1164.562          48.000    21342775.336 8  87395086.950 8      -907.454          49.000
R11  19885865.859 8 106264069.746 8     -2374.473          51.000    19885867.977 8  82649803.461 8     -1846.812          49.000
R21  20173502.914 6 107952464.675 6     -2525.508          36.000    20173513.492 5  83963043.194 5     -1964.278          30.000
R22  19593719.328 8 104592594.291 8      1503.930          51.000    19593721.156 8  81349827.402 8      1169.723          48.000
C05  39628547.375 5 206356243.891 5        20.613          35.000    39628546.508 6 159567734.575 6        15.647          37.000
C11  23159960.836 7 120600075.944 7     -2165.309          43.000    23159960.602 7  93255579.114 7     -1674.212          42.000
C23  22351666.930 8 116390978.227 8     -1480.547          51.000
C28  22596659.797 8 117666723.617 8      1891.965          51.000
E12  21585558.844 8 113432902.063 8       544.918          48.000    21585558.266 8  86916126.253 8       417.496          51.000
E24  21658382.461 8 113815569.412 8       409.836          51.000    21658395.438 8  87209373.150 8       313.973          51.000
E31  24944920.227 8 131086421.430 8     -2077.883          49.000    24944923.391 8 100442843.621 8     -1592.189          51.000
E33  25233235.492 5 132601546.179 5     -2096.820          35.000    25233237.406 5 101603805.884 5     -1606.337          35.000
> 2020 05 04 13 00 30.0000000  0 17        .000000000000
G18  20930393.594 8 109990014.963 8      1941.129          51.000    20930393.344 7  85706501.201 7      1512.568          46.000
G21  21053655.180 8 110637721.014 8      1499.598          51.000    21053653.391 8  86211221.900 8      1168.518          50.000
G25  22597848.039 6 118752479.839 6     -2912.602          40.000    22597849.477 6  92534387.796 6     -2269.563          40.000
G29  20935520.508 8 110016893.515 8     -1710.352          51.000    20935520.266 8  85727457.452 8     -1332.741          51.000
G31  21349478.719 8 112192269.339 8     -1182.906          48.000    21349476.766 8  87422535.219 8      -921.745          48.000
R11  19899256.828 8 106335626.047 8     -2395.117          51.000    19899258.633 8  82705458.340 8     -1862.869          48.000
R12  19551432.406 5 104440227.937 5      1616.977          33.000
R21  20187700.453 6 108028440.145 6     -2538.934          38.000    20187706.867 4  84022135.405 4     -1974.726          24.000
R22  19585326.148 8 104547793.986 8      1483.488          51.000    19585327.258 7  81314982.740 7      1153.824          47.000
C05  39628432.180 6 206355644.786 6        20.199          36.000    39628431.383 6 159567270.501 6        15.716          37.000
C11  23172455.062 7 120665137.113 7     -2171.539          42.000    23172454.828 7  93305888.506 7     -1679.274          42.000
C23  22360240.844 8 116435626.658 8     -1495.297          51.000
C28  22585790.961 8 117610125.131 8      1882.102          51.000
E12  21582486.047 7 113416755.987 7       532.324          47.000    21582485.469 8  86903754.592 8       407.855          51.000
E24  21656075.375 8 113803445.006 8       399.309          51.000    21656088.047 8  87200083.017 8       305.922          51.000
E31  24956808.094 8 131148895.170 8     -2086.266          48.000    24956812.375 8 100490713.079 8     -1598.522          51.000
E33  25245227.031 6 132664563.618 6     -2103.770          37.000    25245229.383 5 101652091.981 5     -1611.836          34.000
> 2020 05 04 13 01  0.0000000  0 18        .000000000000
G18  20919352.102 8 109931991.135 8      1924.312          50.000    20919351.375 7  85661287.896 7      1499.467          46.000
G21  21045132.000 8 110592930.655 8      1483.602          51.000    21045130.242 8  86176320.339 8      1156.056          50.000
G25  22614488.914 6 118839927.517 6     -2920.465          41.000    22614490.727 6  92602528.801 6     -2275.684          40.000
G26  21561212.758 5 113304902.922 5      2347.906          34.000
G29  20945301.734 8 110068294.241 8     -1719.312          51.000    20945301.469 8  85767509.968 8     -1339.721          51.000
G31  21356274.852 8 112227983.061 8     -1200.879          49.000    21356272.414 8  87450364.055 8      -935.750          49.000
R11  19912752.305 8 106407742.928 8     -2415.570          51.000    19912754.289 7  82761549.206 7     -1878.777          47.000
R12  19542404.945 5 104391978.908 5      1596.406          32.000    19542406.727 4  81193799.959 4      1241.649          28.000
R21  20201964.383 6 108104767.004 6     -2552.270          39.000
R22  19577037.391 8 104503547.064 8      1463.363          51.000    19577038.516 8  81280568.492 8      1138.171          49.000
C05  39628306.367 6 206354989.988 6        20.543          36.000    39628305.734 6 159566764.171 6        15.758          37.000
C11  23184974.789 7 120730331.408 7     -2177.758          42.000    23184974.703 6  93356300.846 6     -1683.787          41.000
C23  22368888.703 8 116480659.470 8     -1509.652          51.000
C28  22574967.953 8 117553766.496 8      1872.320          51.000
E12  21579474.203 8 113400929.999 8       519.809          48.000    21579474.039 8  86891628.199 8       398.418          51.000
E24  21653817.602 8 113791579.932 8       388.910          51.000    21653829.938 8  87190991.590 8       297.966          51.000
E31  24968732.836 8 131211559.695 8     -2094.305          50.000    24968737.797 8 100538728.732 8     -1604.712          51.000
E33  25257249.805 6 132727746.192 6     -2111.133          37.000    25257250.727 5 101700504.564 5     -1617.549          33.000
> 2020 05 04 13 01 30.0000000  0 18        .000000000000
G18  20908435.266 8 109874622.400 8      1906.805          50.000    20908434.336 7  85616585.064 7      1485.825          47.000
G21  21036728.508 8 110548771.068 8      1466.934          50.000    21036726.734 8  86141910.281 8      1143.065          49.000
G25  22631201.750 6 118927754.547 6     -2928.238          39.000    22631204.070 6  92670965.493 6     -2281.744          39.000
G29  20955163.039 8 110120115.431 8     -1728.910          51.000    20955162.594 8  85807890.112 8     -1347.203          51.000
G31  21363202.047 8 112264385.289 8     -1219.496          50.000    21363200.570 8  87478729.399 8      -950.260          50.000
R11  19926389.711 7 106480622.971 7     -2436.539          47.000    19926393.039 7  82818233.625 7     -1895.086          46.000
R12  19533520.695 5 104344518.536 5      1573.953          32.000    19533525.016 4  81156885.717 4      1224.183          29.000
R21  20216331.750 5 108181646.683 5     -2566.430          33.000    20216330.789 4  84141285.913 4     -1996.109          28.000
R22  19568890.523 8 104460057.528 8      1442.539          51.000    19568891.945 8  81246743.315 8      1121.975          49.000
C05                                                                  39628207.742 6 159566369.643 6        15.384          38.000
C11  23197557.969 6 120795856.540 6     -2184.273          41.000    23197558.094 7  93406969.080 7     -1689.010          42.000
C23  22377648.430 8 116526275.125 8     -1524.785          51.000
C25  25465994.125 5 132608121.918 5     -3386.336          34.000
C28  22564229.164 8 117497847.266 8      1862.023          51.000
E12  21576561.703 8 113385624.860 8       506.988          48.000    21576561.742 8  86879900.912 8       388.454          51.000
E24  21651647.719 8 113780176.140 8       377.930          51.000    21651659.820 8  87182253.620 8       289.553          51.000
E31  24980732.547 8 131274615.645 8     -2102.918          51.000    24980737.094 8 100587044.311 8     -1611.300          51.000
E33  25269341.641 5 132791286.235 5     -2118.711          34.000    25269341.578 5 101749196.430 5     -1623.392          33.000
> 2020 05 04 13 02  0.0000000  0 18        .000000000000
G18  20897596.219 8 109817662.811 8      1889.832          48.000    20897595.492 8  85572201.005 8      1472.596          48.000
G21  21028397.656 8 110504995.404 8      1450.648          48.000    21028396.117 8  86107799.389 8      1130.375          48.000
G25  22647938.789 6 119015712.592 6     -2936.492          37.000    22647942.750 6  92739504.235 6     -2288.179          37.000
G29  20965057.008 8 110172107.869 8     -1738.008          51.000    20965056.250 8  85848403.690 8     -1354.292          51.000
G31  21370212.977 8 112301227.063 8     -1237.398          50.000    21370212.766 8  87507437.265 8      -964.207          50.000
R11  19940121.984 7 106554012.384 7     -2456.855          46.000    19940126.680 7  82875314.300 7     -1910.888          46.000
R12  19524739.406 5 104297597.631 5      1552.508          30.000    19524740.516 4  81120391.767 4      1207.509          27.000
R21  20230754.141 5 108258823.626 5     -2579.535          35.000    20230752.445 4  84201312.497 4     -2006.302          29.000
R22  19560838.180 8 104417074.464 8      1422.227          51.000    19560840.289 8  81213312.023 8      1106.173          50.000
C05  39628091.227 6 206353868.881 6        19.867          36.000    39628090.391 6 159565897.211 6        15.402          38.000
C11  23210157.586 6 120861465.753 6     -2190.141          40.000    23210157.781 7  93457702.315 7     -1693.803          42.000
C23  22386473.148 8 116572227.367 8     -1539.352          51.000
C25  25485510.492 6 132709745.827 6     -3389.816          36.000
C28  22553527.719 8 117442122.398 8      1852.129          51.000
E12  21573701.062 7 113370592.672 7       494.367          47.000    21573701.203 8  86868382.742 8       378.843          51.000
E24  21649518.680 8 113768986.943 8       367.285          51.000    21649530.711 8  87173680.078 8       281.426          51.000
E31  24992759.922 8 131337814.939 8     -2111.121          51.000    24992763.633 8 100635469.713 8     -1617.654          51.000
E33                                                                  25281455.859 5 101797976.700 5     -1629.175          34.000
> 2020 05 04 13 02 30.0000000  0 18        .000000000000
G18  20886859.727 7 109761245.154 7      1872.547          46.000    20886859.812 7  85528239.196 7      1459.127          46.000
G21  21020165.156 8 110461735.644 8      1434.438          49.000    21020163.703 8  86074090.512 8      1117.747          49.000
G25  22664726.430 7 119103931.821 7     -2944.105          42.000    22664731.031 7  92808246.455 7     -2294.108          42.000
G29  20975008.305 8 110224401.738 8     -1747.164          51.000    20975007.352 8  85889152.143 8     -1361.427          51.000
G31  21377332.156 8 112338638.440 8     -1255.469          50.000    21377332.891 8  87536588.982 8      -978.287          50.000
R11  19953975.398 8 106628043.002 8     -2477.301          50.000    19953980.484 7  82932893.668 7     -1926.789          47.000
R12  19516076.062 5 104251347.059 5      1530.719          31.000
R21  20245256.734 5 108336428.471 5     -2592.941          35.000    20245255.344 5  84261671.830 5     -2016.729          31.000
R22  19552905.742 8 104374730.754 8      1401.770          51.000    19552908.406 8  81180378.028 8      1090.268          51.000
C05  39627979.469 5 206353287.241 5        19.855          35.000    39627978.641 6 159565447.435 6        15.483          38.000
C11  23222798.211 7 120927287.533 7     -2196.637          42.000    23222798.352 7  93508599.865 7     -1698.470          43.000
C23  22395387.719 8 116618645.352 8     -1554.062          51.000
C25  25505052.312 6 132811504.672 6     -3393.383          36.000
C28  22542888.883 8 117386722.190 8      1842.156          51.000
E12  21570917.469 8 113355964.323 8       481.930          48.000    21570917.727 8  86857174.016 8       369.217          51.000
E24  21647455.516 8 113758144.440 8       356.590          51.000    21647467.664 8  87165372.180 8       273.258          51.000
E31  25004839.359 8 131401288.298 8     -2119.414          51.000    25004841.938 8 100684105.116 8     -1623.928          51.000
E33  25293618.250 5 132918860.948 5     -2133.918          32.000    25293618.055 5 101846944.656 5     -1634.481          35.000
> 2020 05 04 13 03  0.0000000  0 18        .000000000000
G18  20876217.734 7 109705327.850 7      1854.789          43.000    20876219.133 7  85484667.267 7      1445.290          44.000
G21  21012023.109 8 110418949.535 8      1417.660          50.000    21012021.797 8  86040750.713 8      1104.670          49.000
G25  22681555.672 7 119192368.089 7     -2952.211          42.000    22681560.109 7  92877157.819 7     -2300.424          42.000
G29  20985008.336 8 110276952.296 8     -1756.652          51.000    20985007.508 8  85930100.630 8     -1368.820          51.000
G31  21384551.164 8 112376574.988 8     -1273.945          49.000    21384552.078 8  87566149.918 8      -992.685          49.000
R11  19967941.094 8 106702669.228 8     -2498.148          51.000    19967945.984 8  82990936.241 8     -1943.007          48.000
R12  19507536.953 4 104205737.062 4      1509.160          26.000
R21  20259829.672 6 108414413.670 6     -2606.352          39.000    20259829.945 5  84322327.013 5     -2027.162          35.000
R22  19545084.859 8 104332982.994 8      1380.980          51.000    19545087.766 8  81147907.579 8      1074.096          51.000
C05  39627865.328 5 206352693.725 5        19.562          35.000    39627864.445 6 159564987.340 6        14.849          38.000
C11  23235471.477 7 120993277.733 7     -2203.199          42.000    23235471.305 7  93559627.650 7     -1703.421          43.000
C23  22404383.328 8 116665485.478 8     -1569.062          51.000
C25  25524611.555 6 132913353.818 6     -3397.426          38.000
C28  22532304.328 8 117331604.238 8      1831.883          51.000
E12  21568202.711 8 113341696.443 8       468.883          48.000    21568203.227 8  86846241.486 8       359.253          51.000
E24  21645450.328 8 113747606.408 8       345.547          51.000    21645462.484 8  87157297.586 8       264.722          51.000
E31  25016962.156 8 131464992.153 8     -2127.973          51.000    25016964.539 8 100732917.107 8     -1630.486          51.000
E33  25305817.594 5 132982970.543 5     -2140.676          35.000    25305818.469 5 101896066.125 5     -1640.489          35.000
> 2020 05 04 13 03 30.0000000  0 19        .000000000000
G18  20865676.109 7 109649936.397 7      1837.328          43.000    20865678.297 7  85441505.058 7      1431.684          43.000
G21  21003976.039 8 110376661.508 8      1401.113          51.000    21003975.031 8  86007799.031 8      1091.777          49.000
G25  22698429.625 6 119281044.354 6     -2959.867          37.000    22698433.438 6  92946256.117 6     -2306.393          37.000
G26  21494855.242 5 112956226.069 5      2302.277          30.000
G29  20995061.492 8 110329782.104 8     -1765.898          51.000    20995060.867 8  85971266.706 8     -1376.025          51.000
G31  21391874.344 8 112415058.960 8     -1292.160          49.000    21391874.414 8  87596137.420 8     -1006.881          49.000
R11  19982022.945 8 106777913.311 8     -2518.609          51.000    19982027.359 8  83049459.375 8     -1958.921          48.000
R12  19499121.070 6 104160800.366 6      1486.809          36.000    19499129.008 4  81013980.836 4      1156.407          27.000
R21  20274479.539 6 108492800.846 6     -2619.484          36.000    20274479.820 6  84383294.792 6     -2037.374          36.000
R22  19537380.234 8 104291855.333 8      1360.359          51.000    19537383.367 8  81115919.407 8      1058.057          51.000
C05  39627753.078 6 206352108.478 6        19.102          36.000    39627752.227 6 159564535.150 6        14.746          37.000
C11  23248181.258 6 121059458.456 6     -2209.406          41.000    23248180.430 6  93610802.807 6     -1708.453          40.000
C23  22413464.273 8 116712770.505 8     -1583.781          51.000
C25  25544192.883 6 133015315.217 6     -3400.660          36.000
C28  22521778.312 8 117276792.556 8      1821.754          51.000
E12  21565560.984 8 113327812.557 8       456.160          48.000    21565561.539 8  86835603.193 8       349.453          51.000
E24  21643507.828 8 113737397.650 8       334.508          51.000    21643519.859 8  87149475.295 8       256.269          51.000
E31  25029132.797 8 131528949.922 8     -2136.430          51.000    25029135.156 8 100781923.684 8     -1637.014          51.000
E33  25318057.695 5 133047290.928 5     -2148.676          34.000    25318060.156 5 101945358.141 5     -1645.969          34.000
> 2020 05 04 13 04  0.0000000  0 19        .000000000000
G18  20855236.438 7 109595074.150 7      1819.973          45.000    20855238.133 7  85398755.275 7      1418.161          45.000
G21  20996024.383 8 110334874.364 8      1384.719          51.000    20996023.531 8  85975237.654 8      1079.002          49.000
G25  22715348.445 6 119369961.605 6     -2967.523          36.000    22715352.227 6  93015542.167 6     -2312.359          36.000
G26  21481736.969 5 112887280.765 5      2293.371          34.000
G29  21005167.930 8 110382891.771 8     -1774.867          51.000    21005167.289 8  86012650.854 8     -1383.013          51.000
G31  21399301.719 8 112454090.997 8     -1310.125          49.000    21399300.281 8  87626551.975 8     -1020.877          49.000
R11  19996220.383 8 106853775.466 8     -2538.785          51.000    19996223.859 7  83108463.232 7     -1974.611          47.000
R12  19490831.414 5 104116519.191 5      1464.574          31.000    19490835.102 4  80979539.999 4      1139.113          26.000
R21  20289202.109 5 108571588.341 5     -2632.477          33.000    20289202.797 5  84444574.043 5     -2047.479          35.000
R22  19529791.477 8 104251350.012 8      1339.930          50.000    19529795.430 8  81084415.280 8      1042.168          50.000
C05  39627643.258 6 206351535.913 6        19.160          36.000    39627642.406 6 159564092.422 6        14.616          37.000
C11  23260927.430 6 121125830.327 6     -2215.598          39.000    23260925.586 6  93662125.706 6     -1713.216          39.000
C23  22422630.859 8 116760501.442 8     -1598.336          51.000
C25  25563795.625 5 133117389.147 5     -3404.371          32.000
C28  22511311.297 8 117222289.305 8      1811.758          51.000
E12  21562992.539 8 113314314.305 8       443.621          49.000    21562992.875 8  86825260.369 8       339.947          51.000
E24  21641628.344 8 113727521.000 8       323.734          51.000    21641640.414 8  87141907.457 8       248.086          51.000
E31  25041351.531 8 131593163.020 8     -2144.652          50.000    25041354.992 8 100831125.894 8     -1643.257          51.000
E33                                                                  25330343.031 5 101994821.088 5     -1651.336          33.000
> 2020 05 04 13 04 30.0000000  0 17        .000000000000
G18  20844892.211 7 109540712.207 7      1799.621          47.000    20844893.633 7  85356395.353 7      1402.305          47.000
G21  20988162.367 8 110293558.936 8      1365.234          50.000    20988161.578 8  85943043.846 8      1063.819          49.000
G25  22732309.367 6 119459088.412 6     -2978.676          41.000    22732312.789 6  93084991.571 6     -2321.046          40.000
G29  21015321.641 8 110436249.751 8     -1786.816          51.000    21015320.719 8  86054228.493 8     -1392.324          51.000
G31  21406827.398 8 112493639.873 8     -1330.941          49.000    21406824.906 8  87657369.275 8     -1037.097          49.000
R11  20010526.828 8 106930222.990 8     -2562.031          51.000    20010529.656 7  83167922.411 7     -1992.691          46.000
R21  20303994.062 5 108650742.240 5     -2648.551          30.000    20303994.695 6  84506138.082 6     -2059.981          36.000
R22  19522313.906 8 104211436.037 8      1316.500          51.000    19522317.664 8  81053371.130 8      1023.947          50.000
C05  39627529.836 5 206350946.424 5        15.453          35.000    39627528.812 6 159563635.796 6        12.324          37.000
C11  23273703.578 6 121192361.574 6     -2224.586          37.000    23273701.594 6  93713571.802 6     -1719.983          39.000
C23  22431876.805 8 116808647.221 8     -1615.836          51.000
C25  25583414.297 4 133219551.001 4     -3409.609          28.000
C28  22500897.430 8 117168064.616 8      1798.844          49.000
E12  21560491.766 8 113301170.900 8       428.141          49.000    21560491.938 8  86815189.450 8       328.044          51.000
E24  21639806.375 8 113717946.854 8       310.023          51.000    21639818.453 8  87134571.423 8       237.583          51.000
E31  25053612.586 8 131657600.536 8     -2155.648          48.000    25053617.266 8 100880500.095 8     -1651.761          51.000
E33                                                                  25342662.391 5 102044399.416 5     -1659.258          33.000
> 2020 05 04 13 05  0.0000000  0 18        .000000000000
G18  20834644.148 8 109486856.740 8      1786.707          48.000    20834645.711 8  85314430.085 8      1392.239          48.000
G21  20980390.711 8 110252720.198 8      1353.387          48.000    20980390.281 8  85911221.475 8      1054.587          48.000
G25  22749311.219 7 119548428.444 7     -2981.594          43.000    22749315.211 7  93154607.120 7     -2323.320          43.000
G26  21455644.570 5 112750163.773 5      2276.465          34.000
G29  21025523.312 8 110489859.593 8     -1791.160          51.000    21025522.125 8  86096002.380 8     -1395.709          51.000
G31  21414452.070 8 112533708.379 8     -1344.246          50.000    21414449.609 8  87688591.492 8     -1047.464          50.000
R11  20024943.172 8 107007258.302 8     -2577.637          51.000    20024945.430 7  83227838.769 7     -2004.832          47.000
R12  19474611.430 5 104029877.841 5      1422.969          30.000    19474612.922 4  80912137.678 4      1106.750          25.000
R21  20318851.734 6 108730287.682 6     -2656.465          37.000    20318857.242 6  84567988.205 6     -2066.139          37.000
R22  19514948.102 8 104172117.969 8      1300.773          51.000    19514951.766 8  81022790.414 8      1011.713          50.000
C05  39627413.883 6 206350343.091 6        20.277          36.000    39627412.703 6 159563168.877 6        15.701          37.000
C11  23286510.117 5 121259055.278 5     -2225.988          35.000    23286509.477 6  93765143.605 6     -1720.937          40.000
C23  22441202.867 8 116857211.518 8     -1625.688          51.000
C28  22490537.938 8 117114123.432 8      1793.395          49.000
E12  21558059.242 8 113288386.671 8       420.164          49.000    21558059.305 8  86805393.741 8       321.959          51.000
E24  21638043.047 8 113708680.782 8       303.773          51.000    21638055.148 8  87127471.447 8       232.746          51.000
E31  25065917.008 8 131722266.647 8     -2159.336          48.000    25065923.180 8 100930049.441 8     -1654.583          51.000
E33                                                                  25355019.969 5 102094157.476 5     -1661.138          35.000
> 2020 05 04 13 05 30.0000000  0 17        .000000000000
G18  20824495.617 8 109433523.280 8      1768.258          50.000    20824497.078 8  85272871.538 8      1377.863          49.000
G21  20972712.008 7 110212372.436 7      1335.977          46.000    20972712.328 7  85879781.656 7      1041.021          46.000
G25  22766356.117 7 119637994.676 7     -2989.898          42.000    22766359.891 7  93224398.995 7     -2329.791          43.000
G29  21035775.266 8 110543733.424 8     -1800.914          51.000    21035774.008 8  86137981.978 8     -1403.310          51.000
G31  21422178.086 8 112574309.245 8     -1362.914          51.000    21422176.352 8  87720228.516 8     -1062.011          51.000
R11  20039471.938 8 107084893.734 8     -2598.539          51.000    20039473.805 8  83288221.844 8     -2021.086          48.000
R12  19466692.312 5 103987544.125 5      1399.312          33.000    19466687.523 4  80879186.611 4      1088.363          27.000
R21  20333783.055 6 108810188.110 6     -2670.633          38.000    20333788.922 5  84630132.944 5     -2077.159          34.000
R22  19507696.547 8 104133410.158 8      1279.344          51.000    19507700.430 8  80992684.319 8       995.045          51.000
C05  39627298.031 6 206349738.388 6        19.168          36.000    39627296.711 6 159562702.414 6        15.124          37.000
C11  23299351.055 5 121325924.132 5     -2232.547          35.000    23299351.477 6  93816850.855 6     -1726.389          41.000
C23  22450611.977 8 116906207.230 8     -1641.074          51.000
C28  22480236.359 8 117060479.837 8      1782.434          51.000
E12  21555697.586 8 113275975.237 8       406.688          49.000    21555697.328 8  86795883.691 8       311.633          51.000
E24  21636341.133 8 113699737.659 8       291.941          51.000    21636353.320 8  87120618.916 8       223.734          51.000
E31  25078268.062 8 131787174.880 8     -2168.449          50.000    25078274.875 8 100979784.301 8     -1661.533          51.000
E33                                                                  25367417.672 6 102144073.818 6     -1667.088          36.000
> 2020 05 04 13 06  0.0000000  0 17        .000000000000
G18  20814466.430 8 109380817.828 8      1751.918          49.000    20814467.898 8  85231802.345 8      1365.131          49.000
G21  20965146.891 7 110172621.208 7      1320.719          45.000    20965148.008 7  85848806.685 7      1029.131          45.000
G25  22783463.406 6 119727890.859 6     -2996.574          41.000    22783467.688 6  93294447.937 6     -2334.993          40.000
G29  21046097.070 8 110597974.609 8     -1808.668          51.000    21046095.977 8  86180247.831 8     -1409.352          51.000
G31  21430025.250 8 112615545.386 8     -1379.617          51.000    21430024.117 8  87752360.569 8     -1075.026          51.000
R11  20054132.312 8 107163233.827 8     -2617.426          51.000    20054134.156 8  83349152.985 8     -2035.776          48.000
R12  19458903.086 5 103945985.502 5      1378.027          32.000    19458912.586 5  80846888.807 5      1071.799          30.000
R21  20348805.328 5 108890570.655 5     -2681.551          33.000    20348805.742 5  84692652.601 5     -2085.654          31.000
R22  19500579.898 8 104095418.727 8      1260.156          51.000    19500583.164 8  80963135.426 8       980.118          51.000
C05  39627202.102 6 206349239.408 6        20.438          36.000    39627200.812 6 159562316.611 6        15.704          38.000
C11  23312246.375 6 121393070.228 6     -2237.172          36.000    23312246.641 6  93868772.534 6     -1730.189          39.000
C23  22460123.680 8 116955737.040 8     -1654.453          51.000
C28  22470012.070 8 117007237.790 8      1773.516          51.000
E12  21553426.695 8 113264040.869 8       395.367          50.000    21553426.094 8  86786739.179 8       302.962          51.000
E24  21634720.797 8 113691222.933 8       282.266          51.000    21634732.930 8  87114094.642 8       216.272          51.000
E31  25090685.953 8 131852429.283 8     -2175.387          51.000    25090692.758 8 101029784.401 8     -1666.870          51.000
E33                                                                  25379874.312 6 102194227.442 6     -1671.826          36.000
> 2020 05 04 13 06 30.0000000  0 18        .000000000000
G18  20804518.172 8 109328538.382 8      1733.590          49.000    20804519.836 8  85191065.122 8      1350.849          50.000
G21  20957657.641 8 110133264.210 8      1303.422          48.000    20957658.906 8  85818138.903 8      1015.653          48.000
G25  22800594.242 7 119817912.585 7     -3004.684          42.000    22800598.562 7  93364594.721 7     -2341.312          43.000
G29  21056449.797 8 110652378.470 8     -1818.094          51.000    21056448.898 8  86222640.450 8     -1416.696          51.000
G31  21437954.602 8 112657212.174 8     -1397.996          51.000    21437953.461 8  87784828.187 8     -1089.348          51.000
R11  20068885.469 8 107242069.772 8     -2638.078          51.000    20068887.328 8  83410469.805 8     -2051.839          49.000
R12  19451230.922 5 103904991.792 5      1355.191          31.000    19451234.609 4  80815004.867 4      1054.038          29.000
R21  20363877.219 4 108971224.928 4     -2695.070          26.000    20363877.359 5  84755383.729 5     -2096.157          33.000
R22  19493558.922 8 104057937.176 8      1238.941          51.000    19493561.203 8  80933983.115 8       963.621          50.000
C05  39627087.688 6 206348643.312 6        19.434          36.000    39627086.227 6 159561855.644 6        15.196          37.000
C11  23325155.828 6 121460290.674 6     -2243.598          36.000    23325155.656 6  93920751.627 6     -1735.004          39.000
C23  22469698.562 8 117005598.507 8     -1669.543          49.000
C28  22459826.078 8 116954196.094 8      1762.812          50.000
E11  25094622.695 6 131873131.154 6      2691.969          40.000
E12  21551207.820 8 113252379.856 8       382.336          49.000    21551206.852 8  86777804.123 8       292.920          51.000
E24  21633143.484 8 113682934.188 8       270.648          51.000    21633155.578 8  87107743.525 8       207.371          51.000
E31  25103131.258 8 131917826.077 8     -2184.133          51.000    25103137.133 8 101079893.601 8     -1673.583          51.000
E33                                                                  25392350.016 5 102244461.298 5     -1677.337          35.000
> 2020 05 04 13 07  0.0000000  0 18        .000000000000
G18  20794673.430 8 109276802.519 8      1716.613          51.000    20794675.000 8  85150751.495 8      1337.621          51.000
G21  20950265.719 8 110094417.309 8      1287.547          49.000    20950266.891 8  85787868.595 8      1003.283          50.000
G25  22817771.125 7 119908174.770 7     -3011.668          43.000    22817775.273 7  93434928.911 7     -2346.754          43.000
G29  21066855.352 8 110707059.921 8     -1826.172          51.000    21066854.523 8  86265249.359 8     -1422.991          51.000
G31  21445987.562 8 112699424.340 8     -1414.992          51.000    21445986.141 8  87817720.751 8     -1102.591          51.000
R11  20083753.086 8 107321517.479 8     -2657.277          51.000    20083754.805 8  83472262.440 8     -2066.771          48.000
R12  19443685.023 5 103864686.593 5      1332.883          33.000    19443685.180 4  80783640.825 4      1036.690          26.000
R21  20379021.969 6 109052234.081 6     -2706.641          36.000    20379026.422 5  84818426.721 5     -2105.168          32.000
R22  19486655.320 8 104021083.009 8      1219.129          51.000    19486657.164 8  80905318.775 8       948.214          50.000
C05  39626976.648 5 206348064.825 5        20.180          35.000    39626975.047 6 159561407.336 6        15.692          37.000
C11  23338101.203 6 121527698.897 6     -2248.910          37.000    23338101.148 6  93972875.914 6     -1739.072          39.000
C23  22479358.531 7 117055905.506 7     -1683.312          47.000
C28  22449700.555 8 116901469.897 8      1753.391          49.000
E11  25079273.891 7 131792468.653 7      2686.070          42.000    25079265.281 5 100983832.671 5      2058.376          32.000
E12  21549062.836 8 113241107.777 8       370.383          49.000    21549061.523 8  86769167.079 8       283.779          51.000
E24  21631631.438 8 113674988.192 8       260.352          51.000    21631643.594 8  87101655.031 8       199.448          51.000
E31  25115625.648 8 131983480.651 8     -2191.660          51.000    25115630.594 8 101130200.287 8     -1679.315          50.000
E33                                                                  25404866.773 5 102294863.083 5     -1681.889          34.000
> 2020 05 04 13 07 30.0000000  0 18        .000000000000
G18  20784928.992 8 109225593.268 8      1697.652          51.000    20784930.141 8  85110848.201 8      1322.849          51.000
G21  20942967.547 8 110056063.241 8      1269.715          50.000    20942968.375 8  85757982.299 8       989.388          49.000
G25  22834989.719 6 119998658.157 6     -3020.199          41.000    22834994.219 6  93505435.420 6     -2353.402          41.000
G29  21077309.977 8 110761999.056 8     -1836.125          51.000    21077309.109 8  86308059.059 8     -1430.747          51.000
G31  21454120.359 8 112742161.793 8     -1433.809          51.000    21454118.641 8  87851022.627 8     -1117.253          51.000
R11  20098731.031 8 107401556.239 8     -2678.328          51.000    20098732.750 8  83534514.780 8     -2083.144          48.000
R12  19436267.273 5 103825054.007 5      1308.680          33.000    19436268.305 4  80752815.517 4      1017.856          29.000
R21  20394244.781 5 109133640.130 5     -2719.812          34.000    20394232.820 5  84881742.301 5     -2115.422          31.000
R22  19479865.688 8 103984837.734 8      1197.477          51.000    19479867.367 8  80877128.013 8       931.371          51.000
C05  39626865.453 6 206347485.962 6        18.852          36.000    39626863.859 6 159560959.720 6        14.677          38.000
C11  23351078.539 6 121595275.342 6     -2256.188          37.000    23351078.945 6  94025130.299 6     -1744.247          41.000
C23  22489101.320 8 117106638.915 8     -1698.656          49.000
C28  22439632.070 8 116849041.318 8      1742.191          50.000
E11  25063961.680 7 131711999.106 7      2678.617          42.000    25063948.719 5 100922135.317 5      2052.462          32.000
E12  21546988.203 8 113230205.898 8       356.637          49.000    21546986.797 8  86760813.701 8       273.336          51.000
E24  21630181.180 8 113667367.505 8       248.070          51.000    21630193.500 8  87095815.794 8       190.095          51.000
E31  25128165.289 8 132049374.169 8     -2200.941          51.000    25128168.547 8 101180690.065 8     -1686.498          48.000
E33                                                                  25417421.531 5 102345417.618 5     -1688.345          34.000
> 2020 05 04 13 08  0.0000000  0 18        .000000000000
G18  20775284.828 8 109174911.284 8      1680.000          51.000    20775285.453 8  85071355.767 8      1309.094          50.000
G21  20935763.219 8 110018201.585 8      1253.223          50.000    20935763.266 8  85728479.714 8       976.537          50.000
G25  22852249.391 6 120089361.047 6     -3027.668          36.000    22852255.266 6  93576113.009 6     -2359.222          37.000
G29  21087813.266 8 110817193.869 8     -1844.703          51.000    21087812.148 8  86351067.982 8     -1437.431          51.000
G31  21462352.391 8 112785422.420 8     -1451.324          51.000    21462350.883 8  87884732.163 8     -1130.905          51.000
R11  20113818.805 8 107482183.246 8     -2697.984          50.000    20113821.094 8  83597224.634 8     -2098.435          48.000
R12  19428974.172 5 103786095.821 5      1286.871          33.000    19428977.445 4  80722514.245 4      1000.903          29.000
R22  19473189.742 8 103949200.198 8      1177.215          51.000    19473191.578 8  80849409.944 8       915.615          51.000
C05  39626754.031 6 206346906.077 6        18.578          36.000    39626752.555 6 159560511.328 6        14.163          38.000
C11  23364087.797 6 121663017.862 6     -2261.102          37.000    23364088.602 6  94077513.131 6     -1748.666          40.000
C23  22498926.539 8 117157797.110 8     -1712.961          51.000
C25  25721261.695 5 133937366.330 5     -3428.211          33.000
C28  22429620.789 8 116796909.889 8      1732.168          50.000
E11  25048686.000 7 131631722.830 7      2672.199          42.000    25048671.523 5 100860620.028 5      2047.371          31.000
E12  21544983.914 8 113219673.159 8       344.301          50.000    21544982.508 8  86752743.173 8       263.779          51.000
E24  21628792.852 8 113660072.287 8       237.086          51.000    21628805.242 8  87090225.941 8       181.648          51.000
E31  25140749.766 8 132115505.424 8     -2208.938          50.000    25140750.883 7 101231361.989 7     -1692.491          47.000
E33                                                                  25430014.320 5 102396123.139 5     -1693.182          35.000
> 2020 05 04 13 08 30.0000000  0 18        .000000000000
G18  20765745.734 8 109124782.490 8      1662.105          51.000    20765746.070 8  85032294.409 8      1295.147          49.000
G21  20928657.328 8 109980857.982 8      1236.547          50.000    20928656.727 8  85699380.831 8       963.546          49.000
G25  22869554.703 6 120180306.992 6     -3034.773          36.000    22869559.789 5  93646979.625 5     -2364.780          35.000
G29  21098369.656 8 110872667.833 8     -1853.355          51.000    21098368.406 8  86394294.435 8     -1444.176          51.000
G31  21470688.273 8 112829229.307 8     -1468.832          50.000    21470687.430 8  87918867.363 8     -1144.544          50.000
R11  20129020.898 8 107563421.426 8     -2717.652          48.000    20129024.023 8  83660409.860 8     -2113.730          48.000
R21  20424867.617 5 109297576.635 5     -2744.059          33.000    20424865.594 5  85009244.091 5     -2134.268          33.000
R22  19466631.945 8 103914195.265 8      1156.707          51.000    19466634.078 8  80822183.908 8       899.661          50.000
C05  39626647.094 6 206346349.487 6        18.363          36.000    39626645.688 6 159560080.922 6        14.475          38.000
C11  23377133.422 6 121730949.491 6     -2266.996          37.000    23377134.312 6  94130042.083 6     -1753.121          37.000
C23  22508837.570 8 117209403.341 8     -1727.250          51.000
C25  25741023.102 6 134040277.058 6     -3431.492          37.000
C28  22419671.359 8 116745100.163 8      1722.008          50.000
E11  25033451.484 6 131551665.370 6      2665.609          41.000
E12  21543054.484 8 113209533.704 8       331.812          49.000    21543052.875 8  86744973.976 8       254.333          51.000
E24  21627471.477 8 113653127.898 8       226.113          51.000    21627483.766 8  87084904.913 8       173.217          51.000
E31  25153383.102 7 132181898.422 7     -2216.910          45.000    25153383.891 7 101282234.464 7     -1698.701          46.000
E33                                                                  25442649.484 5 102446997.286 5     -1698.249          34.000
> 2020 05 04 13 09  0.0000000  0 19        .000000000000
G18  20756313.484 8 109075214.950 8      1643.434          51.000    20756313.453 8  84993670.386 8      1280.598          49.000
G21  20921651.242 8 109944039.389 8      1219.164          51.000    20921649.945 8  85670691.028 8       949.998          49.000
G25  22886907.430 6 120271501.515 6     -3043.000          37.000    22886911.828 6  93718040.261 6     -2371.166          37.000
G29  21108980.172 8 110928426.307 8     -1862.793          51.000    21108978.984 8  86437742.586 8     -1451.527          51.000
G31  21479129.195 8 112873587.549 8     -1487.195          50.000    21479129.219 8  87953432.203 8     -1158.853          50.000
R11  20144337.656 7 107645275.479 7     -2738.188          47.000    20144342.328 8  83724074.120 8     -2129.701          48.000
R12  19414785.758 5 103710287.889 5      1240.527          33.000    19414792.805 5  80663559.900 5       964.855          34.000
R21  20440289.227 5 109380112.789 5     -2756.855          30.000    20440287.070 5  85073438.885 5     -2144.221          34.000
R22  19460193.859 8 103879829.720 8      1135.484          51.000    19460196.438 8  80795455.168 8       883.155          51.000
C05  39626545.969 6 206345822.809 6        17.781          36.000    39626544.539 6 159559673.680 6        13.520          38.000
C11  23390216.570 6 121799075.281 6     -2273.609          37.000    23390217.047 6  94182721.254 6     -1758.063          37.000
C23  22518835.484 8 117261463.189 8     -1742.332          51.000
C25  25760806.867 6 134143299.964 6     -3435.703          36.000
C28  22409785.164 8 116693619.058 8      1711.051          50.000
E11  25018259.000 6 131471834.445 6      2657.699          39.000    25018248.562 5 100738116.253 5      2036.796          34.000
E12  21541200.742 8 113199793.791 8       318.668          48.000    21541199.031 8  86737510.945 8       244.096          51.000
E24  21626218.430 8 113646541.917 8       214.121          51.000    21626230.531 8  87079858.519 8       164.025          51.000
E31  25166066.648 6 132248559.286 6     -2225.984          41.000    25166067.602 7 101333312.258 7     -1705.594          47.000
E33  25455325.656 5 133768642.151 5     -2223.957          34.000    25455327.477 5 102498044.033 5     -1704.062          34.000
> 2020 05 04 13 09 30.0000000  0 19        .000000000000
G18  20746973.031 8 109026130.507 8      1627.676          51.000    20746972.695 8  84955422.764 8      1268.319          48.000
G21  20914729.898 8 109907666.617 8      1204.730          50.000    20914728.125 8  85642348.599 8       938.754          48.000
G25  22904293.484 6 120362864.300 6     -3048.555          38.000    22904297.852 6  93789232.088 6     -2375.494          38.000
G29  21119629.328 8 110984388.111 8     -1869.188          51.000    21119628.242 8  86481349.175 8     -1456.510          51.000
G31  21487659.828 8 112918416.206 8     -1502.527          51.000    21487660.383 8  87988363.598 8     -1170.804          51.000
R11  20159754.531 7 107727662.392 7     -2755.473          47.000    20159760.297 8  83788152.842 8     -2143.145          48.000
R12  19407873.523 5 103673376.238 5      1219.387          35.000    19407882.781 5  80634850.794 5       948.415          33.000
R21  20455770.000 5 109462951.449 5     -2766.715          35.000    20455770.578 6  85137868.942 6     -2151.889          36.000
R22  19453860.484 8 103846022.323 8      1117.195          51.000    19453863.383 8  80769160.559 8       868.930          51.000
C05  39626435.344 6 206345246.384 6        19.312          36.000    39626434.109 6 159559228.686 6        15.384          38.000
C11  23403321.930 6 121867315.141 6     -2277.117          37.000    23403322.062 6  94235488.658 6     -1760.621          39.000
C23  22528904.891 8 117313896.828 8     -1754.395          51.000
C25  25780598.055 5 134246354.415 5     -3436.027          33.000
C28  22399947.117 8 116642387.992 8      1703.168          50.000
E11  25003093.930 6 131392151.452 6      2653.465          39.000    25003088.656 6 100677060.506 6      2032.911          37.000
E12  21539407.844 8 113190373.539 8       308.422          48.000    21539406.266 8  86730292.831 8       236.248          51.000
E24  21625018.555 8 113640235.662 8       205.219          51.000    21625030.406 8  87075026.444 8       157.266          51.000
E31  25178785.430 7 132315407.966 7     -2231.688          43.000    25178789.328 8 101384533.978 8     -1710.069          49.000
E33  25468031.922 5 133835406.792 5     -2228.414          33.000    25468032.742 5 102549213.259 5     -1707.417          32.000
> 2020 05 04 13 10  0.0000000  0 19        .000000000000
G18  20737733.672 8 108977579.404 8      1609.574          50.000    20737733.695 8  84917590.746 8      1254.217          50.000
G21  20907902.359 8 109871789.402 8      1187.602          49.000    20907900.961 8  85614392.335 8       925.404          49.000
G25  22921720.867 6 120454443.308 6     -3056.074          37.000    22921725.031 6  93860592.386 6     -2381.357          37.000
G29  21130326.211 8 111040601.231 8     -1877.855          51.000    21130325.398 8  86525151.586 8     -1463.264          51.000
G31  21496289.055 8 112963762.485 8     -1520.062          51.000    21496289.570 8  88023698.357 8     -1184.464          51.000
R11  20175281.258 8 107810629.797 8     -2775.199          50.000    20175286.711 8  83852683.054 8     -2158.491          48.000
R12  19401090.836 5 103637149.871 5      1196.855          33.000    19401097.664 5  80606674.716 5       930.885          33.000
R21  20471316.758 5 109546139.156 5     -2778.168          30.000    20471319.570 6  85202570.491 6     -2160.797          37.000
R22  19447640.867 8 103812822.814 8      1096.648          51.000    19447643.852 8  80743338.737 8       852.949          50.000
C05  39626324.781 6 206344670.610 6        19.789          36.000    39626323.562 6 159558783.534 6        14.804          37.000
C11  23416458.180 6 121935716.214 6     -2282.551          37.000    23416458.531 6  94288380.733 6     -1765.333          40.000
C23  22539054.953 8 117366751.731 8     -1768.773          51.000
C25  25800404.227 5 134349487.268 5     -3438.820          33.000
C28  22390165.758 8 116591455.745 8      1692.867          49.000
E11  24987967.266 6 131312666.249 6      2646.316          40.000    24987966.688 6 100616156.289 6      2027.449          40.000
E12  21537685.227 8 113181321.510 8       295.559          48.000    21537683.742 8  86723356.848 8       226.509          51.000
E24  21623881.195 8 113634258.962 8       193.777          51.000    21623892.977 8  87070446.889 8       148.476          51.000
E31  25191551.883 7 132382492.984 7     -2240.062          47.000    25191556.375 8 101435936.786 8     -1716.447          50.000
E33  25480772.773 5 133902364.062 5     -2235.332          34.000
> 2020 05 04 13 10 30.0000000  0 19        .000000000000
G18  20728597.289 8 108929569.592 8      1591.730          50.000    20728597.672 8  84880180.519 8      1240.309          50.000
G21  20901170.391 8 109836414.890 8      1171.230          49.000    20901169.320 8  85586827.802 8       912.647          48.000
G25  22939190.531 6 120546244.051 6     -3063.828          36.000    22939195.398 6  93932125.553 6     -2387.395          36.000
G29  21141071.922 8 111097070.833 8     -1886.145          51.000    21141071.336 8  86569153.858 8     -1469.723          51.000
G31  21505017.836 8 113009631.660 8     -1537.242          51.000    21505018.031 8  88059440.571 8     -1197.851          51.000
R11  20190918.094 8 107894182.244 8     -2794.363          51.000    20190922.422 7  83917668.256 7     -2173.397          47.000
R12  19394439.008 5 103601618.201 5      1173.086          34.000    19394447.445 5  80579038.957 5       912.400          35.000
R21  20486927.539 5 109629679.325 5     -2790.336          33.000    20486931.867 5  85267546.283 5     -2170.261          35.000
R22  19441536.352 8 103780237.374 8      1076.367          51.000    19441539.273 8  80717994.526 8       837.174          50.000
C05  39626215.422 6 206344101.234 6        19.625          36.000    39626214.180 6 159558343.230 6        15.196          37.000
C11  23429626.078 6 122004283.727 6     -2287.867          36.000    23429627.211 6  94341401.430 6     -1769.021          40.000
C23  22549287.047 8 117420033.366 8     -1782.797          51.000
C25  25820224.867 5 134452703.305 5     -3441.594          33.000
C28  22380443.023 8 116540829.067 8      1682.930          49.000
E11  24972880.789 7 131233386.449 7      2639.906          42.000    24972883.219 7 100555409.463 7      2022.618          43.000
E12  21536033.703 8 113172643.830 8       283.465          48.000    21536032.430 8  86716707.723 8       217.254          51.000
E24  21622808.039 8 113628619.242 8       182.781          51.000    21622819.719 8  87066125.529 8       140.095          51.000
E31  25204365.133 8 132449820.430 8     -2247.883          50.000    25204369.977 8 101487525.301 8     -1722.332          51.000
E33  25493551.469 5 133969517.088 5     -2241.387          35.000
> 2020 05 04 13 11  0.0000000  0 19        .000000000000
G18  20719564.664 8 108882103.487 8      1573.609          51.000    20719564.922 8  84843193.953 8      1226.189          51.000
G21  20894534.891 8 109801544.817 8      1154.379          51.000    20894533.531 7  85559656.325 7       899.516          47.000
G25  22956702.570 6 120638266.832 6     -3070.980          37.000    22956707.602 6  94003831.584 6     -2392.969          38.000
G29  21151866.531 8 111153796.950 8     -1894.734          51.000    21151866.016 8  86613356.006 8     -1476.416          51.000
G31  21513846.094 8 113056023.262 8     -1554.711          51.000    21513845.812 8  88095589.859 8     -1211.463          51.000
R11  20206664.031 8 107978318.818 8     -2813.812          51.000    20206667.141 7  83983107.785 7     -2188.521          45.000
R12  19387919.109 5 103566784.685 5      1149.809          34.000    19387927.125 6  80551946.213 6       894.299          36.000
R21  20502606.008 5 109713570.464 5     -2801.742          33.000    20502605.422 5  85332794.852 5     -2179.139          31.000
R22  19435547.312 8 103748267.218 8      1055.902          51.000    19435550.094 8  80693128.890 8       821.257          50.000
C05  39626107.461 6 206343539.475 6        18.867          36.000    39626106.312 6 159557908.847 6        14.768          38.000
C11  23442825.516 5 122073017.244 5     -2293.551          35.000    23442827.766 6  94394550.606 6     -1773.540          36.000
C23  22559601.211 8 117473741.828 8     -1796.898          51.000
C25  25840060.977 5 134556001.773 5     -3444.332          35.000
C28  22370780.172 8 116490509.406 8      1672.676          51.000
E11  24957834.297 7 131154314.248 7      2632.879          44.000    24957838.289 7 100494821.686 7      2017.395          45.000
E12  21534453.656 8 113164341.295 8       271.070          49.000    21534452.477 8  86710346.044 8       207.637          51.000
E24  21621799.539 8 113623318.510 8       171.551          51.000    21621810.953 8  87062063.933 8       131.421          51.000
E31  25217224.914 8 132517390.848 8     -2255.922          51.000    25217229.727 8 101539300.016 8     -1728.501          51.000
E33  25506368.039 5 134036866.618 5     -2247.664          33.000
> 2020 05 04 13 11 30.0000000  0 18        .000000000000
G18  20710633.812 8 108835171.848 8      1554.977          51.000    20710633.914 8  84806623.863 8      1211.670          51.000
G21  20887993.461 8 109767169.080 8      1137.191          50.000    20887991.578 7  85532870.056 7       886.123          46.000
G25  22974253.984 6 120730500.056 6     -3078.820          37.000    22974259.133 6  94075701.555 6     -2399.087          37.000
G29  21162707.797 8 111210767.795 8     -1903.543          51.000    21162707.203 8  86657748.855 8     -1483.280          51.000
G31  21522771.523 8 113102925.213 8     -1572.352          51.000    21522771.047 8  88132136.822 8     -1225.209          51.000
R11  20222516.344 8 108063026.596 8     -2833.570          51.000    20222518.484 7  84048991.544 7     -2203.891          44.000
R12  19381527.586 6 103532641.300 6      1126.227          38.000    19381534.555 6  80525390.149 6       875.957          37.000
R21  20518341.148 5 109797786.171 5     -2813.484          31.000    20518344.742 5  85398287.302 5     -2188.266          32.000
R22  19429671.578 8 103716901.227 8      1035.027          51.000    19429674.125 8  80668733.121 8       805.021          50.000
C05  39625999.117 6 206342974.866 6        18.129          36.000    39625997.836 6 159557472.231 6        14.529          37.000
C11  23456054.000 5 122141905.212 5     -2299.566          35.000    23456057.086 4  94447821.257 4     -1778.276          28.000
C23  22569995.195 8 117527865.598 8     -1811.480          51.000
C25  25859911.195 5 134659370.524 5     -3447.613          34.000
C28  22361174.234 8 116440486.537 8      1662.047          49.000
E11  24942825.578 7 131075440.079 7      2625.500          44.000    24942830.109 7 100434385.666 7      2011.753          46.000
E12  21532943.102 8 113156402.896 8       258.199          49.000    21532941.852 8  86704263.369 8       197.811          51.000
E24  21620853.789 8 113618347.082 8       159.785          51.000    21620864.867 8  87058254.647 8       122.499          51.000
E31  25230128.578 8 132585193.176 8     -2264.355          51.000    25230133.258 8 101591252.453 8     -1735.002          51.000
> 2020 05 04 13 12  0.0000000  0 17        .000000000000
G18  20701808.023 8 108788791.382 8      1537.047          51.000    20701808.070 8  84770483.260 8      1197.699          51.000
G21  20881549.039 8 109733303.422 8      1120.637          51.000    20881546.773 7  85506481.290 7       873.226          46.000
G25  22991848.250 6 120822958.110 6     -3085.199          38.000    22991852.906 6  94147746.608 6     -2404.057          38.000
G29  21173598.273 8 111267997.472 8     -1911.680          51.000    21173597.680 8  86702343.392 8     -1489.621          51.000
G31  21531796.617 8 113150351.333 8     -1589.285          51.000    21531796.391 8  88169092.224 8     -1238.404          51.000
R11  20238477.750 8 108148318.924 8     -2852.492          51.000    20238479.359 7  84115329.960 7     -2218.605          46.000
R12  19375268.891 6 103499206.162 6      1102.957          38.000    19375275.531 6  80499385.049 6       857.855          37.000
R22  19423911.938 8 103686154.453 8      1014.922          51.000    19423914.297 8  80644818.966 8       789.384          50.000
C05  39625893.047 6 206342422.751 6        18.207          36.000    39625891.867 6 159557045.350 6        14.160          37.000
C11  23469315.211 6 122210961.424 6     -2304.320          37.000    23469317.859 4  94501218.799 4     -1781.668          28.000
C23  22580471.406 8 117582418.880 8     -1825.297          51.000
C25  25879778.266 4 134762823.163 4     -3449.820          28.000
C28  22351627.141 7 116390775.940 7      1652.059          47.000
E11  24927857.516 7 130996780.296 7      2618.551          44.000    24927862.016 7 100374113.888 7      2006.548          47.000
E12  21531504.656 8 113148843.633 8       246.098          50.000    21531503.578 8  86698471.222 8       188.550          51.000
E24  21619973.695 8 113613721.183 8       148.758          51.000    21619984.617 8  87054710.123 8       114.037          51.000
E31  25243078.539 8 132653242.285 8     -2272.031          49.000    25243083.758 8 101643393.964 8     -1740.925          51.000
> 2020 05 04 13 12 30.0000000  0 17        .000000000000
G18  20693082.953 8 108742940.410 8      1518.543          51.000    20693083.062 8  84734755.250 8      1183.283          50.000
G21  20875197.641 8 109699925.533 8      1103.512          51.000    20875194.883 7  85480472.579 7       859.879          46.000
G25  23009481.250 6 120915617.071 6     -3093.098          38.000    23009483.914 6  94219948.288 6     -2410.209          38.000
G29  21184533.344 8 111325462.206 8     -1920.449          51.000    21184532.852 8  86747121.101 8     -1496.454          51.000
G31  21540916.414 8 113198276.725 8     -1606.812          50.000    21540916.641 8  88206436.674 8     -1252.062          50.000
R11  20254543.992 8 108234170.392 8     -2871.910          51.000    20254545.688 7  84182103.269 7     -2233.708          47.000
R12  19369139.539 6 103466458.131 6      1079.160          40.000    19369144.633 6  80473914.375 6       839.347          37.000
R21  20550046.891 5 109967395.505 5     -2836.473          34.000    20550009.281 4  85530126.694 4     -2206.145          27.000
R22  19418263.945 8 103656003.716 8       994.105          51.000    19418265.805 8  80621368.403 8       773.193          50.000
C05  39625784.906 6 206341860.479 6        17.879          36.000    39625783.781 6 159556610.560 6        13.913          37.000
C11  23482604.258 6 122280162.019 6     -2310.043          36.000    23482602.477 5  94554694.916 5     -1786.193          31.000
C23  22591025.375 8 117637377.873 8     -1839.730          51.000
C28  22342136.094 8 116341355.150 8      1641.527          50.000
E11  24912925.562 7 130918313.007 7      2611.191          44.000    24912930.070 7 100313989.602 7      2000.828          47.000
E12  21530133.922 8 113141640.175 8       233.199          50.000    21530133.016 8  86692951.707 8       178.676          51.000
E24  21619155.078 8 113609418.774 8       137.074          51.000    21619165.695 8  87051413.476 8       104.995          51.000
E31  25256070.227 8 132721514.757 8     -2280.438          49.000    25256075.672 8 101695706.641 8     -1747.342          51.000
> 2020 05 04 13 13  0.0000000  0 18        .000000000000
