     3.02           OBSERVATION DATA    M (MIXED)           RINEX VERSION / TYPE
SAVERINEX           SC600               20200505 075931 LCL PGM / RUN BY / DATE
       G = GPS       R = GLONASS       C = COMPASS          COMMENT
       S = SBAS      J = QZSS          E = GALILEO          COMMENT
BEAN                                                        MARKER NAME
1                                                           MARKER NUMBER
GEODETIC                                                    MARKER TYPE
Unige DICCA         GTER                                    OBSERVER / AGENCY
SC60291900056       SC600               2.12(191226)        REC # / TYPE / VERS
                    HEMA45          NONE                    ANT # / TYPE
  4509407.8091   693652.4678  4442337.6214                  APPROX POSITION XYZ
        0.0000        0.0000        0.0000                  ANTENNA: DELTA H/E/N
G    8 C1C L1C D1C S1C C2Y L2Y D2Y S2Y                      SYS / # / OBS TYPES
R    8 C1C L1C D1C S1C C2P L2P D2P S2P                      SYS / # / OBS TYPES
C    8 C1I L1I D1I S1I C7I L7I D7I S7I                      SYS / # / OBS TYPES
E    8 C1C L1C D1C S1C C7Q L7Q D7Q S7Q                      SYS / # / OBS TYPES
DBHZ                                                        COMMENT
     30.000                                                 INTERVAL
  2020    05    05    05    00    0.0000000     GPS         TIME OF FIRST OBS
  2020    05    05    05    59   30.0000000     GPS         TIME OF LAST OBS
     0                                                      RCV CLOCK OFFS APPL
G L1C  0.00000                                              SYS / PHASE SHIFT
G L2Y  0.00000                                              SYS / PHASE SHIFT
R L1C  0.00000                                              SYS / PHASE SHIFT
R L2P  0.25000                                              SYS / PHASE SHIFT
C L1I  0.00000                                              SYS / PHASE SHIFT
C L7I  0.00000                                              SYS / PHASE SHIFT
E L1C  0.50000                                              SYS / PHASE SHIFT
E L7Q -0.25000                                              SYS / PHASE SHIFT
 13 R03  5 R04  6 R05  1 R06 -4 R07  5 R09 -2 R10 -7 R15  0 GLONASS SLOT / FRQ #
    R16 -1 R17  4 R18 -3 R19  3 R20  2                      GLONASS SLOT / FRQ #
 C1C   71.950 C2C   71.950 C2P   71.950                     GLONASS COD/PHS/BIS
    18                                                      LEAP SECONDS
*** Above antenna height is from mark to ANTENNA BOTTOM.    COMMENT
    17     4        0.0000        ANT MEASURE TYPE/HEIGT    COMMENT
    0.0000    0.0000    0.0458    0.0405    0.0000          COMMENT
                    BASE STATION                            COMMENT
                                                            END OF HEADER
> 2020 05 05 05 00  0.0000000  0 15        .000000000000
G05  22415790.703 8 117795765.633 8     -3118.270          51.000    22415789.438 8  91788899.974 8     -2429.820          51.000
G13  20215585.492 8 106233605.411 8       562.043          49.000    20215583.625 8  82779437.736 8       437.953          48.000
G28  20887379.055 8 109763906.683 8      -243.992          51.000    20887377.344 8  85530317.332 8      -190.124          50.000
G30  22040188.281 5 115821975.812 5     -2384.785          30.000    22040189.641 4  90250894.062 4     -1858.277          29.000
R06  19823962.781 8 105784442.318 8     -2398.707          48.000
R09  20025322.273 8 106934101.741 8      2096.996          51.000    20025323.562 8  83170962.886 8      1630.997          51.000
R10  23040216.266 5 122817316.748 5      3763.727          33.000
R16  20079125.055 6 107259102.928 6     -2518.215          36.000    20079126.414 5  83423727.689 5     -1958.612          32.000
C05                                                                  39777931.453 6 160169217.026 6        10.720          41.000
C21  22063122.016 8 114888558.228 8      -149.582          51.000
C22  23866710.078 8 124280189.184 8     -2911.004          50.000
C26  24246704.086 7 126258970.190 7      2667.074          47.000
E02  24165432.492 8 126990206.792 8     -1488.555          49.000    24165434.125 8  97304212.715 8     -1140.605          51.000
E08  22177988.266 8 116546103.495 8     -1584.102          51.000    22177987.680 8  89301553.117 8     -1213.762          51.000
E30  22467519.633 8 118067591.672 8      1316.051          51.000    22467521.906 8  90467389.459 8      1008.391          51.000
> 2020 05 05 05 00 30.0000000  0 15        .000000000000
G05  22433621.234 8 117889465.922 8     -3127.711          48.000    22433620.422 8  91861913.154 8     -2437.177          48.000
G13  20212414.789 8 106216943.903 8       549.441          49.000    20212413.125 8  82766454.733 8       428.136          49.000
G28  20888825.711 8 109771508.476 8      -261.914          51.000    20888824.039 8  85536240.805 8      -204.089          51.000
G30  22053822.594 6 115893617.343 6     -2390.754          37.000    22053824.727 6  90306728.747 6     -1862.919          38.000
R06  19837506.547 7 105856716.208 7     -2418.910          47.000
R09  20013590.719 8 106871458.452 8      2079.902          51.000    20013592.898 8  83122240.318 8      1617.702          51.000
R10  23019059.547 6 122704522.918 6      3756.242          38.000
R16  20093303.000 5 107334837.723 5     -2530.797          33.000    20093305.055 5  83482632.566 5     -1968.395          34.000
C05  39777852.891 5 207133717.502 5        14.059          34.000    39777852.672 6 160168899.875 6        10.847          41.000
C21  22064031.656 8 114893295.075 8      -165.512          51.000
C22  23883505.438 7 124367653.283 7     -2919.266          47.000
C26  24231356.461 7 126179053.942 7      2661.277          47.000
E02  24173959.906 8 127035018.278 8     -1498.141          48.000    24173961.328 8  97338548.781 8     -1147.965          51.000
E08  22187060.320 8 116593775.325 8     -1593.355          51.000    22187059.930 8  89338080.858 8     -1220.895          51.000
E30  22460040.281 8 118028291.666 8      1304.719          51.000    22460043.617 8  90437276.474 8       999.684          51.000
> 2020 05 05 05 01  0.0000000  0 14        .000000000000
G05  22451503.922 7 117983444.077 7     -3137.961          44.000    22451504.398 7  91935142.881 7     -2445.161          44.000
G13  20209315.344 8 106200656.749 8       535.926          49.000    20209313.992 8  82753763.434 8       417.605          49.000
G28  20890373.695 8 109779643.294 8      -280.762          51.000    20890372.102 8  85542579.628 8      -218.775          50.000
R06  19851163.000 7 105929593.825 7     -2439.977          46.000
R09  20001955.180 8 106809324.452 8      2061.836          51.000    20001957.312 8  83073913.879 8      1603.650          51.000
R10  22997944.797 6 122591954.541 6      3747.492          41.000
R16  20107552.391 5 107410957.379 5     -2544.684          34.000    20107555.711 5  83541836.783 5     -1979.198          34.000
C05  39777770.258 5 207133287.915 5        13.586          34.000    39777770.164 6 160168567.662 6        10.786          40.000
C21  22065032.539 8 114898505.556 8      -182.344          51.000
C22  23900346.758 8 124455358.766 8     -2928.293          49.000
C26  24216041.297 8 126099306.729 8      2654.664          48.000
E02  24182539.984 8 127080106.385 8     -1508.262          49.000    24182541.547 8  97373096.813 8     -1155.702          51.000
E08  22196183.398 8 116641717.059 8     -1603.316          51.000    22196183.352 8  89374815.409 8     -1228.509          51.000
E30  22452624.617 8 117989324.487 8      1292.535          51.000    22452628.344 8  90407418.506 8       990.432          51.000
> 2020 05 05 05 01 30.0000000  0 14        .000000000000
G05  22469445.266 7 118077733.860 7     -3147.766          43.000    22469447.492 7  92008615.513 7     -2452.801          43.000
G13  20206294.398 8 106184781.618 8       522.684          49.000    20206293.172 8  82741393.198 8       407.286          49.000
G28  20892030.000 8 109788347.324 8      -299.129          51.000    20892028.375 8  85549361.991 8      -233.087          49.000
R06  19864939.648 7 106003110.862 7     -2460.844          47.000
R09  19990422.648 8 106747738.142 8      2044.059          51.000    19990423.805 8  83026013.437 8      1589.823          50.000
R10  22976878.258 6 122479650.451 6      3739.605          41.000
R16  20121880.625 5 107487496.209 5     -2557.965          35.000    20121882.250 5  83601366.930 5     -1989.531          33.000
C05  39777690.961 5 207132875.222 5        13.941          35.000    39777690.922 6 160168248.526 6        10.895          40.000
C21  22066131.547 8 114904226.258 8      -198.805          51.000
C22  23917242.797 8 124543340.306 8     -2936.879          51.000
C26  24200766.289 8 126019765.570 8      2648.355          49.000
E02  24191179.516 8 127125506.458 8     -1518.031          50.000    24191181.117 8  97407883.868 8     -1163.173          51.000
E08  22205364.508 8 116689965.167 8     -1612.859          51.000    22205364.742 8  89411784.712 8     -1235.818          51.000
E30  22445279.953 8 117950727.122 8      1280.871          51.000    22445283.602 8  90377843.901 8       981.477          51.000
> 2020 05 05 05 02  0.0000000  0 15        .000000000000
G05  22487442.344 7 118172309.988 7     -3157.371          46.000    22487444.812 7  92082311.223 7     -2460.289          46.000
G13  20203347.797 8 106169296.804 8       509.441          50.000    20203346.664 8  82729327.092 8       396.967          49.000
G28  20893790.062 8 109797597.210 8      -317.496          51.000    20893788.555 8  85556569.703 8      -247.400          48.000
G30  22094935.773 5 116109676.764 5     -2410.293          32.000    22094941.672 5  90475078.600 5     -1878.150          30.000
R06  19878831.898 7 106077242.112 7     -2481.246          46.000
R09  19978987.789 8 106686677.108 8      2026.441          51.000    19978988.531 8  82978521.550 8      1576.121          49.000
R10  22955856.211 6 122367589.907 6      3731.211          40.000
R16  20136282.711 5 107564427.869 5     -2571.637          34.000    20136284.398 5  83661202.625 5     -2000.162          35.000
C05  39777610.789 5 207132457.092 5        13.812          35.000    39777610.711 6 160167925.188 6        10.895          40.000
C21  22067324.297 8 114910435.064 8      -215.227          51.000
C22  23934187.867 8 124631573.762 8     -2945.363          51.000
C26  24185527.055 8 125940408.657 8      2642.152          49.000
E02  24199873.773 8 127171194.396 8     -1527.770          49.000    24199875.203 8  97442891.507 8     -1170.644          50.000
E08  22214599.305 8 116738496.777 8     -1622.543          51.000    22214599.867 8  89448971.251 8     -1243.232          51.000
E30  22438001.875 8 117912477.184 8      1269.086          51.000    22438005.250 8  90348535.505 8       972.431          51.000
> 2020 05 05 05 02 30.0000000  0 15        .000000000000
G05  22505493.969 8 118267168.012 8     -3165.488          49.000    22505495.438 8  92156226.557 8     -2466.614          49.000
G13  20200475.406 8 106154202.043 8       497.719          51.000    20200474.406 8  82717564.928 8       387.833          49.000
G28  20895653.555 8 109807390.446 8      -334.441          51.000    20895651.867 7  85564200.792 7      -260.601          47.000
G30  22108709.859 5 116182053.998 5     -2415.031          31.000    22108712.172 5  90531478.748 5     -1881.846          32.000
R06  19892838.578 7 106151984.357 7     -2500.434          47.000
R09  19967650.133 8 106626140.680 8      2010.285          51.000    19967651.820 8  82931437.648 8      1563.555          50.000
R10  22934878.688 6 122255772.811 6      3724.129          40.000
R16  20150756.703 5 107641747.651 5     -2582.875          34.000    20150760.672 6  83721340.294 6     -2008.903          36.000
C05  39777529.227 5 207132032.914 5        15.711          35.000    39777529.133 6 160167596.431 6        11.898          40.000
C21  22068610.438 8 114917130.665 8      -230.230          51.000
C22  23951180.719 8 124720055.812 8     -2952.465          51.000
C26  24170323.133 8 125861235.139 8      2637.090          50.000
E02  24208622.109 8 127217167.307 8     -1536.152          51.000    24208623.508 8  97478117.490 8     -1177.034          51.000
E08  22223887.359 8 116787310.090 8     -1630.773          51.000    22223888.141 8  89486373.646 8     -1249.503          51.000
E30  22430789.508 8 117874573.311 8      1258.785          51.000    22430792.594 8  90319492.285 8       964.491          51.000
> 2020 05 05 05 03  0.0000000  0 15        .000000000000
G05  22523595.570 8 118362287.741 8     -3175.859          50.000    22523595.305 8  92230345.792 8     -2474.696          50.000
G13  20197674.250 8 106139481.311 8       483.625          51.000    20197673.297 8  82706094.220 8       376.851          50.000
G28  20897617.055 8 109817709.363 8      -353.570          51.000    20897615.156 7  85572241.512 7      -275.509          47.000
G30  22122514.906 5 116254597.402 5     -2421.441          31.000    22122519.594 5  90588007.077 5     -1886.841          30.000
R06  19906955.977 8 106227318.261 8     -2521.691          48.000
R09  19956408.906 8 106566112.044 8      1991.547          51.000    19956410.586 8  82884748.695 8      1548.981          50.000
R10  22913943.844 6 122144183.996 6      3714.801          40.000
R16  20165300.109 5 107719435.241 5     -2597.125          33.000    20165302.703 5  83781763.938 5     -2019.989          33.000
C05  39777443.000 5 207131583.994 5        14.496          35.000    39777442.953 6 160167249.237 6        11.366          40.000
C21  22069986.750 8 114924296.469 8      -247.555          51.000
C22  23968217.711 8 124808767.840 8     -2961.746          51.000
C26  24155151.289 8 125782228.781 8      2629.906          50.000
E02  24217421.219 8 127263406.743 8     -1546.633          51.000    24217422.547 8  97513547.692 8     -1185.061          51.000
E08  22233225.930 8 116836387.821 8     -1641.180          51.000    22233226.758 8  89523978.667 8     -1257.572          51.000
E30  22423639.562 8 117836998.699 8      1246.195          51.000    22423642.359 8  90290701.357 8       954.868          51.000
> 2020 05 05 05 03 30.0000000  0 15        .000000000000
G05  22541757.750 8 118457725.893 8     -3185.355          51.000    22541755.266 8  92304713.117 8     -2482.098          51.000
G13  20194955.758 8 106125194.855 8       470.074          51.000    20194954.703 8  82694961.911 8       366.292          50.000
G28  20899691.805 8 109828612.417 8      -371.961          51.000    20899689.898 7  85580737.426 7      -289.837          47.000
G30  22136388.164 5 116327526.815 5     -2427.984          35.000    22136363.141 5  90644744.551 5     -1891.939          34.000
R06  19921195.867 8 106303302.201 8     -2542.438          49.000
R09  19945274.336 8 106506651.806 8      1973.688          51.000    19945275.469 8  82838501.838 8      1535.090          49.000
R10  22893063.844 6 122032885.206 6      3706.316          41.000
R16  20179922.805 5 107797547.597 5     -2609.785          35.000    20179924.617 5  83842517.951 5     -2029.833          35.000
C05  39777363.422 5 207131168.750 5        14.410          35.000    39777363.383 6 160166928.919 6        11.158          40.000
C21  22071464.727 8 114931991.152 8      -264.152          51.000
C22  23985309.055 8 124897766.665 8     -2970.211          50.000
C26  24140022.734 8 125703448.718 8      2623.477          50.000
E02  24226282.000 8 127309970.335 8     -1556.371          51.000    24226283.102 8  97549226.276 8     -1192.493          51.000
E08  22242626.359 8 116885788.803 8     -1650.953          51.000    22242627.266 8  89561831.356 8     -1265.013          51.000
E30  22416563.523 8 117799812.703 8      1234.172          51.000    22416565.836 8  90262208.193 8       945.694          51.000
> 2020 05 05 05 04  0.0000000  0 14        .000000000000
G05  22559969.094 8 118553423.252 8     -3194.250          51.000    22559964.797 8  92379282.424 8     -2489.029          51.000
G13  20192309.367 8 106111287.322 8       457.137          51.000    20192308.180 8  82684124.866 8       356.210          51.000
G28  20901867.031 8 109840042.725 8      -389.844          51.000    20901865.078 8  85589644.167 8      -303.774          48.000
R06  19935546.633 8 106379876.764 8     -2562.312          49.000
R09  19934235.055 8 106447703.636 8      1956.367          51.000    19934235.461 8  82792653.228 8      1521.616          48.000
R10  22872227.539 6 121921821.219 6      3698.012          39.000
R16  20194613.570 5 107876024.395 5     -2621.719          35.000    20194616.906 5  83903555.492 5     -2039.112          35.000
C05  39777279.914 5 207130734.620 5        15.102          35.000    39777279.844 6 160166592.441 6        11.496          41.000
C21  22073033.484 8 114940159.387 8      -280.250          51.000
C22  24002443.633 8 124986994.864 8     -2978.074          48.000
C26  24124926.570 8 125624839.989 8      2617.336          50.000
E02  24235193.391 8 127356800.558 8     -1565.434          51.000    24235194.211 8  97585109.176 8     -1199.536          51.000
E08  22252077.758 8 116935456.648 8     -1660.062          51.000    22252078.547 8  89599888.543 8     -1272.002          51.000
E30  22409550.711 8 117762959.378 8      1222.832          51.000    22409552.406 8  90233969.923 8       936.993          51.000
> 2020 05 05 05 04 30.0000000  0 14        .000000000000
G05  22578233.477 8 118649400.527 8     -3203.863          51.000    22578228.719 8  92454069.867 8     -2496.520          51.000
G13  20189739.602 8 106097782.964 8       443.465          51.000    20189738.430 8  82673601.981 8       345.557          51.000
G28  20904146.750 8 109852022.455 8      -408.461          51.000    20904144.727 8  85598979.035 8      -318.281          48.000
R06  19950011.445 7 106457063.614 7     -2583.172          47.000
R09  19923296.703 8 106389291.798 8      1938.160          51.000    19923296.422 8  82747221.827 8      1507.461          49.000
R10  22851438.570 6 121811017.595 6      3689.195          38.000
R16  20209376.641 6 107954886.108 6     -2634.777          37.000    20209379.133 5  83964892.317 5     -2049.277          32.000
C05  39777196.820 5 207130301.601 5        14.387          35.000    39777196.703 6 160166257.594 6        11.125          40.000
C21  22074697.516 8 114948824.205 8      -297.109          51.000
C22  24019626.438 8 125076473.697 8     -2986.762          48.000
C26  24109867.758 8 125546426.123 8      2610.418          50.000
E02  24244159.703 8 127403919.179 8     -1575.398          51.000    24244160.211 8  97621213.031 8     -1207.076          51.000
E08  22261584.500 8 116985414.253 8     -1670.047          51.000    22261584.906 8  89638167.735 8     -1279.670          51.000
E30  22402605.297 8 117726462.035 8      1210.664          51.000    22402606.859 8  90206004.423 8       927.670          51.000
> 2020 05 05 05 05  0.0000000  0 15        .000000000000
G05  22596549.500 8 118745651.277 8     -3212.180          50.000    22596545.766 8  92529070.408 8     -2502.997          50.000
G13  20187246.039 8 106084679.194 8       430.789          51.000    20187244.805 8  82663391.235 8       335.680          51.000
G15  21153306.492 5 111161374.963 5      2072.637          31.000
G28  20906530.188 8 109864547.176 8      -425.898          50.000    20906528.188 8  85608738.559 8      -331.869          49.000
R06  19964589.273 7 106534856.807 7     -2602.570          46.000
R09  19912457.547 8 106331412.816 8      1921.160          51.000    19912457.867 8  82702204.873 8      1494.239          50.000
R10  22830700.375 7 121700471.544 7      3681.262          43.000
R16  20224209.805 5 108034125.385 5     -2647.539          35.000    20224211.570 5  84026522.862 5     -2059.197          33.000
C05  39777113.312 5 207129866.904 5        15.090          35.000    39777113.258 6 160165921.443 6        11.810          41.000
C21  22076456.125 8 114957982.127 8      -312.867          51.000
C22  24036857.023 8 125166197.717 8     -2994.195          49.000
C26  24094845.945 8 125468203.977 8      2604.770          50.000
E02  24253179.859 8 127451321.000 8     -1584.156          51.000    24253180.492 8  97657533.889 8     -1213.849          51.000
E08  22271145.695 8 117035657.555 8     -1678.930          51.000    22271145.594 8  89676665.828 8     -1286.462          51.000
E30  22395726.750 8 117690317.144 8      1199.582          51.000    22395728.609 8  90178308.971 8       919.139          51.000
> 2020 05 05 05 05 30.0000000  0 14        .000000000000
G05  22614915.992 8 118842169.990 8     -3221.527          48.000    22614913.961 8  92604279.774 8     -2510.281          48.000
G13  20184828.492 8 106071974.638 8       417.062          51.000    20184827.086 8  82653491.577 8       324.984          51.000
G28  20909016.500 8 109877613.547 8      -444.301          51.000    20909014.703 8  85618920.153 8      -346.208          49.000
R06  19979279.891 7 106613252.069 7     -2622.836          44.000
R09  19901717.430 8 106274065.322 8      1902.926          51.000    19901719.008 8  82657601.273 8      1480.053          50.000
R10  22810011.750 7 121590183.222 7      3672.109          45.000
R16  20239113.539 6 108113737.236 6     -2659.930          36.000    20239115.703 5  84088443.117 5     -2068.837          32.000
C05  39777029.008 5 207129428.306 5        14.750          35.000    39777029.031 6 160165582.277 6        11.551          41.000
C21  22078309.102 8 114967630.991 8      -329.598          51.000
C22  24054134.305 8 125256162.822 8     -3002.539          50.000
C26  24079860.695 8 125390171.926 8      2598.270          49.000
E02  24262253.203 8 127499002.287 8     -1593.820          51.000    24262254.398 8  97694068.896 8     -1221.218          51.000
E08  22280760.766 8 117086183.977 8     -1688.699          51.000    22280760.320 8  89715380.853 8     -1293.941          51.000
E30  22388914.922 8 117654522.560 8      1187.547          51.000    22388917.180 8  90150881.946 8       909.915          51.000
> 2020 05 05 05 06  0.0000000  0 14        .000000000000
G05  22633334.305 8 118938963.143 8     -3230.797          48.000    22633333.945 7  92679703.006 7     -2517.504          47.000
G13  20182488.945 8 106059679.902 8       403.293          51.000    20182487.352 8  82643911.248 8       314.254          51.000
G28  20911607.641 8 109891230.416 8      -462.875          51.000    20911605.672 8  85629530.670 8      -360.682          49.000
R06  19994085.312 7 106692256.926 7     -2643.336          47.000
R09  19891079.352 8 106217259.324 8      1884.750          51.000    19891081.664 8  82613418.851 8      1465.920          50.000
R10  22789373.477 7 121480163.330 7      3663.152          43.000
R16  20254087.320 5 108193727.946 5     -2672.930          31.000    20254089.828 5  84150658.114 5     -2078.942          33.000
C05  39776945.891 5 207128995.199 5        14.496          35.000    39776945.828 6 160165247.353 6        11.297          41.000
C21  22080258.234 8 114977780.322 8      -346.328          51.000
C22  24071459.078 8 125346376.619 8     -3011.035          48.000
C26  24064913.141 8 125312339.939 8      2591.441          48.000
E02  24271381.406 8 127546971.098 8     -1603.508          51.000    24271382.898 8  97730824.198 8     -1228.662          51.000
E08  22290431.414 8 117137002.736 8     -1698.605          51.000    22290430.875 8  89754319.865 8     -1301.505          51.000
E30  22382171.695 8 117619087.881 8      1175.406          51.000    22382174.133 8  90123730.709 8       900.582          51.000
> 2020 05 05 05 06 30.0000000  0 14        .000000000000
G05  22651802.844 7 119036020.338 7     -3239.605          47.000    22651803.664 7  92755331.999 7     -2524.368          47.000
G13  20180225.977 8 106047787.770 8       389.621          51.000    20180224.156 8  82634644.645 8       303.601          51.000
G28  20914301.898 8 109905389.073 8      -481.043          51.000    20914300.008 8  85640563.382 8      -374.839          49.000
R06  20009003.945 8 106771861.738 8     -2663.656          49.000
R09  19880541.547 8 106160987.529 8      1866.723          51.000    19880544.273 8  82569651.901 8      1451.895          51.000
R10  22768783.781 6 121370406.729 6      3653.992          40.000
R16  20269130.945 5 108274086.525 5     -2685.008          35.000    20269133.398 5  84213159.233 5     -2088.342          35.000
C05  39776862.344 5 207128560.001 5        14.312          35.000    39776862.328 6 160164910.793 6        11.421          40.000
C21  22082301.383 8 114988422.601 8      -362.984          51.000
C22  24088828.914 7 125436829.682 7     -3019.012          46.000
C26  24050002.469 7 125234701.021 7      2584.738          47.000
E02  24280562.625 8 127595218.253 8     -1612.902          51.000    24280563.789 8  97767792.786 8     -1235.854          51.000
E08  22300156.430 8 117188105.757 8     -1708.184          51.000    22300155.648 8  89793476.709 8     -1308.892          51.000
E30  22375495.867 8 117584005.572 8      1163.527          51.000    22375498.094 8  90096849.461 8       891.546          51.000
> 2020 05 05 05 07  0.0000000  0 15        .000000000000
G05  22670320.172 7 119133331.622 7     -3248.102          46.000    22670321.445 7  92831158.992 7     -2530.988          46.000
G13  20178038.367 8 106036292.038 8       376.473          51.000    20178036.359 8  82625686.928 8       293.355          51.000
G28  20917097.617 8 109920080.874 8      -498.727          51.000    20917095.859 8  85652011.531 8      -388.618          50.000
G30  22234216.992 5 116841607.064 5     -2468.176          35.000
R06  20024033.117 8 106852056.175 8     -2683.070          49.000
R09  19870102.281 8 106105242.879 8      1849.223          51.000    19870105.203 8  82526294.918 8      1438.281          50.000
R10  22748240.609 6 121260906.648 6      3645.734          41.000
R16  20284241.289 5 108354802.046 5     -2696.984          34.000    20284244.523 6  84275937.935 6     -2097.655          36.000
C05  39776776.953 5 207128115.110 5        14.961          35.000    39776776.914 6 160164566.784 6        11.496          41.000
C21  22084437.398 8 114999550.406 8      -379.191          51.000
C22  24106242.500 7 125527512.689 7     -3026.699          45.000
C26  24035127.945 8 125157248.185 8      2578.391          48.000
E02  24289795.039 8 127643734.786 8     -1621.883          51.000    24289795.664 8  97804967.786 8     -1242.714          51.000
E08  22309934.305 8 117239485.178 8     -1717.391          51.000    22309933.117 8  89832845.345 8     -1315.956          51.000
E30  22368885.875 8 117549268.230 8      1152.051          51.000    22368887.977 8  90070232.536 8       882.704          51.000
> 2020 05 05 05 07 30.0000000  0 15        .000000000000
G05  22688887.539 7 119230903.169 7     -3256.020          47.000    22688888.727 7  92907188.771 7     -2537.158          47.000
G13  20175928.258 8 106025203.223 8       363.520          51.000    20175926.195 8  82617046.281 8       283.262          51.000
G24  24055176.023 6 126410806.136 6      3157.730          38.000
G28  20919996.523 8 109935314.347 8      -516.129          51.000    20919994.477 8  85663881.763 8      -402.178          50.000
R06  20039173.797 8 106932847.692 8     -2702.395          50.000
R09  19859763.922 8 106050035.151 8      1832.023          51.000    19859766.133 8  82483355.554 8      1424.907          49.000
R10  22727749.047 7 121151674.813 7      3637.277          44.000
R16  20299419.008 5 108435880.881 5     -2708.219          33.000    20299422.555 6  84338999.294 6     -2106.392          36.000
C05  39776691.547 5 207127670.004 5        15.449          35.000    39776691.352 6 160164222.577 6        11.983          41.000
C21  22086668.547 8 115011173.064 8      -395.004          51.000
C22  24123702.102 7 125618433.210 7     -3033.906          45.000
C26  24020291.938 8 125079991.320 8      2572.605          50.000
E02  24299080.164 8 127692528.624 8     -1630.398          51.000    24299080.859 8  97842355.260 8     -1249.224          51.000
E08  22319766.422 8 117291150.051 8     -1726.238          51.000    22319764.828 8  89872432.711 8     -1322.702          51.000
E30  22362343.109 8 117514885.347 8      1140.848          51.000    22362345.484 8  90043887.224 8       874.114          51.000
> 2020 05 05 05 08  0.0000000  0 15        .000000000000
G05  22707487.359 8 119328643.865 8     -3260.559          48.000    22707488.133 8  92983350.346 8     -2540.695          48.000
G13  20173878.992 8 106014433.677 8       353.906          51.000    20173876.781 8  82608654.431 8       275.771          51.000
G24  24037147.719 5 126316074.464 5      3157.109          34.000
G28  20922981.492 8 109951000.369 8      -530.066          51.000    20922979.586 8  85676104.631 8      -413.039          50.000
R06  20054408.984 8 107014144.671 8     -2717.992          49.000
R09  19849509.555 8 105995275.309 8      1818.246          51.000    19849510.641 7  82440764.560 7      1414.191          47.000
R10  22707292.297 7 121042623.002 7      3632.371          46.000
R16  20314648.336 5 108517230.390 5     -2716.141          35.000    20314651.266 5  84402271.129 5     -2112.554          35.000
C05  39776589.148 5 207127136.999 5        19.113          35.000    39776588.984 6 160163810.415 6        14.955          40.000
C21  22088978.656 8 115023203.048 8      -407.512          51.000
C22  24141190.805 7 125709501.807 7     -3037.680          45.000
C26  24005477.219 8 125002843.398 8      2570.156          50.000
E02  24308401.031 8 127741509.924 8     -1635.609          51.000    24308402.266 8  97879886.385 8     -1253.301          51.000
E08  22329635.688 8 117343011.683 8     -1731.754          51.000    22329634.555 8  89912170.825 8     -1326.949          51.000
E30  22355850.992 8 117480768.635 8      1133.043          51.000    22355853.594 8  90017745.863 8       868.137          51.000
> 2020 05 05 05 08 30.0000000  0 17        .000000000000
G05  22726153.688 8 119426734.057 8     -3274.812          48.000    22726153.578 8  93059784.226 8     -2551.805          48.000
G13  20171925.508 8 106004167.771 8       334.406          51.000    20171923.156 8  82600655.023 8       260.576          51.000
G24  24019161.398 5 126221562.299 5      3147.059          34.000
G28  20926087.242 8 109967320.982 8      -553.988          51.000    20926085.477 8  85688821.998 8      -431.679          50.000
G30  22276591.266 5 117064276.042 5     -2486.254          32.000    22276588.008 5  91218903.938 5     -1937.341          32.000
R06  20069772.953 7 107096130.567 7     -2743.738          47.000
R07  19519470.258 6 104489248.892 6      1390.535          36.000    19519457.234 4  81269369.982 4      1081.530          25.000
R09  19839373.883 8 105941149.929 8      1794.234          51.000    19839374.211 8  82398667.044 8      1395.516          49.000
R10  22686904.523 7 120933939.259 7      3617.344          47.000
R16  20329961.852 4 108599033.556 4     -2732.980          28.000    20329965.109 5  84465895.821 5     -2125.648          35.000
C05  39776504.906 5 207126698.582 5        13.730          35.000    39776504.641 6 160163470.634 6        10.575          40.000
C21  22091402.523 8 115035821.992 8      -429.855          51.000
C22  24158742.102 7 125800898.235 7     -3051.438          45.000
C26  23990718.531 8 124925986.625 8      2557.676          51.000
E02  24317792.234 8 127790860.481 8     -1650.566          51.000    24317793.672 8  97917700.438 8     -1264.663          51.000
E08  22339576.859 8 117395252.943 8     -1747.051          51.000    22339576.289 8  89952199.821 8     -1338.634          51.000
E30  22349444.727 8 117447101.427 8      1115.438          51.000    22349447.141 8  89991948.913 8       854.674          51.000
> 2020 05 05 05 09  0.0000000  0 15        .000000000000
G05  22744881.430 8 119525147.164 8     -3282.109          48.000    22744879.234 8  93136469.714 8     -2557.491          48.000
G13  20170063.484 8 105994382.633 8       321.895          51.000    20170061.070 8  82593030.235 8       250.827          51.000
G28  20929309.125 8 109984251.808 8      -570.797          51.000    20929307.289 8  85702014.836 8      -444.777          50.000
G30  22290808.547 5 117138989.311 5     -2491.402          33.000    22290807.242 5  91277150.116 5     -1941.352          33.000
R06  20085260.438 7 107178779.194 7     -2762.172          45.000
R09  19829352.523 8 105887635.399 8      1777.398          51.000    19829353.141 8  82357044.618 8      1382.421          50.000
R10  22666580.734 7 120825600.923 7      3609.246          47.000
R16  20345355.008 5 108681233.242 5     -2744.617          33.000    20345359.352 6  84529865.309 6     -2134.702          36.000
C05  39776434.008 5 207126329.515 5        15.160          35.000    39776433.789 6 160163185.232 6        11.520          40.000
C21  22093935.039 8 115049006.562 8      -445.223          51.000
C22  24176351.828 7 125892597.270 7     -3057.965          46.000
C26  23976010.945 8 124849398.111 8      2552.176          50.000
E02  24327248.883 8 127840555.226 8     -1658.527          51.000    24327249.992 8  97955778.230 8     -1270.844          51.000
E08  22349585.398 8 117447849.869 8     -1755.496          51.000    22349585.508 8  89992501.330 8     -1345.108          51.000
E30  22343119.352 8 117413860.264 8      1104.613          51.000    22343121.633 8  89966478.404 8       846.407          51.000
> 2020 05 05 05 09 30.0000000  0 15        .000000000000
G05  22763634.750 8 119623694.411 8     -3289.453          48.000    22763630.180 8  93213259.712 8     -2563.213          48.000
G13  20168257.656 8 105984893.134 8       309.016          51.000    20168255.531 8  82585635.812 8       240.791          51.000
G28  20932611.469 8 110001605.557 8      -587.867          51.000    20932609.867 8  85715537.242 8      -458.078          50.000
G30  22305038.312 5 117213758.692 5     -2495.758          34.000    22305036.047 5  91335412.071 5     -1944.734          33.000
R06  20100836.461 7 107261899.670 7     -2781.066          46.000
R09  19819410.234 8 105834543.069 8      1760.215          51.000    19819410.945 8  82315750.577 8      1369.056          49.000
R10  22646285.852 7 120717421.370 7      3600.801          46.000
R16  20360793.273 5 108763697.281 5     -2755.020          32.000    20360797.180 5  84594003.941 5     -2142.793          34.000
C05                                                                  39776341.047 6 160162811.589 6        12.118          40.000
C21  22096540.719 8 115062572.327 8      -460.934          51.000
C22  24193984.773 8 125984412.723 8     -3064.801          48.000
C26  23961319.242 8 124772894.041 8      2546.352          50.000
E02  24336735.289 8 127890406.641 8     -1666.711          51.000    24336736.156 8  97993976.053 8     -1277.096          51.000
E08  22359626.117 8 117500616.022 8     -1764.094          51.000    22359627.195 8  90032932.502 8     -1351.708          51.000
E30  22336839.281 8 117380859.062 8      1093.613          51.000    22336841.695 8  89941191.769 8       838.008          51.000
> 2020 05 05 05 10  0.0000000  0 17        .000000000000
G05  22782444.508 8 119722537.289 8     -3298.500          49.000    22782439.414 8  93290280.107 8     -2570.260          49.000
G13  20166539.641 8 105975864.578 8       294.363          51.000    20166537.688 8  82578600.566 8       229.374          51.000
G17  24585700.570 5 129198734.459 5      2822.164          35.000    24585696.352 6 100674321.363 6      2199.089          36.000
G28  20936025.430 8 110019545.417 8      -606.551          51.000    20936023.906 8  85729516.343 8      -472.637          50.000
R06  20116532.281 7 107345655.958 7     -2801.289          47.000
R07  19496653.398 5 104367099.993 5      1323.523          34.000    19496648.969 5  81174405.410 5      1029.407          30.000
R09  19809577.914 8 105782040.294 8      1741.402          51.000    19809578.727 8  82274915.114 8      1354.424          48.000
R10  22626052.453 7 120609568.412 7      3590.734          46.000
R16  20376304.648 5 108846563.275 5     -2767.266          32.000    20376307.344 5  84658454.183 5     -2152.321          31.000
C05  39776257.578 5 207125410.858 5        15.242          35.000    39776257.664 6 160162475.592 6        11.650          40.000
C21  22099250.875 8 115076682.025 8      -478.223          51.000
C22  24211671.547 8 126076505.576 8     -3073.238          49.000
C26  23946675.008 8 124696637.733 8      2538.816          51.000
E02  24346282.500 8 127940577.552 8     -1676.566          51.000    24346283.516 8  98032418.690 8     -1284.660          51.000
E07  23710165.867 7 124597764.722 7       883.883          42.000    23710161.672 6  95470996.178 6       677.138          38.000
E08  22369730.109 8 117553715.314 8     -1774.406          51.000    22369731.805 8  90073618.940 8     -1359.604          51.000
E30  22330635.969 8 117348262.223 8      1080.953          51.000    22330638.664 8  89916214.966 8       828.281          51.000
> 2020 05 05 05 10 30.0000000  0 17        .000000000000
G05  22801292.031 8 119821578.362 8     -3306.539          48.000    22801287.586 8  93367454.933 8     -2576.524          48.000
G13  20164891.703 8 105967203.489 8       280.602          51.000    20164889.633 8  82571851.665 8       218.651          51.000
G28  20939532.617 8 110037975.716 8      -624.402          51.000    20939531.031 8  85743877.612 8      -486.547          50.000
G30  22333600.344 5 117363848.140 5     -2507.883          34.000    22333601.102 5  91452355.472 5     -1954.200          35.000
R06  20132329.055 7 107429950.411 7     -2820.633          47.000
R07  19489287.461 4 104327680.529 4      1299.941          25.000    19489290.539 5  81143768.085 5      1011.066          30.000
R09  19799838.070 8 105730031.441 8      1723.465          51.000    19799839.219 8  82234463.794 8      1340.473          49.000
R10  22605863.289 7 120501948.244 7      3581.355          47.000
R16  20391872.914 5 108929724.424 5     -2779.715          32.000    20391876.578 5  84723135.005 5     -2162.000          33.000
C05                                                                  39776165.648 6 160162104.924 6        11.394          40.000
C21  22102046.898 8 115091242.024 8      -494.617          51.000
C22  24229393.000 8 126168780.423 8     -3080.789          50.000
C26  23932060.539 8 124620536.143 8      2532.324          51.000
E02  24355872.297 8 127990972.047 8     -1685.379          51.000    24355873.531 8  98071032.651 8     -1291.442          51.000
E07  23705143.578 7 124571369.883 7       873.648          42.000    23705138.703 6  95450771.582 6       669.377          38.000
E08  22379879.305 8 117607052.919 8     -1783.754          51.000    22379881.859 8  90114487.984 8     -1366.787          51.000
E30  22324491.805 8 117315975.362 8      1069.191          51.000    22324494.547 8  89891475.679 8       819.230          51.000
> 2020 05 05 05 11  0.0000000  0 16        .000000000000
G05  22820190.188 7 119920885.862 7     -3314.352          47.000    22820186.641 7  93444837.367 7     -2582.612          47.000
G13  20163327.328 8 105958981.835 8       267.258          51.000    20163325.227 8  82565445.183 8       208.253          51.000
G28  20943146.477 8 110056966.414 8      -641.914          51.000    20943144.875 8  85758675.550 8      -500.193          49.000
G30  22347929.297 6 117439143.186 6     -2512.723          38.000    22347927.938 6  91511026.917 6     -1957.966          38.000
R06  20148240.102 8 107514852.943 8     -2839.738          48.000
R07  19482067.461 5 104289037.775 5      1277.879          34.000    19482063.531 4  81113675.187 4       993.909          29.000
R09  19790204.594 8 105678588.926 8      1705.668          51.000    19790205.906 8  82194452.956 8      1326.631          49.000
R10  22585731.367 7 120394634.035 7      3572.500          46.000
C05  39776078.391 5 207124477.609 5        15.199          35.000    39776078.477 6 160161753.915 6        11.901          40.000
C21  22104942.688 8 115106322.630 8      -510.844          50.000
C22  24247162.008 8 126261305.652 8     -3087.848          49.000
C26  23917489.758 8 124544660.151 8      2525.820          51.000
E02  24365517.852 8 128041659.650 8     -1693.996          51.000    24365519.078 8  98109871.192 8     -1297.952          51.000
E07  23700182.773 6 124545303.162 6       863.855          41.000    23700178.688 6  95430798.365 6       661.927          39.000
E08  22390087.109 8 117660699.402 8     -1792.926          50.000    22390089.984 8  90155593.729 8     -1373.728          51.000
E30  22318420.266 8 117284069.478 8      1057.676          51.000    22318422.867 8  89867028.318 8       810.400          51.000
> 2020 05 05 05 11 30.0000000  0 17        .000000000000
G05  22839130.836 7 120020417.730 7     -3321.867          46.000    22839127.906 7  93522394.646 7     -2588.465          46.000
G13  20161839.242 8 105951161.678 8       253.566          51.000    20161837.266 8  82559351.556 8       197.584          51.000
G28  20946859.367 8 110076478.312 8      -659.410          51.000    20946857.750 8  85773879.620 8      -513.826          48.000
G30  22362285.883 6 117514588.463 6     -2517.695          38.000    22362282.531 5  91569815.442 5     -1961.837          35.000
R06  20164257.539 8 107600321.236 8     -2858.664          48.000
R07  19474965.969 5 104251041.275 5      1255.074          33.000    19474964.586 5  81084122.350 5       976.166          30.000
R09  19780669.898 8 105627673.912 8      1687.996          51.000    19780670.930 8  82154852.397 8      1312.886          50.000
R10  22565649.008 7 120287588.826 7      3563.324          43.000
R16  20423208.234 5 109097107.894 5     -2801.414          30.000    20423204.039 4  84853293.512 4     -2178.881          29.000
C05  39775988.883 5 207124011.818 5        15.324          35.000    39775988.797 6 160161392.928 6        12.070          41.000
C21  22107930.773 8 115121885.515 8      -527.168          49.000
C22  24264970.453 8 126354041.181 8     -3094.961          48.000
C26  23902954.758 8 124468972.010 8      2519.375          50.000
E02  24375211.477 8 128092600.242 8     -1702.461          51.000    24375212.547 8  98148903.584 8     -1304.495          51.000
E07  23695276.703 6 124519526.920 6       854.160          41.000    23695274.445 6  95411047.764 6       654.450          40.000
E08  22400346.211 8 117714615.761 8     -1801.863          50.000    22400349.242 8  90196906.280 8     -1380.735          51.000
E30  22312413.953 8 117252505.996 8      1046.133          51.000    22312416.266 8  89842843.323 8       801.606          51.000
> 2020 05 05 05 12  0.0000000  0 17        .000000000000
G05  22858115.727 7 120120183.819 7     -3328.344          43.000    22858113.180 7  93600134.430 7     -2593.515          43.000
G13  20160429.945 8 105943755.885 8       240.875          51.000    20160428.078 8  82553580.801 8       187.695          51.000
G17  24521384.164 5 128860748.201 5      2810.891          33.000
G28  20950673.469 8 110096522.136 8      -675.980          51.000    20950671.781 7  85789498.172 7      -526.741          47.000
G30  22376672.812 6 117590194.572 6     -2521.570          36.000    22376671.102 5  91628729.370 5     -1964.860          34.000
R06  20180382.328 7 107686365.333 7     -2876.746          46.000
R07  19467999.359 5 104213737.881 5      1233.441          35.000    19467996.562 5  81055103.661 5       959.346          30.000
R09  19771235.945 8 105577298.753 8      1671.145          51.000    19771237.125 8  82115671.726 8      1299.779          49.000
R10  22545619.008 7 120180826.205 7      3554.859          42.000
C05  39775899.086 5 207123543.828 5        16.602          35.000    39775898.953 6 160161031.052 6        12.677          40.000
C21  22111014.250 8 115137942.230 8      -542.445          51.000
C22  24282821.578 8 126446996.780 8     -3101.242          49.000
C26  23888457.711 8 124393483.908 8      2513.883          49.000
E02  24384955.211 8 128143804.140 8     -1710.242          51.000    24384956.023 8  98188137.728 8     -1310.478          51.000
E07  23690427.914 6 124494054.057 6       845.066          39.000    23690428.648 7  95391529.596 7       647.408          42.000
E08  22410659.141 8 117768813.423 8     -1810.324          51.000    22410662.539 8  90238434.305 8     -1387.147          51.000
E30  22306475.148 8 117221296.720 8      1035.383          51.000    22306477.188 8  89818929.738 8       793.315          51.000
> 2020 05 05 05 12 30.0000000  0 17        .000000000000
G05  22877149.984 7 120220210.635 7     -3338.043          42.000    22877147.422 7  93678077.375 7     -2601.075          42.000
G13  20159105.406 8 105936795.345 8       225.199          51.000    20159103.531 8  82548157.001 8       175.480          51.000
G17  24505347.289 4 128776479.376 4      2806.277          28.000
G28  20954594.047 8 110117126.024 8      -695.590          49.000    20954592.539 7  85805553.148 7      -542.018          47.000
R06  20196619.594 7 107773012.982 7     -2897.738          45.000
R07  19461165.266 5 104177160.998 5      1207.559          31.000    19461164.984 5  81026654.858 5       939.203          31.000
R09  19761908.727 8 105527494.206 8      1651.188          51.000    19761910.414 8  82076934.836 8      1284.257          49.000
R10  22525649.117 7 120074377.648 7      3543.684          44.000
R16  20454797.945 5 109265836.956 5     -2823.859          35.000    20454800.086 5  84984556.210 5     -2196.335          32.000
C05                                                                  39775814.539 6 160160691.144 6        11.502          40.000
C21  22114198.609 8 115154522.294 8      -560.824          51.000
C22  24300721.367 8 126540200.370 8     -3110.293          51.000
C26  23874004.844 8 124318226.021 8      2505.312          50.000
E02  24394754.539 8 128195299.816 8     -1720.820          51.000    24394755.078 8  98227595.438 8     -1318.563          51.000
E07  23685642.359 6 124468915.589 6       833.008          38.000    23685646.234 7  95372267.576 7       638.270          42.000
E08  22421031.977 8 117823321.840 8     -1821.602          51.000    22421034.914 8  90280200.452 8     -1395.770          51.000
E30  22300609.352 8 117190471.626 8      1021.676          51.000    22300611.211 8  89795310.512 8       782.792          51.000
> 2020 05 05 05 13  0.0000000  0 16        .000000000000
G05  22896223.406 6 120320442.864 6     -3345.238          41.000    22896220.750 6  93756180.325 6     -2606.682          41.000
G13  20157855.688 8 105930228.008 8       211.461          51.000    20157853.680 8  82543039.590 8       164.775          51.000
G28  20958610.977 8 110138236.469 8      -712.988          50.000    20958609.695 7  85822002.861 7      -555.575          46.000
R06  20212959.797 7 107860208.635 7     -2916.480          46.000
R07  19454459.117 6 104141259.018 6      1184.574          36.000    19454454.422 4  80998726.578 4       921.339          26.000
R09  19752678.789 8 105478206.733 8      1633.438          51.000    19752680.562 8  82038600.093 8      1270.451          50.000
R10  22505729.766 7 119968191.904 7      3534.234          45.000
R16  20470683.195 5 109350693.699 5     -2835.039          35.000    20470682.930 5  85050555.847 5     -2205.033          30.000
C05  39775725.781 5 207122641.141 5        14.934          35.000    39775725.617 6 160160332.980 6        11.611          41.000
C21  22117473.219 8 115171573.439 8      -577.070          51.000
C22  24318658.562 8 126633597.875 8     -3117.344          51.000
C26  23859587.039 8 124243146.664 8      2498.770          50.000
E02  24404599.055 8 128247033.118 8     -1729.250          51.000    24404599.602 8  98267235.223 8     -1324.980          51.000
E07  23680911.266 6 124444059.818 6       823.070          39.000    23680916.555 7  95353222.223 7       630.580          42.000
E08  22431454.102 8 117878087.939 8     -1830.629          51.000    22431457.070 8  90322164.060 8     -1402.690          51.000
E30  22294806.672 8 117159978.028 8      1010.086          51.000    22294808.305 8  89771945.290 8       773.956          51.000
> 2020 05 05 05 13 30.0000000  0 17        .000000000000
G05  22915337.742 6 120420889.244 6     -3352.492          38.000    22915335.539 6  93834450.156 6     -2612.335          38.000
G13  20156683.352 8 105924067.148 8       197.754          51.000    20156681.094 8  82538238.920 8       154.094          51.000
G17  24473346.148 4 128608292.812 4      2798.395          29.000    24473359.078 4 100214282.991 4      2180.567          29.000
G28  20962726.688 8 110159864.499 8      -730.336          50.000    20962725.266 7  85838855.852 7      -569.093          47.000
R06  20229405.125 8 107947962.069 8     -2935.223          48.000
R07  19447881.711 6 104106047.263 6      1161.340          38.000    19447881.539 5  80971349.280 5       903.264          30.000
R09  19743547.680 8 105429449.115 8      1615.594          51.000    19743549.766 8  82000677.541 8      1256.576          49.000
R10  22485862.391 7 119862282.696 7      3524.953          45.000
R16  20486627.289 5 109435864.476 5     -2844.914          32.000    20486623.898 4  85116786.709 4     -2212.711          29.000
C05  39775634.625 5 207122167.211 5        15.398          35.000    39775634.461 6 160159965.711 6        11.925          40.000
C21  22120840.531 8 115189107.537 8      -593.301          51.000
C22  24336634.352 8 126727199.403 8     -3124.172          51.000
C26  23845206.211 8 124168258.397 8      2492.371          50.000
E02  24414490.812 8 128299014.761 8     -1737.598          51.000    24414491.500 8  98307065.298 8     -1331.364          51.000
E07  23676237.273 6 124419499.986 6       813.043          40.000    23676242.828 7  95334403.637 7       622.990          42.000
E08  22441927.320 8 117933123.433 8     -1839.750          51.000    22441930.125 8  90364334.102 8     -1409.643          51.000
E30  22289069.602 8 117129828.081 8       998.531          51.000    22289071.070 8  89748843.376 8       765.117          51.000
> 2020 05 05 05 14  0.0000000  0 16        .000000000000
G05  22934510.031 5 120521639.864 5     -3357.227          31.000    22934496.102 5  93912933.923 5     -2616.024          31.000
G13  20155593.188 8 105918338.546 8       185.742          51.000    20155590.734 8  82533775.075 8       144.734          50.000
G17  24457376.961 5 128524385.109 5      2797.578          32.000    24457386.234 5 100148891.692 5      2179.928          31.000
G28  20966945.453 8 110182033.633 8      -746.023          51.000    20966944.008 8  85856130.522 8      -581.317          48.000
R06  20245959.625 8 108036295.978 8     -2952.086          49.000
R07  19441438.273 6 104071553.459 6      1139.863          37.000    19441441.445 5  80944520.758 5       886.557          33.000
R09  19734521.312 8 105381246.998 8      1599.574          51.000    19734522.633 8  81963187.013 8      1244.113          49.000
R10  22466051.391 7 119756677.151 7      3517.195          45.000
C05  39775545.930 5 207121705.387 5        17.738          35.000    39775545.773 6 160159608.610 6        13.318          40.000
C21  22124305.336 8 115207149.171 8      -607.809          51.000
C22  24354652.789 8 126821027.867 8     -3129.344          50.000
C26  23830866.445 8 124093586.452 8      2487.480          49.000
E02  24424434.469 8 128351268.189 8     -1744.309          51.000    24424434.945 8  98347103.620 8     -1336.530          51.000
E07  23671625.070 6 124395262.064 6       804.512          40.000    23671630.414 7  95315831.701 7       616.480          43.000
E08  22452456.289 8 117988452.911 8     -1847.145          51.000    22452459.422 8  90406729.387 8     -1415.404          51.000
E30  22283402.461 8 117100046.712 8       988.680          51.000    22283404.156 8  89726023.888 8       757.521          51.000
> 2020 05 05 05 14 30.0000000  0 15        .000000000000
G13  20154580.711 8 105913018.629 8       169.418          51.000    20154578.266 8  82529629.684 8       132.017          50.000
G17  24441430.867 5 128440588.424 5      2790.598          31.000    24441435.172 5 100083603.675 5      2174.492          31.000
G28  20971262.367 8 110204718.379 8      -765.793          51.000    20971260.828 7  85873806.951 7      -596.725          47.000
R06  20262617.398 8 108125183.246 8     -2973.207          48.000
R07  19435125.148 6 104037711.055 6      1113.871          37.000    19435124.398 5  80918234.003 5       866.344          32.000
R09  19725594.242 8 105333575.634 8      1579.105          51.000    19725595.070 8  81926109.292 8      1228.193          50.000
R10  22446293.023 7 119651351.712 7      3505.027          45.000
C05  39775455.000 5 207121231.463 5        14.668          35.000    39775454.961 6 160159242.878 6        11.493          40.000
C21  22127863.016 8 115225673.913 8      -626.598          51.000
C22  24372708.992 8 126915057.139 8     -3138.742          48.000
C26  23816563.086 8 124019107.181 8      2478.340          49.000
E02  24434424.961 8 128403767.543 8     -1755.137          51.000    24434425.102 8  98387330.390 8     -1344.854          51.000
E07  23667070.125 6 124371322.737 6       791.898          41.000    23667074.734 7  95297488.573 7       606.818          43.000
E08  22463036.438 8 118044051.540 8     -1858.875          51.000    22463039.445 8  90449330.917 8     -1424.282          51.000
E30  22277800.680 8 117070609.517 8       974.449          51.000    22277802.648 8  89703468.119 8       746.647          51.000
> 2020 05 05 05 15  0.0000000  0 17        .000000000000
G05  22972936.312 6 120723586.864 6     -3372.938          36.000    22972933.984 6  94070321.366 6     -2628.263          37.000
G13  20153647.336 8 105908114.859 8       156.816          50.000    20153645.078 8  82525808.549 8       122.195          50.000
G17  24425500.578 5 128356882.683 5      2788.605          33.000
G24  23787529.547 4 125004315.638 4      3094.492          29.000
G28  20975678.359 8 110227923.746 8      -782.000          51.000    20975676.625 8  85891889.059 8      -609.351          48.000
R06  20279378.812 7 108214628.036 7     -2990.387          46.000
R07  19428940.492 6 104004616.461 6      1091.699          37.000    19428940.688 5  80892493.768 5       849.096          31.000
R09  19716768.141 8 105286441.905 8      1562.430          51.000    19716768.906 8  81889449.733 8      1215.223          51.000
R10  22426589.344 7 119546314.739 7      3496.559          47.000
C05  39775363.312 5 207120753.806 5        16.078          35.000    39775363.281 6 160158873.526 6        12.617          40.000
C21  22131514.727 8 115244688.074 8      -641.766          51.000
C22  24390804.609 8 127009291.805 8     -3144.363          48.000
C26  23802298.008 8 123944827.480 8      2473.031          49.000
E02  24444462.945 8 128456517.827 8     -1762.246          51.000    24444463.211 8  98427749.430 8     -1350.325          51.000
E07  23662573.547 7 124347689.488 7       782.914          42.000    23662577.430 7  95279379.965 7       599.946          43.000
E08  22473668.977 8 118099925.320 8     -1866.809          51.000    22473671.766 8  90492143.282 8     -1430.403          51.000
E30  22272265.773 8 117041523.003 8       963.957          51.000    22272267.766 8  89681181.028 8       738.622          51.000
> 2020 05 05 05 15 30.0000000  0 17        .000000000000
G05  22992214.406 5 120824895.724 5     -3381.383          35.000    22992211.648 5  94149263.203 5     -2634.850          35.000
G13  20152792.000 8 105903621.337 8       141.766          49.000    20152789.938 8  82522307.081 8       110.464          49.000
G17  24409596.984 6 128273288.160 6      2783.324          36.000    24409597.258 5  99953214.399 5      2168.833          33.000
G28  20980191.938 8 110251642.023 8      -800.309          51.000    20980190.242 8  85910370.839 8      -623.617          48.000
G30  22478228.250 5 118123894.407 5     -2559.738          34.000
R06  20296242.352 7 108304620.461 7     -3010.004          44.000
R07  19422889.023 6 103972221.796 6      1066.719          38.000    19422886.109 4  80867297.927 4       829.670          29.000
R09  19708041.195 8 105239839.367 8      1543.262          51.000    19708042.266 8  81853203.314 8      1200.315          50.000
R10  22406938.812 7 119441560.782 7      3485.820          47.000
C05  39775269.477 5 207120265.693 5        14.941          35.000    39775269.375 6 160158495.296 6        11.575          40.000
C21  22135259.031 8 115264184.632 8      -659.152          51.000
C22  24408938.977 8 127103723.220 8     -3152.328          49.000
C26  23788070.344 8 123870741.077 8      2465.109          49.000
E02  24454547.008 8 128509510.755 8     -1771.691          51.000    24454547.734 8  98468354.388 8     -1357.551          51.000
E07  23658133.977 7 124324356.571 7       771.520          43.000    23658137.250 7  95261501.491 7       591.323          44.000
E08  22484352.641 8 118156066.991 8     -1877.078          51.000    22484355.000 8  90535160.906 8     -1438.248          51.000
E30  22266796.016 8 117012780.225 8       951.141          51.000    22266798.320 8  89659157.335 8       728.817          51.000
> 2020 05 05 05 16  0.0000000  0 18        .000000000000
G05  23011533.969 6 120926430.656 6     -3387.711          36.000    23011534.469 6  94228381.224 6     -2639.775          36.000
G13  20152019.867 8 105899564.491 8       128.695          50.000    20152017.891 8  82519145.890 8       100.282          49.000
G17  24393716.008 5 128189831.669 5      2780.297          35.000    24393713.609 5  99888183.507 5      2166.465          34.000
G28  20984807.781 8 110275897.689 8      -816.703          51.000    20984806.055 8  85929271.366 8      -636.392          48.000
G30  22492855.281 6 118200751.936 6     -2563.699          38.000    22492852.477 5  92104470.387 5     -1997.682          33.000
R06  20313213.227 7 108395184.489 7     -3027.742          44.000
R07  19416973.352 6 103940555.546 6      1044.012          39.000    19416970.094 5  80842668.677 5       812.009          31.000
R09  19699418.398 8 105193793.904 8      1526.273          51.000    19699418.875 8  81817390.179 8      1187.102          49.000
R10  22387346.031 7 119337117.594 7      3476.949          47.000
R16  20567247.188 5 109866541.310 5     -2896.664          31.000    20567247.953 5  85451757.856 5     -2252.961          30.000
C05  39775178.312 5 207119790.648 5        16.305          35.000    39775178.211 6 160158127.953 6        12.484          40.000
C21  22139100.586 8 115284188.956 8      -674.574          51.000
C22  24427116.375 8 127198375.044 8     -3158.070          49.000
C26  23773884.609 8 123796874.074 8      2459.211          49.000
E02  24464681.969 8 128562770.647 8     -1779.074          51.000    24464682.930 8  98509163.926 8     -1363.196          50.000
E07  23653756.523 7 124301350.793 7       762.000          43.000    23653759.031 7  95243873.683 7       583.981          44.000
E08  22495092.320 8 118212501.859 8     -1885.324          51.000    22495093.719 8  90578403.207 8     -1444.617          51.000
