     3.02           OBSERVATION DATA    M (MIXED)           RINEX VERSION / TYPE
SAVERINEX           SC600               20200511 215931 LCL PGM / RUN BY / DATE
       G = GPS       R = GLONASS       C = COMPASS          COMMENT
       S = SBAS      J = QZSS          E = GALILEO          COMMENT
BEAN                                                        MARKER NAME
1                                                           MARKER NUMBER
GEODETIC                                                    MARKER TYPE
Unige DICCA         GTER                                    OBSERVER / AGENCY
SC60291900056       SC600               2.12(191226)        REC # / TYPE / VERS
                    HEMA45          NONE                    ANT # / TYPE
  4509407.8091   693652.4678  4442337.6214                  APPROX POSITION XYZ
        0.0000        0.0000        0.0000                  ANTENNA: DELTA H/E/N
G    8 C1C L1C D1C S1C C2Y L2Y D2Y S2Y                      SYS / # / OBS TYPES
R    8 C1C L1C D1C S1C C2P L2P D2P S2P                      SYS / # / OBS TYPES
C    8 C1I L1I D1I S1I C7I L7I D7I S7I                      SYS / # / OBS TYPES
E    8 C1C L1C D1C S1C C7Q L7Q D7Q S7Q                      SYS / # / OBS TYPES
DBHZ                                                        COMMENT
     30.000                                                 INTERVAL
  2020    05    11    19    00    0.0000000     GPS         TIME OF FIRST OBS
  2020    05    11    19    59   30.0000000     GPS         TIME OF LAST OBS
     0                                                      RCV CLOCK OFFS APPL
G L1C  0.00000                                              SYS / PHASE SHIFT
G L2Y  0.00000                                              SYS / PHASE SHIFT
R L1C  0.00000                                              SYS / PHASE SHIFT
R L2P  0.25000                                              SYS / PHASE SHIFT
C L1I  0.00000                                              SYS / PHASE SHIFT
C L7I  0.00000                                              SYS / PHASE SHIFT
E L1C  0.50000                                              SYS / PHASE SHIFT
E L7Q -0.25000                                              SYS / PHASE SHIFT
 11 R01  1 R02 -4 R07  5 R08  6 R10 -5 R11  0 R12 -1 R13 -2 GLONASS SLOT / FRQ #
    R21  4 R22 -3 R23  3                                    GLONASS SLOT / FRQ #
 C1C   71.950 C2C   71.950 C2P   71.950                     GLONASS COD/PHS/BIS
    18                                                      LEAP SECONDS
*** Above antenna height is from mark to ANTENNA BOTTOM.    COMMENT
    17     4        0.0000        ANT MEASURE TYPE/HEIGT    COMMENT
    0.0000    0.0000    0.0458    0.0405    0.0000          COMMENT
                    BASE STATION                            COMMENT
                                                            END OF HEADER
> 2020 05 11 19 00  0.0000000  0 18        .000000000000
G03  22324366.117 8 117315320.181 8      2830.621          48.000    22324366.680 8  91414575.807 8      2205.682          48.000
G08  21421619.203 8 112571360.439 8     -2471.582          51.000    21421620.750 8  87717929.813 8     -1925.908          51.000
G11  19862648.445 8 104378919.917 8      -222.879          50.000    19862646.266 8  81334215.760 8      -173.672          49.000
G14  22017990.047 6 115705344.084 6       846.281          40.000    22017988.305 6  90160036.209 6       659.443          36.000
G22  20995139.039 8 110330210.802 8      1316.242          51.000    20995136.484 8  85971620.761 8      1025.643          50.000
G27  23834343.117 6 125250275.851 6     -3663.129          41.000    23834351.750 6  97597602.305 6     -2854.386          41.000
R01  19191789.523 8 102591139.650 8       513.473          48.000    19191792.992 6  79793114.725 6       399.368          41.000
R02  22539978.953 5 120277714.802 5      4188.512          31.000    22539992.875 4  93549331.145 4      3257.740          24.000
R08  20712070.828 5 110912198.485 5     -2859.902          31.000    20712070.031 4  86265050.826 4     -2224.372          28.000
R23  19930079.484 8 106612485.014 8     -1823.172          51.000    19930084.211 6  82920829.432 6     -1418.023          41.000
R24  19381842.031 7 103643422.237 7      1070.262          45.000    19381842.805 6  80611572.468 6       832.426          39.000
C05                                                                  39663182.727 6 159707201.777 6       -22.437          37.000
C20  24562376.523 7 127902797.417 7      2999.750          45.000
C27  23303363.469 7 121346697.077 7     -2527.316          47.000
C30  21509423.680 8 112005224.374 8       262.141          51.000
E04  24238013.984 8 127371704.231 8      -119.355          49.000    24238015.219 8  97596508.169 8       -91.436          48.000
E09  23151469.828 8 121661868.767 8      2523.766          50.000    23151473.625 8  93221440.485 8      1933.747          50.000
E11  22748793.008 8 119545709.510 8      -732.730          51.000    22748791.477 8  91599958.362 8      -561.509          51.000
> 2020 05 11 19 00 30.0000000  0 17        .000000000000
G03  22308239.891 7 117230576.574 7      2820.129          47.000    22308241.742 8  91348541.861 8      2197.503          48.000
G08  21435775.109 8 112645747.729 8     -2486.414          51.000    21435776.102 8  87775893.909 8     -1937.469          51.000
G11  19863977.195 8 104385902.748 8      -241.445          50.000    19863975.344 8  81339656.913 8      -188.142          49.000
G14  22013216.211 6 115680258.351 6       827.633          38.000    22013214.594 5  90140488.919 5       644.900          35.000
G22  20987668.328 8 110290950.881 8      1302.340          51.000    20987666.078 8  85941028.605 8      1014.807          50.000
G27  23855278.203 6 125360281.261 6     -3668.953          38.000    23855287.094 6  97683320.904 6     -2858.918          39.000
R01  19188985.523 8 102576149.425 8       487.137          48.000    19188988.250 6  79781455.668 6       378.884          41.000
R02  22516457.820 5 120152201.465 5      4179.867          34.000
R23  19940359.531 8 106667473.596 8     -1841.457          51.000    19940363.867 6  82963598.313 6     -1432.247          41.000
R24  19375891.516 7 103611601.944 7      1052.301          45.000    19375892.828 6  80586823.333 6       818.456          40.000
C05                                                                  39663355.906 6 159707899.267 6       -23.110          37.000
C20  24545122.383 7 127812942.448 7      2991.953          45.000
C27  23317955.289 7 121422685.724 7     -2537.469          47.000
C30  21507959.758 8 111997600.490 8       247.375          51.000
E04  24238741.586 8 127375527.069 8      -134.242          49.000    24238742.688 8  97599437.364 8      -102.828          49.000
E09  23137092.250 8 121586315.988 8      2514.387          51.000    23137096.156 8  93163549.410 8      1926.587          51.000
E11  22753005.789 8 119567848.056 8      -741.891          51.000    22753004.305 8  91616921.639 8      -568.414          51.000
> 2020 05 11 19 01  0.0000000  0 17        .000000000000
G03  22292169.328 7 117146125.772 7      2810.715          47.000    22292172.250 7  91282736.024 7      2190.167          47.000
G08  21450009.922 8 112720550.129 8     -2499.676          51.000    21450010.492 8  87834181.477 8     -1947.799          51.000
G11  19865406.039 8 104393412.040 8      -258.574          49.000    19865404.500 8  81345508.309 8      -201.486          49.000
G14  22008543.172 5 115655703.321 5       810.410          34.000    22008541.805 5  90121354.935 5       631.470          32.000
G22  20980271.945 8 110252080.192 8      1289.832          51.000    20980269.172 8  85910739.764 8      1005.064          50.000
G27  23876241.586 6 125470434.169 6     -3674.047          38.000    23876249.742 6  97769154.407 6     -2862.894          40.000
R01  19186323.203 7 102561918.307 7       462.414          47.000    19186325.898 6  79770387.042 6       359.655          41.000
R02  22492982.648 5 120026933.369 5      4172.047          34.000
R23  19950735.875 8 106722979.077 8     -1858.184          51.000    19950740.133 6  83006769.220 6     -1445.254          41.000
R24  19370035.883 7 103580288.181 7      1035.887          47.000    19370037.250 6  80562468.195 6       805.690          40.000
C05                                                                  39663529.328 6 159708597.229 6       -22.636          37.000
C20  24527908.172 7 127723298.828 7      2985.246          43.000
C27  23332599.602 7 121498944.976 7     -2545.691          47.000
C30  21506575.938 8 111990392.629 8       233.906          51.000
E04  24239548.727 8 127379767.965 8      -147.758          50.000    24239549.648 8  97602686.896 8      -113.115          50.000
E09  23122763.695 8 121511018.116 8      2506.359          51.000    23122767.297 8  93105853.676 8      1920.448          51.000
E11  22757263.164 8 119590221.061 8      -748.980          51.000    22757261.664 8  91634064.572 8      -573.882          51.000
> 2020 05 11 19 01 30.0000000  0 17        .000000000000
G03  22276150.648 8 117061946.506 8      2800.262          49.000    22276154.000 8  91217141.812 8      2182.022          49.000
G08  21464318.812 8 112795743.962 8     -2514.117          51.000    21464319.055 8  87892774.041 8     -1959.052          51.000
G11  19866931.023 8 104401426.513 8      -276.844          49.000    19866929.680 8  81351753.353 8      -215.722          49.000
G22  20972945.242 8 110213576.699 8      1276.152          51.000    20972942.062 8  85880737.070 8       994.404          51.000
G27  23897228.305 6 125580710.075 6     -3678.852          39.000    23897233.547 6  97855083.688 6     -2866.638          39.000
G32  22091371.359 5 116090937.716 5      -754.223          31.000
R01  19183798.711 7 102548423.467 7       436.324          47.000    19183801.125 6  79759891.042 6       339.363          41.000
R02  22469550.156 5 119901890.610 5      4163.410          34.000
R23  19961204.227 8 106778978.493 8     -1876.121          51.000    19961208.797 6  83050324.289 6     -1459.208          41.000
R24  19364270.875 7 103549460.689 7      1018.277          46.000    19364272.320 6  80538491.256 6       791.990          40.000
C05                                                                  39663698.664 6 159709278.699 6       -23.273          37.000
C20  24510729.914 6 127633845.883 6      2977.516          41.000
C27  23347291.820 8 121575452.018 8     -2555.625          49.000
C30  21505267.578 8 111983579.676 8       219.262          50.000
E04  24240431.281 8 127384404.323 8      -162.414          50.000    24240432.242 8  97606239.435 8      -124.435          51.000
E09  23108480.031 8 121435954.389 8      2496.961          51.000    23108483.234 8  93048337.341 8      1913.277          51.000
E11  22761561.102 8 119612806.721 8      -757.387          51.000    22761559.375 8  91651370.464 8      -580.416          51.000
> 2020 05 11 19 02  0.0000000  0 18        .000000000000
G03  22260191.438 8 116978079.563 8      2790.508          49.000    22260194.820 8  91151790.999 8      2174.422          49.000
G08  21478708.797 8 112871366.678 8     -2527.660          48.000    21478709.062 8  87951700.826 8     -1969.602          48.000
G11  19868559.789 8 104409986.260 8      -294.359          49.000    19868558.641 8  81358423.280 8      -229.371          49.000
G14  21999494.742 5 115608135.425 5       773.762          35.000
G22  20965695.812 8 110175480.101 8      1263.230          51.000    20965692.625 8  85851051.415 8       984.335          51.000
G27  23918245.281 6 125691146.667 6     -3683.770          40.000    23918247.641 6  97941138.225 6     -2870.470          39.000
G32  22095729.438 6 116113823.082 6      -772.723          36.000
R01  19181419.297 7 102535704.629 7       411.258          47.000    19181421.555 6  79749998.624 6       319.867          41.000
R02  22446167.938 4 119777116.734 4      4153.887          29.000    22446183.758 4  93159962.890 4      3230.807          27.000
R23  19971772.594 8 106835512.309 8     -1893.266          51.000    19971776.992 6  83094295.016 6     -1472.540          40.000
R24  19358605.180 7 103519162.114 7      1001.195          47.000    19358606.289 6  80514925.704 6       778.707          41.000
C05                                                                  39663871.273 6 159709974.010 6       -23.352          37.000
C20  24493595.500 6 127544624.331 6      2970.238          41.000
C27  23362039.828 8 121652245.200 8     -2564.402          50.000
C30  21504042.805 8 111977201.797 8       205.500          51.000
E04  24241396.398 8 127389475.391 8      -176.191          50.000    24241397.547 8  97610125.071 8      -134.989          51.000
E09  23094248.672 8 121361165.900 8      2488.508          51.000    23094252.008 8  92991031.896 8      1906.716          51.000
E11  22765907.047 8 119635645.190 8      -765.520          51.000    22765905.148 8  91668870.064 8      -586.606          51.000
> 2020 05 11 19 02 30.0000000  0 17        .000000000000
G03  22244287.930 8 116894506.409 8      2780.715          48.000    22244290.852 8  91086669.101 8      2166.794          48.000
G08  21493175.852 7 112947396.906 7     -2541.160          47.000    21493177.055 7  88010945.182 7     -1980.125          47.000
G11  19870288.773 8 104419072.044 8      -311.684          49.000    19870287.500 8  81365503.114 8      -242.870          49.000
G14  21995125.961 6 115585171.751 6       756.375          36.000    21995121.859 5  90066357.437 5       589.374          35.000
G22  20958519.758 8 110137770.485 8      1250.543          51.000    20958516.555 8  85821667.321 8       974.449          50.000
G27  23939288.164 6 125801722.223 6     -3688.262          40.000    23939288.609 6  98027300.942 6     -2873.970          40.000
G32  22100195.414 4 116137309.976 4      -791.613          28.000
R01  19179181.453 7 102523741.542 7       386.094          47.000    19179183.672 6  79740694.003 6       300.292          41.000
R23  19982436.906 8 106892559.999 8     -1910.172          51.000    19982441.250 6  83138665.408 6     -1485.689          41.000
R24  19353035.086 7 103489374.518 7       984.262          47.000    19353035.914 7  80491757.575 7       765.537          42.000
C05                                                                  39664043.656 6 159710668.121 6       -22.974          37.000
C20  24476501.078 6 127455615.946 6      2963.863          38.000
C27  23376839.625 8 121729304.133 8     -2573.102          51.000
C30  21502898.266 8 111971240.440 8       191.746          50.000
E04  24242440.492 8 127394961.124 8      -189.793          51.000    24242441.500 8  97614328.423 8      -145.351          51.000
E09  23080065.883 8 121286634.358 8      2480.062          51.000    23080069.609 8  92933923.334 8      1900.320          51.000
E11  22770297.219 8 119658717.174 8      -772.984          50.000    22770295.570 8  91686548.589 8      -592.317          51.000
> 2020 05 11 19 03  0.0000000  0 17        .000000000000
G03  22228447.945 8 116811266.843 8      2770.863          50.000    22228449.398 8  91021807.117 8      2159.114          50.000
G08  21507728.281 8 113023871.738 8     -2554.711          49.000    21507730.336 8  88070535.980 8     -1990.684          49.000
G11  19872125.297 8 104428723.117 8      -329.367          50.000    19872123.883 8  81373023.432 8      -256.650          50.000
G14  21990864.242 6 115562779.373 6       738.586          36.000    21990862.445 5  90048908.904 5       575.512          31.000
G22  20951424.234 8 110100486.906 8      1237.301          49.000    20951421.141 8  85792615.218 8       964.130          49.000
G27  23960363.688 6 125912473.206 6     -3692.512          40.000    23960362.258 6  98113600.302 6     -2877.285          40.000
G32  22104770.977 5 116161331.746 5      -810.523          34.000
R01  19177092.188 7 102512573.290 7       360.898          47.000    19177094.398 7  79732007.593 7       280.699          42.000
R23  19993204.703 8 106950160.541 8     -1927.371          51.000    19993209.195 6  83183465.778 6     -1499.069          40.000
R24  19347568.461 8 103460139.761 8       967.113          49.000    19347569.188 7  80469019.434 7       752.202          42.000
C05                                                                  39664223.086 6 159711390.818 6       -23.095          37.000
C20  24459454.156 6 127366860.490 6      2955.910          38.000
C27  23391697.922 8 121806666.283 8     -2582.023          51.000
C30  21501840.977 8 111965734.820 8       177.742          50.000
E04  24243570.789 8 127400899.869 8      -203.746          51.000    24243571.453 8  97618878.882 8      -156.123          51.000
E09  23065939.383 8 121212399.920 8      2471.355          51.000    23065943.648 8  92877042.429 8      1893.642          51.000
E11  22774739.367 8 119682061.761 8      -780.789          50.000    22774737.961 8  91704435.980 8      -598.174          50.000
> 2020 05 11 19 03 30.0000000  0 18        .000000000000
G03  22212657.523 8 116728286.304 8      2761.262          51.000    22212657.617 8  90957146.994 8      2151.636          50.000
G08  21522351.375 8 113100713.964 8     -2567.980          51.000    21522353.750 8  88130413.013 8     -2001.027          51.000
G11  19874055.102 8 104438864.389 8      -346.699          50.000    19874053.688 8  81380925.720 8      -270.155          50.000
G14  21986697.750 6 115540883.687 6       721.258          37.000    21986696.000 5  90031847.358 5       562.028          32.000
G22  20944395.789 8 110063554.160 8      1224.715          51.000    20944392.859 8  85763836.457 8       954.323          50.000
G27  23981457.320 6 126023322.065 6     -3697.254          39.000    23981454.430 6  98199975.998 6     -2880.974          38.000
G32  22109453.250 6 116185929.890 6      -829.586          36.000    22109466.164 5  90534562.379 5      -646.428          34.000
R01  19175136.891 8 102502122.342 8       335.926          48.000    19175139.523 7  79723879.098 7       261.276          42.000
R02  22376327.625 5 119404380.193 5      4129.484          31.000
R23  20004061.492 8 107008236.671 8     -1944.281          50.000    20004065.578 6  83228636.095 6     -1512.219          40.000
R24  19342190.820 8 103431383.150 8       950.062          48.000    19342191.664 7  80446653.188 7       738.934          43.000
C05                                                                  39664395.211 6 159712084.114 6       -23.071          37.000
C20  24442442.477 6 127278284.318 6      2949.375          41.000
C27  23406599.656 8 121884255.774 8     -2590.547          51.000
C30  21500856.883 8 111960610.910 8       163.891          50.000
E04  24244772.539 8 127407215.608 8      -217.410          51.000    24244773.188 8  97623718.218 8      -166.578          51.000
E09  23051855.500 8 121138388.470 8      2462.770          51.000    23051859.797 8  92820332.390 8      1887.012          51.000
E11  22779219.312 8 119705603.838 8      -788.773          50.000    22779217.750 8  91722474.734 8      -604.418          50.000
> 2020 05 11 19 04  0.0000000  0 18        .000000000000
G03  22196926.664 8 116645620.070 8      2750.496          49.000    22196927.023 8  90892731.766 8      2143.244          49.000
G08  21537054.242 8 113177975.605 8     -2582.250          51.000    21537056.688 8  88190616.849 8     -2012.143          51.000
G11  19876088.562 8 104449550.562 8      -365.203          49.000    19876087.383 8  81389252.599 8      -284.574          49.000
G14  21982635.953 5 115519539.848 5       702.320          33.000    21982634.891 5  90015215.766 5       547.260          32.000
G22  20937444.922 8 110027025.993 8      1210.980          51.000    20937442.008 8  85735372.952 8       943.621          51.000
G27  24002579.906 6 126134320.797 6     -3702.309          38.000    24002576.391 6  98286468.404 6     -2884.922          37.000
G32  22114245.141 5 116211112.209 5      -848.727          34.000    22114247.992 5  90554184.910 5      -661.342          34.000
R01  19173326.414 8 102492443.597 8       309.883          48.000    19173329.039 6  79716351.192 6       241.020          41.000
R02  22353138.555 5 119280651.719 5      4119.805          31.000
R23  20015016.945 7 107066843.167 7     -1962.207          47.000    20015021.695 6  83274218.932 6     -1526.158          40.000
R24  19336913.117 8 103403161.868 8       931.965          49.000    19336914.375 7  80424703.302 7       724.862          43.000
C05                                                                  39664570.328 6 159712789.555 6       -23.678          37.000
C20  24425476.828 7 127189942.475 7      2940.797          43.000
C27  23421553.703 8 121962125.382 8     -2600.125          49.000
C30  21499956.461 8 111955923.257 8       149.098          49.000
E04  24246056.391 8 127413962.044 8      -231.922          51.000    24246057.070 8  97628887.558 8      -177.635          51.000
E09  23037824.891 8 121064655.550 8      2453.262          51.000    23037828.719 8  92763835.737 8      1879.766          51.000
E11  22783747.062 8 119729397.927 8      -797.039          49.000    22783745.586 8  91740706.567 8      -610.778          50.000
> 2020 05 11 19 04 30.0000000  0 18        .000000000000
G03  22181251.750 7 116563249.575 7      2740.371          47.000    22181253.461 7  90828546.983 7      2135.354          47.000
G08  21551832.742 8 113255635.717 8     -2595.559          51.000    21551835.273 8  88251131.205 8     -2022.513          51.000
G11  19878222.047 8 104460762.198 8      -382.828          49.000    19878220.984 8  81397988.926 8      -298.308          49.000
G14  21978676.055 6 115498729.178 6       684.715          37.000    21978674.484 5  89998998.827 5       533.547          33.000
G22  20930567.273 8 109990882.372 8      1198.090          51.000    20930564.219 8  85707209.109 8       933.577          51.000
G27  24023726.789 6 126245447.670 6     -3707.012          36.000    24023722.914 6  98373060.649 6     -2888.584          37.000
G32  22119144.539 6 116236857.893 6      -867.938          37.000    22119153.461 6  90574246.607 6      -676.306          36.000
R01  19171656.336 8 102483516.096 8       284.730          49.000    19171659.023 6  79709407.604 6       221.460          41.000
R02  22329997.297 5 119157184.848 5      4110.984          31.000    22329994.086 4  92677766.700 4      3197.438          26.000
R23  20026066.953 7 107125959.613 7     -1979.375          46.000    20026072.766 6  83320198.408 6     -1539.514          39.000
R24  19331732.109 8 103375458.218 8       914.438          49.000    19331733.398 7  80403155.999 7       711.226          43.000
C05                                                                  39664744.805 6 159713492.122 6       -23.606          37.000
C20  24408553.117 7 127101816.777 7      2933.719          44.000
C27  23436555.742 7 122040254.670 7     -2608.895          44.000
C30  21499136.148 8 111951653.236 8       135.113          49.000
E04  24247418.234 8 127421119.149 8      -245.668          50.000    24247419.094 8  97634371.575 8      -188.239          51.000
E09  23023843.820 8 120991182.964 8      2444.488          51.000    23023847.297 8  92707538.549 8      1873.014          51.000
E11  22788319.062 8 119753424.866 8      -805.059          49.000    22788317.719 8  91759116.812 8      -616.782          50.000
> 2020 05 11 19 05  0.0000000  0 18        .000000000000
G03  22165634.289 8 116481179.824 8      2730.887          48.000    22165636.789 8  90764596.551 8      2127.967          48.000
G08  21566687.023 8 113333695.939 8     -2608.406          50.000    21566689.883 8  88311957.349 8     -2032.524          50.000
G11  19880456.430 8 104472503.875 8      -400.012          50.000    19880455.250 8  81407138.275 8      -311.697          50.000
G14  21974818.992 6 115478456.868 6       666.645          37.000    21974816.516 4  89983202.143 4       519.439          28.000
G22  20923763.594 8 109955128.030 8      1185.578          51.000    20923760.383 8  85679348.601 8       923.827          51.000
G27  24044897.656 6 126356704.481 6     -3710.477          36.000    24044893.766 6  98459754.202 6     -2891.283          36.000
G32  22124151.641 6 116263170.192 6      -886.258          37.000    22124165.805 5  90594749.813 5      -690.591          34.000
R01  19170127.609 8 102475343.764 8       260.043          48.000    19170130.203 6  79703051.368 6       202.256          40.000
R02  22306909.742 4 119033939.463 4      4101.941          28.000    22306903.641 4  92581927.422 4      3190.399          27.000
R23  20037213.492 7 107185589.994 7     -1995.953          47.000    20037220.109 6  83366577.591 6     -1552.411          39.000
R24  19326649.195 8 103348278.553 8       897.492          50.000    19326649.727 7  80382016.296 7       698.053          43.000
C05                                                                  39664919.320 6 159714194.908 6       -23.295          37.000
C20  24391672.344 7 127013912.622 7      2926.660          46.000
C27  23451608.727 7 122118646.715 7     -2617.219          47.000
C30  21498397.180 8 111947805.646 8       121.508          50.000
E04  24248859.109 8 127428690.449 8      -258.961          50.000    24248859.805 8  97640172.957 8      -198.413          51.000
E09  23009913.070 8 120917976.074 8      2436.059          51.000    23009916.352 8  92651444.936 8      1866.563          51.000
E11  22792936.211 8 119777689.068 8      -812.734          50.000    22792935.180 8  91777708.844 8      -622.664          50.000
> 2020 05 11 19 05 30.0000000  0 19        .000000000000
G01  20624388.188 5 108381864.901 5      1203.812          32.000    20624377.930 5  84453379.210 5       938.036          32.000
G03  22150072.727 8 116399402.809 8      2719.812          49.000    22150075.195 8  90700874.262 8      2119.334          49.000
G08  21581614.984 8 113412145.392 8     -2622.523          49.000    21581618.281 8  88373086.779 8     -2043.525          49.000
G11  19882790.047 8 104484766.954 8      -418.520          49.000    19882788.547 8  81416693.919 8      -326.119          49.000
G14  21971062.375 5 115458714.375 5       647.938          31.000    21971060.273 4  89967818.460 4       504.889          29.000
G22  20917032.047 8 109919753.530 8      1171.727          51.000    20917028.742 8  85651784.047 8       913.031          51.000
G27  24066091.555 6 126468080.180 6     -3715.801          36.000    24066087.695 5  98546540.485 5     -2895.426          35.000
G32  22129264.688 5 116290038.957 5      -905.914          35.000    22129274.031 5  90615686.385 5      -705.904          35.000
R01  19168738.211 8 102467916.466 8       234.086          49.000    19168740.594 6  79697274.595 6       182.067          41.000
R02  22283869.859 4 118910996.810 4      4091.023          28.000    22283863.406 4  92486305.423 4      3181.910          27.000
R23  20048455.445 8 107245724.373 8     -2014.059          51.000    20048461.578 6  83413348.741 6     -1566.490          39.000
R24  19321662.703 8 103321615.654 8       878.996          50.000    19321663.500 7  80361278.485 7       683.664          44.000
C05                                                                  39665092.195 6 159714890.971 6       -23.663          37.000
C20  24374832.859 7 126926222.280 7      2918.371          47.000
C27  23466711.984 8 122197291.593 8     -2626.805          49.000
C30  21497737.852 8 111944372.344 8       106.484          50.000
E04  24250376.852 8 127436666.417 8      -273.672          49.000    24250377.461 8  97646284.407 8      -209.676          50.000
E09  22996031.250 8 120845027.213 8      2426.266          51.000    22996034.883 8  92595549.044 8      1859.093          51.000
E11  22797597.125 8 119802181.770 8      -821.188          51.000    22797596.305 8  91796475.979 8      -629.150          50.000
> 2020 05 11 19 06  0.0000000  0 17        .000000000000
G03  22134571.711 8 116317944.325 8      2706.539          48.000    22134574.031 8  90637400.162 8      2108.991          48.000
G08  21596621.547 8 113491006.960 8     -2638.918          50.000    21596624.844 8  88434537.338 8     -2056.300          50.000
G11  19885227.680 8 104497576.727 8      -439.473          49.000    19885225.961 8  81426675.558 8      -342.446          49.000
G14  21967410.719 5 115439527.540 5       627.402          33.000    21967409.547 5  89952867.492 5       488.858          32.000
G22  20910377.578 8 109884783.725 8      1155.574          51.000    20910374.086 8  85624534.830 8       900.447          51.000
G32  22134488.625 6 116317488.227 6      -927.750          37.000    22134498.281 6  90637075.541 6      -722.916          37.000
R01  19167493.164 8 102461259.173 8       205.734          49.000    19167495.141 6  79692096.723 6       160.016          41.000
R02  22260887.125 5 118788351.622 5      4080.117          32.000    22260877.391 4  92390905.879 4      3173.431          29.000
R23  20059796.461 8 107306387.746 8     -2034.371          51.000    20059801.781 6  83460531.315 6     -1582.292          40.000
R24  19316778.055 8 103295497.168 8       858.176          49.000    19316779.711 7  80340964.103 7       667.470          45.000
C05                                                                  39665268.039 6 159715599.386 6       -26.249          37.000
C20  24358039.461 8 126838771.639 8      2907.605          48.000
C27  23481868.508 8 122276212.905 8     -2638.609          51.000
C30  21497162.906 8 111941378.669 8        89.125          51.000
E04  24251975.969 8 127445071.359 8      -290.629          49.000    24251976.703 8  97652724.561 8      -222.732          48.000
E09  22982203.586 8 120772362.507 8      2414.129          51.000    22982207.508 8  92539870.922 8      1849.763          51.000
E11  22802306.414 8 119826928.260 8      -832.402          50.000    22802305.602 8  91815437.578 8      -637.803          50.000
> 2020 05 11 19 06 30.0000000  0 17        .000000000000
G03  22119129.031 8 116236792.898 8      2700.180          48.000    22119131.734 8  90574165.284 8      2104.036          48.000
G08  21611704.148 8 113570266.294 8     -2648.176          51.000    21611706.289 8  88496297.822 8     -2063.514          51.000
G11  19887766.945 8 104510920.673 8      -453.379          49.000    19887765.250 8  81437073.434 8      -353.282          49.000
G14  21963863.305 6 115420884.632 6       612.926          36.000    21963862.406 5  89938340.590 5       477.601          35.000
G22  20903797.828 8 109850205.894 8      1146.504          51.000    20903794.234 8  85597591.070 8       893.380          51.000
G32  22139820.312 6 116345504.548 6      -943.004          38.000    22139826.555 6  90658906.358 6      -734.814          38.000
R01  19166389.477 8 102455357.859 8       184.449          49.000    19166391.305 7  79687506.822 7       143.461          42.000
R02  22237957.555 6 118665987.607 6      4074.117          36.000    22237947.922 5  92295737.968 5      3168.758          30.000
R23  20071233.883 8 107367566.665 8     -2047.520          51.000    20071238.742 6  83508114.882 6     -1592.515          41.000
R24  19311993.430 8 103269912.372 8       844.309          50.000    19311995.375 7  80321064.816 7       656.684          45.000
C05                                                                  39665444.578 6 159716310.456 6       -23.346          37.000
C20  24341289.750 8 126751549.470 8      2904.027          48.000
C27  23497075.383 8 122355397.144 8     -2643.480          51.000
C30  21496670.312 8 111938812.976 8        78.695          51.000
E04  24253654.320 7 127453892.177 7      -300.582          47.000    24253655.148 7  97659483.352 7      -230.334          46.000
E09  22968428.102 8 120699970.771 8      2408.945          51.000    22968431.836 8  92484401.963 8      1845.836          51.000
E11  22807061.492 8 119851916.290 8      -836.719          50.000    22807060.555 8  91834584.232 8      -641.035          49.000
> 2020 05 11 19 07  0.0000000  0 17        .000000000000
G03  22103742.023 8 116155933.724 8      2689.113          48.000    22103745.336 8  90511158.124 8      2095.413          48.000
G08  21626859.344 8 113649906.372 8     -2662.363          51.000    21626859.836 8  88558354.971 8     -2074.569          50.000
G11  19890404.914 8 104524783.569 8      -472.039          49.000    19890403.328 8  81447875.685 8      -367.823          49.000
G14  21960416.359 6 115402770.345 6       593.887          37.000    21960416.531 6  89924225.643 6       462.772          36.000
G22  20897289.539 8 109816004.427 8      1132.316          51.000    20897286.070 8  85570940.593 8       882.324          51.000
G32  22145256.750 5 116374109.579 5      -963.164          30.000    22145259.164 5  90681166.473 5      -750.508          32.000
R01  19165424.164 8 102450196.220 8       158.355          49.000    19165426.109 6  79683492.240 6       123.165          41.000
R02  22215077.047 6 118543891.429 6      4063.496          37.000    22215069.602 5  92200774.347 5      3160.500          32.000
R23  20082764.562 8 107429244.716 8     -2065.707          51.000    20082769.461 7  83556086.649 7     -1606.661          42.000
R24  19307306.188 8 103244847.331 8       825.395          51.000    19307308.312 7  80301569.786 7       641.974          46.000
C05                                                                  39665618.875 6 159717012.158 6       -24.331          37.000
C20  24324581.078 8 126664541.513 8      2895.410          48.000
C27  23512329.500 8 122434827.763 8     -2653.219          51.000
C30  21496257.164 8 111936660.454 8        63.453          51.000
E04  24255408.547 7 127463112.637 7      -315.340          46.000    24255409.445 7  97666548.392 7      -241.660          43.000
E09  22954701.938 8 120627837.644 8      2398.734          51.000    22954704.773 8  92429131.171 8      1837.988          51.000
E11  22811859.625 8 119877130.571 8      -845.602          50.000    22811858.438 8  91853904.256 8      -647.884          49.000
> 2020 05 11 19 07 30.0000000  0 17        .000000000000
G03  22088414.445 8 116075387.378 8      2680.059          48.000    22088417.734 8  90448394.761 8      2088.357          48.000
G08  21642090.070 8 113729943.898 8     -2674.035          50.000    21642089.766 8  88620721.851 8     -2083.664          50.000
G11  19893145.516 8 104539185.448 8      -488.633          49.000    19893144.055 8  81459097.922 8      -380.753          49.000
G14  21957073.984 6 115385205.484 6       576.520          39.000    21957073.547 5  89910538.765 5       449.233          35.000
G22  20890856.617 8 109782198.748 8      1120.637          51.000    20890853.117 8  85544598.513 8       873.223          50.000
G32  22150801.555 6 116403243.493 6      -980.102          38.000    22150806.172 6  90703836.004 6      -763.716          36.000
R01  19164600.664 8 102445793.441 8       134.504          48.000    19164602.562 7  79680067.853 7       104.614          42.000
R02  22192250.641 5 118422086.136 5      4055.363          34.000    22192246.508 5  92106037.014 5      3154.171          35.000
R23  20094392.078 8 107491441.159 8     -2081.418          51.000    20094396.680 6  83604461.664 6     -1618.881          41.000
R24  19302720.305 8 103220324.090 8       808.836          51.000    19302722.367 7  80282496.141 7       629.095          45.000
C05                                                                  39665794.742 6 159717719.502 6       -23.225          38.000
C20  24307917.414 7 126577768.422 7      2888.973          47.000
C27  23527634.469 8 122514523.130 8     -2660.523          51.000
C30  21495927.422 8 111934941.231 8        50.465          51.000
E04  24257242.414 7 127472751.822 7      -327.832          45.000    24257243.109 6  97673934.214 6      -251.115          40.000
E09  22941028.742 8 120555984.059 8      2390.859          51.000    22941030.531 8  92374074.555 8      1832.023          51.000
E11  22816704.508 8 119902590.944 8      -852.273          50.000    22816703.422 8  91873412.851 8      -653.011          50.000
> 2020 05 11 19 08  0.0000000  0 18        .000000000000
G03  22073143.711 8 115995139.466 8      2670.293          48.000    22073146.039 8  90385863.967 8      2080.751          48.000
G08  21657393.219 8 113810361.967 8     -2686.621          49.000    21657393.570 8  88683385.297 8     -2093.471          49.000
G11  19895985.883 8 104554111.168 8      -506.094          50.000    19895984.227 8  81470728.347 8      -394.359          49.000
G14  21953833.273 6 115368175.179 6       558.984          39.000    21953832.242 5  89897268.461 5       435.572          31.000
G22  20884496.086 8 109748773.340 8      1108.062          51.000    20884492.539 8  85518552.755 8       863.425          50.000
G27  24172422.633 5 127026942.397 5     -3735.035          31.000    24172419.641 5  98982017.417 5     -2910.420          30.000
G32  22156451.789 6 116432931.624 6      -998.348          37.000    22156456.273 5  90726969.548 5      -777.936          35.000
R01  19163915.664 7 102442132.833 7       109.801          47.000    19163918.164 7  79677220.729 7        85.401          42.000
R02  22169475.633 5 118300559.158 5      4045.848          30.000    22169474.281 5  92011516.013 5      3146.767          35.000
R23  20106113.031 8 107554140.015 8     -2098.121          51.000    20106117.438 7  83653227.451 7     -1631.872          42.000
R24  19298233.109 8 103196329.238 8       791.230          51.000    19298235.008 7  80263833.483 7       615.398          46.000
C05                                                                  39665969.039 6 159718420.692 6       -23.005          37.000
C20  24291296.156 7 126491216.283 7      2881.586          46.000
C27  23542987.328 8 122594467.018 8     -2668.730          51.000
C30  21495678.047 8 111933640.852 8        36.629          51.000
E04  24259152.906 7 127482793.797 7      -341.250          42.000    24259153.594 5  97681628.700 5      -261.618          33.000
E09  22927405.641 8 120484395.963 8      2382.109          51.000    22927406.969 8  92319221.378 8      1825.214          51.000
E11  22821593.617 8 119928282.471 8      -860.266          50.000    22821592.523 8  91893098.563 8      -659.063          50.000
> 2020 05 11 19 08 30.0000000  0 17        .000000000000
G01  20584250.156 5 108170953.472 5      1141.387          34.000    20584262.797 5  84289099.229 5       889.392          34.000
G03  22057936.453 8 115915225.154 8      2661.254          48.000    22057938.117 8  90323593.136 8      2073.704          48.000
G08  21672774.914 8 113891192.934 8     -2698.102          48.000    21672776.438 8  88746370.466 8     -2102.417          48.000
G11  19898932.648 8 104569595.225 8      -522.367          51.000    19898930.633 8  81482793.850 8      -407.039          49.000
G14  21950701.023 6 115351714.524 6       542.438          38.000    21950700.555 4  89884441.975 4       422.679          29.000
G22  20878214.195 8 109715762.688 8      1096.477          51.000    20878210.766 8  85492830.195 8       854.397          51.000
G27  24193759.805 5 127139071.578 5     -3736.859          34.000    24193757.562 5  99069390.665 5     -2911.842          33.000
R01  19163375.586 7 102439248.364 7        86.262          47.000    19163378.492 7  79674977.235 7        67.092          42.000
R23  20117934.266 8 107617375.275 8     -2113.715          51.000    20117938.781 7  83702410.429 7     -1644.000          42.000
R24  19293851.719 8 103172899.420 8       774.688          51.000    19293853.484 7  80245610.297 7       602.535          47.000
C05                                                                  39666148.188 6 159719142.011 6       -22.062          37.000
C20  24274723.766 7 126404920.228 7      2875.301          47.000
C27  23558394.344 8 122674692.280 8     -2675.781          51.000
C30  21495515.320 8 111932793.971 8        23.680          51.000
E04  24261146.789 7 127493272.112 7      -353.367          43.000
E09  22913839.453 8 120413108.900 8      2374.316          51.000    22913840.969 8  92264598.847 8      1819.296          51.000
E11  22826533.141 8 119954239.662 8      -866.488          49.000    22826532.016 8  91912987.845 8      -663.957          50.000
> 2020 05 11 19 09  0.0000000  0 18        .000000000000
G01  20577772.172 5 108136922.291 5      1128.797          33.000
G03  22042786.992 8 115835615.187 8      2649.055          48.000    22042789.188 8  90261559.430 8      2064.198          48.000
G08  21688228.859 8 113972404.709 8     -2712.820          49.000    21688231.367 8  88809652.325 8     -2113.886          48.000
G11  19901979.898 8 104585607.695 8      -542.070          51.000    19901977.742 8  81495271.092 8      -422.392          49.000
G14  21947671.266 5 115335793.886 5       521.895          34.000    21947670.383 5  89872041.384 5       406.674          33.000
G22  20872005.086 8 109683135.949 8      1081.625          51.000    20872002.039 8  85467406.777 8       842.825          50.000
G27  24215117.547 6 127251309.241 6     -3742.812          38.000    24215117.078 6  99156848.514 6     -2916.480          37.000
R01  19162974.750 7 102437108.548 7        59.438          47.000    19162978.539 7  79673312.943 7        46.229          42.000
R02  22124092.461 5 118058422.530 5      4026.359          35.000    22124099.445 5  91823223.915 5      3131.616          32.000
R23  20129849.852 8 107681116.053 8     -2132.629          51.000    20129854.938 6  83751986.553 6     -1658.714          41.000
R24  19289570.531 8 103150006.169 8       754.613          51.000    19289572.484 7  80227804.428 7       586.921          47.000
C05                                                                  39666326.484 6 159719860.220 6       -23.337          37.000
C20  24258195.156 7 126318851.463 7      2865.551          47.000
C27  23573849.086 8 122755167.963 8     -2686.250          50.000
C30  21495434.258 8 111932371.280 8         7.441          51.000
E04  24263217.703 7 127504156.086 7      -369.082          43.000    24263221.758 6  97697934.583 6      -282.483          36.000
E09  22900325.359 8 120342093.952 8      2363.090          51.000    22900327.453 8  92210184.809 8      1810.661          51.000
E11  22831517.461 8 119980432.693 8      -876.488          49.000    22831516.312 8  91933057.822 8      -671.598          50.000
> 2020 05 11 19 09 30.0000000  0 17        .000000000000
G01  20571358.703 5 108103220.476 5      1118.449          31.000    20571363.594 5  84236317.156 5       871.516          31.000
G03  22027690.148 7 115756282.957 7      2638.914          47.000    22027692.836 7  90199742.112 7      2056.297          47.000
G08  21703749.930 8 114053967.583 8     -2725.383          50.000    21703752.727 8  88873207.797 8     -2123.675          50.000
G11  19905122.406 8 104602120.969 8      -559.625          51.000    19905120.367 8  81508138.564 8      -436.071          50.000
G22  20865864.055 8 109650865.643 8      1068.922          51.000    20865861.219 8  85442261.089 8       832.926          50.000
G27  24236490.281 6 127363625.686 6     -3746.219          37.000    24236491.477 6  99244367.756 6     -2919.135          37.000
R01  19162707.773 7 102435684.435 7        34.781          47.000    19162712.305 7  79672205.317 7        27.052          42.000
R02  22101480.219 5 117937761.663 5      4016.438          35.000    22101488.758 4  91729377.200 4      3123.905          28.000
R23  20141854.547 8 107745333.253 8     -2149.406          51.000    20141859.875 6  83801933.252 6     -1671.760          40.000
R24  19285384.945 8 103127623.417 8       736.699          51.000    19285387.141 8  80210395.622 8       572.988          48.000
C05                                                                  39666498.789 6 159720554.202 6       -23.171          37.000
C20  24241704.969 7 126232983.921 7      2857.961          47.000
C27  23589346.062 8 122835865.684 8     -2694.488          49.000
C30  21495429.516 8 111932346.182 8        -6.598          51.000
E04  24265360.461 7 127515417.473 7      -382.309          44.000    24265363.078 6  97706563.409 6      -292.887          40.000
E09  22886858.414 8 120271324.817 8      2354.062          51.000    22886861.094 8  92155959.131 8      1803.816          51.000
E11  22836541.734 8 120006834.361 8      -884.590          51.000    22836540.383 8  91953287.658 8      -677.641          50.000
> 2020 05 11 19 10  0.0000000  0 16        .000000000000
G03  22012659.367 8 115677296.161 8      2628.160          49.000    22012661.336 8  90138194.009 8      2047.920          49.000
G08  21719350.484 8 114135946.352 8     -2738.438          51.000    21719352.938 8  88937087.364 8     -2133.847          51.000
G11  19908373.086 8 104619202.621 8      -577.809          51.000    19908371.070 8  81521448.922 8      -450.240          50.000
G22  20859803.789 8 109619018.517 8      1055.559          51.000    20859800.734 8  85417445.156 8       822.513          50.000
G27  24257889.938 5 127476085.644 5     -3749.926          35.000    24257891.641 5  99331998.838 5     -2922.023          35.000
R01  19162587.375 7 102435042.708 7         9.332          47.000    19162592.711 7  79671706.208 7         7.258          43.000
R02  22078929.742 5 117817434.713 5      4006.488          34.000    22078941.188 5  91635789.773 5      3116.167          31.000
R23  20153960.734 8 107810094.468 8     -2166.746          50.000    20153966.391 6  83852303.090 6     -1685.247          39.000
R24  19281307.695 8 103105821.237 8       717.988          51.000    19281309.930 7  80193438.369 7       558.435          47.000
C05                                                                  39666677.875 6 159721275.213 6       -23.793          37.000
C20  24225265.938 7 126147385.065 7      2849.867          47.000
C27  23604897.305 7 122916850.621 7     -2703.312          47.000
C30  21495513.867 8 111932785.570 8       -21.402          51.000
E04  24267588.102 7 127527122.523 7      -396.555          44.000    24267590.938 7  97715532.180 7      -303.827          44.000
E09  22873451.250 8 120200869.595 8      2344.305          51.000    22873454.492 8  92101973.983 8      1796.285          51.000
E11  22841618.633 8 120033511.677 8      -892.656          51.000    22841616.891 8  91973728.738 8      -683.992          49.000
> 2020 05 11 19 10 30.0000000  0 17        .000000000000
G03  21997688.758 8 115598623.143 8      2615.059          50.000    21997690.422 8  90076890.427 8      2037.711          50.000
G08  21735023.594 8 114218306.334 8     -2753.773          51.000    21735025.539 8  89001263.947 8     -2145.797          51.000
G11  19911725.664 8 104636819.935 8      -598.336          51.000    19911723.344 8  81535176.695 8      -466.236          50.000
G14  21939200.391 6 115291267.966 6       465.383          36.000
G22  20853818.031 8 109587561.641 8      1039.941          51.000    20853814.500 8  85392933.319 8       810.347          50.000
G32  22186344.594 5 116590005.340 5     -1095.406          33.000    22186320.742 5  90849317.557 5      -853.566          34.000
R01  19162607.055 7 102435149.499 7       -18.145          47.000    19162613.023 7  79671789.280 7       -14.112          43.000
R02  22056435.195 5 117697411.364 5      3993.805          31.000    22056448.953 5  91542438.500 5      3106.299          35.000
R23  20166161.797 8 107875365.835 8     -2186.328          50.000    20166167.688 6  83903069.687 6     -1700.477          37.000
R24  19277333.195 8 103084568.426 8       697.078          51.000    19277335.477 8  80176908.401 8       542.175          48.000
C05                                                                  39666857.406 6 159721998.128 6       -25.913          37.000
C20  24208872.422 8 126062023.806 8      2839.324          48.000
C27  23620496.953 7 122998089.371 7     -2714.312          46.000
C30  21495681.297 8 111933657.842 8       -38.438          51.000
E04  24269893.969 7 127539237.931 7      -412.918          45.000    24269897.836 7  97724815.436 7      -316.401          46.000
E09  22860097.891 8 120130697.002 8      2332.141          51.000    22860101.484 8  92048205.399 8      1786.950          51.000
E11  22846741.797 8 120060432.541 8      -903.520          51.000    22846739.883 8  91994356.407 8      -692.340          49.000
> 2020 05 11 19 11  0.0000000  0 15        .000000000000
G03  21982776.773 8 115520258.143 8      2607.008          49.000    21982779.234 8  90015826.830 8      2031.435          50.000
G08  21750767.516 8 114301038.811 8     -2763.840          51.000    21750768.961 8  89065730.782 8     -2153.641          51.000
G11  19915178.781 8 104654966.460 8      -613.688          51.000    19915176.375 8  81549316.831 8      -478.198          50.000
G14  21936586.766 6 115277532.745 6       448.895          38.000
G22  20847905.281 8 109556488.221 8      1029.340          51.000    20847901.328 8  85368720.294 8       802.083          50.000
R01  19162765.438 7 102435997.039 7       -40.617          46.000    19162771.648 7  79672448.484 7       -31.591          44.000
R23  20178457.586 8 107941139.882 8     -2200.887          51.000    20178462.766 6  83954227.230 6     -1711.804          37.000
R24  19273460.742 8 103063860.125 8       681.191          51.000    19273462.984 8  80160801.947 8       529.816          48.000
C05                                                                  39667036.086 6 159722717.936 6       -24.164          37.000
C20  24192524.008 8 125976894.659 8      2833.766          49.000
C27  23636143.414 7 123079574.261 7     -2720.449          44.000
C30  21495930.617 8 111934956.983 8       -50.422          51.000
E04  24272276.469 7 127551756.439 7      -424.066          47.000    24272280.664 7  97734407.545 7      -324.820          47.000
E09  22846797.281 8 120060801.602 8      2325.250          51.000    22846800.953 8  91994649.186 8      1781.646          51.000
E11  22851909.883 8 120087590.526 8      -909.344          51.000    22851908.000 8  92015165.754 8      -696.767          49.000
> 2020 05 11 19 11 30.0000000  0 15        .000000000000
G03  21967922.383 8 115442197.639 8      2597.066          48.000    21967925.820 7  89955000.452 7      2023.685          47.000
G08  21766580.984 8 114384137.567 8     -2775.867          51.000    21766581.984 8  89130483.039 8     -2163.013          51.000
G11  19918731.664 8 104673637.722 8      -631.016          50.000    19918729.406 8  81563865.860 8      -491.700          50.000
G14  21934075.758 6 115264336.009 6       430.863          40.000    21934080.281 5  89816384.846 5       335.747          33.000
G22  20842064.461 8 109525793.787 8      1017.027          51.000    20842060.250 8  85344802.594 8       792.492          50.000
R01  19163061.477 7 102437579.673 7       -64.801          47.000    19163067.984 7  79673679.437 7       -50.401          44.000
R23  20190846.352 8 108007411.182 8     -2217.184          50.000    20190850.945 6  84005771.521 6     -1724.476          38.000
R24  19269689.367 8 103043694.055 8       663.344          51.000    19269691.844 8  80145117.224 8       515.931          49.000
C05                                                                  39667213.133 6 159723431.153 6       -23.612          37.000
C20  24176220.117 8 125891994.415 8      2826.242          50.000
C27  23651836.594 7 123161299.684 7     -2727.883          45.000
C30  21496261.102 8 111936679.232 8       -64.293          51.000
E04  24274734.680 7 127564672.921 7      -437.113          47.000    24274737.695 7  97744304.578 7      -334.811          47.000
E09  22833548.766 8 119991180.206 8      2316.355          51.000    22833552.422 8  91941302.931 8      1774.783          51.000
E11  22857122.188 8 120114981.431 8      -916.684          51.000    22857120.375 8  92036153.555 8      -702.424          49.000
> 2020 05 11 19 12  0.0000000  0 17        .000000000000
G03  21953125.914 8 115364441.576 8      2586.238          49.000    21953129.117 8  89894411.330 8      2015.251          49.000
G08  21782463.375 8 114467599.631 8     -2788.723          51.000    21782464.320 8  89195518.388 8     -2173.031          51.000
G11  19922384.289 8 104692833.130 8      -649.211          50.000    19922382.242 8  81578823.318 8      -505.879          50.000
G14  21931667.148 6 115251677.958 6       412.551          39.000    21931668.039 5  89806521.463 5       321.474          34.000
G22  20836295.422 8 109495477.254 8      1003.656          51.000    20836291.297 8  85321179.315 8       782.070          51.000
G32  22205490.875 5 116690641.842 5     -1147.965          34.000
R01  19163494.820 7 102439895.095 7       -89.930          47.000    19163500.805 7  79675480.319 7       -69.945          43.000
R02  21989296.273 6 117339080.339 6      3965.246          36.000    21989303.375 6  91263756.258 6      3084.083          40.000
R23  20203327.656 8 108074178.542 8     -2234.375          51.000    20203332.586 6  84057701.622 6     -1737.847          39.000
R24  19266019.695 8 103024071.151 8       644.465          51.000    19266022.523 8  80129854.949 8       501.250          49.000
C05                                                                  39667388.406 6 159724137.126 6       -23.805          37.000
C20  24159960.609 8 125807323.448 8      2817.941          51.000
C27  23667577.094 7 123243263.782 7     -2736.664          47.000
C30  21496672.656 8 111938824.397 8       -79.164          51.000
E04  24277268.375 8 127577985.855 8      -450.891          49.000    24277270.125 8  97754505.406 8      -345.470          48.000
E09  22820352.562 8 119921833.221 8      2306.324          51.000    22820356.234 8  91888166.925 8      1767.228          51.000
E11  22862378.734 8 120142604.797 8      -925.176          51.000    22862376.742 8  92057319.503 8      -708.940          49.000
> 2020 05 11 19 12 30.0000000  0 17        .000000000000
G03  21938390.375 8 115287005.113 8      2576.074          50.000    21938392.352 8  89834071.299 8      2007.334          50.000
G08  21798417.055 8 114551437.184 8     -2800.633          51.000    21798418.250 8  89260846.331 8     -2182.311          51.000
G11  19926139.367 8 104712567.022 8      -666.496          49.000    19926137.484 8  81594200.375 8      -519.348          49.000
G14  21929363.711 6 115239573.073 6       394.727          37.000    21929364.477 5  89797089.050 5       307.576          31.000
G22  20830600.844 8 109465552.665 8       991.180          51.000    20830597.305 8  85297861.431 8       772.348          51.000
G32  22212089.188 5 116725318.315 5     -1165.531          34.000    22212101.414 5  90954838.498 5      -908.206          33.000
R01  19164067.797 7 102442957.161 7      -114.191          47.000    19164073.500 7  79677861.936 7       -88.816          44.000
R02  21967036.836 6 117220271.690 6      3955.180          39.000    21967039.500 7  91171349.652 7      3076.254          42.000
R23  20215904.352 8 108141455.421 8     -2250.848          51.000    20215909.281 6  84110028.073 6     -1750.659          40.000
R24  19262454.773 8 103005007.752 8       626.375          51.000    19262457.609 8  80115027.861 8       487.181          49.000
C05                                                                  39667564.648 6 159724846.792 6       -23.672          37.000
C20  24143747.711 8 125722897.073 8      2810.309          50.000
C27  23683367.492 8 123325479.646 8     -2744.465          49.000
C30  21497168.477 8 111941407.182 8       -93.148          51.000
E04  24279880.172 8 127591708.867 8      -464.000          49.000    24279881.570 8  97765020.431 8      -355.515          49.000
E09  22807211.438 8 119852776.097 8      2297.316          51.000    22807215.234 8  91835253.050 8      1760.284          51.000
E11  22867682.281 8 120170475.193 8      -933.055          51.000    22867680.281 8  92078674.720 8      -714.917          49.000
> 2020 05 11 19 13  0.0000000  0 17        .000000000000
G03  21923712.000 8 115209870.676 8      2565.363          49.000    21923713.922 8  89773966.574 8      1998.984          49.000
G08  21814438.000 8 114635629.529 8     -2812.883          49.000    21814439.938 8  89326450.732 8     -2191.857          49.000
G11  19929993.430 8 104732821.009 8      -684.316          49.000    19929991.602 8  81609982.707 8      -533.234          49.000
G14  21927162.156 6 115228003.484 6       375.898          38.000    21927161.812 5  89788073.871 5       292.905          34.000
G22  20824977.227 8 109436001.253 8       978.262          51.000    20824974.453 8  85274834.363 8       762.282          51.000
G32  22218795.180 6 116760549.048 6     -1183.969          38.000    22218795.594 5  90982290.849 5      -922.585          34.000
R01  19164776.766 7 102446745.590 7      -139.043          47.000    19164782.070 7  79680808.500 7      -108.145          43.000
R02  21944831.984 7 117101764.663 7      3944.457          42.000    21944831.703 7  91079177.609 7      3067.914          42.000
R23  20228572.727 8 108209222.325 8     -2267.664          51.000    20228577.938 6  84162735.642 6     -1763.739          40.000
R24  19258991.430 8 102986487.219 8       607.637          51.000    19258994.125 8  80100623.004 8       472.606          49.000
C05                                                                  39667738.336 6 159725545.875 6       -23.615          37.000
C20  24127577.867 8 125638698.101 8      2802.145          49.000
C27  23699203.055 8 123407927.750 8     -2752.766          51.000
C30  21497744.953 8 111944409.822 8      -107.727          51.000
E04  24282566.148 8 127605822.681 8      -477.590          49.000    24282567.438 8  97775834.924 8      -365.930          49.000
E09  22794122.062 8 119783991.588 8      2287.703          51.000    22794126.180 8  91782548.061 8      1752.930          51.000
E11  22873029.195 8 120198574.330 8      -940.926          51.000    22873027.539 8  92100205.198 8      -720.936          49.000
> 2020 05 11 19 13 30.0000000  0 17        .000000000000
G03  21909102.016 8 115133095.886 8      2555.586          50.000    21909104.586 8  89714142.072 8      1991.366          50.000
G08  21830536.391 7 114720232.038 7     -2824.465          46.000    21830539.711 7  89392374.791 7     -2200.882          46.000
G11  19933957.336 8 104753652.290 8      -701.668          49.000    19933955.633 8  81626214.876 8      -546.754          49.000
G22  20819435.531 8 109406879.927 8       965.961          51.000    20819433.055 8  85252142.427 8       752.697          51.000
G27  24408223.742 5 128266096.298 5     -3772.578          35.000    24408223.773 5  99947590.482 5     -2939.674          34.000
G32  22225639.008 5 116796495.328 5     -1201.156          35.000    22225637.625 5  91010300.687 5      -935.969          34.000
R01  19165632.211 7 102451317.159 7      -162.852          47.000    19165636.695 7  79684364.173 7      -126.662          43.000
R02  21922693.258 7 116983619.195 7      3934.418          44.000    21922691.469 6  90987286.744 6      3060.103          41.000
R23  20241343.516 8 108277536.314 8     -2283.883          51.000    20241348.672 6  84215868.723 6     -1776.353          40.000
R24  19255640.680 8 102968569.164 8       589.645          51.000    19255643.102 8  80086686.743 8       458.612          49.000
