     3.02           OBSERVATION DATA    M (MIXED)           RINEX VERSION / TYPE
SAVERINEX           SC600               20200506 065930 LCL PGM / RUN BY / DATE
       G = GPS       R = GLONASS       C = COMPASS          COMMENT
       S = SBAS      J = QZSS          E = GALILEO          COMMENT
BEAN                                                        MARKER NAME
1                                                           MARKER NUMBER
GEODETIC                                                    MARKER TYPE
Unige DICCA         GTER                                    OBSERVER / AGENCY
SC60291900056       SC600               2.12(191226)        REC # / TYPE / VERS
                    HEMA45          NONE                    ANT # / TYPE
  4509407.8091   693652.4678  4442337.6214                  APPROX POSITION XYZ
        0.0000        0.0000        0.0000                  ANTENNA: DELTA H/E/N
G    8 C1C L1C D1C S1C C2Y L2Y D2Y S2Y                      SYS / # / OBS TYPES
R    8 C1C L1C D1C S1C C2P L2P D2P S2P                      SYS / # / OBS TYPES
C    8 C1I L1I D1I S1I C7I L7I D7I S7I                      SYS / # / OBS TYPES
E    8 C1C L1C D1C S1C C7Q L7Q D7Q S7Q                      SYS / # / OBS TYPES
DBHZ                                                        COMMENT
     30.000                                                 INTERVAL
  2020    05    06    04    00    0.0000000     GPS         TIME OF FIRST OBS
  2020    05    06    04    59   30.0000000     GPS         TIME OF LAST OBS
     0                                                      RCV CLOCK OFFS APPL
G L1C  0.00000                                              SYS / PHASE SHIFT
G L2Y  0.00000                                              SYS / PHASE SHIFT
R L1C  0.00000                                              SYS / PHASE SHIFT
R L2P  0.25000                                              SYS / PHASE SHIFT
C L1I  0.00000                                              SYS / PHASE SHIFT
C L7I  0.00000                                              SYS / PHASE SHIFT
E L1C  0.50000                                              SYS / PHASE SHIFT
E L7Q -0.25000                                              SYS / PHASE SHIFT
 13 R04  6 R05  1 R06 -4 R07  5 R09 -2 R10 -7 R11  0 R15  0 GLONASS SLOT / FRQ #
    R16 -1 R19  3 R20  2 R21  4 R22 -3                      GLONASS SLOT / FRQ #
 C1C   71.950 C2C   71.950 C2P   71.950                     GLONASS COD/PHS/BIS
    18                                                      LEAP SECONDS
*** Above antenna height is from mark to ANTENNA BOTTOM.    COMMENT
    17     4        0.0000        ANT MEASURE TYPE/HEIGT    COMMENT
    0.0000    0.0000    0.0458    0.0405    0.0000          COMMENT
                    BASE STATION                            COMMENT
                                                            END OF HEADER
> 2020 05 06 04 00  0.0000000  0 15        .000000000000
G05  20893999.945 8 109798705.730 8     -1495.219          51.000    20893997.555 8  85557424.655 8     -1165.106          51.000
G28  21389414.031 8 112402111.717 8      1776.898          50.000    21389413.867 7  87586094.213 7      1384.593          46.000
G30  20797437.797 8 109291274.179 8     -1414.902          51.000    20797438.539 8  85162033.917 8     -1102.524          51.000
R06  21451644.781 6 114470080.386 6     -3375.875          40.000
R07  19195202.312 8 102753443.304 8       -17.668          51.000    19195203.133 7  79919331.675 7       -13.742          46.000
R09  19166521.180 8 102348218.152 8       528.555          51.000    19166522.492 8  79604093.199 8       411.098          51.000
R10  20898168.594 7 111399061.011 7      3271.652          47.000
C05  39786305.266 5 207177732.241 5         6.844          35.000    39786303.805 6 160202946.827 6         5.020          40.000
C19  21759790.344 8 113308921.415 8     -1212.879          51.000
C20  25367905.203 6 132097324.642 6     -3195.590          40.000
E05  23437306.578 8 123163863.354 8       510.230          51.000    23437307.742 8  94372329.703 8       390.920          51.000
E09  22967358.258 8 120694267.076 8     -1850.086          51.000    22967361.320 8  92480025.394 8     -1417.616          51.000
E24  21982444.117 8 115518539.071 8      1054.797          51.000    21982456.469 8  88514254.720 8       808.197          51.000
E25  26627085.227 6 139926261.569 6      3032.332          39.000    26627084.758 6 107216223.603 6      2323.613          41.000
E31  25165542.273 6 132245804.300 6     -1764.934          39.000    25165547.586 5 101331221.688 5     -1352.313          34.000
> 2020 05 06 04 00 30.0000000  0 15        .000000000000
G05  20902591.812 8 109843858.134 8     -1515.320          51.000    20902589.984 8  85592608.364 8     -1180.769          51.000
G28  21379320.930 8 112349072.005 8      1758.848          50.000    21379320.719 7  87544764.583 7      1370.531          45.000
G30  20805551.914 8 109333914.375 8     -1427.973          51.000    20805552.586 8  85195260.020 8     -1112.706          51.000
R06  21470663.508 6 114571575.027 6     -3390.758          41.000
R07  19195365.367 8 102754316.697 8       -40.828          51.000    19195366.547 7  79920010.938 7       -31.758          46.000
R09  19163621.789 8 102332736.183 8       503.320          51.000    19163622.953 8  79592051.653 8       391.471          51.000
R10  20879804.164 7 111301170.690 7      3254.078          47.000
C05  39786271.375 5 207177554.787 5         5.191          35.000    39786269.969 6 160202810.366 6         3.634          41.000
C19  21766823.570 8 113345544.140 8     -1228.914          51.000
C20  25386330.422 6 132193283.771 6     -3202.090          36.000
E05  23434422.383 8 123148706.741 8       499.879          51.000    23434423.734 8  94360716.190 8       383.021          51.000
E09  22977945.188 8 120749900.269 8     -1859.121          51.000    22977948.172 8  92522653.396 8     -1424.524          51.000
E24  21976465.352 8 115487119.404 8      1039.586          51.000    21976477.047 8  88490179.908 8       796.533          51.000
E25  26609791.297 6 139835378.265 6      3026.293          38.000    26609791.750 6 107146585.773 6      2318.587          41.000
E31  25175651.320 6 132298927.893 6     -1777.148          39.000    25175655.562 5 101371926.794 5     -1361.532          31.000
> 2020 05 06 04 01  0.0000000  0 15        .000000000000
G05  20911285.195 8 109889544.471 8     -1532.273          51.000    20911283.984 8  85628208.107 8     -1193.979          51.000
G28  21369318.633 8 112296509.932 8      1743.578          48.000    21369317.703 7  87503807.107 7      1358.632          45.000
G30  20813728.164 8 109376881.511 8     -1438.199          51.000    20813728.969 8  85228740.887 8     -1120.675          51.000
R06  21489753.234 7 114673441.768 7     -3402.102          42.000
R07  19195645.750 8 102755817.300 8       -60.953          51.000    19195646.562 7  79921178.047 7       -47.408          45.000
R09  19160851.211 8 102317942.983 8       481.070          51.000    19160852.562 8  79580545.833 8       374.166          51.000
R10  20861527.266 8 111203742.785 8      3239.312          49.000
C05  39786234.891 5 207177365.131 5         5.746          35.000    39786233.539 6 160202663.649 6         4.712          41.000
C19  21773936.281 8 113382582.193 8     -1242.066          51.000
C20  25404782.219 5 132289380.567 5     -3206.363          35.000
E05  23431584.383 8 123133793.140 8       492.527          51.000    23431585.781 8  94349288.888 8       377.361          51.000
E09  22988571.016 8 120805737.602 8     -1865.215          51.000    22988573.695 8  92565437.814 8     -1429.164          51.000
E24  21970560.875 8 115456089.118 8      1027.316          51.000    21970572.180 8  88466403.468 8       787.132          51.000
E25  26592522.047 6 139744624.144 6      3022.344          37.000    26592523.469 6 107077046.891 6      2315.801          40.000
E31  25185816.617 6 132352349.536 6     -1786.492          41.000    25185818.000 5 101412853.252 5     -1368.404          32.000
> 2020 05 06 04 01 30.0000000  0 15        .000000000000
G05  20920078.875 8 109935757.279 8     -1549.508          51.000    20920077.812 8  85664218.073 8     -1207.409          51.000
G28  21359406.422 8 112244421.158 8      1728.148          48.000    21359405.109 7  87463218.427 7      1346.609          45.000
G30  20821965.180 8 109420168.236 8     -1448.480          51.000    20821966.180 8  85262470.771 8     -1128.689          51.000
R06  21508912.516 7 114775672.980 7     -3414.008          45.000
R07  19196042.469 8 102757940.757 8       -81.484          50.000    19196043.164 7  79922829.601 7       -63.380          46.000
R09  19158208.586 8 102303831.902 8       458.738          51.000    19158209.781 8  79569570.531 8       356.796          51.000
R10  20843337.070 8 111106774.034 8      3224.344          50.000
C05  39786194.836 5 207177156.314 5         6.977          35.000    39786193.492 6 160202502.149 6         5.413          41.000
C19  21781127.133 8 113420029.369 8     -1255.316          51.000
C20  25423262.523 6 132385607.609 6     -3209.555          37.000
E05  23428791.680 8 123119117.419 8       485.027          51.000    23428793.125 8  94338043.853 8       371.605          51.000
E09  22999234.594 8 120861772.925 8     -1871.387          51.000    22999236.734 8  92608373.949 8     -1433.932          51.000
E24  21964729.547 8 115425442.592 8      1014.891          51.000    21964740.484 8  88442921.064 8       777.646          51.000
E25  26575276.562 5 139654020.623 5      3018.121          33.000    26575278.820 6 107007603.487 6      2312.838          39.000
E31  25196037.391 6 132406061.726 6     -1795.590          41.000    25196039.305 5 101454007.306 5     -1375.650          33.000
> 2020 05 06 04 02  0.0000000  0 15        .000000000000
G05  20928973.906 8 109982500.652 8     -1567.156          51.000    20928972.609 8  85700641.479 8     -1221.161          51.000
G28  21349585.477 7 112192813.233 7      1712.027          47.000    21349584.727 7  87423004.471 7      1334.047          46.000
G30  20830263.867 8 109463778.572 8     -1459.273          51.000    20830264.875 8  85296452.835 8     -1137.096          51.000
R06  21528140.562 7 114878271.936 7     -3426.164          45.000
R07  19196557.281 8 102760693.816 8      -102.520          50.000    19196557.883 7  79924970.846 7       -79.737          47.000
R09  19155694.734 8 102290408.257 8       435.797          51.000    19155696.023 8  79559129.929 8       338.956          51.000
R10  20825234.711 8 111010271.833 8      3208.691          51.000
C05  39786152.172 5 207176934.792 5         6.996          35.000    39786150.805 6 160202330.046 6         5.790          40.000
C19  21788397.562 8 113457890.728 8     -1269.156          51.000
C20  25441769.680 6 132481969.126 6     -3214.836          39.000
E05  23426045.500 8 123104685.940 8       476.723          51.000    23426047.094 8  94326985.968 8       365.287          51.000
E09  23009936.695 8 120918011.599 8     -1878.211          51.000    23009938.383 8  92651465.908 8     -1439.167          51.000
E24  21958972.188 8 115395185.602 8      1001.812          51.000    21958982.758 8  88419737.132 8       767.632          51.000
E25  26558057.039 5 139563530.541 5      3014.207          32.000    26558058.984 6 106938260.842 6      2309.653          38.000
E31  25206314.461 6 132460068.411 6     -1805.465          39.000    25206318.828 5 101495392.025 5     -1383.223          33.000
> 2020 05 06 04 02 30.0000000  0 16        .000000000000
G05  20937975.422 8 110029802.900 8     -1587.281          51.000    20937974.023 8  85737500.359 8     -1236.843          51.000
G07  23021777.070 5 120980256.014 5     -2639.273          33.000
G28  21339862.008 8 112141717.122 8      1693.629          49.000    21339861.328 7  87383189.318 7      1319.711          45.000
G30  20838629.570 8 109507740.688 8     -1472.438          51.000    20838630.578 8  85330709.029 8     -1147.354          51.000
R06  21547442.203 7 114981266.829 7     -3440.891          46.000
R07  19197195.539 8 102764107.645 8      -126.020          50.000    19197195.758 7  79927626.038 7       -98.015          47.000
R09  19153315.094 8 102277701.344 8       410.316          51.000    19153316.359 8  79549246.780 8       319.135          51.000
R10  20807225.414 8 110914268.591 8      3190.637          49.000
C05                                                                  39786111.070 6 160202170.056 6         4.120          41.000
C19  21795753.312 8 113496195.243 8     -1285.363          51.000
C20  25460307.414 6 132578492.910 6     -3221.293          41.000
E05  23423351.586 8 123090529.146 8       466.191          51.000    23423353.383 8  94316138.553 8       357.215          51.000
E09  23020682.836 8 120974483.057 8     -1887.383          51.000    23020684.555 8  92694736.217 8     -1446.215          51.000
E24  21953294.539 8 115365348.049 8       986.441          51.000    21953305.102 8  88396874.592 8       755.857          51.000
E25                                                                  26540868.734 5 106869042.683 5      2304.301          34.000
E31  25216653.391 6 132514406.594 6     -1817.473          41.000    25216656.227 5 101537028.915 5     -1392.830          33.000
> 2020 05 06 04 03  0.0000000  0 15        .000000000000
G05  20947081.562 8 110077654.121 8     -1603.895          51.000    20947080.133 8  85774787.009 8     -1249.788          51.000
G28  21330235.055 8 112091125.923 8      1678.281          50.000    21330234.195 7  87343767.592 7      1307.752          45.000
G30  20847060.359 8 109552044.514 8     -1482.234          51.000    20847061.469 8  85365231.481 8     -1154.988          51.000
R06  21566816.094 7 115084647.081 7     -3452.184          47.000
R07  19197955.672 8 102768174.656 8      -146.195          50.000    19197955.727 8  79930789.274 8      -113.707          48.000
R09  19151067.938 8 102265701.921 8       388.504          50.000    19151069.109 8  79539913.877 8       302.173          50.000
R10  20789307.898 8 110818757.939 8      3175.734          48.000
C05                                                                  39786072.727 6 160202015.514 6         5.213          40.000
C19  21803192.477 8 113534933.942 8     -1298.250          51.000
C20  25478874.664 7 132675169.010 7     -3224.930          44.000
E05  23420708.367 8 123076639.233 8       458.871          51.000    23420710.344 8  94305495.629 8       351.588          51.000
E09  23031471.383 8 121031178.493 8     -1893.184          51.000    23031473.180 8  92738178.145 8     -1450.666          51.000
E24  21947695.086 8 115335921.580 8       974.344          51.000    21947706.250 8  88374327.044 8       746.599          51.000
E25                                                                  26523706.328 5 106799979.381 5      2301.715          33.000
E31  25227052.336 7 132569063.225 7     -1826.207          42.000
> 2020 05 06 04 03 30.0000000  0 16        .000000000000
G05  20956289.789 8 110126041.982 8     -1621.129          51.000    20956288.422 8  85812491.834 8     -1263.217          51.000
G07  23051946.461 5 121138778.785 5     -2646.492          34.000
G28  21320702.664 8 112041030.797 8      1662.258          50.000    21320701.312 7  87304732.421 7      1295.266          44.000
G30  20855553.852 8 109596677.960 8     -1492.535          51.000    20855554.891 8  85400010.777 8     -1163.014          51.000
R06  21586259.734 7 115188400.181 7     -3463.789          45.000
R07  19198836.047 8 102772885.454 8      -166.984          50.000    19198836.016 8  79934453.226 8      -129.877          48.000
R09  19148951.000 8 102254398.236 8       366.012          51.000    19148952.305 8  79531122.135 8       284.676          50.000
R10  20771479.945 7 110723731.143 7      3160.156          47.000
C05  39786035.078 5 207176324.777 5         7.418          35.000    39786033.664 6 160201858.296 6         5.748          40.000
C19  21810712.914 8 113574095.915 8     -1311.660          51.000
C20  25497468.773 7 132771985.387 7     -3228.836          45.000
E05  23418114.039 8 123063006.427 8       450.883          51.000    23418116.039 8  94295049.714 8       345.419          51.000
E09  23042300.531 8 121088087.083 8     -1899.801          51.000    23042302.172 8  92781783.417 8     -1455.650          51.000
E24  21942171.672 8 115306895.856 8       961.594          51.000    21942183.633 8  88352086.546 8       736.764          51.000
E25                                                                  26506570.734 5 106730992.088 5      2298.154          33.000
E31  25237507.328 6 132624005.026 6     -1835.664          40.000
> 2020 05 06 04 04  0.0000000  0 16        .000000000000
G05  20965599.516 8 110174963.912 8     -1639.809          51.000    20965598.297 8  85850612.822 8     -1277.773          51.000
G07  23067061.508 5 121218186.145 5     -2651.348          35.000    23067058.023 5  94455746.059 5     -2065.985          32.000
G28  21311264.859 8 111991432.404 8      1644.746          51.000    21311263.148 7  87266084.345 7      1281.620          44.000
G30  20864109.602 8 109641638.514 8     -1504.402          51.000    20864110.484 8  85435044.967 8     -1172.262          51.000
R06  21605771.367 7 115292522.657 7     -3477.207          42.000
R07  19199836.297 8 102778239.986 8      -189.332          50.000    19199836.383 8  79938617.851 8      -147.258          48.000
R09  19146964.133 8 102243788.620 8       341.879          50.000    19146965.328 8  79522870.193 8       265.906          50.000
R10  20753743.297 8 110629189.657 8      3142.949          48.000
C05  39785995.086 5 207176116.987 5         6.520          35.000    39785993.773 6 160201697.589 6         5.217          40.000
C19  21818314.727 8 113613679.698 8     -1326.699          51.000
C20  25516089.258 7 132868939.579 7     -3234.285          45.000
E05  23415568.609 8 123049630.480 8       441.320          51.000    23415570.508 8  94284800.606 8       338.149          51.000
E09  23053169.906 8 121145207.618 8     -1907.859          51.000    23053171.867 8  92825551.077 8     -1461.812          51.000
E24  21936724.188 8 115278270.054 8       947.250          51.000    21936736.836 8  88330152.480 8       725.830          51.000
E25                                                                  26489461.586 5 106662116.877 5      2293.568          34.000
E31  25248019.086 6 132679244.339 6     -1846.383          38.000
> 2020 05 06 04 04 30.0000000  0 15        .000000000000
G05  20975015.070 8 110224442.934 8     -1657.434          51.000    20975013.945 8  85889167.901 8     -1291.507          51.000
G28  21301926.664 8 111942356.813 8      1628.293          51.000    21301924.445 7  87227843.627 7      1268.800          45.000
G30  20872731.992 8 109686949.013 8     -1515.113          51.000    20872733.008 8  85470351.846 8     -1180.608          51.000
R06  21625355.742 6 115397037.201 6     -3489.355          40.000
R07  19200961.656 8 102784264.002 8      -210.797          51.000    19200961.758 8  79943303.208 8      -163.950          48.000
R09  19145111.508 8 102233897.242 8       318.918          51.000    19145113.117 8  79515176.903 8       248.047          50.000
R10  20736103.883 8 110535159.889 8      3127.016          50.000
C05  39785958.984 5 207175928.763 5         7.523          35.000    39785957.695 6 160201552.050 6         5.319          40.000
C19  21826002.516 8 113653708.931 8     -1340.609          51.000
C20  25534739.742 7 132966054.237 7     -3238.754          44.000
E05  23413076.875 8 123036536.536 8       432.898          51.000    23413078.758 8  94274767.578 8       331.674          51.000
E09  23064084.172 8 121202564.175 8     -1914.699          51.000    23064086.609 8  92869499.588 8     -1467.095          51.000
E24  21931357.312 8 115250068.695 8       934.074          51.000    21931370.562 8  88308543.641 8       715.680          51.000
E25                                                                  26472386.625 5 106593373.475 5      2289.961          35.000
E31  25258591.547 6 132734804.026 6     -1856.281          40.000
> 2020 05 06 04 05  0.0000000  0 15        .000000000000
G05  20984528.500 8 110274437.002 8     -1675.445          51.000    20984527.445 8  85928124.305 8     -1305.542          51.000
G28  21292680.453 8 111893765.361 8      1611.328          51.000    21292678.227 7  87189980.167 7      1255.580          46.000
G30  20881413.055 8 109732567.953 8     -1526.000          51.000    20881414.328 8  85505899.070 8     -1189.091          51.000
R06  21645006.383 7 115501900.980 7     -3501.555          42.000
R07  19202204.289 8 102790917.949 8      -232.598          50.000    19202205.125 8  79948478.510 8      -180.909          49.000
R09  19143385.953 8 102224682.717 8       295.539          50.000    19143387.570 8  79508010.034 8       229.864          50.000
R10  20718553.734 8 110441603.388 8      3110.328          50.000
C05  39785919.148 5 207175720.437 5         6.930          35.000    39785917.688 6 160201390.890 6         5.325          41.000
C19  21833768.172 8 113694143.466 8     -1354.867          51.000
C20  25553412.414 7 133063288.180 7     -3243.328          44.000
E05  23410631.344 8 123023685.329 8       423.941          51.000    23410633.227 8  94264920.549 8       324.820          51.000
E09  23075035.938 8 121260116.494 8     -1922.031          51.000    23075038.555 8  92913598.097 8     -1472.737          51.000
E24  21926063.703 8 115222251.948 8       920.484          51.000    21926077.328 8  88287229.504 8       705.270          51.000
E25                                                                  26455338.008 5 106524732.215 5      2286.124          34.000
E31  25269217.273 6 132790642.429 6     -1866.340          40.000    25269221.070 5 101748676.495 5     -1430.415          34.000
> 2020 05 06 04 05 30.0000000  0 15        .000000000000
G05  20994142.594 8 110324960.950 8     -1691.648          51.000    20994141.641 8  85967493.597 8     -1318.168          51.000
G28  21283529.375 8 111845675.482 8      1595.816          51.000    21283527.141 7  87152507.550 7      1243.493          47.000
G30  20890155.633 8 109778509.949 8     -1535.488          51.000    20890156.797 8  85541698.024 8     -1196.484          51.000
R06  21664726.445 7 115607128.360 7     -3512.258          46.000
R07  19203567.859 8 102798219.190 8      -252.879          51.000    19203569.289 8  79954157.230 8      -196.687          48.000
R09  19141789.742 8 102216160.218 8       273.832          51.000    19141791.742 8  79501381.460 8       212.980          50.000
R10  20701095.398 8 110348538.835 8      3095.176          49.000
C05  39785878.328 5 207175508.869 5         8.480          35.000    39785876.781 6 160201226.506 6         6.527          40.000
C19  21841614.359 8 113734998.785 8     -1367.574          51.000
C20  25572110.727 7 133160655.879 7     -3246.594          44.000
E05  23408235.211 8 123011093.779 8       416.641          51.000    23408237.133 8  94255272.471 8       319.220          51.000
E09  23086028.094 8 121317880.455 8     -1927.750          51.000    23086030.789 8  92957858.759 8     -1477.095          51.000
E24  21920846.422 8 115194836.099 8       908.379          51.000    21920860.383 8  88266222.535 8       696.114          51.000
E25                                                                  26438318.656 5 106456206.513 5      2282.952          33.000
E31  25279898.820 6 132846773.957 6     -1874.555          37.000    25279904.305 5 101791686.357 5     -1436.727          35.000
> 2020 05 06 04 06  0.0000000  0 16        .000000000000
G05  21003853.766 8 110375995.278 8     -1711.227          51.000    21003852.977 8  86007260.580 8     -1333.423          51.000
G07  23127781.859 5 121537306.026 5     -2667.891          35.000
G28  21274470.477 8 111798071.013 8      1577.051          51.000    21274468.023 7  87115413.163 7      1228.871          46.000
G30  20898956.016 8 109824755.619 8     -1548.250          51.000    20898956.766 8  85577733.602 8     -1206.432          51.000
R06  21684511.586 7 115712699.121 7     -3526.332          47.000
R07  19205049.102 8 102806150.586 8      -276.605          50.000    19205050.844 8  79960326.091 8      -215.138          48.000
R09  19140319.984 8 102208310.974 8       248.719          51.000    19140321.828 8  79495276.481 8       193.448          50.000
R10  20683725.445 7 110255949.977 7      3076.625          45.000
C05  39785833.336 5 207175274.281 5         6.738          35.000    39785831.805 6 160201045.087 6         5.159          40.000
C19  21849537.500 8 113776256.673 8     -1383.539          51.000
C20  25590830.703 7 133258138.099 7     -3252.980          44.000
E05  23405885.227 8 122998744.787 8       405.957          51.000    23405887.180 8  94245810.250 8       311.049          51.000
E09  23097057.086 8 121375837.930 8     -1936.762          51.000    23097059.773 8  93002267.700 8     -1484.075          51.000
E24  21915702.094 8 115167803.442 8       893.055          51.000    21915716.328 8  88245509.205 8       684.235          51.000
E25                                                                  26421326.219 5 106387731.594 5      2277.842          32.000
E31  25290632.258 5 132903179.160 5     -1886.164          35.000    25290636.750 6 101834905.922 6     -1445.524          36.000
> 2020 05 06 04 06 30.0000000  0 15        .000000000000
G05  21013671.055 8 110427586.520 8     -1727.301          51.000    21013670.531 8  86047461.548 8     -1345.949          51.000
G28  21265513.234 8 111751001.263 8      1561.793          51.000    21265510.734 7  87078735.423 7      1216.978          46.000
G30  20907822.992 8 109871351.297 8     -1557.309          51.000    20907823.531 8  85614041.917 8     -1213.487          51.000
R06  21704369.359 7 115818659.964 7     -3536.730          44.000
R07  19206657.477 8 102814761.804 8      -296.598          50.000    19206659.445 8  79967023.694 8      -230.687          48.000
R09  19138984.906 8 102201182.558 8       227.352          51.000    19138987.250 8  79489732.194 8       176.829          50.000
R10  20666453.031 7 110163887.737 7      3061.707          44.000
C05  39785792.992 6 207175064.139 6         8.137          36.000    39785791.641 6 160200883.314 6         6.410          40.000
C19  21857547.203 8 113817963.964 8     -1396.031          51.000
C20  25609581.445 7 133355780.786 7     -3255.742          44.000
E05  23403590.750 8 122986686.951 8       398.746          51.000    23403592.594 8  94236571.127 8       305.569          51.000
E09  23108132.078 8 121434036.504 8     -1942.215          51.000    23108134.086 8  93046861.399 8     -1488.218          51.000
E24  21910639.977 8 115141201.945 8       881.289          51.000    21910654.023 8  88225126.247 8       675.300          51.000
E25                                                                  26404371.727 5 106319456.226 5      2275.008          31.000
E31  25301426.828 5 132959904.276 5     -1894.637          33.000    25301429.523 6 101878370.612 6     -1451.405          36.000
> 2020 05 06 04 07  0.0000000  0 15        .000000000000
G05  21023583.688 8 110479677.726 8     -1746.605          51.000    21023583.172 8  86088052.080 8     -1360.994          51.000
G28  21256647.562 8 111704412.980 8      1542.922          51.000    21256644.977 7  87042432.849 7      1202.277          46.000
G30  20916745.789 8 109918240.801 8     -1569.898          51.000    20916746.523 8  85650579.179 8     -1223.301          51.000
R06  21724287.523 6 115924952.935 6     -3550.746          39.000
R07  19208382.789 8 102823998.219 8      -320.262          51.000    19208384.875 7  79974207.537 7      -249.092          47.000
R09  19137774.586 8 102194718.645 8       202.387          51.000    19137776.742 8  79484704.693 8       157.412          50.000
R10  20649270.070 7 110072298.547 7      3043.031          47.000
C05  39785747.258 5 207174826.090 5         6.445          35.000    39785745.969 6 160200699.241 6         4.842          41.000
C19  21865632.836 8 113860065.944 8     -1411.922          51.000
C20  25628353.148 7 133453528.168 7     -3262.020          45.000
E05  23401341.406 8 122974866.342 8       388.102          51.000    23401343.195 8  94227513.781 8       297.374          51.000
E09  23119242.461 8 121492421.195 8     -1951.188          51.000    23119244.133 8  93091597.708 8     -1495.063          51.000
E24  21905649.625 8 115114977.070 8       865.957          51.000    21905663.039 8  88205031.874 8       663.478          51.000
E25  26387433.906 5 138666903.386 5      2962.191          32.000    26387442.805 5 106251296.369 5      2269.647          31.000
E31  25312270.883 5 133016880.887 5     -1905.785          33.000    25312273.758 6 101922037.268 6     -1460.394          36.000
> 2020 05 06 04 07 30.0000000  0 15        .000000000000
G05  21033596.578 8 110532294.058 8     -1762.117          51.000    21033595.938 8  86129051.796 8     -1373.078          51.000
G28  21247878.781 8 111658334.322 8      1528.031          50.000    21247876.438 7  87006527.403 7      1190.674          46.000
G30  20925729.219 8 109965449.243 8     -1578.391          51.000    20925730.188 8  85687364.958 8     -1229.915          51.000
R06  21744269.922 5 116031603.251 5     -3560.234          33.000
R07  19210230.031 8 102833887.867 8      -339.980          50.000    19210231.828 7  79981899.469 7      -264.429          46.000
R09  19136693.656 8 102188945.224 8       181.469          51.000    19136695.789 8  79480214.253 8       141.142          50.000
R10  20632182.688 8 109981210.794 8      3028.469          49.000
C05                                                                  39785699.789 6 160200513.203 6         6.799          41.000
C19  21873798.820 8 113902588.449 8     -1423.879          51.000
C20  25647150.383 7 133551405.148 7     -3264.109          45.000
E05  23399142.305 8 122963310.385 8       381.336          51.000    23399144.305 8  94218659.209 8       292.204          51.000
E09  23130393.227 8 121551018.418 8     -1956.293          51.000    23130395.086 8  93136496.849 8     -1498.927          51.000
E24  21900736.109 8 115089155.540 8       854.484          51.000    21900748.742 8  88185246.544 8       654.747          51.000
E25                                                                  26370542.586 5 106183239.398 5      2267.477          31.000
E31                                                                  25323174.055 6 101965925.077 6     -1466.197          36.000
> 2020 05 06 04 08  0.0000000  0 15        .000000000000
G05  21043717.766 8 110585478.068 8     -1782.297          51.000    21043716.727 8  86170493.861 8     -1388.803          51.000
G28  21239215.523 8 111612810.493 8      1508.113          50.000    21239213.633 7  86971054.294 7      1175.153          46.000
G30  20934781.430 8 110013019.086 8     -1591.801          51.000    20934782.414 8  85724432.342 8     -1240.364          51.000
R06  21764329.000 5 116138653.326 5     -3575.141          35.000
R07  19212207.828 8 102844476.342 8      -364.680          50.000    19212209.539 7  79990134.921 7      -283.640          46.000
R09  19135750.188 8 102183906.113 8       155.711          51.000    19135752.516 8  79476294.983 8       121.109          50.000
R10  20615198.672 8 109890671.853 8      3008.742          50.000
C05  39785662.711 5 207174385.995 5         5.484          35.000    39785661.523 6 160200358.869 6         4.513          41.000
C19  21882053.438 8 113945574.477 8     -1440.664          51.000
C20  25665980.484 7 133649453.796 7     -3271.270          44.000
E05  23397001.984 8 122952063.811 8       369.570          51.000    23397004.227 8  94210041.695 8       283.186          51.000
E09  23141592.648 8 121609871.849 8     -1966.211          51.000    23141594.641 8  93181592.298 8     -1506.556          51.000
E24  21895907.719 8 115063781.409 8       838.191          51.000    21895919.969 8  88165804.043 8       642.260          51.000
E25  26353665.945 5 138489449.377 5      2950.223          33.000    26353663.867 5 106115286.283 5      2260.677          34.000
E31                                                                  25334137.414 6 102010066.427 6     -1475.452          36.000
> 2020 05 06 04 08 30.0000000  0 15        .000000000000
G05  21053930.477 8 110639143.820 8     -1797.176          51.000    21053929.133 8  86212311.336 8     -1400.397          51.000
G28  21230642.344 8 111567759.767 8      1493.473          48.000    21230641.008 7  86935949.806 7      1163.745          46.000
G30  20943886.273 8 110060865.419 8     -1599.727          51.000    20943887.125 8  85761715.163 8     -1246.543          51.000
R06  21784448.867 6 116246015.795 6     -3584.102          38.000
R07  19214300.867 8 102855679.681 8      -383.977          50.000    19214302.391 7  79998848.616 7      -298.648          46.000
R09  19134928.117 8 102179515.578 8       135.203          51.000    19134930.109 8  79472880.118 8       105.155          50.000
R10  20598302.031 8 109800598.815 8      2994.242          49.000
C05  39785616.453 5 207174144.722 5         8.652          35.000    39785615.250 6 160200172.282 6         6.527          41.000
C19  21890380.953 8 113988940.769 8     -1452.207          51.000
C20  25684826.961 7 133747589.889 7     -3273.004          44.000
E05  23394904.836 8 122941043.940 8       363.270          51.000    23394907.219 8  94201597.890 8       278.349          51.000
E09  23152825.031 8 121668897.767 8     -1970.672          51.000    23152826.758 8  93226819.940 8     -1510.013          51.000
E24  21891148.727 8 115038771.381 8       827.297          51.000    21891160.812 8  88146640.533 8       633.921          51.000
E25                                                                  26336824.359 6 106047472.738 6      2258.848          37.000
E31  25345143.484 5 133189625.526 5     -1933.230          33.000    25345146.406 6 102054396.211 6     -1481.187          36.000
> 2020 05 06 04 09  0.0000000  0 15        .000000000000
G05  21064242.469 8 110693333.348 8     -1815.383          51.000    21064241.312 8  86254536.936 8     -1414.584          51.000
G28  21222167.586 7 111523226.061 7      1475.621          47.000    21222167.016 7  86901248.215 7      1149.835          47.000
G30  20953051.477 8 110109029.259 8     -1611.023          51.000    20953052.438 8  85799245.412 8     -1255.343          51.000
R06  21804635.914 6 116353732.367 6     -3596.629          39.000
R07  19216517.000 8 102867541.959 8      -406.684          50.000    19216518.328 7  80008074.799 7      -316.312          46.000
R09  19134235.281 8 102175815.568 8       111.613          51.000    19134237.203 8  79470002.337 8        86.810          51.000
R10  20581501.141 7 109711037.084 7      2976.492          47.000
C05  39785570.148 5 207173903.809 5         7.699          35.000    39785568.984 6 160199985.973 6         6.092          41.000
C19  21898789.945 8 114032728.906 8     -1466.945          51.000
C20  25703697.930 7 133845854.071 7     -3277.906          45.000
E05  23392859.164 8 122930294.111 8       353.531          51.000    23392861.500 8  94193361.009 8       270.885          51.000
E09  23164098.406 8 121728138.482 8     -1978.559          51.000    23164099.906 8  93272212.159 8     -1516.041          51.000
E24  21886467.195 8 115014168.098 8       813.043          51.000    21886479.016 8  88127788.677 8       623.017          51.000
E25  26320015.000 6 138312607.242 6      2941.691          36.000    26320016.484 6 105979785.539 6      2253.769          40.000
E31  25356205.461 5 133247768.475 5     -1943.395          35.000    25356208.906 6 102098945.745 6     -1488.987          36.000
> 2020 05 06 04 09 30.0000000  0 15        .000000000000
G05  21074655.625 8 110748056.008 8     -1832.488          51.000    21074654.742 8  86297177.950 8     -1427.913          51.000
G28  21213793.977 8 111479222.424 8      1458.391          49.000    21213793.664 7  86866959.659 7      1136.408          47.000
G30  20962279.094 8 110157520.907 8     -1621.387          51.000    20962280.281 8  85837031.114 8     -1263.415          51.000
R06  21824891.922 7 116461812.170 7     -3608.355          44.000
R07  19218858.773 8 102880076.220 8      -428.484          51.000    19218859.781 7  80017823.669 7      -333.266          46.000
R09  19133673.852 8 102172817.210 8        88.672          51.000    19133675.664 8  79467670.287 8        68.970          50.000
R10  20564797.633 7 109622000.130 7      2959.629          45.000
C05  39785526.320 5 207173675.028 5         7.957          35.000    39785525.117 6 160199809.046 6         6.008          40.000
C19  21907282.320 8 114076949.975 8     -1480.793          51.000
C20  25722595.117 7 133944256.497 7     -3282.027          44.000
E05  23390867.367 8 122919826.899 8       344.527          51.000    23390869.641 8  94185340.664 8       264.042          51.000
E09  23175414.836 8 121787605.493 8     -1985.570          51.000    23175416.469 8  93317777.762 8     -1521.402          51.000
E24  21881865.102 8 114989983.439 8       799.605          51.000    21881876.836 8  88109257.579 8       612.682          51.000
E25  26303239.727 6 138224447.579 6      2936.168          38.000    26303242.289 6 105912234.642 6      2249.812          41.000
E31  25367325.148 5 133306193.257 5     -1952.312          32.000    25367328.109 5 102143722.795 5     -1495.982          35.000
> 2020 05 06 04 10  0.0000000  0 16        .000000000000
G05  21085165.344 8 110803286.392 8     -1850.160          51.000    21085164.789 8  86340214.599 8     -1441.683          50.000
G07  23250302.609 5 122181164.282 5     -2699.504          35.000
G28  21205517.422 8 111435726.716 8      1440.684          51.000    21205516.953 8  86833066.887 8      1122.611          48.000
G30  20971564.289 8 110206315.133 8     -1632.184          51.000    20971565.664 8  85875052.582 8     -1271.831          51.000
R06  21845211.836 7 116570229.293 7     -3620.137          46.000
R07  19221321.344 8 102893258.863 8      -451.004          50.000    19221322.484 7  80028076.822 7      -350.781          47.000
R09  19133239.141 8 102170495.411 8        65.414          51.000    19133240.773 8  79465864.447 8        50.881          50.000
R10  20548187.078 7 109533466.188 7      2941.914          46.000
C05                                                                  39785478.977 6 160199623.174 6         5.830          40.000
C19  21915853.258 8 114121579.804 8     -1495.258          51.000
C20  25741513.891 7 134042772.148 7     -3286.535          44.000
E05  23388924.984 8 122909619.244 8       335.180          51.000    23388927.148 8  94177519.220 8       256.811          51.000
E09  23186769.828 8 121847274.747 8     -1993.070          51.000    23186771.664 8  93363498.327 8     -1527.149          51.000
E24  21877337.945 8 114966193.696 8       785.695          51.000    21877349.867 8  88091029.084 8       602.035          51.000
E25  26286493.562 6 138136443.411 6      2929.945          39.000    26286497.328 7 105844802.887 7      2245.119          42.000
E31  25378498.484 5 133364907.681 5     -1962.035          34.000    25378499.812 5 102188707.914 5     -1503.306          35.000
> 2020 05 06 04 10 30.0000000  0 15        .000000000000
G05  21095773.914 8 110859037.687 8     -1867.691          49.000    21095773.977 8  86383657.145 8     -1455.347          49.000
G28  21197340.422 8 111392754.628 8      1422.992          51.000    21197339.820 7  86799582.156 7      1108.825          47.000
G30  20980909.617 8 110255425.197 8     -1642.895          51.000    20980910.977 8  85913320.143 8     -1280.178          51.000
R06  21865596.844 7 116678996.422 7     -3632.059          46.000
R07  19223907.984 8 102907105.573 8      -473.332          49.000    19223909.609 7  80038846.472 7      -368.150          47.000
R09  19132933.609 8 102168863.878 8        42.234          50.000    19132934.922 8  79464595.473 8        32.849          50.000
R10  20531675.375 8 109445451.971 8      2924.363          49.000
C05  39785434.539 5 207173197.386 5         7.160          35.000    39785433.352 6 160199439.659 6         5.639          40.000
C19  21924505.445 8 114166632.405 8     -1509.480          51.000
C20  25760456.930 7 134141414.057 7     -3290.641          44.000
E05  23387034.898 8 122899686.734 8       325.785          51.000    23387037.078 8  94169908.586 8       249.646          51.000
E09  23198165.922 8 121907160.739 8     -2000.562          51.000    23198167.539 8  93409384.984 8     -1532.893          51.000
E24  21872888.797 8 114942813.718 8       771.746          51.000    21872900.969 8  88073114.561 8       591.320          51.000
E25  26269779.906 6 138048610.769 6      2924.324          38.000    26269784.195 7 105777502.559 7      2240.542          43.000
E31  25389725.516 5 133423905.861 5     -1971.883          34.000    25389726.250 5 102233911.225 5     -1511.100          34.000
> 2020 05 06 04 11  0.0000000  0 15        .000000000000
G05  21106480.930 8 110915307.408 8     -1883.828          48.000    21106481.531 8  86427503.665 8     -1467.918          48.000
G28  21189263.289 8 111350307.120 8      1406.543          51.000    21189262.297 7  86766506.181 7      1096.008          46.000
G30  20990314.633 8 110304849.021 8     -1652.238          51.000    20990316.031 8  85951832.223 8     -1287.458          51.000
R06  21886046.055 7 116788111.129 7     -3642.570          45.000
R07  19226618.641 8 102921616.788 8      -494.469          49.000    19226620.609 7  80050132.963 7      -384.587          47.000
R09  19132756.766 8 102167921.013 8        20.328          50.000    19132758.180 8  79463862.138 8        15.811          50.000
R10  20515262.852 8 109357958.952 8      2908.094          51.000
C05  39785389.500 5 207172962.602 5         8.625          34.000    39785388.211 6 160199258.097 6         6.349          41.000
C19  21933238.422 8 114212106.579 8     -1522.449          51.000
C20  25779424.070 7 134240180.196 7     -3293.742          44.000
E05  23385197.203 8 122890029.544 8       317.723          51.000    23385199.484 8  94162508.919 8       243.453          51.000
E09  23209602.906 8 121967262.615 8     -2006.570          51.000    23209604.297 8  93455437.055 8     -1537.511          51.000
E24  21868517.398 8 114919842.962 8       759.320          51.000    21868529.938 8  88055513.596 8       581.808          51.000
E25  26253098.273 6 137960950.450 6      2919.594          37.000    26253103.133 7 105710334.241 7      2236.957          43.000
E31  25401005.875 5 133483182.461 5     -1980.129          35.000    25401006.406 5 102279325.975 5     -1517.550          34.000
> 2020 05 06 04 11 30.0000000  0 15        .000000000000
G05  21117285.320 8 110972086.458 8     -1901.012          49.000    21117285.883 8  86471747.076 8     -1481.308          50.000
G28  21181284.844 8 111308378.581 8      1388.895          51.000    21181283.258 7  86733834.608 7      1082.255          46.000
G30  20999777.719 8 110354578.089 8     -1662.688          51.000    20999779.297 8  85990582.154 8     -1295.601          51.000
R06  21906556.547 7 116897563.986 7     -3654.055          43.000
R07  19229452.367 8 102936786.073 8      -516.527          49.000    19229454.422 8  80061931.290 8      -401.743          48.000
R09  19132707.555 8 102167658.292 8        -2.527          50.000    19132708.805 8  79463657.777 8        -1.966          50.000
R10  20498947.477 8 109270981.711 8      2890.691          51.000
C05  39785343.539 5 207172723.279 5         7.961          35.000    39785342.266 6 160199073.008 6         6.183          40.000
C19  21942050.609 8 114257994.679 8     -1536.438          51.000
C20  25798413.594 7 134339062.054 7     -3298.062          44.000
E05  23383410.727 8 122880641.398 8       308.391          51.000    23383413.023 8  94155315.400 8       236.317          51.000
E09  23221079.492 8 122027572.992 8     -2013.844          51.000    23221081.109 8  93501648.897 8     -1543.048          51.000
E24  21864222.438 8 114897274.427 8       745.645          51.000    21864235.227 8  88038220.817 8       571.335          51.000
E25  26236447.945 6 137873456.647 6      2913.656          36.000    26236452.930 7 105643293.487 7      2232.521          42.000
E31  25412338.055 5 133542736.872 5     -1989.195          35.000    25412338.289 5 102324955.489 5     -1524.251          34.000
> 2020 05 06 04 12  0.0000000  0 15        .000000000000
G05  21128186.492 8 111029371.841 8     -1918.148          51.000    21128186.562 8  86516385.053 8     -1494.658          51.000
G28  21173404.797 8 111266968.747 8      1371.461          51.000    21173402.734 7  86701567.239 7      1068.671          44.000
G30  21009298.406 8 110404609.614 8     -1672.992          51.000    21009300.039 8  86029567.742 8     -1303.630          51.000
R06  21927129.258 7 117007351.250 7     -3665.414          43.000
R07  19232408.875 8 102952612.752 8      -538.625          49.000    19232411.289 8  80074240.901 8      -418.931          48.000
R09  19132785.195 8 102168073.436 8       -25.355          50.000    19132786.312 8  79463980.681 8       -19.721          51.000
R10  20482727.891 7 109184521.004 7      2873.164          47.000
C05                                                                  39785295.188 6 160198883.381 6         5.981          41.000
C19  21950941.844 8 114304294.834 8     -1550.441          51.000
C20  25817425.000 7 134438056.766 7     -3302.008          44.000
E05  23381675.336 8 122871521.743 8       299.363          51.000    23381677.477 8  94148327.609 8       229.406          51.000
E09  23232594.984 8 122088090.271 8     -2020.824          50.000    23232597.328 8  93548019.287 8     -1548.478          51.000
E24  21860003.875 8 114875106.871 8       732.062          51.000    21860016.766 8  88021235.271 8       560.979          51.000
E25  26219830.000 6 137786129.340 6      2908.043          38.000    26219833.992 7 105576380.334 7      2228.190          42.000
E31  25423721.805 6 133602558.251 6     -1999.008          36.000    25423721.867 5 102370792.575 5     -1531.399          34.000
> 2020 05 06 04 12 30.0000000  0 15        .000000000000
G05  21139184.398 8 111087163.796 8     -1934.523          51.000    21139183.773 8  86561417.757 8     -1507.421          51.000
G28  21165623.688 8 111226080.910 8      1354.613          49.000    21165621.492 7  86669706.605 7      1055.546          44.000
G30  21018876.766 8 110454943.919 8     -1682.543          51.000    21018878.273 8  86068789.251 8     -1311.072          51.000
R06  21947765.859 7 117117472.207 7     -3675.961          44.000
R07  19235488.680 8 102969099.259 8      -560.219          50.000    19235491.000 7  80087063.721 7      -435.726          47.000
R09  19132990.227 8 102169166.965 8       -47.383          51.000    19132990.867 8  79464831.199 8       -36.853          50.000
R10  20466604.250 7 109098580.730 7      2856.352          46.000
C05  39785248.484 5 207172228.668 5         8.789          35.000    39785247.281 6 160198690.494 6         6.802          40.000
C19  21959912.445 8 114351008.054 8     -1563.613          51.000
C20  25836457.672 7 134537164.549 7     -3305.066          43.000
E05  23379991.633 8 122862673.151 8       290.723          51.000    23379993.547 8  94141547.519 8       222.729          51.000
E09  23244150.188 8 122148816.008 8     -2027.359          50.000    23244152.625 8  93594549.415 8     -1553.437          51.000
E24  21855861.945 8 114853342.079 8       719.082          51.000    21855875.398 8  88004558.349 8       550.928          51.000
E25  26203245.102 6 137698971.552 6      2902.680          39.000    26203247.914 7 105509597.111 7      2224.080          42.000
E31  25435156.805 5 133662650.631 5     -2006.902          33.000    25435157.797 5 102416837.358 5     -1538.130          34.000
> 2020 05 06 04 13  0.0000000  0 16        .000000000000
G05  21150275.758 8 111145446.114 8     -1951.402          51.000    21150274.539 8  86606832.532 8     -1520.573          51.000
G07  23343112.203 5 122668891.352 5     -2720.363          33.000
G28  21157939.242 8 111185702.195 8      1337.156          48.000    21157937.664 7  86638242.655 7      1041.940          47.000
G30  21028509.758 8 110505565.465 8     -1692.613          51.000    21028511.109 8  86108234.591 8     -1318.919          51.000
R06  21968462.344 7 117227910.636 7     -3686.973          44.000
R07  19238689.078 8 102986231.869 8      -582.340          50.000    19238691.281 8  80100389.066 8      -452.931          48.000
R09  19133319.312 8 102170923.248 8       -70.035          51.000    19133319.484 8  79466197.203 8       -54.472          51.000
R10  20450577.109 8 109013148.298 8      2838.820          48.000
C05  39785197.078 5 207171961.277 5         8.730          35.000    39785195.930 6 160198483.713 6         6.790          41.000
C19  21968959.375 8 114398119.832 8     -1577.445          51.000
C20  25855508.891 7 134636370.059 7     -3309.117          43.000
E05  23378356.961 8 122854082.346 8       281.590          51.000    23378358.836 8  94134964.952 8       215.767          51.000
E09  23255742.844 8 122209735.905 8     -2034.348          51.000    23255744.781 8  93641228.273 8     -1558.786          51.000
E24  21851793.906 8 114831966.039 8       705.613          51.000    21851807.945 8  87988179.297 8       540.653          51.000
E25  26186690.039 7 137611970.598 7      2896.797          42.000    26186692.398 7 105442934.028 7      2219.911          42.000
E31                                                                  25446642.766 5 102463077.786 5     -1544.763          34.000
> 2020 05 06 04 13 30.0000000  0 15        .000000000000
G05  21161465.305 8 111204244.726 8     -1968.551          51.000    21161463.477 8  86652649.620 8     -1533.936          51.000
G28  21150357.422 8 111145861.497 8      1319.117          49.000    21150356.789 7  86607197.960 7      1027.887          47.000
G30  21038202.297 8 110556500.443 8     -1703.023          51.000    21038203.484 8  86147924.156 8     -1327.031          51.000
R06  21989223.242 7 117338692.498 7     -3698.352          43.000
R07  19242016.117 8 103004039.820 8      -604.750          51.000    19242018.172 8  80114239.670 8      -470.364          49.000
R09  19133777.578 8 102173369.274 8       -92.977          51.000    19133777.797 8  79468099.688 8       -72.315          51.000
R10  20434651.734 8 108928252.918 8      2820.902          50.000
C05  39785147.656 5 207171704.214 5         8.391          35.000    39785146.422 6 160198284.130 6         6.672          40.000
C19  21978087.938 8 114445656.862 8     -1591.613          51.000
C20  25874583.773 7 134735699.108 7     -3313.246          42.000
E05  23376776.664 8 122845777.745 8       272.117          51.000    23376778.734 8  94128601.679 8       208.547          51.000
E09  23267378.328 8 122270877.260 8     -2041.676          51.000    23267379.805 8  93688076.813 8     -1564.389          51.000
E24  21847805.164 8 114811006.384 8       691.742          51.000    21847819.242 8  87972119.290 8       530.075          51.000
E25  26170170.188 7 137525155.331 7      2890.707          45.000    26170172.586 7 105376413.239 7      2215.134          42.000
E31                                                                  25458180.367 5 102509533.846 5     -1551.824          33.000
> 2020 05 06 04 14  0.0000000  0 15        .000000000000
G05  21172752.180 8 111263556.371 8     -1985.559          51.000    21172750.234 8  86698866.475 8     -1547.189          51.000
G28  21142878.398 8 111106558.974 8      1301.066          51.000    21142877.805 7  86576572.585 7      1013.815          47.000
G30  21047953.969 8 110607746.166 8     -1713.297          50.000    21047955.219 8  86187855.857 8     -1335.037          50.000
R06  22010047.070 6 117449814.567 6     -3709.523          40.000
R07  19245469.125 8 103022522.123 8      -627.375          51.000    19245470.883 8  80128614.764 8      -487.961          49.000
R09  19134364.289 8 102176502.551 8      -115.945          50.000    19134364.602 8  79470536.663 8       -90.183          51.000
R10  20418827.508 8 108843896.019 8      2802.863          50.000
C05  39785099.586 5 207171453.271 5         7.727          35.000    39785098.469 6 160198090.824 6         6.316          41.000
C19  21987297.914 8 114493617.201 8     -1605.746          51.000
C20  25893681.656 6 134835148.951 6     -3316.770          41.000
E05  23375250.711 8 122837758.907 8       262.520          51.000    23375252.891 8  94122457.372 8       201.127          51.000
E09  23279055.758 8 122332238.572 8     -2049.066          51.000    23279057.180 8  93735093.886 8     -1570.004          51.000
E24  21843895.766 8 114790461.921 8       677.941          51.000    21843909.578 8  87956377.413 8       519.441          51.000
E25  26153685.109 7 137438525.861 7      2884.625          45.000    26153688.047 7 105310034.843 7      2210.273          42.000
E31  25469765.203 6 133844550.115 6     -2035.090          36.000    25469769.469 5 102556208.359 5     -1559.022          32.000
> 2020 05 06 04 14 30.0000000  0 15        .000000000000
G05  21184136.117 8 111323379.477 8     -2002.031          51.000    21184134.492 8  86745481.876 8     -1560.024          51.000
G28  21135502.195 8 111067795.290 8      1283.695          51.000    21135501.289 8  86546367.095 8      1000.282          48.000
G30  21057764.500 8 110659301.009 8     -1723.168          50.000    21057765.953 8  86228028.454 8     -1342.728          49.000
R06  22030932.680 6 117561274.136 6     -3720.230          38.000
R07  19249048.227 8 103041679.329 8      -649.324          51.000    19249049.289 8  80143514.803 8      -505.030          48.000
R09  19135079.633 8 102180321.532 8      -138.199          51.000    19135079.984 8  79473506.961 8      -107.488          51.000
R10  20403104.203 8 108760078.810 8      2785.438          49.000
C05  39785053.156 5 207171211.228 5         8.484          35.000    39785052.016 6 160197903.660 6         6.591          40.000
C19  21996589.273 8 114542000.058 8     -1619.270          51.000
C20  25912802.398 6 134934718.015 6     -3320.480          41.000
E05  23373779.172 8 122830026.441 8       253.477          51.000    23373781.453 8  94116532.490 8       194.252          51.000
E09  23290774.484 8 122393819.420 8     -2055.820          51.000    23290776.141 8  93782279.166 8     -1575.215          51.000
E24  21840065.320 8 114770332.461 8       664.598          51.000    21840079.055 8  87940953.549 8       509.252          51.000
E25  26137235.164 7 137352083.337 7      2878.852          46.000    26137237.898 6 105243799.672 6      2205.873          41.000
E31  25481407.984 6 133905734.649 6     -2043.238          36.000    25481411.172 5 102603083.989 5     -1565.601          31.000
> 2020 05 06 04 15  0.0000000  0 15        .000000000000
G05  21195612.938 8 111383692.204 8     -2018.148          51.000    21195611.945 8  86792478.802 8     -1572.583          51.000
G28  21128225.234 8 111029552.180 8      1266.547          51.000    21128224.070 8  86516567.261 8       986.920          48.000
G30  21067629.875 8 110711143.818 8     -1732.418          49.000    21067631.133 8  86268425.439 8     -1349.939          49.000
R06  22051877.977 6 117673048.387 6     -3730.832          38.000
R07  19252749.734 8 103061492.073 8      -670.945          51.000    19252750.297 8  80158924.701 8      -521.846          49.000
R09  19135919.188 8 102184804.845 8      -160.012          50.000    19135919.484 8  79476993.970 8      -124.454          51.000
R10  20387477.688 7 108676783.198 7      2768.230          46.000
C05  39785004.414 5 207170957.628 5         8.902          35.000    39785003.328 6 160197707.549 6         6.950          40.000
C19  22005958.297 8 114590785.132 8     -1632.445          51.000
C20  25931942.250 7 135034385.155 7     -3323.582          42.000
E05  23372358.477 8 122822561.388 8       244.820          51.000    23372360.812 8  94110812.504 8       187.629          51.000
E09  23302530.852 8 122455599.749 8     -2062.262          51.000    23302532.750 8  93829617.315 8     -1580.178          51.000
E24  21836309.977 8 114750598.281 8       651.613          51.000    21836323.414 8  87925832.580 8       499.276          51.000
E25  26120817.312 8 137265809.373 8      2873.375          48.000    26120818.039 6 105177693.665 6      2201.731          40.000
E31  25493102.758 5 133967158.691 5     -2051.562          33.000    25493103.266 5 102650162.368 5     -1572.267          30.000
> 2020 05 06 04 15 30.0000000  0 16        .000000000000
G05  21207181.344 8 111444487.681 8     -2036.051          50.000    21207181.156 8  86839851.879 8     -1586.536          50.000
G07  23421008.789 5 123078211.356 5     -2738.582          34.000
G28  21121046.461 8 110991826.257 8      1247.348          51.000    21121045.195 8  86487170.442 8       971.959          48.000
G30  21077548.828 7 110763268.396 7     -1743.855          47.000    21077549.750 7  86309042.012 7     -1358.848          46.000
R06  22072881.609 6 117785131.129 6     -3742.977          39.000
R07  19256572.672 8 103081955.540 8      -694.617          51.000    19256572.953 8  80174840.708 8      -540.258          48.000
R09  19136882.016 8 102189946.474 8      -184.051          50.000    19136882.312 8  79480992.996 8      -143.154          51.000
R10  20371947.727 7 108594006.696 7      2748.883          47.000
C05  39784952.516 5 207170687.758 5         8.344          35.000    39784951.484 6 160197498.863 6         5.996          40.000
C19  22015403.609 8 114639967.077 8     -1647.613          51.000
C20  25951100.352 7 135134144.218 7     -3328.488          43.000
E05  23370987.883 8 122815359.824 8       233.977          51.000    23370990.375 8  94105294.421 8       179.314          51.000
E09  23314324.047 8 122517574.523 8     -2070.711          51.000    23314326.188 8  93877104.475 8     -1586.652          51.000
E24  21832629.203 8 114731254.639 8       636.547          51.000    21832641.859 8  87911010.838 8       487.735          51.000
E25  26104431.234 8 137179700.456 8      2865.848          48.000    26104428.656 6 105111714.145 6      2195.885          40.000
E31                                                                  25504844.133 5 102697435.590 5     -1579.806          32.000
> 2020 05 06 04 16  0.0000000  0 16        .000000000000
G05  21218846.328 8 111505789.538 8     -2051.039          50.000    21218846.438 8  86887619.556 8     -1598.212          50.000
G07  23436648.445 5 123160412.314 5     -2740.199          35.000
G28  21113970.805 8 110954643.763 8      1231.090          50.000    21113969.539 7  86458197.074 7       959.288          47.000
G30  21087525.953 8 110815698.658 8     -1751.953          48.000    21087526.781 8  86349896.753 8     -1365.158          48.000
R06  22093948.656 7 117897545.160 7     -3751.781          42.000
R07  19260522.117 8 103103096.461 8      -715.223          50.000    19260521.930 8  80191283.657 8      -556.284          48.000
