     3.02           OBSERVATION DATA    M (MIXED)           RINEX VERSION / TYPE
SAVERINEX           SC600               20200507 165930 LCL PGM / RUN BY / DATE
       G = GPS       R = GLONASS       C = COMPASS          COMMENT
       S = SBAS      J = QZSS          E = GALILEO          COMMENT
BEAN                                                        MARKER NAME
1                                                           MARKER NUMBER
GEODETIC                                                    MARKER TYPE
Unige DICCA         GTER                                    OBSERVER / AGENCY
SC60291900056       SC600               2.12(191226)        REC # / TYPE / VERS
                    HEMA45          NONE                    ANT # / TYPE
  4509407.8091   693652.4678  4442337.6214                  APPROX POSITION XYZ
        0.0000        0.0000        0.0000                  ANTENNA: DELTA H/E/N
G    8 C1C L1C D1C S1C C2Y L2Y D2Y S2Y                      SYS / # / OBS TYPES
R    8 C1C L1C D1C S1C C2P L2P D2P S2P                      SYS / # / OBS TYPES
C    8 C1I L1I D1I S1I C7I L7I D7I S7I                      SYS / # / OBS TYPES
E    8 C1C L1C D1C S1C C7Q L7Q D7Q S7Q                      SYS / # / OBS TYPES
DBHZ                                                        COMMENT
     30.000                                                 INTERVAL
  2020    05    07    14    00    0.0000000     GPS         TIME OF FIRST OBS
  2020    05    07    14    59   30.0000000     GPS         TIME OF LAST OBS
     0                                                      RCV CLOCK OFFS APPL
G L1C  0.00000                                              SYS / PHASE SHIFT
G L2Y  0.00000                                              SYS / PHASE SHIFT
R L1C  0.00000                                              SYS / PHASE SHIFT
R L2P  0.25000                                              SYS / PHASE SHIFT
C L1I  0.00000                                              SYS / PHASE SHIFT
C L7I  0.00000                                              SYS / PHASE SHIFT
E L1C  0.50000                                              SYS / PHASE SHIFT
E L7Q -0.25000                                              SYS / PHASE SHIFT
 12 R01  1 R02 -4 R03  5 R08  6 R10 -5 R12 -1 R13 -2 R14 -7 GLONASS SLOT / FRQ #
    R15  0 R17  4 R18 -3 R23  3                             GLONASS SLOT / FRQ #
 C1C   71.950 C2C   71.950 C2P   71.950                     GLONASS COD/PHS/BIS
    18                                                      LEAP SECONDS
*** Above antenna height is from mark to ANTENNA BOTTOM.    COMMENT
    17     4        0.0000        ANT MEASURE TYPE/HEIGT    COMMENT
    0.0000    0.0000    0.0458    0.0405    0.0000          COMMENT
                    BASE STATION                            COMMENT
                                                            END OF HEADER
> 2020 05 07 14 00  0.0000000  0 15        .000000000000
G18  20397008.172 8 107187019.842 8      -643.934          50.000    20397008.117 8  83522371.849 8      -501.766          50.000
G20  23049885.070 7 121127954.000 7      3089.941          47.000    23049882.594 6  94385431.229 6      2407.747          40.000
G21  20796129.383 8 109284462.052 8      -818.453          50.000    20796128.641 8  85156735.093 8      -637.756          50.000
G26  20317013.031 8 106766612.643 8       507.695          50.000    20317015.633 8  83194773.615 8       395.607          50.000
G31  23219620.383 7 122019905.819 7     -3099.148          43.000    23219634.508 7  95080477.161 7     -2414.918          42.000
R14  22945895.508 6 122314494.519 6     -4450.973          37.000    22945896.047 6  95133535.606 6     -3461.871          37.000
R15  19643441.695 8 104968595.130 8     -1940.969          50.000    19643446.016 8  81642252.665 8     -1509.642          49.000
R18  20398316.383 6 108887580.926 6      1927.500          39.000    20398320.469 4  84690369.090 4      1499.167          26.000
C12  24410101.570 5 127109858.789 5      2407.188          34.000    24410114.648 6  98289352.397 6      1861.759          38.000
C26  22742474.102 8 118426017.436 8     -2216.359          51.000
C29  25312840.016 5 131810630.925 5     -2717.309          33.000
E11  22470901.164 8 118085426.033 8      -438.172          50.000    22470900.672 8  90481040.831 8      -335.727          51.000
E24  24486583.336 7 128677839.925 7     -2855.344          46.000    24486599.055 7  98597365.515 7     -2187.825          44.000
E25  23581695.148 8 123922638.038 8      -688.004          51.000    23581698.125 8  94953717.956 8      -527.148          51.000
E36  24719984.828 8 129904401.511 8      2004.691          51.000    24719988.594 8  99537159.476 8      1536.032          50.000
> 2020 05 07 14 00 30.0000000  0 16        .000000000000
G18  20400734.594 8 107206602.860 8      -661.281          50.000    20400734.461 8  83537631.351 8      -515.284          50.000
G20  23032264.031 7 121035353.880 7      3083.422          47.000    23032262.141 7  94313275.312 7      2402.666          42.000
G21  20800841.273 8 109309223.286 8      -832.051          49.000    20800840.773 8  85176029.562 8      -648.351          49.000
G26  20314161.273 8 106751626.957 8       491.387          50.000    20314164.039 8  83183096.454 8       382.899          50.000
G31  23237333.094 6 122112986.137 6     -3105.824          41.000    23237346.195 6  95153007.290 6     -2420.123          41.000
R14  22970960.195 6 122448107.104 6     -4456.031          37.000    22970961.703 6  95237456.428 6     -3465.808          37.000
R15  19654406.109 8 105027185.350 8     -1964.922          51.000    19654410.453 8  81687822.799 8     -1528.273          49.000
R18  20387522.242 6 108829963.523 6      1913.863          39.000    20387545.195 4  84645555.209 4      1488.554          27.000
R24  22877330.438 4 122335365.783 4     -3550.078          29.000
C12  24396246.969 5 127037702.806 5      2402.285          34.000    24396262.578 5  98233556.839 5      1857.859          35.000
C26  22755277.156 8 118492692.986 8     -2228.559          49.000
C29  25328497.352 6 131892163.056 6     -2717.605          36.000
E11  22473430.445 8 118098716.839 8      -447.539          50.000    22473430.000 8  90491224.701 8      -342.943          51.000
E24  24502899.906 7 128763582.513 7     -2860.613          47.000    24502913.523 7  98663064.269 7     -2191.893          44.000
E25  23585659.125 8 123943469.542 8      -700.594          51.000    23585662.086 8  94969679.751 8      -536.813          51.000
E36  24708562.117 8 129844374.257 8      1997.230          51.000    24708564.797 8  99491164.593 8      1530.342          50.000
> 2020 05 07 14 01  0.0000000  0 15        .000000000000
G18  20404561.344 8 107226712.339 8      -679.059          50.000    20404561.383 8  83553301.073 8      -529.137          50.000
G20  23014682.000 8 120942959.667 8      3076.289          48.000    23014681.062 7  94241279.851 7      2397.111          44.000
G21  20805632.125 8 109334399.748 8      -845.992          49.000    20805631.648 8  85195647.582 8      -659.218          49.000
G26  20311403.453 8 106737134.442 8       474.922          51.000    20311406.531 8  83171803.577 8       370.069          51.000
G31  23255084.875 6 122206273.696 6     -3113.188          40.000    23255094.109 6  95225698.932 6     -2425.857          40.000
R14  22996055.312 6 122581884.546 6     -4462.031          37.000    22996058.273 6  95341505.479 6     -3470.469          37.000
R15  19665506.680 8 105086502.253 8     -1989.277          51.000    19665510.695 8  81733958.130 8     -1547.219          48.000
R18  20376808.422 6 108772770.275 6      1899.586          37.000    20376817.070 4  84601086.389 4      1477.450          27.000
C12  24382422.086 5 126965696.415 5      2397.922          34.000    24382438.898 5  98177877.007 5      1854.446          30.000
C26  22768151.734 8 118559740.393 8     -2241.039          49.000
C29  25344158.281 6 131973714.156 6     -2718.781          38.000
E11  22476014.391 8 118112295.304 8      -457.512          50.000    22476013.992 8  90501628.985 8      -350.594          50.000
E24  24519248.586 8 128849492.182 8     -2866.387          49.000    24519260.898 7  98728891.068 7     -2196.253          46.000
E25  23589696.805 8 123964688.788 8      -713.742          51.000    23589699.844 8  94985938.634 8      -546.896          51.000
E36  24697183.578 8 129784579.115 8      1989.312          51.000    24697185.039 8  99445347.560 8      1524.356          50.000
> 2020 05 07 14 01 30.0000000  0 16        .000000000000
G18  20408489.883 8 107247356.646 8      -696.477          51.000    20408490.148 8  83569387.556 8      -542.709          51.000
G20  22997141.641 8 120850784.202 8      3069.531          48.000    22997141.688 7  94169454.826 7      2391.843          45.000
G21  20810503.523 8 109359999.335 8      -859.742          50.000    20810503.016 8  85215595.308 8      -669.929          50.000
G26  20308741.648 8 106723145.907 8       458.520          51.000    20308744.594 8  83160903.412 8       357.288          51.000
G31  23272877.633 6 122299775.223 6     -3119.477          39.000    23272880.875 6  95298557.245 6     -2430.764          38.000
R14  23021182.656 5 122715833.193 5     -4467.473          35.000    23021187.594 6  95445687.673 6     -3474.704          37.000
R15  19676744.242 8 105146553.528 8     -2013.312          51.000    19676748.328 8  81780664.663 8     -1565.910          48.000
R17  19556547.812 5 104651048.133 5     -1394.730          33.000    19556556.570 5  81395262.923 5     -1084.793          30.000
R18  20366174.281 5 108716011.136 5      1885.023          32.000    20366184.828 4  84556940.345 4      1466.132          29.000
C12  24368629.266 5 126893849.619 5      2392.668          33.000
C26  22781100.281 8 118627167.505 8     -2253.367          50.000
C29  25359824.797 6 132055293.166 6     -2719.020          36.000
E11  22478654.719 8 118126170.094 8      -466.762          50.000    22478654.227 8  90512260.324 8      -357.622          50.000
E24  24535630.867 8 128935577.494 8     -2871.816          50.000    24535643.250 8  98794852.476 8     -2200.402          49.000
E25  23593810.250 8 123986305.530 8      -726.512          51.000    23593813.383 8  95002502.090 8      -556.729          51.000
E36  24685850.984 8 129725026.087 8      1981.711          51.000    24685852.227 8  99399716.058 8      1518.415          51.000
> 2020 05 07 14 02  0.0000000  0 17        .000000000000
G18  20412515.016 8 107268508.371 8      -714.070          51.000    20412515.188 8  83585869.422 8      -556.418          51.000
G20  22979638.523 8 120758804.277 8      3062.078          48.000    22979639.547 7  94097782.169 7      2386.035          47.000
G21  20815450.219 8 109385994.543 8      -873.715          49.000    20815449.844 8  85235851.306 8      -680.817          49.000
G26  20306170.875 8 106709636.258 8       441.652          51.000    20306173.492 8  83150376.406 8       344.145          51.000
G29  22834781.508 5 119997582.484 5     -2653.082          31.000
G31  23290706.164 6 122393462.016 6     -3126.582          38.000    23290705.016 6  95371559.857 6     -2436.301          38.000
R14  23046336.188 5 122849922.938 5     -4472.594          35.000    23046342.844 6  95549979.582 6     -3478.687          36.000
R15  19688113.695 8 105207310.614 8     -2037.559          51.000    19688118.000 8  81827920.154 8     -1584.768          48.000
R17  19564409.656 4 104693084.218 4     -1408.316          29.000    19564412.039 5  81427957.601 5     -1095.351          30.000
R18  20355631.625 5 108659693.289 5      1870.281          32.000
R24  22937104.016 4 122655022.770 4     -3552.398          29.000    22937118.320 5  95398366.561 5     -2762.977          31.000
C26  22794117.125 8 118694946.572 8     -2265.750          51.000
C29  25375492.180 5 132136873.589 5     -2719.699          35.000
E11  22481346.375 8 118140314.173 8      -476.465          51.000    22481345.750 8  90523097.993 8      -365.101          50.000
E24  24552041.469 8 129021811.092 8     -2877.551          51.000    24552054.180 8  98860927.511 8     -2204.865          51.000
E25  23597994.484 8 124008293.676 8      -739.801          51.000    23597997.523 8  95019350.112 8      -566.809          51.000
E36  24674559.242 8 129665689.259 8      1973.641          49.000    24674561.422 8  99354250.212 8      1512.234          51.000
> 2020 05 07 14 02 30.0000000  0 17        .000000000000
G18  20416644.227 8 107290207.349 8      -731.559          51.000    20416644.367 8  83602777.716 8      -570.046          51.000
G20  22962180.727 7 120667063.754 7      3054.969          47.000    22962182.625 7  94026296.087 7      2380.495          47.000
G21  20820479.672 8 109412424.872 8      -887.344          49.000    20820479.289 8  85256446.382 8      -691.437          49.000
G26  20303699.164 8 106696647.652 8       425.211          51.000    20303701.820 8  83140255.409 8       331.333          51.000
G31  23308578.477 6 122487372.225 6     -3133.078          39.000    23308573.898 6  95444736.543 6     -2441.363          39.000
R14  23071523.828 5 122984192.057 5     -4477.680          33.000    23071530.945 5  95654411.029 5     -3482.643          34.000
R15  19699622.906 8 105268813.214 8     -2061.551          50.000    19699627.016 7  81875755.497 7     -1603.431          47.000
R17  19572336.578 5 104735521.385 5     -1421.176          34.000    19572334.453 4  81460966.623 4     -1105.368          28.000
R18  20345149.578 5 108603800.191 5      1856.891          32.000
R24  22957037.867 5 122761596.638 5     -3551.840          30.000    22957049.617 5  95481272.109 5     -2762.542          30.000
C12  24341137.766 4 126750700.114 4      2382.234          28.000
C26  22807209.062 8 118763116.447 8     -2277.863          51.000
C29  25391167.250 6 132218495.650 6     -2720.359          36.000
E11  22484096.852 8 118154767.707 8      -486.250          51.000    22484096.289 8  90534172.780 8      -372.518          50.000
E24  24568487.797 8 129108232.880 8     -2882.871          51.000    24568500.875 8  98927146.753 8     -2208.956          51.000
E25  23602257.117 8 124030694.376 8      -752.570          51.000    23602259.953 8  95036514.253 8      -576.699          51.000
E36  24663316.461 8 129606610.052 8      1965.910          49.000    24663320.250 8  99308981.740 8      1506.317          51.000
> 2020 05 07 14 03  0.0000000  0 17        .000000000000
G18  20420869.234 8 107312410.003 8      -750.102          51.000    20420869.719 8  83620078.499 8      -584.495          51.000
G20  22944761.008 7 120575523.235 7      3046.410          46.000    22944763.367 7  93954965.837 7      2373.829          46.000
G21  20825583.672 8 109439246.542 8      -902.109          50.000    20825582.977 8  85277346.381 8      -702.942          50.000
G26  20301318.742 8 106684138.861 8       407.414          51.000    20301321.562 8  83130508.295 8       317.466          51.000
G31  23326485.586 6 122581460.677 6     -3140.754          39.000    23326477.781 6  95518052.146 6     -2447.344          40.000
R14  23096735.914 5 123118594.382 5     -4483.414          32.000    23096743.672 4  95758946.092 4     -3487.103          29.000
R15  19711263.461 8 105331016.209 8     -2086.660          51.000    19711267.523 7  81924135.550 7     -1622.961          46.000
R17  19580345.094 5 104778338.769 5     -1435.168          33.000    19580341.609 5  81494268.972 5     -1116.239          32.000
R18  20334753.945 5 108548304.196 5      1841.598          34.000    20334771.625 4  84426516.651 4      1432.354          29.000
R24  22976972.641 5 122868183.978 5     -3554.277          34.000    22976980.812 4  95564173.356 4     -2764.438          24.000
C12  24327419.305 5 126679274.086 5      2376.293          34.000
C26  22820367.500 8 118831633.435 8     -2291.250          51.000
C29  25406841.820 5 132300116.885 5     -2722.312          32.000
E11  22486898.133 8 118169487.482 8      -496.535          51.000    22486897.617 8  90545451.579 8      -380.432          51.000
E24  24584961.281 8 129194799.454 8     -2889.355          51.000    24584974.930 8  98993476.939 8     -2213.964          51.000
E25  23606590.188 8 124053465.435 8      -766.738          51.000    23606592.789 8  95053962.174 8      -587.417          51.000
E36  24652114.945 8 129547746.537 8      1957.094          50.000    24652119.859 8  99263878.531 8      1499.573          51.000
> 2020 05 07 14 03 30.0000000  0 18        .000000000000
G18  20425196.375 8 107335149.267 8      -764.445          51.000    20425196.719 8  83637797.414 8      -595.672          51.000
G20  22927386.102 7 120484220.389 7      3042.082          44.000    22927388.977 7  93883820.765 7      2370.454          43.000
G21  20830768.328 8 109466492.177 8      -912.758          50.000    20830767.531 8  85298576.748 8      -711.237          50.000
G26  20299036.398 8 106672145.231 8       393.578          51.000    20299039.227 8  83121162.591 8       306.684          51.000
G29  22880311.469 5 120236843.930 5     -2663.059          32.000
G31  23344432.617 6 122675758.901 6     -3144.598          38.000    23344422.211 6  95591531.196 6     -2450.339          38.000
R14  23121978.828 4 123253161.047 4     -4485.410          29.000    23121987.375 4  95863603.901 4     -3488.661          26.000
R15  19723041.805 8 105393952.230 8     -2107.566          51.000    19723045.109 7  81973085.749 7     -1639.221          46.000
R17  19588419.039 6 104821556.790 6     -1444.613          38.000    19588419.609 5  81527883.159 5     -1123.588          32.000
R18  20324442.250 5 108493249.691 5      1829.648          32.000    20324453.758 5  84383696.044 5      1423.057          31.000
R24  22996912.000 5 122974798.915 5     -3551.977          35.000    22996918.352 4  95647109.124 4     -2762.648          27.000
C12  24313732.602 6 126608036.405 6      2374.047          36.000
C26  22833598.789 8 118900529.583 8     -2300.418          51.000
E11  22489756.383 8 118184506.838 8      -503.094          51.000    22489755.844 8  90556959.922 8      -385.505          51.000
E12  24600821.922 5 129278185.359 5     -2523.703          34.000
E24  24601467.984 8 129281543.847 8     -2892.035          50.000    24601482.430 8  99059943.381 8     -2215.930          51.000
E25  23611000.359 8 124076641.147 8      -776.934          51.000    23611002.742 8  95071720.146 8      -595.280          51.000
E36  24640961.555 8 129489133.216 8      1952.078          51.000    24640966.578 8  99218967.024 8      1495.730          51.000
> 2020 05 07 14 04  0.0000000  0 16        .000000000000
G18  20429626.828 8 107358431.543 8      -785.918          51.000    20429626.984 8  83655939.451 8      -612.404          51.000
G20  22910057.828 7 120393165.535 7      3030.273          43.000    22910060.898 7  93812868.887 7      2361.252          42.000
G21  20836035.000 8 109494168.427 8      -930.574          50.000    20836034.188 8  85320142.672 8      -725.123          50.000
G26  20296853.867 8 106660675.423 8       372.805          51.000    20296856.539 8  83112225.072 8       290.497          51.000
G31  23362420.219 6 122770271.435 6     -3155.246          37.000    23362407.719 6  95665177.236 6     -2458.636          36.000
R14  23147251.953 5 123387907.542 5     -4495.297          30.000    23147254.570 4  95968360.461 4     -3496.342          25.000
R15  19734958.336 8 105457626.831 8     -2135.586          51.000    19734960.922 7  82022610.388 7     -1661.014          47.000
R17  19596570.672 6 104865181.686 6     -1461.801          38.000    19596567.234 4  81561816.615 4     -1136.959          29.000
R24  23016856.914 5 123081447.553 5     -3555.996          34.000    23016863.906 4  95730065.047 4     -2765.775          25.000
C12  24300081.000 6 126536973.955 6      2365.020          37.000
C26  22846903.781 8 118969810.694 8     -2316.602          51.000
E11  22492672.883 8 118199832.607 8      -516.934          51.000    22492672.102 8  90568703.041 8      -396.062          50.000
E12  24615249.938 5 129354010.989 5     -2529.559          33.000
E24  24618009.336 8 129368472.572 8     -2901.516          49.000    24618024.531 8  99126551.084 8     -2223.212          51.000
E25  23615489.055 8 124100229.208 8      -793.914          51.000    23615491.547 8  95089794.080 8      -608.300          51.000
E36  24629857.664 8 129430778.089 8      1940.082          51.000    24629861.680 8  99174253.365 8      1486.571          51.000
> 2020 05 07 14 04 30.0000000  0 14        .000000000000
G18  20434169.047 8 107382300.745 8      -803.410          51.000    20434169.305 8  83674538.836 8      -626.034          51.000
G20  22892786.414 7 120302406.923 7      3021.969          43.000    22892788.672 6  93742147.905 6      2354.784          39.000
G21  20841391.859 8 109522318.567 8      -944.277          51.000    20841390.883 8  85342077.854 8      -735.797          51.000
G26  20294779.750 8 106649775.777 8       355.883          51.000    20294782.258 8  83103731.835 8       277.311          51.000
G31  23380456.547 5 122865040.814 5     -3160.812          33.000    23380442.328 5  95739023.369 5     -2462.977          32.000
R15  19747020.938 8 105522083.992 8     -2159.586          51.000    19747023.586 8  82072743.703 8     -1679.678          48.000
R17  19604804.109 6 104909257.062 6     -1474.613          39.000    19604801.727 5  81596097.398 5     -1146.924          30.000
R24  23036816.531 5 123188174.536 5     -3556.656          34.000
C12  24286473.203 5 126466131.830 5      2359.297          34.000    24286474.555 4  97791570.431 4      1824.467          26.000
C26  22860290.516 8 119039519.723 8     -2328.816          50.000
E11  22495656.148 8 118215509.097 8      -526.445          50.000    22495655.008 8  90580714.884 8      -403.353          50.000
E24  24634594.242 8 129455629.752 8     -2907.109          49.000    24634609.781 8  99193333.831 8     -2227.516          51.000
E25  23620064.977 8 124124274.960 8      -807.223          51.000    23620067.773 8  95108218.719 8      -618.578          51.000
E36  24618811.266 8 129372726.731 8      1931.895          51.000    24618814.164 8  99129772.450 8      1480.235          51.000
> 2020 05 07 14 05  0.0000000  0 15        .000000000000
G18  20438796.523 8 107406617.896 8      -817.430          51.000    20438796.477 8  83693487.267 8      -636.961          50.000
G20  22875546.203 7 120211809.763 7      3017.461          43.000    22875547.320 6  93671552.787 6      2351.271          39.000
G21  20846812.328 8 109550803.484 8      -954.527          51.000    20846811.336 8  85364273.898 8      -743.788          51.000
G26  20292788.117 8 106639309.655 8       342.227          51.000    20292790.602 8  83095576.406 8       266.667          51.000
G31  23398514.602 5 122959926.671 5     -3164.648          30.000    23398498.578 5  95812960.223 5     -2465.969          30.000
R15  19759202.891 8 105587181.444 8     -2180.070          51.000    19759205.859 8  82123375.030 8     -1695.610          49.000
R17  19613097.648 6 104953640.810 6     -1483.938          40.000    19613096.789 5  81630618.074 5     -1154.174          31.000
R18  20294004.039 5 108330765.524 5      1786.168          35.000    20294006.172 4  84257277.356 4      1389.236          29.000
R24  23056764.133 5 123294837.931 5     -3554.305          32.000
C12                                                                  24272895.891 5  97736856.020 5      1822.941          30.000
C26  22873732.430 8 119109518.425 8     -2337.578          49.000
E11  22498679.539 8 118231397.699 8      -532.266          49.000    22498678.492 8  90592889.278 8      -407.855          50.000
E24  24651196.602 8 129542876.586 8     -2909.043          49.000    24651211.922 8  99260185.252 8     -2228.914          50.000
E25  23624701.656 8 124148640.753 8      -816.867          51.000    23624704.711 8  95126888.585 8      -625.815          51.000
E36  24607796.156 8 129314841.756 8      1927.398          51.000    24607798.820 8  99085419.034 8      1476.862          51.000
> 2020 05 07 14 05 30.0000000  0 14        .000000000000
G18  20443506.672 8 107431369.716 8      -841.641          51.000    20443506.375 8  83712774.391 8      -655.824          50.000
G20  22858335.734 7 120121365.108 7      3003.051          45.000    22858335.523 6  93601076.457 6      2340.040          38.000
G21  20852293.984 8 109579609.851 8      -974.730          50.000    20852293.156 8  85386720.430 8      -759.530          50.000
G26  20290876.891 8 106629266.104 8       318.426          51.000    20290879.438 8  83087750.261 8       248.124          51.000
G31  23416587.898 5 123054996.672 5     -3177.117          33.000
R15  19771502.117 8 105652904.677 8     -2210.625          51.000    19771505.164 8  82174493.078 8     -1719.378          49.000
R17  19621445.602 6 104998318.685 6     -1503.160          39.000    19621447.000 5  81665367.608 5     -1169.122          31.000
R18  20284001.812 6 108277354.451 6      1765.301          37.000    20284001.344 5  84215735.382 5      1373.015          33.000
C12                                                                  24259321.875 5  97682197.754 5      1814.112          35.000
C26  22887227.930 8 119179793.131 8     -2356.270          51.000
E11  22501740.891 8 118247485.687 8      -549.086          49.000    22501740.164 8  90605216.441 8      -420.561          50.000
E24  24667813.609 8 129630199.996 8     -2921.262          49.000    24667828.289 8  99327095.328 8     -2238.381          49.000
E25  23629396.875 8 124173314.748 8      -836.934          51.000    23629399.711 8  95145794.621 8      -641.182          51.000
E36  24596810.406 8 129257111.537 8      1912.605          51.000    24596813.516 8  99041184.195 8      1465.452          51.000
> 2020 05 07 14 06  0.0000000  0 15        .000000000000
G18  20448348.539 8 107456813.589 8      -856.148          51.000    20448348.258 8  83732600.784 8      -667.129          50.000
G20  22841204.109 7 120031334.807 7      2997.902          44.000    22841203.547 7  93530922.989 7      2336.028          42.000
G21  20857885.695 8 109608994.837 8      -985.410          50.000    20857884.938 8  85409617.829 8      -767.852          50.000
G26  20289095.539 8 106619904.913 8       304.391          51.000    20289098.047 8  83080455.820 8       237.187          51.000
G29  22956670.656 5 120638118.128 5     -2687.852          31.000
R14  23248637.977 5 123928332.479 5     -4514.363          30.000    23248645.711 5  96388719.819 5     -3511.171          31.000
R15  19783967.594 8 105719514.713 8     -2231.391          51.000    19783970.289 8  82226300.860 8     -1735.529          49.000
R17  19629898.125 6 105043552.027 6     -1513.453          38.000    19629899.406 5  81700549.062 5     -1177.133          30.000
R18  20274112.664 5 108224549.653 5      1753.992          33.000    20274108.531 5  84174665.038 5      1364.219          32.000
C12                                                                  24245811.547 5  97627794.175 5      1812.249          33.000
C26  22900826.273 8 119250598.414 8     -2365.410          51.000
E11  22504889.375 8 118264030.799 8      -555.566          49.000    22504888.719 8  90617893.881 8      -425.676          50.000
E24  24684494.117 8 129717857.549 8     -2923.824          49.000    24684507.945 8  99394261.432 8     -2240.387          48.000
E25  23634200.281 8 124198555.638 8      -847.113          51.000    23634202.648 8  95165135.047 8      -649.126          51.000
E36  24585903.453 8 129199795.179 8      1907.234          51.000    24585907.266 8  98997266.468 8      1461.432          51.000
> 2020 05 07 14 06 30.0000000  0 16        .000000000000
G18  20453257.633 8 107482610.984 8      -868.473          50.000    20453257.281 8  83752702.670 8      -676.732          49.000
G20  22824087.328 7 119941384.301 7      2994.148          45.000    22824087.352 7  93460831.718 7      2333.103          43.000
G21  20863522.984 8 109638619.699 8      -994.172          49.000    20863522.250 8  85432702.147 8      -774.679          49.000
G26  20287380.031 8 106610889.902 8       292.062          51.000    20287382.336 8  83073431.132 8       227.581          51.000
G31  23452866.539 5 123245623.949 5     -3181.633          30.000    23452871.086 5  96035560.226 5     -2479.197          30.000
R14  23274028.273 5 124063678.230 5     -4513.711          34.000    23274035.945 5  96493988.646 5     -3510.667          30.000
R15  19796534.500 8 105786666.384 8     -2250.152          51.000    19796536.500 8  82278529.933 8     -1750.118          48.000
R17  19638390.859 5 105088995.673 5     -1520.855          32.000    19638391.586 5  81735894.043 5     -1182.888          32.000
R18  20264276.383 5 108172072.731 5      1744.336          34.000    20264268.648 5  84133806.013 5      1356.706          33.000
C12                                                                  24232296.953 5  97573387.066 5      1811.590          34.000
C26  22914461.891 8 119321598.318 8     -2372.559          51.000
C29  25516704.422 5 132872166.261 5     -2723.941          33.000
E11  22508060.312 8 118280694.989 8      -559.945          49.000    22508059.570 8  90630662.546 8      -429.079          50.000
E24  24701173.898 8 129805510.961 8     -2924.352          48.000    24701187.242 8  99461424.359 8     -2240.776          48.000
E25  23639047.625 8 124224026.346 8      -855.578          51.000    23639049.844 8  95184651.558 8      -655.603          51.000
E36  24575011.000 8 129142555.793 8      1903.949          50.000    24575015.344 8  98953407.717 8      1458.891          51.000
> 2020 05 07 14 07  0.0000000  0 13        .000000000000
G18  20458283.023 8 107509019.431 8      -889.109          51.000    20458282.523 8  83773280.677 8      -692.812          49.000
G20  22807035.453 7 119851775.892 7      2982.551          46.000    22807036.539 7  93391006.996 7      2324.069          43.000
G21  20869254.906 8 109668741.726 8     -1011.016          49.000    20869254.461 8  85456173.851 8      -787.804          50.000
G26  20285779.773 8 106602480.906 8       271.547          51.000    20285782.109 8  83066878.656 8       211.595          51.000
R14  23299460.656 5 124199249.360 5     -4521.215          35.000    23299469.406 5  96599432.789 5     -3516.500          30.000
R15  19809251.367 8 105854620.587 8     -2277.070          51.000    19809253.273 8  82331383.186 8     -1771.055          49.000
C12  24218817.938 5 126113748.105 5      2333.711          31.000    24218829.969 5  97519175.073 5      1805.102          34.000
C26  22928182.891 8 119393047.408 8     -2387.770          49.000
C29  25532415.789 5 132953982.961 5     -2727.805          33.000
E11  22511303.047 8 118297736.199 8      -573.008          49.000    22511302.148 8  90643720.090 8      -439.088          50.000
E24  24717902.109 8 129893417.869 8     -2933.023          49.000    24717915.445 8  99528781.526 8     -2247.412          49.000
E25  23643987.367 8 124249985.674 8      -872.059          50.000    23643989.875 8  95204542.450 8      -668.150          51.000
E36  24564182.164 8 129085652.480 8      1892.555          50.000    24564186.602 8  98909806.503 8      1450.124          51.000
> 2020 05 07 14 07 30.0000000  0 15        .000000000000
G18  20463402.008 8 107535919.953 8      -898.059          50.000    20463401.391 8  83794242.114 8      -699.786          49.000
G20  22790026.836 8 119762394.724 8      2982.438          48.000    22790028.633 7  93321359.356 7      2323.980          43.000
G21  20875058.859 8 109699241.845 8     -1016.188          49.000    20875058.625 8  85479940.175 8      -791.834          49.000
G26  20284272.648 8 106594561.327 8       262.652          51.000    20284275.148 8  83060707.545 8       204.664          51.000
G29  23002754.227 5 120880289.156 5     -2690.180          32.000
G31  23489303.266 5 123437088.815 5     -3188.684          30.000
R14  23324914.172 5 124334923.373 5     -4517.070          35.000    23324920.570 5  96704956.920 5     -3513.280          31.000
R15  19822095.156 8 105923255.240 8     -2292.172          51.000    19822097.445 8  82384765.678 8     -1782.803          49.000
C12  24205384.406 5 126043775.611 5      2337.262          34.000    24205388.898 6  97465068.452 6      1807.198          36.000
C26  22941966.734 8 119464827.371 8     -2391.398          48.000
C29  25548127.359 5 133035794.531 5     -2720.195          31.000
E11  22514595.188 8 118315036.038 8      -574.031          49.000    22514594.305 8  90656975.809 8      -439.839          50.000
E24  24734656.156 8 129981459.612 8     -2929.988          49.000    24734669.719 8  99596242.006 8     -2245.047          50.000
E25  23648997.281 8 124276316.158 8      -877.023          50.000    23649000.102 8  95224717.748 8      -671.930          51.000
E36  24553394.992 8 129028968.019 8      1892.754          49.000    24553399.148 8  98866372.987 8      1450.340          51.000
> 2020 05 07 14 08  0.0000000  0 14        .000000000000
G18  20468599.070 8 107563231.221 8      -921.832          50.000    20468598.531 8  83815523.640 8      -718.311          49.000
G20  22773046.930 8 119673163.975 8      2967.168          49.000    22773048.766 7  93251828.931 7      2312.079          42.000
G21  20880919.352 8 109730038.510 8     -1036.148          48.000    20880918.922 8  85503937.585 8      -807.385          48.000
G26  20282843.711 8 106587052.256 8       238.738          51.000    20282846.164 8  83054856.305 8       186.030          51.000
G31  23507544.594 6 123532948.204 6     -3201.168          37.000    23507542.156 6  96259445.805 6     -2494.417          38.000
R14  23350371.297 5 124470615.983 5     -4528.207          34.000    23350374.953 5  96810495.494 5     -3521.945          33.000
R15  19835050.219 8 105992486.806 8     -2322.410          51.000    19835053.375 8  82438612.427 8     -1806.319          49.000
C12  24191960.258 6 125973860.757 6      2325.312          37.000    24191960.242 6  97411005.896 6      1797.844          36.000
C26  22955799.273 8 119536857.124 8     -2409.684          50.000
C29  25563820.969 5 133117521.269 5     -2727.293          31.000
E11  22517920.992 8 118332513.678 8      -589.898          48.000    22517920.367 8  90670367.763 8      -452.039          50.000
E24  24751420.680 8 130069555.134 8     -2941.949          49.000    24751434.531 8  99663743.703 8     -2254.278          50.000
E25  23654062.828 8 124302937.798 8      -896.750          51.000    23654065.672 8  95245116.177 8      -687.120          51.000
E36  24542634.680 8 128972422.806 8      1878.004          51.000    24542638.547 8  98823046.157 8      1438.963          51.000
> 2020 05 07 14 08 30.0000000  0 15        .000000000000
G18  20473909.016 8 107591136.229 8      -937.816          49.000    20473908.453 8  83837267.779 8      -730.769          49.000
G20  22756131.414 8 119584270.911 8      2959.629          49.000    22756132.922 7  93182561.634 7      2306.204          42.000
G21  20886871.062 8 109761314.803 8     -1048.449          48.000    20886870.578 8  85528308.724 8      -816.973          48.000
G26  20281528.234 8 106580138.931 8       222.586          51.000    20281530.398 8  83049469.286 8       173.441          51.000
G31  23525836.133 6 123629060.288 6     -3205.621          38.000    23525833.781 6  96334338.254 6     -2497.890          39.000
R14  23375865.234 5 124606510.648 5     -4531.562          34.000    23375868.688 5  96916191.154 5     -3524.555          32.000
R15  19848151.664 8 106062500.300 8     -2344.582          51.000    19848155.664 8  82493067.346 8     -1823.564          48.000
R17  19673089.289 5 105274663.373 5     -1571.410          35.000    19673101.383 5  81880320.109 5     -1222.214          34.000
C12  24178581.867 6 125904186.020 6      2320.590          37.000    24178578.961 6  97357129.061 6      1794.237          37.000
C26  22969715.047 8 119609317.447 8     -2420.371          51.000
C29  25579533.172 5 133199342.538 5     -2726.785          30.000
E11  22521315.500 8 118350352.514 8      -598.754          48.000    22521314.789 8  90684036.472 8      -458.711          50.000
E24  24768230.227 8 130157887.567 8     -2946.250          48.000    24768244.484 8  99731426.934 8     -2257.627          50.000
E25  23659218.875 8 124330035.001 8      -909.145          51.000    23659222.195 8  95265878.961 8      -696.638          51.000
E36  24531936.383 8 128916201.424 8      1870.664          51.000    24531940.055 8  98779967.453 8      1433.378          51.000
> 2020 05 07 14 09  0.0000000  0 15        .000000000000
G18  20479314.922 8 107619545.967 8      -953.848          49.000    20479314.555 8  83859405.221 8      -743.258          48.000
G20  22739263.781 7 119495630.974 7      2951.910          47.000    22739265.117 7  93113491.612 7      2300.193          44.000
G21  20892896.922 8 109792981.365 8     -1060.418          48.000    20892896.641 8  85552983.957 8      -826.300          48.000
G26  20280309.625 8 106573734.728 8       206.535          51.000    20280311.820 8  83044479.000 8       160.936          51.000
G31  23544157.203 6 123725333.995 6     -3210.086          37.000    23544156.906 6  96409356.631 6     -2501.366          38.000
R14  23401379.453 5 124742515.341 5     -4533.824          33.000    23401383.148 5  97021972.405 5     -3526.311          32.000
R15  19861382.844 8 106133204.297 8     -2366.703          51.000    19861386.969 8  82548059.316 8     -1840.772          49.000
R17  19681941.766 6 105322008.219 6     -1582.695          36.000    19681942.648 5  81917143.809 5     -1230.988          31.000
C12  24165231.797 5 125834664.810 5      2316.578          33.000    24165227.922 6  97303370.909 6      1791.147          36.000
C26  22983696.547 8 119682119.671 8     -2430.895          51.000
C29  25595248.469 4 133281173.891 4     -2726.727          29.000
E11  22524761.938 7 118368464.135 7      -606.777          47.000    22524761.055 8  90697914.183 8      -464.918          49.000
E24  24785067.516 7 130246368.185 7     -2950.250          46.000    24785082.438 8  99799223.706 8     -2260.548          49.000
E25  23664449.156 8 124357520.117 8      -921.074          51.000    23664452.867 8  95286938.960 8      -705.710          51.000
E36  24521283.305 8 128860216.613 8      1863.762          51.000    24521286.805 8  98737070.001 8      1428.089          51.000
> 2020 05 07 14 09 30.0000000  0 15        .000000000000
G18  20484814.742 8 107648449.137 8      -966.191          49.000    20484814.930 8  83881927.177 8      -752.876          49.000
G20  22722442.914 7 119407237.603 7      2947.789          46.000    22722444.375 7  93044613.694 7      2296.978          45.000
G21  20898994.914 7 109825026.835 7     -1069.012          47.000    20898994.688 8  85577954.439 8      -832.996          48.000
G26  20279186.141 8 106567830.745 8       193.820          51.000    20279188.609 8  83039878.474 8       151.029          51.000
G31  23562506.703 6 123821756.955 6     -3211.578          36.000    23562507.406 6  96484491.361 6     -2502.528          36.000
R14  23426911.367 5 124878616.491 5     -4532.332          31.000    23426915.266 4  97127828.751 4     -3525.150          29.000
R15  19874741.500 8 106204586.038 8     -2385.160          51.000    19874745.016 8  82603578.405 8     -1855.125          48.000
R17  19690853.297 6 105369701.912 6     -1589.988          38.000    19690851.336 5  81954238.877 5     -1236.655          31.000
C12                                                                  24151904.523 5  97249724.245 5      1790.718          35.000
C26  22997740.742 8 119755252.110 8     -2437.875          50.000
C29  25610964.422 5 133363008.357 5     -2723.000          32.000
E11  22528258.148 7 118386837.725 7      -611.262          47.000    22528257.578 8  90711992.635 8      -468.310          50.000
E24  24801930.453 7 130334985.988 7     -2950.898          45.000    24801945.898 8  99867125.598 8     -2260.958          48.000
E25  23669751.781 8 124385383.303 8      -929.688          51.000    23669755.297 8  95308288.656 8      -712.400          51.000
E36  24510672.961 8 128804458.868 8      1860.207          51.000    24510676.641 8  98694346.532 8      1425.312          51.000
> 2020 05 07 14 10  0.0000000  0 16        .000000000000
G18  20490405.992 8 107677831.577 8      -987.664          50.000    20490406.125 8  83904822.569 8      -769.608          49.000
G20  22705667.102 7 119319080.291 7      2934.121          46.000    22705668.766 7  92975919.714 7      2286.328          45.000
G21  20905162.312 7 109857436.992 7     -1086.574          47.000    20905162.078 7  85603209.089 7      -846.681          47.000
G26  20278155.609 8 106562415.115 8       171.977          51.000    20278158.148 8  83035658.489 8       134.008          51.000
G29  23079973.961 4 121286080.919 4     -2713.344          29.000
G31  23580881.133 5 123918313.356 5     -3221.332          35.000    23580883.625 5  96559730.024 5     -2510.132          35.000
R14  23452458.930 5 125014798.923 5     -4541.176          30.000    23452461.727 4  97233746.482 4     -3532.029          27.000
R15  19888224.164 8 106276630.291 8     -2412.879          51.000    19888226.727 7  82659612.785 7     -1876.684          47.000
R17  19699828.688 6 105417729.640 6     -1606.941          40.000    19699828.453 5  81991593.801 5     -1249.840          32.000
R18  20197674.531 6 107816593.038 6      1643.652          36.000    20197684.367 4  83857360.002 4      1278.390          25.000
C26  23011844.406 8 119828700.244 8     -2453.957          48.000
C29  25626678.219 5 133444829.754 5     -2727.699          32.000
E11  22531801.680 7 118405459.702 7      -625.289          47.000    22531801.414 8  90726261.435 8      -479.082          49.000
E24  24818816.711 7 130423727.038 7     -2960.324          44.000    24818832.227 7  99935121.934 7     -2268.447          47.000
E25  23675123.953 8 124413611.757 8      -947.402          51.000    23675126.891 8  95329918.223 8      -725.842          51.000
E36  24500102.984 8 128748915.663 8      1847.551          51.000    24500107.414 8  98651787.443 8      1415.653          51.000
> 2020 05 07 14 10 30.0000000  0 15        .000000000000
G18  20496117.188 8 107707843.783 8     -1002.961          50.000    20496117.281 8  83928208.697 8      -781.528          50.000
G20  22688965.648 7 119231314.655 7      2926.809          44.000    22688967.406 7  92907530.943 7      2280.630          44.000
G21  20911427.719 8 109890362.019 8     -1098.117          48.000    20911427.500 8  85628864.932 8      -855.676          48.000
G26  20277247.148 8 106557640.715 8       156.578          51.000    20277249.773 8  83031938.165 8       122.009          51.000
G31  23599305.172 5 124015184.424 5     -3224.809          33.000    23599312.555 5  96635235.992 5     -2512.838          34.000
R14  23478050.984 5 125151211.445 5     -4542.793          32.000    23478052.156 4  97339843.949 4     -3533.289          26.000
R15  19901858.500 8 106349488.980 8     -2434.102          51.000    19901860.648 7  82716280.597 7     -1893.193          46.000
R17  19708896.414 6 105466244.095 6     -1617.121          37.000    19708893.945 4  82029327.252 4     -1257.758          29.000
C12  24125361.875 5 125627089.353 5      2302.527          31.000
C26  23026036.125 7 119902612.719 7     -2463.691          46.000
C29  25642418.305 5 133526788.240 5     -2726.863          34.000
E11  22535421.391 8 118424481.130 8      -632.762          48.000    22535420.828 8  90740836.304 8      -484.879          49.000
E24  24835754.758 6 130512742.191 6     -2963.773          41.000    24835770.781 7 100003328.288 7     -2270.895          46.000
E25  23680594.586 8 124442357.440 8      -958.938          51.000    23680597.008 8  95351944.114 8      -734.728          51.000
E36  24489603.344 8 128693739.263 8      1841.004          51.000    24489607.859 8  98609509.428 8      1410.684          51.000
> 2020 05 07 14 11  0.0000000  0 14        .000000000000
G18  20501909.906 8 107738284.343 8     -1021.570          50.000    20501910.328 8  83951928.638 8      -796.029          50.000
G20  22672300.797 7 119143743.300 7      2916.082          44.000    22672302.797 7  92839293.565 7      2272.275          44.000
G21  20917752.984 8 109923600.780 8     -1112.902          49.000    20917752.664 8  85654765.280 8      -867.197          49.000
G26  20276422.836 8 106553308.513 8       137.258          51.000    20276425.430 8  83028562.407 8       106.954          51.000
R14  23503646.008 5 125287648.921 5     -4548.523          30.000    23503651.430 4  97445966.917 4     -3537.743          28.000
R15  19915606.570 8 106422956.459 8     -2458.742          50.000    19915609.156 7  82773421.937 7     -1912.355          46.000
R17  19718013.703 5 105515039.255 5     -1631.066          35.000    19718008.930 4  82067264.027 4     -1268.610          28.000
C12  24112136.539 5 125558211.701 5      2294.836          33.000    24112153.914 4  97089653.220 4      1773.755          28.000
C26  23040279.461 7 119976789.508 7     -2476.805          47.000
C29  25658145.938 5 133608685.167 5     -2728.562          33.000
E11  22539078.914 8 118443701.147 8      -643.520          48.000    22539077.930 8  90755563.329 8      -493.173          49.000
E24  24852706.234 6 130601830.354 6     -2970.715          38.000    24852723.844 7 100071590.565 7     -2276.151          46.000
E25  23686125.586 8 124471420.296 8      -973.785          51.000    23686127.883 8  95374213.038 8      -746.189          51.000
E36  24479135.766 8 128638729.986 8      1831.020          51.000    24479140.320 8  98567359.478 8      1402.989          51.000
> 2020 05 07 14 11 30.0000000  0 16        .000000000000
G18  20507792.719 8 107769198.364 8     -1039.715          50.000    20507793.086 8  83976017.490 8      -810.167          50.000
G20  22655682.680 7 119056415.998 7      2905.445          45.000    22655683.883 6  92771246.323 6      2263.980          41.000
G21  20924146.477 8 109957197.798 8     -1127.246          50.000    20924145.742 8  85680944.762 8      -878.374          50.000
G26  20275691.664 8 106549465.825 8       118.422          51.000    20275694.078 8  83025568.107 8        92.277          51.000
G29  23126583.164 5 121530985.501 5     -2726.227          31.000
G31  23636213.969 5 124209142.056 5     -3237.535          30.000
R14  23529254.250 5 125424155.273 5     -4553.219          32.000    23529260.883 4  97552155.371 4     -3541.395          28.000
R15  19929476.383 8 106497077.210 8     -2483.004          49.000    19929480.297 7  82831071.396 7     -1931.225          46.000
R17  19727192.719 5 105564161.131 5     -1644.160          35.000    19727189.188 5  82105469.885 5     -1278.794          32.000
C12  24098936.062 6 125489465.110 6      2287.867          37.000    24098948.023 5  97036494.029 5      1768.837          33.000
C26  23054584.242 8 120051274.818 8     -2489.344          50.000
C29  25673869.570 5 133690575.313 5     -2730.340          30.000
E11  22542782.875 8 118463165.342 8      -654.453          48.000    22542781.969 8  90770477.458 8      -501.482          50.000
E24  24869681.266 6 130691036.805 6     -2977.160          39.000    24869699.930 7 100139943.508 7     -2281.069          46.000
E25  23691725.703 8 124500846.791 8      -988.492          51.000    23691728.086 8  95396760.585 8      -757.440          51.000
E36  24468708.742 8 128583934.615 8      1821.402          51.000    24468713.508 8  98525373.416 8      1395.581          51.000
> 2020 05 07 14 12  0.0000000  0 15        .000000000000
G18  20513760.219 8 107800557.858 8     -1057.676          50.000    20513760.578 8  84000453.469 8      -824.163          50.000
G20  22639106.984 7 118969309.020 7      2894.938          47.000    22639106.086 6  92703370.770 6      2255.798          39.000
G21  20930602.922 8 109991125.377 8     -1141.305          51.000    20930601.828 8  85707381.838 8      -889.328          51.000
G26  20275048.664 8 106546087.114 8        99.992          51.000    20275051.227 8  83022935.331 8        77.916          51.000
G29  23142148.828 4 121612811.130 4     -2732.129          28.000    23142146.492 4  94763182.131 4     -2128.932          24.000
R14  23554870.016 5 125560700.143 5     -4556.562          30.000    23554875.070 4  97658356.821 4     -3543.996          29.000
R15  19943463.594 8 106571821.775 8     -2506.793          51.000    19943468.227 7  82889206.062 7     -1949.728          46.000
R17  19736427.727 5 105613580.357 5     -1657.199          34.000    19736427.805 5  82143907.110 5     -1288.927          33.000
C12  24085756.102 6 125420823.726 6      2281.633          39.000    24085761.539 5  96983416.104 5      1764.210          31.000
C26  23068943.836 8 120126040.506 8     -2501.734          51.000
C29  25689584.516 5 133772412.078 5     -2732.312          30.000
E11  22546527.969 8 118482846.463 8      -664.727          48.000    22546527.406 8  90785557.790 8      -509.348          50.000
E24  24886674.375 6 130780333.955 6     -2982.977          39.000    24886693.438 7 100208365.976 7     -2285.723          46.000
E25  23697389.609 8 124530610.416 8     -1002.625          51.000    23697392.305 8  95419566.442 8      -768.233          51.000
E36  24458317.258 8 128529326.970 8      1812.227          51.000    24458322.109 8  98483531.197 8      1388.562          51.000
> 2020 05 07 14 12 30.0000000  0 14        .000000000000
G18  20519851.055 8 107832565.114 8     -1073.117          51.000    20519851.641 8  84025394.200 8      -836.195          50.000
G20  22622612.945 8 118882629.337 8      2886.707          49.000    22622608.930 6  92635828.184 6      2249.382          36.000
G21  20937160.695 8 110025585.592 8     -1152.957          51.000    20937159.469 8  85734233.962 8      -898.408          50.000
G26  20274532.828 8 106543376.889 8        83.770          51.000    20274535.656 8  83020823.451 8        65.275          51.000
G29  23157748.195 5 121694778.719 5     -2733.777          32.000    23157754.672 5  94827134.007 5     -2130.216          32.000
R15  19957606.797 8 106647394.501 8     -2528.246          51.000    19957611.195 7  82947984.816 7     -1966.414          47.000
R17  19745755.672 5 105663502.689 5     -1668.133          33.000    19745758.773 5  82182735.577 5     -1297.440          32.000
C12  24072635.234 6 125352489.755 6      2277.441          38.000    24072632.891 5  96930575.948 5      1761.104          31.000
C26  23083395.812 8 120201286.450 8     -2511.664          51.000
C29  25705331.680 4 133854406.745 4     -2732.488          28.000
E11  22550352.883 7 118502947.195 7      -672.328          47.000    22550352.305 8  90800959.647 8      -515.140          50.000
E24  24903723.938 7 130869924.432 7     -2986.770          42.000    24903742.570 7 100277013.138 7     -2288.495          47.000
E25  23703156.055 8 124560914.789 8     -1014.680          51.000    23703159.109 8  95442786.641 8      -777.458          51.000
E36  24448000.211 8 128475111.010 8      1805.242          51.000    24448004.461 8  98441989.112 8      1383.229          51.000
> 2020 05 07 14 13  0.0000000  0 13        .000000000000
G18  20526013.086 8 107864946.727 8     -1087.922          51.000    20526013.719 8  84050626.632 8      -847.731          50.000
G20  22606149.102 8 118796108.011 8      2879.105          49.000    22606141.570 5  92568408.999 5      2243.462          35.000
G21  20943767.742 8 110060305.032 8     -1163.906          51.000    20943766.297 8  85761288.067 8      -906.940          51.000
G26  20274092.750 8 106541064.242 8        68.152          51.000    20274095.703 8  83019021.371 8        53.106          51.000
R15  19971853.078 8 106723516.683 8     -2548.906          51.000    19971856.344 7  83007190.895 7     -1982.486          47.000
R17  19755126.344 5 105713670.475 5     -1677.789          32.000    19755130.539 5  82221738.278 5     -1304.947          31.000
C12  24059522.828 5 125284194.207 5      2273.719          32.000    24059513.484 6  96877765.569 6      1757.888          36.000
C26  23097887.570 8 120276741.447 8     -2520.934          51.000
C29  25721057.969 5 133936295.785 5     -2730.555          31.000
E11  22554205.891 7 118523194.977 7      -679.672          47.000    22554205.125 8  90816474.152 8      -520.710          50.000
E24  24920777.781 7 130959535.209 7     -2989.578          43.000    24920795.023 7 100345675.854 7     -2290.668          46.000
E25  23708973.531 8 124591487.998 8     -1025.828          51.000    23708976.844 8  95466212.852 8      -786.006          51.000
E36  24437705.719 8 128421015.252 8      1798.910          51.000    24437708.961 8  98400539.158 8      1378.446          51.000
> 2020 05 07 14 13 30.0000000  0 14        .000000000000
G18  20532285.250 8 107897907.020 8     -1103.625          51.000    20532285.508 8  84076309.967 8      -859.968          50.000
G20  22589755.016 8 118709953.552 8      2870.238          49.000    22589747.352 6  92501275.726 6      2236.552          37.000
G21  20950462.891 8 110095487.869 8     -1175.887          51.000    20950461.125 8  85788703.257 8      -916.275          51.000
G26  20273767.695 8 106539355.699 8        51.453          51.000    20273770.578 8  83017690.040 8        40.093          51.000
G29  23189007.336 6 121859039.124 6     -2738.984          36.000
R15  19986240.414 8 106800394.651 8     -2570.457          51.000    19986242.617 7  83066984.848 7     -1999.244          46.000
R17  19764577.922 5 105764247.865 5     -1688.543          32.000    19764581.469 4  82261076.598 4     -1313.311          28.000
R18  20135051.922 5 107482278.585 5      1544.527          32.000    20135051.234 4  83597327.083 4      1201.293          27.000
C12                                                                  24046443.008 6  96825142.729 6      1754.674          39.000
C26  23112457.602 8 120352607.401 8     -2531.133          51.000
E11  22558125.828 7 118543794.667 7      -688.070          47.000    22558125.195 8  90832258.309 8      -527.208          50.000
E24  24937874.062 7 131049370.925 7     -2993.730          42.000    24937890.008 7 100414510.935 7     -2293.829          46.000
E25  23714881.219 8 124622535.787 8     -1038.301          51.000    23714884.789 8  95490002.688 8      -795.530          51.000
E36  24427472.992 8 128367245.736 8      1791.438          51.000    24427475.711 8  98359339.168 8      1372.723          51.000
> 2020 05 07 14 14  0.0000000  0 14        .000000000000
G18  20538656.297 8 107931387.267 8     -1120.523          50.000    20538656.531 8  84102398.471 8      -873.135          50.000
G20  22573420.195 8 118624111.988 8      2860.371          48.000    22573414.398 6  92434386.260 6      2228.864          40.000
G21  20957234.945 8 110131075.244 8     -1188.770          51.000    20957233.102 8  85816433.683 8      -926.314          50.000
G26  20273546.750 8 106538194.864 8        33.902          51.000    20273549.695 8  83016785.480 8        26.417          51.000
G29  23204681.055 5 121941385.158 5     -2742.191          32.000
R15  20000756.422 8 106877967.582 8     -2592.973          50.000    20000758.438 7  83127319.342 7     -2016.757          46.000
R17  19774100.547 5 105815197.257 5     -1700.402          35.000    19774100.695 4  82300717.452 4     -1322.535          26.000
R18  20126433.570 5 107436284.898 5      1530.066          35.000
C12                                                                  24033409.000 6  96772663.832 6      1750.206          40.000
C26  23127094.430 8 120428825.684 8     -2542.223          51.000
E11  22562101.562 8 118564688.055 8      -696.914          48.000    22562101.133 8  90848267.529 8      -534.089          50.000
E24  24955001.586 7 131139373.153 7     -2998.555          43.000    24955016.625 7 100483473.598 7     -2297.654          46.000
E25  23720868.070 8 124654000.745 8     -1051.504          51.000    23720871.922 8  95514112.186 8      -805.707          51.000
E36  24417291.570 8 128313745.514 8      1783.047          51.000    24417294.953 8  98318345.490 8      1366.192          51.000
> 2020 05 07 14 14 30.0000000  0 14        .000000000000
G18  20545087.781 8 107965185.266 8     -1137.652          51.000    20545088.242 8  84128734.575 8      -886.482          51.000
G20  22557106.867 7 118538385.637 7      2849.895          47.000    22557103.797 7  92367586.574 7      2220.700          43.000
G21  20964045.516 8 110166865.071 8     -1202.102          51.000    20964043.914 8  85844321.856 8      -936.703          50.000
G26  20273391.938 8 106537381.935 8        15.535          51.000    20273394.828 8  83016152.011 8        12.105          51.000
R15  20015363.586 8 106956028.860 8     -2615.938          51.000    20015365.945 7  83188033.653 7     -2034.621          46.000
R17  19783653.703 6 105866311.999 6     -1712.488          36.000    19783653.914 4  82340472.828 4     -1331.935          28.000
R18  20117859.484 6 107390542.647 6      1514.895          37.000
C12                                                                  24020373.406 6  96720175.377 6      1745.678          37.000
C26  23141760.141 8 120505195.529 8     -2553.895          50.000
C29  25768271.945 5 134182155.157 5     -2731.859          31.000
E11  22566095.008 8 118585673.700 8      -706.695          48.000    22566094.422 8  90864347.418 8      -541.434          50.000
E24  24972121.969 7 131229340.102 7     -3004.086          43.000    24972137.164 7 100552409.230 7     -2301.739          47.000
E25  23726896.172 8 124685682.233 8     -1065.441          51.000    23726900.281 8  95538387.578 8      -816.338          51.000
E36  24407124.031 8 128260314.145 8      1774.215          51.000    24407128.164 8  98277404.544 8      1359.484          51.000
> 2020 05 07 14 15  0.0000000  0 13        .000000000000
G18  20551631.789 8 107999574.149 8     -1154.445          51.000    20551632.102 8  84155531.087 8      -899.568          51.000
G20  22540867.930 7 118453051.993 7      2839.645          46.000    22540866.812 7  92301092.885 7      2212.713          44.000
G21  20970946.531 8 110203130.289 8     -1215.090          51.000    20970944.953 8  85872580.461 8      -946.823          50.000
G26  20273355.922 8 106537192.271 8        -2.391          51.000    20273358.703 8  83016004.217 8        -1.863          51.000
R15  20030114.531 8 107034854.935 8     -2638.566          51.000    20030117.633 7  83249342.773 7     -2052.221          47.000
R17  19793289.812 5 105917869.563 5     -1724.551          31.000    19793289.828 4  82380573.190 4     -1341.317          26.000
C12                                                                  24007388.000 6  96667888.077 6      1740.903          37.000
C26  23156506.578 8 120581987.041 8     -2564.980          50.000
C29  25784009.961 4 134264107.625 4     -2733.227          29.000
E11  22570158.195 8 118607025.348 8      -716.238          49.000    22570157.297 8  90880707.770 8      -548.755          50.000
E24  24989287.398 7 131319545.203 7     -3009.016          42.000    24989303.469 7 100621527.351 7     -2305.678          47.000
E25  23733018.227 8 124717854.671 8     -1078.762          51.000    23733022.375 8  95563039.165 8      -826.593          51.000
