     3.02           OBSERVATION DATA    M (MIXED)           RINEX VERSION / TYPE
SAVERINEX           SC600               20200508 055931 LCL PGM / RUN BY / DATE
       G = GPS       R = GLONASS       C = COMPASS          COMMENT
       S = SBAS      J = QZSS          E = GALILEO          COMMENT
BEAN                                                        MARKER NAME
1                                                           MARKER NUMBER
GEODETIC                                                    MARKER TYPE
Unige DICCA         GTER                                    OBSERVER / AGENCY
SC60291900056       SC600               2.12(191226)        REC # / TYPE / VERS
                    HEMA45          NONE                    ANT # / TYPE
  4509407.8091   693652.4678  4442337.6214                  APPROX POSITION XYZ
        0.0000        0.0000        0.0000                  ANTENNA: DELTA H/E/N
G    8 C1C L1C D1C S1C C2Y L2Y D2Y S2Y                      SYS / # / OBS TYPES
R    8 C1C L1C D1C S1C C2P L2P D2P S2P                      SYS / # / OBS TYPES
C    8 C1I L1I D1I S1I C7I L7I D7I S7I                      SYS / # / OBS TYPES
E    8 C1C L1C D1C S1C C7Q L7Q D7Q S7Q                      SYS / # / OBS TYPES
DBHZ                                                        COMMENT
     30.000                                                 INTERVAL
  2020    05    08    03    00    0.0000000     GPS         TIME OF FIRST OBS
  2020    05    08    03    59   30.0000000     GPS         TIME OF LAST OBS
     0                                                      RCV CLOCK OFFS APPL
G L1C  0.00000                                              SYS / PHASE SHIFT
G L2Y  0.00000                                              SYS / PHASE SHIFT
R L1C  0.00000                                              SYS / PHASE SHIFT
R L2P  0.25000                                              SYS / PHASE SHIFT
C L1I  0.00000                                              SYS / PHASE SHIFT
C L7I  0.00000                                              SYS / PHASE SHIFT
E L1C  0.50000                                              SYS / PHASE SHIFT
E L7Q -0.25000                                              SYS / PHASE SHIFT
 12 R01  1 R06 -4 R07  5 R08  6 R09 -2 R10 -7 R11  0 R12 -1 GLONASS SLOT / FRQ #
    R16 -1 R21  4 R22 -3 R23  3                             GLONASS SLOT / FRQ #
 C1C   71.950 C2C   71.950 C2P   71.950                     GLONASS COD/PHS/BIS
    18                                                      LEAP SECONDS
*** Above antenna height is from mark to ANTENNA BOTTOM.    COMMENT
    17     4        0.0000        ANT MEASURE TYPE/HEIGT    COMMENT
    0.0000    0.0000    0.0458    0.0405    0.0000          COMMENT
                    BASE STATION                            COMMENT
                                                            END OF HEADER
> 2020 05 08 03 00  0.0000000  0 18        .000000000000
G02  24327766.367 6 127843278.361 6     -2699.602          41.000    24327766.422 6  99618123.497 6     -2103.583          38.000
G05  20594546.422 7 108225067.323 7       495.500          47.000    20594544.844 7  84331216.988 7       386.104          47.000
G07  21591411.789 8 113463637.765 8     -1876.012          51.000    21591410.086 8  88413216.839 8     -1461.830          51.000
G28  22861058.375 7 120135682.252 7      3052.047          47.000    22861057.086 7  93612250.244 7      2378.215          43.000
G30  20355725.586 8 106970077.632 8       -11.062          51.000    20355725.930 8  83353349.410 8        -8.620          51.000
R01  19353397.617 7 103455012.249 7      1015.805          43.000    19353402.031 6  80465003.075 6       790.070          36.000
R08  20295551.797 7 108681755.946 7     -2007.703          47.000    20295553.070 7  84530257.334 7     -1561.547          47.000
R09  23277346.914 5 124299729.560 5     -4090.117          31.000    23277346.094 4  96677566.566 4     -3181.202          25.000
R10  20244530.867 7 107914765.790 7     -2408.570          42.000
R11  19769983.250 8 105644768.896 8      2224.719          51.000    19769985.312 7  82168195.223 7      1730.340          47.000
C05  39792259.680 6 207208737.392 6        -1.605          36.000    39792257.156 6 160226924.281 6        -1.335          40.000
C23  22213506.094 8 115671569.638 8      1372.871          51.000
C25  22840015.422 6 118933947.771 6     -1739.324          40.000
E02  24749027.555 6 130057016.820 6     -1034.406          40.000    24749031.102 6  99654075.560 6      -792.316          40.000
E07  23610250.242 6 124072724.080 6       790.344          39.000    23610256.320 6  95068713.085 6       605.738          40.000
E08  22620697.281 8 118872559.732 8     -1513.855          48.000    22620697.938 8  91084255.994 8     -1160.138          50.000
E26  26616903.969 5 139872786.559 5     -2488.969          35.000
E30  23062876.016 8 121196226.219 8      1827.691          51.000    23062877.352 8  92864643.868 8      1400.454          51.000
> 2020 05 08 03 00 30.0000000  0 18        .000000000000
G02  24343182.852 7 127924289.372 7     -2702.676          42.000    24343182.391 6  99681248.960 6     -2105.981          38.000
G05  20591762.734 7 108210438.549 7       478.000          47.000    20591760.617 7  84319817.969 7       372.468          47.000
G07  21602140.938 8 113520020.134 8     -1884.461          51.000    21602139.164 8  88457151.162 8     -1468.411          51.000
G28  22843647.656 7 120044190.489 7      3045.895          47.000    22843647.453 7  93540957.925 7      2373.421          43.000
G30  20355823.609 8 106970592.790 8       -25.027          51.000    20355824.086 8  83353750.839 8       -19.502          51.000
R01  19347734.820 7 103424741.973 7      1000.523          43.000    19347739.391 6  80441459.519 6       778.185          36.000
R08  20306834.234 8 108742173.282 8     -2021.883          48.000    20306835.625 8  84577248.613 8     -1572.576          48.000
R09  23300336.445 4 124422488.993 4     -4095.297          29.000    23300335.266 4  96773047.065 4     -3185.228          24.000
R10  20258133.367 7 107987273.369 7     -2427.172          43.000
R11  19757547.367 8 105578314.677 8      2203.781          51.000    19757549.344 7  82116508.619 7      1714.052          47.000
C05  39792259.180 6 207208734.575 6         -.141          36.000    39792256.648 6 160226922.074 6          .088          40.000
C23  22205629.367 8 115630552.408 8      1359.977          51.000
C25  22850060.406 6 118986250.921 6     -1749.277          40.000
E02  24754961.734 6 130088197.973 6     -1046.125          39.000    24754964.023 6  99677967.604 6      -801.567          39.000
E07  23605747.477 6 124049060.073 6       785.660          40.000    23605751.711 6  95050580.951 6       601.850          39.000
E08  22629348.938 8 118918026.922 8     -1518.875          48.000    22629350.258 8  91119094.498 8     -1163.807          50.000
E26  26631119.734 5 139947493.729 5     -2493.043          33.000
E30  23052467.828 8 121141529.591 8      1817.047          51.000    23052468.859 8  92822733.458 8      1392.262          51.000
> 2020 05 08 03 01  0.0000000  0 19        .000000000000
G02  24358642.648 6 128005527.692 6     -2707.332          40.000    24358641.477 6  99744551.541 6     -2109.606          39.000
G05  20589106.664 7 108196481.580 7       458.582          46.000    20589104.609 7  84308942.423 7       357.337          46.000
G07  21612945.859 8 113576800.522 8     -1894.801          51.000    21612944.219 8  88501395.607 8     -1476.468          51.000
G13  22244570.148 4 116896007.836 4      2499.156          29.000
G28  22826301.367 7 119953036.872 7      3037.277          47.000    22826301.906 7  93469929.089 7      2366.710          43.000
G30  20356028.891 8 106971672.104 8       -40.883          51.000    20356029.227 8  83354591.866 8       -31.857          51.000
R01  19342185.617 7 103395078.025 7       983.297          44.000    19342189.969 6  80418387.550 6       764.783          36.000
R08  20318224.016 8 108803165.344 8     -2038.125          49.000    20318225.828 7  84624686.886 7     -1585.205          47.000
R09  23323379.352 5 124545530.329 5     -4101.375          31.000    23323378.141 4  96868749.825 4     -3189.961          26.000
R10  20271868.828 7 108060490.226 7     -2447.730          43.000
R11  19745256.805 8 105512637.299 8      2180.844          51.000    19745258.641 7  82065426.223 7      1696.212          47.000
C05  39792277.812 6 207208831.931 6         -.613          36.000    39792275.312 6 160226997.368 6         -.390          40.000
C23  22197854.250 8 115590063.761 8      1345.211          51.000
C25  22860191.797 6 119039011.128 6     -1761.848          39.000
E02  24760992.633 6 130119886.655 6     -1060.344          38.000    24760994.297 6  99702248.559 6      -812.651          39.000
E07  23601301.047 6 124025692.537 6       778.438          40.000    23601303.469 6  95032675.950 6       596.396          39.000
E08  22638056.773 8 118963788.441 8     -1525.887          49.000    22638058.680 8  91154158.533 8     -1169.180          51.000
E26  26645386.453 5 140022447.967 5     -2498.594          34.000    26645381.328 5 107289910.861 5     -1914.136          30.000
E30  23042148.500 8 121087299.914 8      1804.332          51.000    23042149.023 8  92781180.842 8      1382.519          51.000
> 2020 05 08 03 01 30.0000000  0 18        .000000000000
G02  24374116.641 6 128086841.106 6     -2710.715          38.000    24374114.367 6  99807912.639 6     -2112.242          37.000
G05  20586550.039 7 108183048.175 7       439.855          45.000    20586548.586 7  84298474.821 7       342.745          46.000
G07  21623797.805 8 113633827.654 8     -1904.379          51.000    21623796.211 8  88545832.333 8     -1483.932          51.000
G28  22808991.734 8 119862074.877 8      3029.555          48.000    22808992.461 7  93399049.584 7      2360.692          43.000
G30  20356312.945 8 106973165.489 8       -56.008          51.000    20356313.422 8  83355755.536 8       -43.642          51.000
R01  19336722.164 7 103365870.641 7       966.672          45.000    19336725.805 6  80395670.714 6       751.856          36.000
R08  20329692.672 8 108864580.395 8     -2053.508          48.000    20329694.789 7  84672454.148 7     -1597.170          47.000
R09  23346445.227 4 124668712.676 4     -4107.555          28.000    23346446.516 4  96964559.365 4     -3194.765          25.000
R10  20285708.133 6 108134261.528 6     -2467.605          41.000
R11  19733083.625 8 105447586.716 8      2158.633          51.000    19733085.250 7  82014831.319 7      1678.937          47.000
C05  39792287.398 6 207208881.454 6         -.512          36.000    39792284.805 6 160227035.659 6         -.121          40.000
C23  22190152.352 8 115549956.203 8      1331.234          51.000
C25  22870383.156 6 119092078.774 6     -1773.297          41.000
E02  24767090.461 6 130151932.380 6     -1073.410          38.000    24767093.281 6  99726803.065 6      -822.304          40.000
E07  23596882.328 6 124002472.796 6       772.031          40.000    23596883.984 6  95014884.183 6       591.604          39.000
E08  22646792.648 8 119009695.068 8     -1531.957          51.000    22646794.336 8  91189333.745 8     -1173.786          50.000
E26                                                                  26659665.633 5 107347426.258 5     -1918.066          32.000
E30  23031889.852 8 121033388.928 8      1792.395          51.000    23031889.555 8  92739872.421 8      1373.426          51.000
> 2020 05 08 03 02  0.0000000  0 17        .000000000000
G05  20584104.453 7 108170197.389 7       419.445          46.000    20584103.352 7  84288461.217 7       326.841          46.000
G07  21634707.594 8 113691158.834 8     -1915.352          51.000    21634705.852 8  88590505.981 8     -1492.482          51.000
G13  22216112.922 5 116746461.235 5      2487.410          31.000
G28  22791730.695 8 119771366.188 8      3020.137          49.000    22791730.242 7  93328367.481 7      2353.356          42.000
G30  20356686.766 8 106975130.644 8       -72.527          51.000    20356687.578 8  83357286.838 8       -56.515          51.000
R01  19331355.547 7 103337181.472 7       948.531          46.000    19331358.938 6  80373356.902 6       737.747          37.000
R08  20341251.414 8 108926477.183 8     -2070.309          48.000    20341253.586 7  84720596.102 7     -1610.240          47.000
R10  20299661.820 7 108208642.691 7     -2488.617          43.000
R11  19721039.234 8 105383224.471 8      2134.734          51.000    19721040.781 8  81964771.812 8      1660.349          48.000
C05  39792298.852 6 207208941.131 6        -1.320          36.000    39792296.266 6 160227081.845 6        -1.057          41.000
C23  22182534.633 8 115510288.140 8      1315.801          51.000
C25  22880644.695 7 119145509.985 7     -1786.199          42.000
E02  24773267.406 5 130184392.601 5     -1088.207          35.000    24773271.078 6  99751675.196 6      -833.746          39.000
E07  23592503.219 6 123979460.051 6       764.301          40.000    23592504.656 6  94997251.045 6       585.828          40.000
E08  22655567.570 8 119055805.333 8     -1539.605          51.000    22655568.195 8  91224665.005 8     -1179.779          50.000
E26                                                                  26673978.070 5 107405056.503 5     -1922.894          31.000
E30  23021702.891 8 120979856.223 8      1778.871          51.000    23021701.867 8  92698853.867 8      1363.073          51.000
> 2020 05 08 03 02 30.0000000  0 15        .000000000000
G05  20581765.336 7 108157905.145 7       400.516          47.000    20581764.742 7  84278882.843 7       312.090          47.000
G07  21645670.195 8 113748767.807 8     -1924.852          51.000    21645668.430 8  88635396.074 8     -1499.884          51.000
G28  22774513.906 8 119680888.710 8      3012.223          50.000    22774512.141 7  93257865.580 7      2347.186          42.000
G30  20357145.555 8 106977542.133 8       -87.781          51.000    20357146.398 8  83359165.914 8       -68.401          51.000
R01  19326081.523 7 103308987.072 7       931.613          46.000    19326084.773 6  80351427.946 6       724.588          38.000
R08  20352895.711 8 108988830.481 8     -2086.031          49.000    20352897.438 8  84769093.105 8     -1622.469          48.000
R10  20313724.531 6 108283605.009 6     -2508.629          41.000
R11  19709119.477 8 105319527.331 8      2112.312          51.000    19709120.938 8  81915229.610 8      1642.910          48.000
C05  39792307.594 6 207208986.535 6         -.805          36.000    39792304.992 6 160227116.974 6        -1.096          40.000
C23  22174996.664 8 115471035.582 8      1301.598          51.000
C25  22890969.305 6 119199278.435 6     -1797.922          38.000
E02  24779518.461 5 130217248.391 5     -1100.898          32.000    24779521.852 6  99776845.105 6      -843.938          38.000
E07  23588159.508 7 123956630.345 7       757.824          42.000    23588160.422 6  94979758.143 6       580.904          40.000
E08  22664376.562 8 119102094.606 8     -1545.898          51.000    22664376.297 8  91260133.416 8     -1184.526          49.000
E30  23011583.164 8 120926678.153 8      1766.766          51.000    23011581.477 8  92658107.065 8      1353.738          50.000
> 2020 05 08 03 03  0.0000000  0 15        .000000000000
G05  20579531.719 7 108146167.228 7       381.445          47.000    20579531.172 7  84269736.436 7       297.233          47.000
G07  21656684.312 8 113806647.288 8     -1934.418          51.000    21656682.727 8  88680496.955 8     -1507.339          51.000
G28  22757340.789 8 119590640.019 8      3003.930          51.000    22757338.594 7  93187541.947 7      2340.724          45.000
G30  20357688.023 8 106980393.690 8      -102.992          51.000    20357688.836 8  83361387.907 8       -80.254          51.000
R01  19320899.078 7 103281284.647 7       914.605          46.000    19320902.727 6  80329881.585 6       711.357          39.000
R08  20364623.969 8 109051633.752 8     -2101.566          49.000    20364625.336 7  84817940.096 7     -1634.552          47.000
R10  20327894.438 7 108359139.114 7     -2527.711          42.000
R11  19697323.422 8 105256491.492 8      2089.547          51.000    19697324.336 7  81866201.727 7      1625.200          47.000
C05  39792312.508 6 207209012.261 6        -1.270          37.000    39792309.922 6 160227136.816 6         -.831          40.000
C23  22167537.531 8 115432193.582 8      1287.340          51.000
C25  22901357.164 6 119253377.012 6     -1809.512          41.000
E02  24785841.688 6 130250478.341 6     -1114.523          36.000    24785844.797 6  99802307.780 6      -854.087          36.000
E07  23583849.930 7 123933978.894 7       751.340          43.000    23583850.438 6  94962401.892 6       575.588          40.000
E08  22673218.539 8 119148557.512 8     -1552.246          51.000    22673217.914 8  91295734.848 8     -1189.479          49.000
E30  23001529.875 8 120873850.390 8      1754.512          51.000    23001527.469 8  92617628.681 8      1344.285          50.000
> 2020 05 08 03 03 30.0000000  0 16        .000000000000
G02  24436251.352 5 128413366.894 5     -2727.160          33.000
G05  20577407.672 7 108135005.997 7       361.906          47.000    20577407.078 7  84261039.375 7       282.005          47.000
G07  21667753.625 8 113864816.995 8     -1944.336          51.000    21667752.008 8  88725823.993 8     -1515.067          51.000
G28  22740215.625 8 119500644.353 8      2995.121          50.000    22740213.703 7  93117415.447 7      2333.861          46.000
G30  20358318.336 8 106983706.146 8      -118.621          51.000    20358319.117 8  83363969.035 8       -92.432          51.000
R01  19315813.359 7 103254097.827 7       897.078          46.000    19315816.969 6  80308736.276 6       697.727          39.000
R08  20376440.227 8 109114908.557 8     -2117.629          49.000    20376441.516 8  84867153.825 8     -1647.045          48.000
R10  20342175.297 6 108435264.053 6     -2547.797          41.000
R11  19685655.031 8 105194140.912 8      2066.355          51.000    19685656.273 8  81817706.819 8      1607.165          48.000
C05  39792317.656 6 207209039.604 6        -1.332          36.000    39792315.117 6 160227157.991 6        -1.214          40.000
C23  22160161.078 8 115393784.034 8      1272.602          50.000
C25  22911814.109 7 119307825.506 7     -1821.238          43.000
E02  24792242.648 6 130284111.966 6     -1128.164          36.000    24792245.203 5  99828078.968 5      -864.695          35.000
E07  23579578.852 7 123911528.164 7       744.398          42.000    23579579.094 6  94945199.378 6       570.365          41.000
E08  22682097.641 8 119195215.751 8     -1559.062          51.000    22682096.500 7  91331485.960 7     -1194.567          47.000
E30  22991547.711 8 120821395.617 8      1741.867          51.000    22991545.305 8  92577436.090 8      1334.615          50.000
> 2020 05 08 03 04  0.0000000  0 15        .000000000000
G05  20575392.641 7 108124418.083 7       343.879          47.000    20575392.289 7  84252789.043 7       267.958          47.000
G07  21678877.078 8 113923271.295 8     -1952.848          51.000    21678875.125 8  88771372.768 8     -1521.699          51.000
G28  22723137.930 8 119410900.648 8      2987.727          48.000    22723136.727 7  93047485.256 7      2328.096          47.000
G30  20359035.398 8 106987474.589 8      -132.719          51.000    20359036.352 8  83366905.494 8      -103.417          51.000
R01  19310823.867 7 103227424.712 7       880.812          47.000    19310826.641 6  80287990.530 6       685.076          39.000
R08  20388343.539 8 109178650.885 8     -2132.117          48.000    20388345.125 8  84916731.212 8     -1658.310          48.000
R10  20356565.242 6 108511971.623 6     -2566.457          41.000
R11  19674113.812 8 105132472.939 8      2044.574          50.000    19674116.133 8  81769742.834 8      1590.224          49.000
C05  39792322.414 6 207209064.595 6         -.277          36.000    39792319.906 6 160227177.312 6         -.347          40.000
C23  22152866.359 8 115355803.264 8      1259.273          50.000
C25  22922336.031 6 119362617.994 6     -1831.637          41.000
E02  24798719.047 5 130318148.028 5     -1141.645          31.000    24798721.312 5  99854154.610 5      -873.929          32.000
E07  23575344.891 7 123889274.762 7       738.836          43.000    23575345.227 7  94928148.037 7       566.229          42.000
E08  22691012.734 8 119242065.288 8     -1564.422          50.000    22691011.000 7  91367383.645 7     -1198.743          47.000
E30  22981636.227 8 120769310.825 8      1730.359          51.000    22981634.289 8  92537526.972 8      1325.872          51.000
> 2020 05 08 03 04 30.0000000  0 15        .000000000000
G05  20573489.641 7 108114418.243 7       324.020          47.000    20573489.422 7  84244996.942 7       252.483          47.000
G07  21690057.180 8 113982022.997 8     -1962.914          50.000    21690055.250 8  88817153.303 8     -1529.543          50.000
G13  22145528.438 5 116375536.937 5      2458.180          30.000
G28  22706110.773 7 119321426.061 7      2978.277          46.000    22706110.734 7  92977764.774 7      2320.733          46.000
G30  20359841.758 8 106991712.357 8      -148.594          51.000    20359842.828 8  83370207.661 8      -115.787          51.000
R01  19305933.273 7 103201281.753 7       863.062          47.000    19305935.547 6  80267657.146 6       671.271          40.000
R08  20400336.055 8 109242873.930 8     -2148.336          48.000    20400338.242 7  84966682.495 7     -1670.928          47.000
R10  20371066.898 6 108589272.042 6     -2586.191          41.000
R11  19662703.734 8 105071504.116 8      2021.180          51.000    19662706.734 8  81722322.635 8      1572.026          49.000
C05  39792329.539 6 207209101.229 6        -1.148          36.000    39792326.906 6 160227205.621 6         -.595          40.000
C23  22145657.164 8 115318265.751 8      1244.344          50.000
C25  22932926.586 7 119417766.631 7     -1843.633          42.000
E07  23571150.742 7 123867233.516 7       731.773          43.000    23571151.547 7  94911259.278 7       560.623          43.000
E08  22699966.688 8 119289120.281 8     -1571.422          50.000    22699964.773 7  91403438.757 7     -1204.008          47.000
E30  22971798.086 8 120717611.145 8      1717.457          51.000    22971797.484 8  92497912.943 8      1315.944          51.000
> 2020 05 08 03 05  0.0000000  0 14        .000000000000
G05  20571694.031 8 108104981.041 8       304.945          48.000    20571693.836 8  84237643.264 8       237.620          48.000
G07  21701288.492 8 114041043.516 8     -1972.078          50.000    21701286.938 8  88863143.330 8     -1536.684          50.000
G28  22689130.125 7 119232197.078 7      2969.977          45.000    22689131.133 7  92908235.655 7      2314.264          43.000
G30  20360732.203 8 106996392.194 8      -163.633          51.000    20360733.039 8  83373854.291 8      -127.506          51.000
R01  19301136.789 7 103175644.186 7       845.930          47.000    19301140.000 6  80247716.798 6       657.945          41.000
R08  20412413.938 8 109307550.920 8     -2163.801          48.000    20412416.148 7  85016986.807 7     -1682.956          47.000
R10  20385673.867 6 108667135.340 6     -2604.797          41.000
R11  19651420.219 8 105011208.913 8      1998.355          51.000    19651423.469 8  81675426.339 8      1554.273          50.000
C05  39792333.727 6 207209123.289 6         -.641          37.000    39792331.188 6 160227222.689 6         -.405          40.000
C23  22138528.609 8 115281145.697 8      1230.020          50.000
C25  22943581.195 7 119473243.632 7     -1854.953          44.000
E07  23566991.602 7 123845378.747 7       725.238          43.000    23566993.438 7  94894513.413 7       555.654          43.000
E08  22708954.711 8 119336354.367 8     -1577.688          49.000    22708953.711 8  91439631.122 8     -1208.904          49.000
E30  22962028.523 8 120666271.265 8      1705.074          51.000    22962029.023 8  92458574.591 8      1306.509          51.000
> 2020 05 08 03 05 30.0000000  0 16        .000000000000
G05  20570003.508 8 108096095.500 8       284.660          49.000    20570002.578 8  84230719.467 8       221.813          49.000
G07  21712568.477 8 114100319.580 8     -1982.473          51.000    21712567.047 8  88909332.469 8     -1544.784          50.000
G28  22672194.406 7 119143204.561 7      2960.160          42.000    22672196.328 7  92838890.774 7      2306.615          42.000
G30  20361704.469 8 107001501.556 8      -179.785          51.000    20361705.367 8  83377835.626 8      -140.089          51.000
R01  19296433.117 7 103150501.983 7       827.395          47.000    19296437.125 6  80228161.749 6       643.529          41.000
R08  20424575.156 8 109372669.056 8     -2180.336          50.000    20424576.555 7  85067634.231 7     -1695.817          47.000
R10  20400383.812 6 108745545.994 6     -2624.980          41.000
R11  19640261.273 8 104951577.353 8      1974.340          51.000    19640264.422 8  81629046.237 8      1535.598          50.000
C05  39792333.047 6 207209119.236 6        -1.898          37.000    39792330.422 6 160227219.563 6        -1.405          40.000
C23  22131478.047 8 115244431.878 8      1214.711          50.000
C25  22954295.383 7 119529035.577 7     -1867.195          43.000
E02  24818605.359 5 130422658.554 5     -1181.523          32.000
E07  23562866.203 7 123823699.532 7       717.391          44.000    23562868.703 7  94877902.052 7       549.737          44.000
E08  22717974.453 8 119383755.952 8     -1585.156          48.000    22717974.703 8  91475951.809 8     -1214.594          49.000
E26  26774893.086 5 140703015.194 5     -2542.301          34.000    26774891.633 5 107811407.975 5     -1947.766          30.000
E30  22952325.398 8 120615280.470 8      1691.543          51.000    22952326.438 8  92419503.721 8      1296.090          51.000
> 2020 05 08 03 06  0.0000000  0 16        .000000000000
G05  20568423.125 8 108087789.891 8       265.852          49.000    20568421.555 8  84224247.560 8       207.157          49.000
G07  21723901.906 8 114159877.094 8     -1991.234          50.000    21723900.422 8  88955740.925 8     -1551.611          50.000
G09  23862305.211 5 125397276.765 5     -2927.852          32.000    23862325.258 5  97712240.897 5     -2281.446          32.000
G28  22655309.453 6 119054478.950 6      2951.660          38.000    22655311.797 6  92769753.955 6      2299.998          38.000
G30  20362763.547 8 107007067.013 8      -194.477          51.000    20362764.602 8  83382172.366 8      -151.537          51.000
R01  19291827.898 8 103125885.052 8       810.422          48.000    19291832.078 7  80209015.237 7       630.328          42.000
R08  20436823.664 8 109438256.006 8     -2195.457          50.000    20436824.258 7  85118646.289 7     -1707.578          47.000
R10  20415200.242 6 108824527.654 6     -2643.707          37.000
R11  19629232.766 8 104892639.091 8      1951.723          51.000    19629235.320 8  81583205.356 8      1518.007          50.000
C05  39792332.422 6 207209116.213 6        -1.207          36.000    39792329.852 6 160227217.239 6         -.864          40.000
C23  22124511.180 8 115208151.864 8      1200.770          51.000
C25  22965073.586 6 119585167.783 6     -1877.855          40.000
E07  23558779.758 7 123802223.981 7       711.062          44.000    23558782.531 7  94861446.743 7       544.957          43.000
E08  22727031.641 8 119431352.517 8     -1591.172          49.000    22727032.328 8  91512421.922 8     -1219.156          49.000
E26  26789404.617 5 140779271.294 5     -2545.891          33.000    26789402.516 5 107869822.221 5     -1950.496          30.000
E30  22942694.016 8 120564667.230 8      1679.547          51.000    22942695.188 8  92380722.147 8      1286.923          51.000
> 2020 05 08 03 06 30.0000000  0 15        .000000000000
G05  20566965.664 8 108080130.741 8       247.289          49.000    20566964.023 8  84218279.387 8       192.693          49.000
G07  21735301.125 8 114219780.616 8     -1999.770          50.000    21735299.727 8  89002418.998 8     -1558.262          49.000
G28  22638488.906 6 118966089.374 6      2943.371          40.000    22638489.750 6  92700879.016 6      2293.539          38.000
G30  20363921.914 8 107013153.769 8      -208.922          51.000    20363922.539 8  83386915.308 8      -162.796          51.000
R01  19287333.914 8 103101863.004 8       793.562          48.000    19287338.438 7  80190331.418 7       617.215          42.000
R08  20449171.828 8 109504378.698 8     -2210.258          49.000    20449172.008 7  85170075.048 7     -1719.086          47.000
R10  20430135.867 6 108904144.259 6     -2661.758          37.000
R11  19618346.172 8 104834462.728 8      1929.234          51.000    19618348.734 8  81537957.111 8      1500.519          49.000
C05  39792344.609 6 207209179.661 6         -.344          36.000    39792342.023 6 160227266.303 6         -.556          40.000
C23  22117640.812 8 115172371.538 8      1187.074          51.000
C25  22975930.680 7 119641703.985 7     -1888.520          43.000
E07  23554744.555 7 123781018.930 7       705.008          44.000    23554747.578 7  94845198.713 7       540.225          44.000
E08  22736138.977 8 119479210.153 8     -1596.883          50.000    22736139.711 8  91549092.084 8     -1223.556          50.000
E26  26803956.633 5 140855738.908 5     -2549.102          34.000
E30  22933147.219 8 120514498.600 8      1667.617          51.000    22933148.367 8  92342281.262 8      1277.767          51.000
> 2020 05 08 03 07  0.0000000  0 16        .000000000000
G05  20565607.367 8 108072992.714 8       228.500          50.000    20565605.484 8  84212717.289 8       178.052          49.000
G07  21746741.719 8 114279901.870 8     -2008.297          48.000    21746740.547 8  89049266.733 8     -1564.907          49.000
G28  22621709.391 6 118877911.613 6      2935.227          41.000    22621708.258 6  92632169.115 6      2287.193          38.000
G30  20365155.188 8 107019634.595 8      -223.188          51.000    20365155.602 8  83391965.311 8      -173.912          51.000
R01  19282927.352 8 103078309.248 8       776.711          48.000    19282931.914 7  80172011.826 7       604.109          42.000
R08  20461595.242 7 109570907.383 7     -2224.953          47.000    20461595.609 7  85221819.595 7     -1730.519          46.000
R10  20445166.203 5 108984263.496 5     -2679.711          35.000
R11  19607577.875 8 104776921.368 8      1906.855          51.000    19607580.469 8  81493202.737 8      1483.110          48.000
C05  39792345.570 6 207209184.449 6          .074          36.000    39792342.922 6 160227269.980 6          .275          40.000
C23  22110842.023 8 115136965.968 8      1173.391          51.000
C25  22986841.219 7 119698517.224 7     -1898.957          42.000
E02  24839155.766 5 130530656.017 5     -1219.000          33.000
E07  23550736.625 7 123759958.728 7       698.969          43.000    23550739.727 7  94829061.666 7       535.567          43.000
E08  22745271.773 8 119527202.563 8     -1602.590          49.000    22745272.617 8  91585865.487 8     -1227.917          49.000
E26  26818522.875 5 140932283.665 5     -2552.812          32.000
E30  22923661.273 8 120464649.218 8      1655.734          51.000    22923662.867 8  92304085.010 8      1268.671          51.000
> 2020 05 08 03 07 30.0000000  0 14        .000000000000
G05  20564360.695 8 108066441.491 8       206.051          49.000    20564358.852 8  84207612.454 8       160.559          49.000
G07  21758236.016 7 114340304.718 7     -2020.574          47.000    21758234.805 7  89096333.901 7     -1574.470          47.000
G28  22604983.406 6 118790014.892 6      2922.875          40.000    22604981.648 6  92563678.167 6      2277.568          37.000
G30  20366475.695 8 107026574.085 8      -241.492          51.000    20366476.625 8  83397372.716 8      -188.176          51.000
R01  19278621.258 8 103055292.027 8       755.691          48.000    19278625.828 7  80154109.539 7       587.757          43.000
R08  20474106.969 8 109637908.316 8     -2243.848          48.000    20474107.227 7  85273931.452 7     -1745.215          46.000
R10  20460301.727 5 109064948.229 5     -2700.840          34.000
R11  19596940.766 8 104720083.267 8      1880.301          51.000    19596943.656 7  81448995.338 7      1462.456          47.000
C05  39792347.602 6 207209195.352 6        -2.832          37.000    39792345.039 6 160227278.415 6        -2.241          40.000
C23  22104127.281 8 115102000.365 8      1155.738          51.000
C25  22997817.055 6 119755670.443 6     -1913.219          41.000
E07  23546768.734 7 123739109.609 7       689.004          44.000    23546771.203 7  94813086.361 7       527.872          43.000
E08  22754442.633 8 119575395.238 8     -1612.137          50.000    22754443.172 8  91622792.344 8     -1235.387          49.000
E30  22914248.750 8 120415185.547 8      1639.852          51.000    22914250.508 8  92266184.266 8      1256.552          51.000
> 2020 05 08 03 08  0.0000000  0 16        .000000000000
G05  20563217.250 8 108060433.872 8       191.574          49.000    20563215.758 8  84202931.176 8       149.279          49.000
G07  21769775.266 8 114400943.509 8     -2024.824          48.000    21769773.906 8  89143584.907 8     -1577.785          48.000
G28  22588303.047 7 118702357.637 7      2918.324          43.000    22588301.695 6  92495373.818 6      2274.019          39.000
G30  20367875.031 8 107033927.239 8      -251.641          51.000    20367876.117 8  83403102.450 8      -196.084          51.000
R01  19274407.922 8 103032768.831 8       742.891          49.000    19274412.648 7  80136591.497 7       577.804          43.000
R08  20486698.328 7 109705336.090 7     -2254.320          47.000    20486698.680 7  85326375.290 7     -1753.360          46.000
R10  20475535.367 6 109146149.753 6     -2714.777          36.000
R11  19586427.297 8 104663905.152 8      1861.953          50.000    19586429.727 7  81405301.247 7      1448.186          46.000
C05  39792342.602 6 207209168.802 6         1.695          36.000    39792339.945 6 160227257.898 6         1.229          40.000
C23  22097488.992 8 115067431.397 8      1146.062          51.000
C25  23008849.750 7 119813118.337 7     -1919.414          43.000
E02  24853220.297 5 130604550.827 5     -1243.219          35.000    24853222.148 5 100073626.268 5      -952.979          35.000
E07  23542832.773 7 123718428.222 7       686.910          43.000    23542834.688 7  94797239.578 7       526.301          44.000
E08  22763643.391 8 119623744.182 8     -1613.887          50.000    22763642.844 8  91659838.928 8     -1236.620          48.000
E26  26847723.781 5 141085741.101 5     -2559.383          33.000    26847733.586 5 108104687.925 5     -1960.840          33.000
E30  22904901.219 8 120366064.480 8      1632.020          51.000    22904903.555 8  92228546.045 8      1250.517          51.000
> 2020 05 08 03 08 30.0000000  0 17        .000000000000
G05  20562192.008 8 108055047.155 8       169.895          50.000    20562190.414 8  84198733.726 8       132.385          50.000
G07  21781373.742 7 114461893.240 7     -2035.953          47.000    21781372.039 7  89191078.214 7     -1586.457          47.000
G13  22034304.922 5 115791047.580 5      2411.508          31.000
G28  22571684.352 7 118615019.532 7      2906.727          46.000    22571682.547 6  92427318.109 6      2264.982          40.000
G30  20369367.609 8 107041769.913 8      -268.723          51.000    20369368.297 8  83409213.609 8      -209.394          51.000
R01  19270301.719 8 103010819.346 8       722.930          49.000    19270306.555 7  80119519.656 7       562.279          43.000
R08  20499383.766 7 109773268.196 7     -2272.008          47.000    20499384.352 7  85379211.363 7     -1767.117          46.000
R10  20490879.703 6 109227942.209 6     -2735.090          36.000
R11  19576052.414 8 104608466.578 8      1836.398          50.000    19576053.984 7  81362182.331 7      1428.307          45.000
C05  39792344.812 6 207209180.724 6         -.367          36.000    39792342.258 6 160227267.102 6         -.175          40.000
C23  22090941.367 8 115033335.410 8      1129.523          51.000
C25  23019953.078 7 119870935.035 7     -1932.566          42.000
E02  24860368.977 5 130642120.025 5     -1257.879          30.000    24860365.430 5 100102408.410 5      -964.317          33.000
E07  23538943.391 7 123697992.035 7       677.961          44.000    23538945.453 7  94781580.680 7       519.441          44.000
E08  22772888.477 8 119672326.123 8     -1622.438          50.000    22772886.797 7  91697064.057 7     -1243.184          47.000
E26  26862357.867 5 141162645.135 5     -2565.586          34.000    26862369.078 5 108163621.270 5     -1965.833          34.000
E30  22895633.547 8 120317363.724 8      1617.113          51.000    22895636.195 8  92191229.866 8      1239.111          51.000
> 2020 05 08 03 09  0.0000000  0 17        .000000000000
G05  20561279.727 8 108050252.775 8       151.602          51.000    20561277.953 8  84194997.851 8       118.131          51.000
G07  21793025.453 8 114523122.835 8     -2044.070          48.000    21793023.242 7  89238789.584 7     -1592.785          47.000
G13  22020559.273 5 115718808.535 5      2406.258          31.000
G28  22555121.555 8 118527973.398 8      2898.195          48.000    22555118.938 6  92359489.912 6      2258.334          40.000
G30  20370947.539 8 107050071.683 8      -282.746          51.000    20370948.375 8  83415682.527 8      -220.322          51.000
R01  19266297.828 8 102989415.930 8       705.855          49.000    19266302.617 7  80102872.544 7       548.999          44.000
R08  20512157.375 7 109841673.856 7     -2286.504          46.000    20512158.875 7  85432415.779 7     -1778.389          47.000
R10  20506328.945 5 109310292.232 5     -2752.781          35.000
R11  19565811.023 8 104553738.841 8      1814.004          51.000    19565812.188 7  81319616.304 7      1410.892          46.000
R12  22781101.828 6 121692556.579 6      4291.332          37.000    22781102.383 4  94649758.231 4      3337.706          27.000
C05  39792348.828 6 207209201.960 6          .383          37.000    39792346.273 6 160227283.513 6          .625          40.000
C23  22084478.531 8 114999683.474 8      1115.945          51.000
C25  23031121.109 6 119929089.505 6     -1942.469          41.000
E02                                                                  24867586.312 5 100131495.029 5      -973.527          33.000
E07  23535095.328 7 123677772.350 7       671.988          46.000    23535098.023 7  94766087.656 7       514.876          45.000
E08  22782171.922 8 119721111.676 8     -1627.922          50.000    22782170.109 8  91734445.173 8     -1247.342          48.000
E30  22886440.234 8 120269054.740 8      1605.363          51.000    22886443.664 8  92154213.883 8      1230.110          51.000
> 2020 05 08 03 09 30.0000000  0 16        .000000000000
G05  20560478.922 8 108046044.269 8       132.145          51.000    20560477.086 8  84191718.496 8       102.970          50.000
G07  21804728.789 7 114584624.180 7     -2053.047          47.000    21804726.188 7  89286712.672 7     -1599.777          47.000
G28  22538613.297 8 118441215.751 8      2888.688          49.000    22538609.578 7  92291886.537 7      2250.922          42.000
G30  20372613.344 8 107058825.066 8      -297.668          51.000    20372614.367 8  83422503.357 8      -231.949          51.000
R01  19262395.117 8 102968553.664 8       687.996          50.000    19262399.664 7  80086646.335 7       535.108          43.000
R08  20525018.289 7 109910546.285 7     -2301.871          47.000    20525020.875 7  85485983.251 7     -1790.344          47.000
R10  20521879.539 5 109393188.938 5     -2770.922          31.000
R11  19555701.828 8 104499716.994 8      1790.621          51.000    19555703.359 7  81277599.338 7      1392.705          47.000
R12  22757032.711 6 121563977.087 6      4283.898          37.000    22757040.625 4  94549752.128 4      3331.930          25.000
C05  39792353.422 6 207209225.911 6          .562          36.000    39792350.992 6 160227302.047 6          .447          41.000
C23  22078099.797 8 114966469.372 8      1101.371          51.000
C25  23042352.438 7 119987573.512 7     -1953.277          43.000
E02  24874890.953 5 130718422.581 5     -1282.902          33.000    24874886.219 5 100160880.135 5      -983.204          35.000
E07  23531287.461 7 123657763.279 7       665.016          46.000    23531290.781 7  94750756.025 7       509.533          46.000
E08  22791492.844 8 119770094.259 8     -1634.496          49.000    22791491.555 8  91771977.261 8     -1252.346          48.000
E30  22877320.555 8 120221131.911 8      1592.625          51.000    22877324.133 8  92117493.776 8      1220.296          51.000
> 2020 05 08 03 10  0.0000000  0 16        .000000000000
G05  20559782.781 8 108042385.886 8       112.352          51.000    20559780.883 8  84188867.799 8        87.547          51.000
G07  21816476.656 7 114646359.018 7     -2062.059          47.000    21816474.031 7  89334817.715 7     -1606.799          47.000
G28  22522152.938 8 118354712.815 8      2878.781          48.000    22522148.898 7  92224481.622 7      2243.206          43.000
G30  20374357.930 8 107067992.596 8      -312.867          51.000    20374358.883 8  83429646.884 8      -243.793          51.000
R01  19258587.195 8 102948197.466 8       669.676          50.000    19258591.453 7  80070813.729 7       520.859          44.000
R08  20537959.773 8 109979846.973 8     -2317.453          49.000    20537962.641 8  85539883.795 8     -1802.464          48.000
R10  20537526.547 5 109476592.054 5     -2788.398          32.000
R11  19545717.836 8 104446365.103 8      1766.793          51.000    19545720.055 8  81236103.451 8      1374.175          48.000
R12  22732998.875 6 121435590.537 6      4275.957          38.000
C05  39792351.719 6 207209216.443 6          .500          36.000    39792349.219 6 160227294.731 6          .375          40.000
C23  22071798.477 8 114933657.217 8      1086.668          51.000
C25  23053639.445 7 120046349.086 7     -1964.438          42.000
E02                                                                  24882252.234 5 100190534.786 5      -993.452          35.000
E07  23527513.266 7 123637929.076 7       657.789          46.000    23527516.375 7  94735558.387 7       503.984          45.000
E08  22800844.375 8 119819237.395 8     -1641.137          49.000    22800843.562 8  91809632.382 8     -1257.635          49.000
E30  22868267.898 8 120173559.658 8      1579.457          51.000    22868271.008 8  92081042.274 8      1210.224          51.000
> 2020 05 08 03 10 30.0000000  0 17        .000000000000
G05  20559197.906 8 108039312.430 8        93.086          51.000    20559195.992 8  84186472.907 8        72.534          51.000
G07  21828275.141 7 114708360.087 7     -2070.625          45.000    21828272.969 7  89383130.232 7     -1613.474          45.000
G13  21979513.547 5 115503124.582 5      2388.086          34.000
G28  22505747.062 7 118268501.929 7      2869.207          47.000    22505743.992 7  92157304.296 7      2235.746          45.000
G30  20376187.633 8 107077607.728 8      -327.539          51.000    20376188.633 8  83437139.203 8      -255.225          51.000
R01  19254880.961 8 102928384.149 8       651.781          50.000    19254884.977 7  80055403.369 7       506.941          44.000
R08  20550988.125 8 110049610.673 8     -2332.734          49.000    20550990.742 7  85594144.451 7     -1814.349          47.000
R10  20553272.477 4 109560532.410 4     -2806.602          28.000
R11  19535865.922 8 104393719.724 8      1743.434          51.000    19535868.922 8  81195157.070 8      1356.004          49.000
R12  22709009.320 6 121307434.835 6      4268.422          36.000    22709018.578 4  94350280.523 4      3319.881          26.000
C05  39792350.070 6 207209207.704 6          .969          36.000    39792347.469 6 160227287.968 6          .683          40.000
C23  22065580.695 8 114901281.322 8      1072.320          51.000
C25  23064988.500 6 120105448.415 6     -1975.094          41.000
E02                                                                  24889688.938 5 100220484.349 5     -1002.758          35.000
E07  23523778.922 7 123618304.908 7       651.078          46.000    23523781.539 7  94720521.687 7       498.881          46.000
E08  22810233.070 8 119868575.502 8     -1647.395          49.000    22810232.797 8  91847436.905 8     -1262.223          49.000
E30  22859288.594 8 120126373.250 8      1566.969          51.000    22859291.219 8  92044886.456 8      1200.622          51.000
> 2020 05 08 03 11  0.0000000  0 16        .000000000000
G05  20558724.141 8 108036823.629 8        70.445          50.000    20558722.445 8  84184533.578 8        54.895          51.000
G07  21840123.641 7 114770624.582 7     -2082.457          44.000    21840122.023 7  89431648.061 7     -1622.691          44.000
G28  22489396.828 7 118182585.081 7      2856.176          47.000    22489395.188 7  92090356.068 7      2225.588          46.000
G30  20378102.242 8 107087668.593 8      -345.449          51.000    20378103.328 8  83444978.834 8      -269.181          51.000
R01  19251276.305 8 102909114.786 8       630.516          49.000    19251280.258 7  80040416.082 7       490.401          45.000
R08  20564102.617 8 110119835.665 8     -2351.273          49.000    20564104.742 7  85648763.853 7     -1828.771          47.000
R10  20569120.305 5 109645005.327 5     -2827.504          34.000
R11  19526146.234 8 104341781.000 8      1716.793          51.000    19526149.688 8  81154760.280 8      1335.283          48.000
R12  22685063.547 5 121179512.342 5      4257.828          32.000
C05  39792348.359 6 207209198.662 6        -2.332          36.000    39792345.750 6 160227280.980 6        -1.837          40.000
C23  22059446.422 8 114869340.961 8      1054.766          51.000
C25  23076399.633 7 120164868.728 7     -1988.551          42.000
E02                                                                  24897198.852 5 100250727.184 5     -1014.871          35.000
E07  23520084.367 7 123598890.580 7       640.934          46.000    23520086.859 7  94705645.759 7       491.087          46.000
E08  22819658.523 8 119918107.649 8     -1657.023          49.000    22819659.125 8  91885390.113 8     -1269.673          50.000
E30  22850382.656 8 120079572.689 8      1550.848          51.000    22850384.852 8  92009026.306 8      1188.309          51.000
> 2020 05 08 03 11 30.0000000  0 16        .000000000000
G05  20558364.570 8 108034934.433 8        53.773          51.000    20558363.188 8  84183061.480 8        41.901          50.000
G07  21852024.602 7 114833165.583 7     -2088.457          44.000    21852023.383 7  89480381.310 7     -1627.369          43.000
G28  22473106.148 8 118096979.195 8      2849.094          48.000    22473105.477 7  92023650.164 7      2220.073          45.000
G30  20380104.148 8 107098188.554 8      -357.605          51.000    20380105.328 8  83453176.214 8      -278.654          51.000
R01  19247776.641 8 102890405.945 8       615.043          50.000    19247780.656 7  80025864.748 7       478.367          45.000
R08  20577306.047 8 110190535.993 8     -2363.793          49.000    20577307.336 7  85703752.984 7     -1838.506          46.000
R10  20585069.805 5 109730021.397 5     -2841.938          33.000
R11  19516561.609 8 104290565.082 8      1695.973          51.000    19516565.109 8  81114925.693 8      1319.090          48.000
R12  22661166.000 5 121051840.680 5      4251.641          32.000
C05  39792349.289 6 207209203.651 6          .137          36.000    39792346.570 6 160227284.804 6          .444          40.000
C23  22053399.039 8 114837850.649 8      1042.898          51.000
C25  23087874.508 6 120224622.560 6     -1996.719          41.000
E02  24904809.227 5 130875653.963 5     -1334.695          34.000    24904785.367 6 100281273.301 6     -1022.476          36.000
E07  23516432.727 7 123579701.179 7       636.664          47.000    23516435.367 7  94690942.181 7       487.893          47.000
E08  22829123.508 8 119967848.308 8     -1660.691          48.000    22829124.758 8  91923503.086 8     -1272.424          50.000
E30  22841553.477 8 120033173.246 8      1540.785          51.000    22841555.133 8  91973473.500 8      1180.578          51.000
> 2020 05 08 03 12  0.0000000  0 15        .000000000000
G05  20558125.102 8 108033676.358 8        35.609          51.000    20558124.078 8  84182081.151 8        27.745          51.000
G07  21863983.906 7 114896012.654 7     -2095.867          44.000    21863982.594 7  89529353.060 7     -1633.143          44.000
G28  22456881.078 8 118011718.526 8      2840.348          48.000    22456881.594 7  91957213.278 7      2213.258          45.000
G30  20382199.203 8 107109198.043 8      -370.977          51.000    20382200.164 8  83461755.033 8      -289.073          51.000
R01  19244388.016 8 102872291.286 8       598.203          50.000    19244391.820 7  80011775.574 7       465.269          45.000
R08  20590603.719 8 110261742.639 8     -2377.691          49.000    20590604.336 7  85759135.941 7     -1849.316          46.000
R10  20601122.609 4 109815579.026 4     -2858.793          29.000
R11  19507118.797 8 104240105.083 8      1673.660          51.000    19507121.766 8  81075679.019 8      1301.736          48.000
C05  39792358.953 6 207209253.730 6         1.957          36.000    39792356.219 6 160227323.556 6         1.353          40.000
C23  22047444.383 8 114806841.719 8      1029.812          51.000
C25  23099418.922 6 120284739.139 6     -2005.594          41.000
E02                                                                  24912453.172 6 100312145.829 6     -1031.461          36.000
E07  23512830.273 8 123560768.864 8       631.012          48.000    23512833.031 8  94676435.604 8       483.476          48.000
E08  22838634.461 8 120017828.881 8     -1665.848          49.000    22838635.641 8  91961799.909 8     -1276.471          49.000
E30  22832806.867 8 119987207.242 8      1529.184          51.000    22832808.047 8  91938252.806 8      1171.760          51.000
> 2020 05 08 03 12 30.0000000  0 15        .000000000000
G05  20557982.977 8 108032930.022 8        15.305          51.000    20557982.094 8  84181499.591 8        11.926          51.000
G07  21875978.461 7 114959044.136 7     -2105.148          44.000    21875976.828 7  89578468.490 7     -1640.375          45.000
G28  22440699.625 8 117926685.673 8      2829.520          49.000    22440701.227 7  91890953.907 7      2204.820          44.000
G30  20384364.359 8 107120575.823 8      -386.449          51.000    20384365.188 8  83470620.817 8      -301.129          51.000
R01  19241087.805 8 102854650.383 8       579.062          50.000    19241091.875 7  79998054.858 7       450.382          45.000
R08  20603972.891 8 110333332.569 8     -2393.848          49.000    20603973.367 7  85814816.990 7     -1861.885          47.000
R10  20617272.398 5 109901611.412 5     -2876.559          34.000
R11  19497794.898 8 104190279.958 8      1649.129          51.000    19497797.258 8  81036926.146 8      1282.656          48.000
C05  39792354.328 6 207209229.720 6          .965          37.000    39792351.625 6 160227304.985 6          .592          40.000
C23  22041559.172 8 114776195.167 8      1014.418          51.000
C25  23111010.398 7 120345097.478 7     -2016.949          43.000
E02                                                                  24920178.711 6 100343251.525 6     -1041.659          36.000
E07  23509254.125 8 123541974.094 8       623.070          49.000    23509256.938 8  94662034.412 8       477.415          48.000
E08  22848168.594 8 120067929.042 8     -1673.094          51.000    22848169.305 8  92000188.358 8     -1282.014          49.000
E30  22824119.664 8 119941555.156 8      1515.375          51.000    22824120.867 8  91903272.673 8      1161.146          51.000
> 2020 05 08 03 13  0.0000000  0 14        .000000000000
G05  20557954.281 8 108032778.853 8        -4.578          51.000    20557953.453 8  84181381.804 8        -3.567          51.000
G07  21888023.617 7 115022341.572 7     -2113.910          44.000    21888021.852 7  89627791.143 7     -1647.203          44.000
G28  22424578.281 8 117841966.847 8      2818.918          49.000    22424580.266 6  91824939.237 6      2196.562          41.000
G30  20386615.195 8 107132404.287 8      -401.477          51.000    20386616.359 8  83479837.818 8      -312.839          51.000
R01  19237892.508 8 102837570.191 8       560.082          50.000    19237896.602 7  79984770.262 7       435.619          44.000
R08  20617429.086 8 110405390.362 8     -2409.418          48.000    20617429.320 7  85870861.961 7     -1873.989          46.000
R11  19488606.000 8 104141175.841 8      1625.039          51.000    19488607.867 8  80998734.088 8      1263.919          48.000
C05  39792351.391 6 207209214.274 6          .570          36.000    39792348.703 6 160227293.027 6          .553          40.000
C23  22035759.617 8 114745993.849 8       999.543          51.000
C25  23122663.727 7 120405778.455 7     -2027.742          42.000
E02                                                                  24927977.469 6 100374653.402 6     -1051.446          36.000
E07  23505720.188 8 123523401.059 8       615.629          49.000    23505722.961 8  94647803.129 8       471.683          49.000
E08  22857741.258 8 120118232.307 8     -1679.910          51.000    22857741.688 8  92038732.410 8     -1287.135          48.000
E30  22815508.258 8 119896301.390 8      1502.102          51.000    22815509.430 8  91868597.739 8      1150.961          51.000
> 2020 05 08 03 13 30.0000000  0 15        .000000000000
G05  20558035.859 8 108033206.389 8       -23.863          51.000    20558034.969 8  84181714.941 8       -18.595          51.000
G07  21900115.727 6 115085886.354 6     -2121.949          41.000    21900114.148 6  89677306.538 6     -1653.467          41.000
G28  22408514.055 8 117757547.930 8      2808.898          48.000    22408515.508 6  91759158.331 6      2188.755          38.000
G30  20388948.391 8 107144665.560 8      -415.922          51.000    20388949.547 8  83489392.049 8      -324.095          51.000
R01  19234799.258 8 102821034.908 8       542.121          50.000    19234803.172 7  79971909.491 7       421.650          45.000
R08  20630968.977 8 110477897.094 8     -2424.398          48.000    20630969.445 7  85927256.085 7     -1885.643          47.000
R11  19479549.195 8 104092776.588 8      1601.570          51.000    19479550.617 8  80961090.212 8      1245.666          48.000
R12  22565998.445 5 120543525.993 5      4219.473          34.000
C05  39792346.883 6 207209190.658 6          .969          36.000    39792344.164 6 160227274.769 6          .658          40.000
C23  22030042.586 8 114716221.232 8       985.293          51.000
C25  23134375.219 7 120466763.464 7     -2037.852          42.000
E02  24935847.469 5 131038753.686 5     -1384.375          35.000    24935846.875 6 100406337.511 6     -1060.899          37.000
E07  23502225.180 8 123505033.612 8       608.797          49.000    23502227.859 8  94633729.379 8       466.579          49.000
E08  22867348.992 8 120168721.795 8     -1686.090          50.000    22867349.195 8  92077419.141 8     -1291.921          48.000
E30  22806969.695 8 119851429.863 8      1489.344          51.000    22806971.000 8  91834215.689 8      1141.194          51.000
> 2020 05 08 03 14  0.0000000  0 15        .000000000000
G05  20558227.797 8 108034214.122 8       -43.477          51.000    20558226.555 8  84182500.183 8       -33.878          51.000
G07  21912254.773 7 115149677.876 7     -2130.324          42.000    21912253.391 7  89727014.229 7     -1659.990          42.000
G28  22392507.328 7 117673432.415 7      2798.625          45.000    22392507.242 6  91693613.885 6      2180.750          38.000
G30  20391363.922 8 107157359.452 8      -430.586          51.000    20391364.875 8  83499283.386 8      -335.522          51.000
R01  19231808.430 8 102805047.826 8       523.410          49.000    19231812.547 7  79959475.087 7       407.097          45.000
R08  20644593.250 8 110550853.575 8     -2439.617          48.000    20644593.852 7  85984000.013 7     -1897.480          47.000
R11  19470624.297 8 104045084.152 8      1577.660          51.000    19470625.742 8  80923996.083 8      1227.069          49.000
R12  22542322.320 5 120417046.525 5      4211.379          34.000
C05  39792340.906 6 207209159.763 6          .707          37.000    39792338.289 6 160227250.862 6          .746          40.000
C23  22024407.711 8 114686878.270 8       970.680          51.000
C25  23146145.531 7 120528051.554 7     -2048.410          43.000
E02  24943795.367 5 131080529.232 5     -1397.215          31.000    24943787.117 6 100438303.473 6     -1070.488          37.000
E07  23498769.438 8 123486873.359 8       601.566          49.000    23498771.961 8  94619814.374 8       460.985          49.000
E08  22876992.508 8 120219398.283 8     -1692.684          49.000    22876992.180 8  92116249.177 8     -1296.991          48.000
E30  22798504.172 8 119806942.275 8      1476.164          51.000    22798505.531 8  91800127.817 8      1131.123          51.000
> 2020 05 08 03 14 30.0000000  0 15        .000000000000
G05  20558534.516 8 108035825.419 8       -63.469          51.000    20558532.883 8  84183755.738 8       -49.456          51.000
G07  21924444.641 7 115213737.489 7     -2139.484          43.000    21924443.523 7  89776930.818 7     -1667.131          42.000
G28  22376562.406 6 117589646.206 6      2787.824          41.000    22376562.172 6  91628325.993 6      2172.331          40.000
G30  20393865.992 8 107170508.087 8      -445.523          51.000    20393867.086 8  83509529.077 8      -347.161          51.000
R01  19228924.859 8 102789633.824 8       504.531          49.000    19228929.180 7  79947486.413 7       392.413          45.000
R08  20658305.531 8 110624282.491 8     -2455.211          49.000    20658306.438 7  86041111.384 7     -1909.609          47.000
R11  19461836.359 8 103998123.551 8      1553.516          51.000    19461838.055 8  80887471.175 8      1208.290          50.000
R12  22518695.984 6 120290838.243 6      4202.473          36.000    22518701.695 4  93559551.715 4      3268.590          26.000
C05  39792337.914 6 207209144.423 6          .520          36.000    39792335.297 6 160227239.010 6          .538          40.000
C23  22018859.734 8 114657988.088 8       955.676          51.000
C25  23157977.906 7 120589663.812 7     -2058.676          44.000
E02                                                                  24951800.258 6 100470568.045 6     -1080.240          36.000
E07  23495357.539 8 123468944.181 8       594.023          49.000    23495359.852 8  94606076.433 8       455.266          49.000
E08  22886675.711 8 120270284.975 8     -1699.426          48.000    22886675.633 8  92155240.295 8     -1302.154          48.000
E30  22790116.008 8 119762862.568 8      1462.887          51.000    22790117.492 8  91766352.488 8      1120.916          51.000
