     3.02           OBSERVATION DATA    M (MIXED)           RINEX VERSION / TYPE
SAVERINEX           SC600               20200511 045931 LCL PGM / RUN BY / DATE
       G = GPS       R = GLONASS       C = COMPASS          COMMENT
       S = SBAS      J = QZSS          E = GALILEO          COMMENT
BEAN                                                        MARKER NAME
1                                                           MARKER NUMBER
GEODETIC                                                    MARKER TYPE
Unige DICCA         GTER                                    OBSERVER / AGENCY
SC60291900056       SC600               2.12(191226)        REC # / TYPE / VERS
                    HEMA45          NONE                    ANT # / TYPE
  4509407.8091   693652.4678  4442337.6214                  APPROX POSITION XYZ
        0.0000        0.0000        0.0000                  ANTENNA: DELTA H/E/N
G    8 C1C L1C D1C S1C C2Y L2Y D2Y S2Y                      SYS / # / OBS TYPES
R    8 C1C L1C D1C S1C C2P L2P D2P S2P                      SYS / # / OBS TYPES
C    8 C1I L1I D1I S1I C7I L7I D7I S7I                      SYS / # / OBS TYPES
E    8 C1C L1C D1C S1C C7Q L7Q D7Q S7Q                      SYS / # / OBS TYPES
DBHZ                                                        COMMENT
     30.000                                                 INTERVAL
  2020    05    11    02    00    0.0000000     GPS         TIME OF FIRST OBS
  2020    05    11    02    59   30.0000000     GPS         TIME OF LAST OBS
     0                                                      RCV CLOCK OFFS APPL
G L1C  0.00000                                              SYS / PHASE SHIFT
G L2Y  0.00000                                              SYS / PHASE SHIFT
R L1C  0.00000                                              SYS / PHASE SHIFT
R L2P  0.25000                                              SYS / PHASE SHIFT
C L1I  0.00000                                              SYS / PHASE SHIFT
C L7I  0.00000                                              SYS / PHASE SHIFT
E L1C  0.50000                                              SYS / PHASE SHIFT
E L7Q -0.25000                                              SYS / PHASE SHIFT
 14 R01  1 R02 -4 R03  5 R04  6 R08  6 R10 -5 R11  0 R12 -1 GLONASS SLOT / FRQ #
    R13 -2 R14 -7 R15  0 R17  4 R18 -3 R23  3               GLONASS SLOT / FRQ #
 C1C   71.950 C2C   71.950 C2P   71.950                     GLONASS COD/PHS/BIS
    18                                                      LEAP SECONDS
*** Above antenna height is from mark to ANTENNA BOTTOM.    COMMENT
    17     4        0.0000        ANT MEASURE TYPE/HEIGT    COMMENT
    0.0000    0.0000    0.0458    0.0405    0.0000          COMMENT
                    BASE STATION                            COMMENT
                                                            END OF HEADER
> 2020 05 11 02 00  0.0000000  0 14        .000000000000
G02  23044145.688 8 121097781.231 8     -1873.160          50.000    23044141.695 7  94361893.824 7     -1459.602          42.000
G07  20871681.266 8 109681401.943 8      -692.531          51.000    20871679.562 8  85466017.719 8      -539.632          51.000
G30  20760935.438 8 109099511.997 8      1499.797          51.000    20760936.070 8  85012597.765 8      1168.673          51.000
R03  19560022.828 8 104706346.589 8      -448.398          51.000    19560023.453 7  81438286.817 7      -348.754          47.000
R13  19545613.070 6 104372501.742 6       129.648          41.000    19545616.234 7  81178598.704 7       100.838          42.000
R14  21299633.992 8 113539065.922 8      3872.305          51.000    21299635.914 8  88308178.696 8      3011.793          48.000
C05  39794622.867 6 207221042.606 6        -9.613          37.000    39794619.867 6 160236441.130 6        -7.455          41.000
C21  21741899.133 8 113215768.329 8       500.684          51.000
C22  23501073.602 8 122376225.741 8     -2194.312          51.000
C26  24552041.297 6 127848923.599 6      3300.160          38.000
E07  23605945.422 8 124050065.925 8      -501.449          51.000    23605946.609 8  95051363.236 8      -384.254          51.000
E26                                                                  26317598.602 6 105970063.106 6     -2198.169          39.000
E27  26085488.914 7 137080208.063 7      3040.074          46.000    26085491.195 6 105035426.352 6      2329.452          41.000
E30  23318440.781 7 122539244.185 7       912.082          47.000    23318441.344 8  93893717.021 8       698.901          50.000
> 2020 05 11 02 00 30.0000000  0 14        .000000000000
G02  23054877.594 8 121154177.232 8     -1886.230          50.000    23054873.172 7  94405838.756 7     -1469.790          43.000
G07  20875679.031 8 109702410.690 8      -707.617          51.000    20875677.609 8  85482388.185 8      -551.390          51.000
G30  20752420.734 8 109054765.303 8      1483.840          51.000    20752421.477 8  84977730.198 8      1156.239          51.000
R03  19562579.438 8 104720032.881 8      -463.582          51.000    19562580.164 7  81448931.692 7      -360.567          47.000
R13  19544964.367 7 104369037.427 7       101.801          43.000    19544967.047 7  81175904.247 7        79.178          43.000
R14  21277882.562 8 113423113.239 8      3858.375          51.000    21277884.312 8  88217993.291 8      3000.958          49.000
C05  39794680.227 6 207221340.816 6        -9.723          37.000    39794677.203 6 160236671.717 6        -7.440          41.000
C21  21739048.586 8 113200924.794 8       489.336          51.000
C22  23513741.945 8 122442191.972 8     -2203.105          51.000
C26  24533047.406 6 127750014.650 6      3294.699          37.000
E07  23608827.758 8 124065213.408 8      -507.883          51.000    23608829.219 8  95062969.735 8      -389.106          51.000
E26                                                                  26333985.969 6 106036043.998 6     -2200.201          38.000
E27  26068150.445 8 136989087.593 8      3035.207          48.000    26068152.875 7 104965606.814 7      2325.511          42.000
E30  23313276.680 7 122512107.903 7       897.449          47.000    23313277.688 8  93872924.266 8       687.686          50.000
> 2020 05 11 02 01  0.0000000  0 16        .000000000000
G02  23065678.375 8 121210935.882 8     -1896.637          49.000    23065674.102 7  94450066.284 7     -1477.899          45.000
G07  20879756.875 8 109723840.127 8      -719.957          51.000    20879755.461 8  85499086.447 8      -561.005          51.000
G09  22242098.578 5 116883016.282 5     -2400.199          34.000
G30  20743991.320 8 109010468.333 8      1470.305          51.000    20743992.477 8  84943213.060 8      1145.692          51.000
R02  22431529.602 4 119698929.507 4     -3060.844          28.000    22431525.734 4  93099156.348 4     -2380.656          26.000
R03  19565215.984 8 104734145.538 8      -476.137          51.000    19565216.484 7  81459908.187 7      -370.329          47.000
R13  19544467.352 7 104366381.522 7        76.277          42.000    19544469.742 7  81173838.551 7        59.330          43.000
R14  21256203.695 8 113307550.596 8      3846.953          51.000    21256205.109 8  88128111.235 8      2992.075          48.000
C05  39794733.594 6 207221619.015 6        -7.488          37.000    39794730.680 6 160236886.858 6        -5.751          40.000
C21  21736258.336 8 113186394.981 8       480.391          51.000
C22  23526455.289 8 122508393.973 8     -2209.332          51.000
C26  24514079.547 5 127651244.107 5      3291.281          32.000
E07  23611741.812 8 124080527.195 8      -511.859          51.000    23611743.555 8  95074703.685 8      -392.216          51.000
E26                                                                  26350382.656 6 106102063.460 6     -2200.210          40.000
E27  26050835.375 8 136898090.729 8      3032.645          48.000    26050837.977 7 104895881.993 7      2323.700          44.000
E30  23308191.133 7 122485386.325 7       885.047          45.000    23308192.734 8  93852449.283 8       678.243          50.000
> 2020 05 11 02 01 30.0000000  0 16        .000000000000
G02  23076547.500 8 121268054.890 8     -1914.305          49.000    23076543.711 7  94494574.584 7     -1491.666          45.000
G06  23953171.125 5 125874768.876 5     -3452.152          33.000    23953167.523 5  98084214.506 5     -2689.986          32.000
G07  20883914.375 8 109745688.832 8      -739.531          51.000    20883913.078 8  85516111.421 8      -576.258          51.000
G30  20735647.242 8 108966621.515 8      1449.664          51.000    20735648.891 8  84909046.705 8      1129.608          51.000
R02  22448762.570 5 119790887.066 5     -3072.176          31.000    22448761.852 4  93170667.091 4     -2389.470          29.000
R03  19567932.164 8 104748685.771 8      -496.203          51.000    19567932.805 7  81471217.241 7      -385.939          47.000
R12  22286476.516 6 119050279.527 6     -3632.422          36.000    22286470.992 4  92594700.237 4     -2825.214          25.000
R13  19544121.156 7 104364532.491 7        43.973          43.000    19544123.414 7  81172400.452 7        34.201          43.000
R14  21234598.281 8 113192381.412 8      3828.012          51.000    21234599.734 8  88038535.194 8      2977.342          48.000
C05  39794783.188 6 207221877.052 6       -12.082          37.000    39794780.234 6 160237086.410 6        -9.617          41.000
C21  21733528.664 8 113172179.765 8       464.371          51.000
C22  23539213.891 8 122574831.151 8     -2222.770          51.000
E07  23614687.594 8 124096007.457 8      -522.953          51.000    23614689.602 8  95086565.177 8      -400.746          51.000
E26                                                                  26366788.047 6 106168119.868 6     -2205.436          40.000
E27  26033544.047 8 136807219.231 8      3022.734          48.000    26033546.398 7 104826253.227 7      2316.010          45.000
E30  23303184.555 7 122459079.989 7       865.715          46.000    23303187.336 8  93832292.480 8       663.367          51.000
> 2020 05 11 02 02  0.0000000  0 18        .000000000000
G02  23087492.188 8 121325569.970 8     -1924.297          50.000    23087488.891 7  94539391.517 7     -1499.452          46.000
G06  23972867.023 5 125978274.359 5     -3452.688          33.000    23972864.203 5  98164868.153 5     -2690.412          32.000
G07  20888158.742 8 109767993.504 8      -751.582          51.000    20888157.641 8  85533491.687 8      -585.648          51.000
G09  22269590.703 5 117027470.874 5     -2414.242          30.000
G30  20727396.484 8 108923263.511 8      1436.602          51.000    20727398.086 8  84875261.241 8      1119.430          51.000
R02  22466041.547 5 119883090.607 5     -3078.500          33.000    22466040.086 4  93242380.869 4     -2394.395          29.000
R03  19570735.812 8 104763693.082 8      -508.582          51.000    19570736.422 7  81482889.569 7      -395.564          47.000
R12  22306895.008 5 119159354.789 5     -3643.617          32.000
R13  19543933.508 7 104363528.972 7        18.711          42.000    19543935.367 7  81171619.934 7        14.553          44.000
R14  21213074.422 8 113077648.022 8      3816.605          51.000    21213076.000 7  87949298.118 7      2968.474          47.000
C05  39794836.125 6 207222152.597 6       -10.430          37.000    39794833.109 6 160237299.456 6        -7.850          41.000
C21  21730866.898 8 113158317.760 8       455.668          51.000
C22  23552024.750 8 122641540.701 8     -2228.691          51.000
C26  24476231.062 4 127454160.725 4      3278.715          29.000
E07  23617672.328 8 124111692.385 8      -526.812          51.000    23617674.328 8  95098583.489 8      -403.659          51.000
E26                                                                  26383208.734 6 106234240.619 6     -2205.454          41.000
E27  26016283.711 7 136716512.896 7      3020.312          46.000    26016285.961 7 104756750.997 7      2314.247          47.000
E30  23298264.859 7 122433227.475 7       853.699          47.000    23298268.383 8  93812483.403 8       654.061          51.000
> 2020 05 11 02 02 30.0000000  0 17        .000000000000
G02  23098500.047 8 121383415.941 8     -1934.367          50.000    23098496.672 7  94584466.304 7     -1507.299          45.000
G06  23992573.930 5 126081839.371 5     -3454.020          33.000    23992573.703 5  98245568.176 5     -2691.447          33.000
G07  20892477.648 8 109790689.972 8      -763.852          51.000    20892476.711 8  85551177.258 8      -595.209          51.000
G30  20719227.070 8 108880332.224 8      1423.082          51.000    20719228.406 8  84841808.306 8      1108.895          51.000
R02  22483356.227 5 119975490.707 5     -3084.520          30.000    22483352.133 4  93314257.084 4     -2399.074          27.000
R03  19573614.805 8 104779104.471 8      -521.211          51.000    19573615.531 8  81494876.206 8      -405.386          48.000
R12  22327380.055 5 119268783.513 5     -3654.754          31.000
R13  19543892.141 7 104363307.459 7        -6.348          42.000    19543894.047 7  81171447.668 7        -4.937          44.000
R14  21191621.258 8 112963290.494 8      3804.887          51.000    21191622.836 7  87860353.390 7      2959.359          47.000
C05  39794880.320 6 207222383.356 6        -7.516          36.000    39794877.477 6 160237477.907 6        -5.851          40.000
C21  21728261.039 8 113144747.848 8       446.684          51.000
C22  23564875.844 8 122708460.052 8     -2234.836          51.000
C26  24457344.477 5 127355820.043 5      3273.965          30.000
E07  23620684.133 8 124127519.554 8      -530.691          51.000    23620685.945 8  95110710.798 8      -406.610          51.000
E26                                                                  26399632.945 6 106300375.996 6     -2205.317          41.000
E27  25999042.234 7 136625911.014 7      3017.645          43.000    25999045.297 8 104687328.782 8      2312.125          49.000
E30  23293420.039 7 122407766.782 7       841.383          47.000    23293423.602 8  93792974.553 8       644.705          50.000
> 2020 05 11 02 03  0.0000000  0 17        .000000000000
G02  23109589.445 8 121441690.781 8     -1948.246          50.000    23109585.984 7  94629875.268 7     -1518.114          46.000
G06  24012310.461 5 126185561.309 5     -3458.461          33.000    24012311.445 5  98326390.533 5     -2694.911          32.000
G07  20896890.141 8 109813877.872 8      -779.645          51.000    20896889.109 8  85569245.760 8      -607.515          51.000
G30  20711157.812 8 108837928.709 8      1406.148          51.000    20711159.062 8  84808766.624 8      1095.700          51.000
R02  22500725.438 5 120068170.389 5     -3093.418          34.000    22500720.375 4  93386343.058 4     -2405.995          27.000
R03  19576588.219 8 104795023.350 8      -537.570          51.000    19576589.211 8  81507257.531 8      -418.113          48.000
R12  22347949.406 5 119378663.662 5     -3668.613          34.000
R13  19544015.977 7 104363968.934 7       -35.258          42.000    19544018.133 7  81171962.159 7       -27.423          45.000
R14  21170258.445 8 112849414.500 8      3789.199          51.000    21170259.930 7  87771783.193 7      2947.155          47.000
C05  39794935.227 6 207222669.026 6        -9.457          36.000    39794932.336 6 160237698.788 6        -6.950          40.000
C21  21725730.453 8 113131570.522 8       434.078          51.000
C22  23577786.070 8 122775688.294 8     -2244.637          51.000
C26  24438501.945 5 127257708.553 5      3267.824          32.000
E07  23623742.180 8 124143589.696 8      -538.297          51.000    23623744.078 8  95123024.284 8      -412.455          51.000
E26  26416084.734 6 138817462.628 6     -2881.902          37.000    26416079.164 6 106366601.474 6     -2207.888          41.000
E27  25981838.414 7 136535515.890 7      3011.070          42.000    25981843.508 8 104618064.925 8      2307.235          50.000
E30  23288668.750 7 122382798.926 7       825.414          47.000    23288672.539 8  93773843.360 8       632.499          50.000
> 2020 05 11 02 03 30.0000000  0 17        .000000000000
G02  23120750.562 8 121500343.495 8     -1961.086          49.000    23120747.570 7  94675578.685 7     -1528.119          46.000
G06  24032062.430 5 126289336.741 5     -3461.867          33.000
G07  20901386.672 8 109837506.995 8      -794.691          51.000    20901385.406 8  85587658.063 8      -619.240          51.000
G30  20703179.641 8 108796004.811 8      1389.805          51.000    20703180.883 8  84776098.660 8      1082.965          51.000
R02  22518149.312 5 120161157.796 5     -3102.059          33.000
R03  19579647.461 8 104811400.552 8      -553.160          51.000    19579648.695 8  81519995.355 8      -430.236          48.000
R12  22368594.047 5 119488941.645 5     -3682.203          35.000
R13  19544295.781 6 104365462.851 6       -63.332          41.000    19544297.859 7  81173124.098 7       -49.258          45.000
R14  21148977.117 8 112735974.238 8      3774.398          51.000    21148978.875 7  87683551.884 7      2935.643          47.000
C05  39794991.398 6 207222961.279 6        -9.664          36.000    39794988.461 6 160237924.790 6        -7.548          40.000
C21  21723266.203 8 113118738.436 8       422.262          51.000
C22  23590746.445 8 122843176.578 8     -2253.566          51.000
C26  24419694.805 5 127159771.035 5      3262.035          33.000
E07  23626837.266 8 124159854.290 8      -545.070          51.000    23626839.445 8  95135486.761 8      -417.663          51.000
E26  26432545.477 6 138903959.195 6     -2883.812          38.000    26432539.062 7 106432878.025 7     -2209.782          42.000
E27  25964665.461 7 136445280.521 7      3005.434          44.000    25964671.883 8 104548923.483 8      2302.901          51.000
E30  23284002.234 7 122358275.743 7       810.316          47.000    23284005.836 8  93755052.869 8       620.925          49.000
> 2020 05 11 02 04  0.0000000  0 15        .000000000000
G02  23131979.414 7 121559353.117 7     -1972.582          47.000    23131977.406 7  94721560.205 7     -1537.080          47.000
G07  20905963.320 8 109861557.320 8      -808.523          51.000    20905962.086 8  85606398.588 8      -630.018          51.000
G30  20695289.305 8 108754542.361 8      1374.602          50.000    20695290.523 8  84743790.255 8      1071.118          50.000
R03  19582788.883 8 104828218.220 8      -567.871          50.000    19582790.312 8  81533075.763 8      -441.678          49.000
R12  22389309.141 6 119599594.212 6     -3694.766          36.000    22389326.336 4  93022040.732 4     -2873.707          26.000
R13  19544727.539 6 104367770.077 6       -90.180          40.000    19544729.914 7  81174918.612 7       -70.140          45.000
R14  21127774.227 8 112622954.455 8      3760.301          48.000    21127777.094 8  87595647.606 8      2924.678          48.000
C05  39795045.188 6 207223241.408 6        -8.723          37.000    39795042.258 6 160238141.425 6        -6.908          40.000
C21  21720864.922 8 113106234.009 8       411.516          51.000
C22  23603753.148 8 122910905.923 8     -2261.547          51.000
C26  24400919.289 5 127061990.622 5      3256.715          33.000
E07  23629965.828 8 124176294.866 8      -550.836          51.000    23629968.141 8  95148084.083 8      -422.036          51.000
E26  26449010.742 6 138990501.598 6     -2885.582          38.000    26449008.320 7 106499189.664 7     -2210.899          43.000
E27  25947521.172 7 136355188.057 7      3000.891          45.000    25947527.562 8 104479891.580 8      2299.318          51.000
E30  23279416.945 7 122334179.071 7       796.207          47.000    23279420.453 8  93736589.197 8       610.072          49.000
> 2020 05 11 02 04 30.0000000  0 15        .000000000000
G02  23143275.680 8 121618715.534 8     -1985.230          50.000    23143274.422 8  94767816.624 8     -1546.933          48.000
G07  20910619.625 8 109886026.161 8      -823.109          51.000    20910618.266 8  85625465.229 8      -641.381          51.000
G30  20687486.727 8 108713540.244 8      1358.426          51.000    20687488.156 8  84711840.561 8      1058.514          51.000
R03  19586012.445 8 104845475.271 8      -583.129          50.000    19586014.109 8  81546497.919 8      -453.545          48.000
R12  22410093.234 5 119710615.910 5     -3707.457          35.000    22410106.289 4  93108385.975 4     -2883.578          26.000
R13  19545311.422 6 104370888.310 6      -117.980          40.000    19545314.000 7  81177343.898 7       -91.763          45.000
R14  21106649.477 7 112510357.070 7      3745.688          44.000    21106654.727 8  87508071.824 8      2913.309          49.000
C05  39795096.422 6 207223509.023 6        -9.348          37.000    39795093.430 6 160238347.565 6        -7.068          40.000
C21  21718526.391 8 113094056.635 8       399.902          51.000
C22  23616805.680 8 122978874.173 8     -2270.125          51.000
C26  24382174.773 5 126964367.473 5      3250.902          33.000
E07  23633127.477 8 124192910.044 8      -557.262          51.000    23633130.008 8  95160815.187 8      -426.972          51.000
E26  26465485.570 6 139077086.021 6     -2887.199          40.000    26465486.133 7 106565533.578 7     -2212.443          43.000
E27  25930404.547 7 136265238.711 7      2995.352          46.000    25930410.359 8 104410969.351 8      2295.199          49.000
E30  23274912.367 7 122310507.812 7       781.449          45.000    23274915.430 7  93718451.503 7       598.737          47.000
> 2020 05 11 02 05  0.0000000  0 15        .000000000000
G02  23154642.625 8 121678448.825 8     -1992.117          51.000    23154641.344 7  94814362.037 7     -1552.299          46.000
G07  20915359.141 8 109910932.825 8      -832.328          51.000    20915357.422 8  85644873.013 8      -648.567          51.000
G30  20679775.922 8 108673019.671 8      1347.773          51.000    20679777.727 8  84680266.105 8      1050.213          51.000
R03  19589322.531 8 104863193.843 8      -593.172          50.000    19589324.094 8  81560279.030 8      -461.356          49.000
R12  22430948.992 5 119822023.353 5     -3714.621          35.000    22430959.648 4  93195021.229 4     -2889.147          25.000
R13  19546050.953 6 104374837.506 6      -140.277          39.000    19546053.523 7  81180415.479 7      -109.105          45.000
R14  21085607.398 7 112398206.830 7      3735.938          45.000    21085615.773 8  87420843.764 8      2905.726          48.000
C05  39795148.750 6 207223781.428 6        -4.109          37.000    39795145.891 6 160238558.969 6        -2.891          41.000
C21  21716254.750 8 113082227.690 8       393.582          51.000
C22  23629908.367 8 123047101.365 8     -2273.488          51.000
C26  24363466.625 5 126866923.908 5      3250.000          34.000
E07  23636326.375 8 124209720.769 8      -558.414          51.000    23636328.953 8  95173696.137 8      -427.855          51.000
E26  26481972.578 6 139163731.174 6     -2883.906          40.000    26481975.812 7 106631923.977 7     -2209.839          44.000
E27  25913319.422 7 136175455.085 7      2995.082          47.000    25913324.633 7 104342174.107 7      2294.999          47.000
E30  23270492.602 7 122287283.252 7       771.922          45.000    23270495.102 7  93700656.094 7       591.401          45.000
> 2020 05 11 02 05 30.0000000  0 16        .000000000000
G02  23166073.781 8 121738519.646 8     -2008.980          51.000    23166071.734 7  94861170.455 7     -1565.439          46.000
G07  20920175.844 8 109936244.791 8      -851.336          51.000    20920174.227 8  85664596.625 8      -663.379          51.000
G30  20672151.172 8 108632949.898 8      1327.160          51.000    20672152.852 8  84649042.903 8      1034.151          51.000
R02  22588249.047 5 120535258.239 5     -3132.961          32.000
R03  19592713.266 8 104881342.809 8      -613.176          51.000    19592714.680 8  81574394.911 8      -476.914          49.000
R12  22451869.836 5 119933781.145 5     -3732.188          35.000    22451880.023 4  93281943.877 4     -2902.816          26.000
R13  19546939.469 6 104379585.050 6      -172.477          39.000    19546942.562 7  81184108.019 7      -134.148          44.000
R14  21064646.516 8 112286475.625 8      3716.480          49.000    21064655.055 8  87333941.718 8      2890.596          48.000
C05  39795196.719 6 207224030.657 6        -8.508          37.000    39795193.750 6 160238751.736 6        -6.926          41.000
C21  21714044.297 8 113070717.149 8       377.445          51.000
C22  23643054.734 8 123115555.966 8     -2286.617          51.000
C26  24344784.398 5 126769630.565 5      3240.246          31.000
E07  23639556.727 8 124226695.989 8      -569.387          51.000    23639559.102 8  95186703.133 8      -436.262          51.000
E26  26498465.258 6 139250403.618 6     -2890.211          41.000    26498470.906 7 106698335.338 7     -2214.667          44.000
E27  25896260.195 7 136085807.680 7      2985.172          47.000    25896263.906 7 104273483.272 7      2287.253          43.000
E30  23266152.328 7 122264474.594 7       752.562          44.000    23266154.250 7  93683179.362 7       576.579          45.000
> 2020 05 11 02 06  0.0000000  0 16        .000000000000
G02  23177577.469 8 121798972.375 8     -2020.977          49.000    23177574.773 7  94908276.465 7     -1574.787          46.000
G07  20925078.242 8 109962007.659 8      -865.797          51.000    20925076.820 8  85684671.595 8      -674.647          51.000
G30  20664621.336 8 108593378.331 8      1311.211          51.000    20664622.586 8  84618207.922 8      1021.723          51.000
R02  22605883.562 4 120629375.400 4     -3140.832          29.000
R03  19596193.352 8 104899970.928 8      -628.453          51.000    19596194.352 8  81588883.450 8      -488.794          49.000
R12  22472864.867 5 120045932.654 5     -3744.195          35.000    22472875.867 4  93369162.798 4     -2912.152          26.000
R13  19547986.984 6 104385178.457 6      -199.742          39.000    19547989.766 7  81188458.440 7      -155.355          44.000
R14  21043775.133 8 112175214.548 8      3701.328          50.000    21043782.523 7  87247405.387 7      2878.814          47.000
C05  39795248.844 6 207224302.355 6        -8.703          36.000    39795245.977 6 160238961.818 6        -6.911          41.000
C21  21711904.148 8 113059572.506 8       365.875          51.000
C22  23656253.289 8 123184284.014 8     -2295.004          51.000
C26  24326139.727 5 126672535.759 5      3233.691          33.000
E07  23642827.414 8 124243882.957 8      -575.910          51.000    23642829.594 8  95199872.378 8      -441.312          51.000
E26  26514972.336 6 139337148.178 6     -2892.195          40.000    26514979.750 7 106764801.927 7     -2216.050          44.000
E27  25879235.891 7 135996345.410 7      2979.441          47.000    25879234.711 6 104204934.378 6      2282.829          39.000
E30  23261900.406 7 122242129.296 7       737.621          46.000    23261901.484 7  93666057.679 7       565.202          46.000
> 2020 05 11 02 06 30.0000000  0 16        .000000000000
G02  23189147.219 8 121859772.623 8     -2033.195          48.000    23189144.219 7  94955653.291 7     -1584.308          47.000
G07  20930060.156 8 109988188.417 8      -880.465          50.000    20930058.531 8  85705072.174 8      -686.077          50.000
G30  20657180.188 8 108554273.549 8      1294.902          51.000    20657181.258 8  84587736.675 8      1009.015          51.000
R02  22623556.008 5 120723606.342 5     -3149.344          31.000
R03  19599756.984 8 104919046.450 8      -644.113          51.000    19599758.000 8  81603719.961 8      -500.980          49.000
R12  22493926.656 5 120158441.555 5     -3757.559          35.000
R13  19549186.586 6 104391584.453 6      -227.852          39.000    19549189.016 7  81193440.873 7      -177.215          43.000
R14  21022987.039 8 112064394.983 8      3685.750          51.000    21022992.273 7  87161212.441 7      2866.697          45.000
C05  39795299.281 6 207224564.770 6        -9.410          36.000    39795296.375 6 160239164.712 6        -7.189          41.000
C21  21709828.180 8 113048763.066 8       353.898          51.000
C22  23669497.898 8 123253253.338 8     -2303.754          51.000
C26  24307526.570 5 126575609.645 5      3227.137          31.000
E07  23646132.359 8 124261249.982 8      -582.738          51.000    23646134.484 8  95213179.579 8      -446.511          51.000
E26  26531487.109 6 139423930.804 6     -2894.160          39.000    26531495.656 7 106831297.696 7     -2217.522          42.000
E27  25862241.055 7 135907038.068 7      2973.457          47.000    25862238.023 7 104136504.175 7      2278.351          43.000
E30  23257731.031 7 122220215.995 7       722.395          47.000    23257730.906 7  93649266.966 7       553.520          47.000
> 2020 05 11 02 07  0.0000000  0 16        .000000000000
G02  23200785.742 7 121920934.700 7     -2044.559          47.000    23200782.867 7  95003312.036 7     -1593.163          47.000
G07  20935124.492 8 110014802.193 8      -894.086          51.000    20935122.992 8  85725810.177 8      -696.690          51.000
G30  20649830.906 8 108515652.687 8      1279.547          51.000    20649832.180 8  84557642.507 8       997.050          51.000
R02  22641278.312 5 120818192.892 5     -3156.930          34.000
R03  19603407.555 8 104938587.141 8      -658.887          51.000    19603408.523 8  81618918.266 8      -512.467          49.000
R12  22515057.547 5 120271320.743 5     -3768.395          35.000
R13  19550541.398 6 104398818.932 6      -254.566          40.000    19550544.062 7  81199067.701 7      -197.996          44.000
R14  21002285.547 8 111954037.619 8      3671.074          51.000    21002288.133 7  87075378.980 7      2855.280          44.000
C05  39795351.094 6 207224834.429 6        -9.312          36.000    39795348.219 6 160239373.248 6        -7.047          40.000
C21  21707820.008 8 113038306.270 8       342.820          51.000
C22  23682791.805 8 123322479.940 8     -2311.535          51.000
C26  24288949.148 5 126478930.541 5      3221.602          33.000
E07  23649474.805 8 124278813.973 8      -588.633          51.000    23649476.805 8  95226637.706 8      -451.060          51.000
E26  26548012.375 6 139510766.108 6     -2895.125          37.000    26548021.266 6 106897833.846 6     -2218.265          40.000
E27  25845279.711 8 135817904.199 8      2968.383          49.000    25845279.086 7 104068206.838 7      2274.505          47.000
E30  23253646.688 7 122198751.729 7       708.156          47.000    23253646.328 8  93632820.338 8       542.544          48.000
> 2020 05 11 02 07 30.0000000  0 16        .000000000000
G02  23212489.234 8 121982437.044 8     -2055.562          48.000    23212486.359 7  95051235.946 7     -1601.737          47.000
G07  20940267.461 8 110041828.940 8      -907.672          51.000    20940266.023 8  85746869.989 8      -707.277          51.000
G30  20642569.922 8 108477497.191 8      1264.246          51.000    20642571.172 8  84527910.964 8       985.127          51.000
R02  22659048.586 6 120913002.911 6     -3163.957          37.000
R03  19607141.523 8 104958574.472 8      -673.562          51.000    19607141.977 8  81634463.957 8      -523.882          49.000
R12  22536254.383 6 120384546.740 6     -3780.258          36.000
R13  19552047.500 6 104406861.290 6      -281.230          40.000    19552049.977 7  81205322.870 7      -218.735          44.000
R14  20981667.258 8 111844126.400 8      3656.266          49.000    20981667.922 7  86989892.484 7      2843.762          44.000
C05  39795400.539 6 207225092.427 6        -8.363          37.000    39795397.820 6 160239572.737 6        -6.404          41.000
C21  21705876.250 8 113028184.201 8       331.949          51.000
C22  23696131.484 8 123391944.462 8     -2319.195          51.000
C26  24270403.055 5 126382361.338 5      3215.688          33.000
E07  23652851.172 8 124296556.197 8      -594.328          51.000    23652852.938 8  95240232.397 8      -455.367          51.000
E26                                                                  26564552.516 6 106964394.187 6     -2219.121          37.000
E27  25828348.523 8 135728926.639 8      2963.418          50.000    25828350.008 8 104000029.225 8      2270.650          50.000
E30  23249644.195 8 122177718.005 8       694.066          49.000    23249644.461 8  93616703.589 8       531.799          49.000
> 2020 05 11 02 08  0.0000000  0 17        .000000000000
G02  23224258.695 8 122044285.003 8     -2067.859          50.000    23224255.906 7  95099429.158 7     -1611.319          47.000
G07  20945490.320 8 110069275.016 8      -922.309          51.000    20945488.633 8  85768256.535 8      -718.682          51.000
G09  22437351.508 5 117909072.796 5     -2483.555          32.000
G30  20635399.211 8 108439815.338 8      1247.641          51.000    20635400.391 8  84498548.487 8       972.187          51.000
R02  22676859.727 5 121008042.693 5     -3172.582          35.000    22676860.875 4  94117389.042 4     -2467.564          26.000
R03  19610960.414 8 104979017.180 8      -689.445          51.000    19610960.844 8  81650363.835 8      -536.235          48.000
R12  22557517.734 6 120498123.490 6     -3791.895          38.000
R13  19553706.398 6 104415718.367 6      -309.176          41.000    19553708.844 7  81212211.720 7      -240.470          44.000
R14  20961133.898 7 111734673.175 7      3640.367          47.000    20961134.398 7  86904762.206 7      2831.397          44.000
C05  39795449.336 6 207225346.629 6        -8.668          37.000    39795446.680 6 160239769.312 6        -6.857          41.000
C21  21703998.336 8 113018405.593 8       319.781          51.000
C22  23709518.609 8 123461654.163 8     -2328.160          51.000
C26  24251890.680 5 126285971.394 5      3209.832          34.000
E07  23656262.875 8 124314484.758 8      -601.129          51.000    23656264.445 8  95253969.864 8      -460.572          51.000
E26                                                                  26581090.609 5 107030983.186 5     -2220.231          35.000
E27  25811448.977 8 135640115.100 8      2957.176          51.000    25811451.523 8 103931978.811 8      2265.909          51.000
E30  23245725.250 8 122157123.154 8       678.875          49.000    23245726.266 8  93600923.117 8       520.114          50.000
> 2020 05 11 02 08 30.0000000  0 16        .000000000000
G02  23236105.227 8 122106537.295 8     -2081.121          50.000    23236102.219 7  95147937.431 7     -1621.653          46.000
G07  20950804.273 8 110097199.820 8      -938.180          51.000    20950802.672 8  85790016.120 8      -731.049          51.000
G30  20628330.383 8 108402668.475 8      1229.922          51.000    20628331.680 8  84469602.901 8       958.381          51.000
R02  22694725.281 5 121103373.659 5     -3181.578          35.000    22694728.195 5  94191535.377 5     -2474.561          32.000
R03  19614875.844 8 104999978.303 8      -706.723          51.000    19614876.836 8  81666666.921 8      -549.676          49.000
R12  22578857.586 6 120612108.990 6     -3805.750          38.000
R13  19555529.195 6 104425451.552 6      -338.457          41.000    19555531.672 7  81219781.995 7      -263.244          44.000
R14  20940697.789 7 111625743.245 7      3623.012          46.000    20940699.641 7  86820038.914 7      2817.898          45.000
C05  39795508.984 6 207225657.379 6       -10.758          37.000    39795506.406 6 160240009.588 6        -8.328          40.000
C21  21702198.148 8 113009031.725 8       306.262          51.000
C22  23722964.586 8 123531668.883 8     -2338.215          51.000
C26  24233424.734 5 126189823.100 5      3201.406          31.000
E07  23659721.609 8 124332660.884 8      -609.430          51.000    23659723.273 8  95267897.020 8      -466.936          51.000
E26                                                                  26597647.055 5 107097645.985 5     -2223.245          33.000
E27  25794592.906 8 135551532.332 8      2949.520          50.000    25794595.516 8 103864103.690 8      2260.069          51.000
E30  23241900.938 8 122137028.553 8       662.082          48.000    23241902.961 8  93585525.968 8       507.331          50.000
> 2020 05 11 02 09  0.0000000  0 13        .000000000000
G02  23247968.000 8 122168875.969 8     -2082.254          48.000    23247964.797 7  95196513.005 7     -1622.536          47.000
G07  20956149.203 8 110125286.971 8      -941.824          51.000    20956147.734 8  85811902.224 8      -733.889          51.000
G30  20621303.422 8 108365741.675 8      1224.266          51.000    20621304.938 8  84440828.801 8       953.973          51.000
R03  19618828.445 8 105021137.074 8      -711.551          51.000    19618829.453 8  81683123.706 8      -553.428          48.000
R12  22600212.977 6 120726178.572 6     -3806.613          37.000
R13  19557455.695 6 104435739.706 6      -354.895          41.000    19557458.125 7  81227783.899 7      -276.029          44.000
R14  20920300.633 7 111517020.346 7      3617.719          47.000    20920304.203 7  86735476.679 7      2813.781          46.000
C05  39795519.477 6 207225711.237 6         -.590          36.000    39795516.969 6 160240052.020 6         -.245          40.000
C21  21700415.906 8 112999751.071 8       304.898          51.000
C22  23736408.734 8 123601675.624 8     -2336.344          51.000
E07  23663167.570 8 124350769.452 8      -605.426          51.000    23663169.383 8  95281772.412 8      -463.901          51.000
E27  25777720.555 8 135462864.827 8      2954.070          50.000    25777722.703 8 103796163.644 8      2263.550          51.000
E30  23238112.078 8 122117119.292 8       657.598          48.000    23238114.430 8  93570270.834 8       503.936          50.000
> 2020 05 11 02 09 30.0000000  0 14        .000000000000
G02  23259949.312 8 122231838.861 8     -2114.598          48.000    23259946.539 7  95245574.977 7     -1647.738          47.000
G07  20961627.516 8 110154075.446 8      -976.734          51.000    20961626.031 8  85834334.814 8      -761.092          51.000
G30  20614421.344 8 108329575.612 8      1187.445          51.000    20614422.938 8  84412647.458 8       925.282          51.000
R03  19622921.039 8 105043045.059 8      -748.305          51.000    19622921.898 8  81700163.258 8      -582.015          48.000
R12  22621685.695 5 120840877.472 5     -3838.961          33.000
R13  19559588.820 6 104447130.203 6      -403.559          41.000    19559591.125 7  81236643.184 7      -313.876          44.000
R14  20900046.828 8 111409056.089 8      3580.516          49.000    20900051.164 7  86651504.538 7      2784.849          45.000
C05                                                                  39795581.211 6 160240310.567 6       -16.359          41.000
C21  21698754.312 8 112991099.861 8       272.441          51.000
C22  23749953.664 8 123672209.153 8     -2365.332          51.000
C26  24196553.406 5 125997819.824 5      3178.684          33.000
E07  23666703.586 8 124369350.975 8      -632.781          51.000    23666705.336 8  95296010.200 8      -484.858          51.000
E27  25760934.812 8 135374654.723 8      2927.168          49.000    25760936.523 8 103728574.069 8      2242.952          51.000
E30  23234461.289 8 122097936.044 8       621.938          48.000    23234464.039 8  93555571.993 8       476.472          49.000
> 2020 05 11 02 10  0.0000000  0 14        .000000000000
G02  23271995.070 7 122295140.069 7     -2118.203          47.000    23271992.812 7  95294900.599 7     -1650.548          46.000
G07  20967185.055 8 110183280.552 8      -983.027          51.000    20967183.531 8  85857092.042 8      -765.995          51.000
G09  22494334.000 5 118208523.797 5     -2511.539          35.000
G30  20607630.359 8 108293887.589 8      1179.059          51.000    20607631.922 8  84384838.594 8       918.747          51.000
R03  19627099.547 8 105065414.245 8      -756.023          51.000    19627100.812 8  81717561.516 8      -588.021          48.000
R13  19561874.141 7 104459334.228 7      -422.785          42.000    19561876.664 7  81246135.218 7      -328.833          45.000
R14  20879882.766 8 111301566.687 8      3572.344          50.000    20879886.383 7  86567901.690 7      2778.490          46.000
C05  39795647.664 6 207226378.827 6       -13.879          36.000    39795645.203 6 160240568.239 6       -10.551          41.000
C21  21697159.945 8 112982798.503 8       268.250          51.000
C22  23763545.883 8 123742988.359 8     -2365.934          50.000
C26  24178198.898 5 125902259.155 5      3179.301          35.000
E07  23670275.695 8 124388122.657 8      -631.531          51.000    23670277.445 8  95310393.701 8      -483.877          51.000
E27  25744181.938 8 135286620.716 8      2928.902          48.000    25744183.164 8 103661119.439 8      2244.278          49.000
E30  23230894.875 7 122079196.103 7       614.762          46.000    23230897.773 8  93541212.808 8       470.979          48.000
> 2020 05 11 02 10 30.0000000  0 15        .000000000000
G02  23284088.961 8 122358693.542 8     -2123.250          48.000    23284086.586 7  95344422.780 7     -1654.481          46.000
G06  24310238.875 5 127751178.486 5     -3495.270          30.000
G07  20972805.742 8 110212817.433 8      -990.691          51.000    20972804.375 8  85880107.791 8      -771.967          51.000
G09  22508653.977 5 118283798.003 5     -2511.461          35.000    22508670.164 5  92169228.931 5     -1956.955          34.000
G30  20600914.438 8 108258594.252 8      1169.184          51.000    20600916.133 8  84357337.307 8       911.055          51.000
R03  19631348.531 8 105088160.380 8      -765.129          51.000    19631350.031 8  81735252.944 8      -595.100          48.000
R13  19564295.773 6 104472266.374 6      -443.695          41.000    19564298.312 7  81256193.558 7      -345.096          44.000
R14  20859792.672 8 111194470.955 8      3562.648          51.000    20859795.797 7  86484605.006 7      2770.949          46.000
C05  39795695.547 6 207226629.042 6        -7.453          37.000    39795692.984 6 160240760.961 6        -5.845          41.000
C21  21695617.234 8 112974765.022 8       262.676          51.000
C22  23777169.039 8 123813929.852 8     -2368.008          50.000
C26  24159866.625 6 125806806.241 6      3179.605          39.000
E07  23673868.117 8 124407001.087 8      -631.605          51.000    23673869.906 8  95324858.982 8      -483.916          51.000
E27  25727446.609 8 135198681.002 8      2929.141          48.000    25727447.031 7 103593737.059 7      2244.523          47.000
E30  23227397.047 7 122060816.275 7       606.172          44.000    23227399.984 7  93527129.536 7       464.433          47.000
> 2020 05 11 02 11  0.0000000  0 15        .000000000000
G02  23296245.547 8 122422574.784 8     -2134.391          49.000    23296242.320 7  95394200.356 7     -1663.162          46.000
G06  24330195.367 5 127856045.685 5     -3496.250          33.000
G07  20978504.102 8 110242762.796 8     -1004.516          51.000    20978502.914 8  85903441.856 8      -782.739          51.000
G09  22523008.852 6 118359235.661 6     -2516.434          36.000    22523028.719 5  92228035.071 5     -1960.848          31.000
G30  20594288.516 8 108223773.928 8      1153.250          51.000    20594290.055 8  84330204.609 8       898.636          51.000
R03  19635683.031 8 105111363.493 8      -780.613          51.000    19635684.383 8  81753299.831 8      -607.144          48.000
R13  19566868.484 7 104486004.123 7      -470.875          42.000    19566870.992 7  81266878.478 7      -366.236          45.000
R14  20839791.883 8 111087851.575 8      3546.402          51.000    20839794.695 7  86401678.815 7      2758.313          47.000
C05  39795742.086 6 207226871.035 6        -7.441          37.000    39795739.539 6 160240948.464 6        -5.661          41.000
C21  21694141.125 8 112967077.503 8       250.969          51.000
C22  23790838.117 8 123885110.304 8     -2376.266          50.000
C26  24141570.469 6 125711540.260 6      3172.840          39.000
E07  23677495.797 8 124426064.513 8      -638.129          51.000    23677497.492 8  95339466.019 8      -488.992          51.000
E27  25710744.680 7 135110915.385 7      2923.023          47.000    25710743.453 7 103526488.107 7      2239.659          46.000
E30  23223982.125 7 122042874.845 7       591.203          43.000    23223986.156 7  93513382.202 7       452.922          46.000
> 2020 05 11 02 11 30.0000000  0 14        .000000000000
G02  23308464.883 8 122486785.470 8     -2145.859          50.000    23308460.547 7  95444234.638 7     -1672.098          44.000
G06  24350161.281 5 127960983.458 5     -3499.238          34.000    24350156.539 5  99709830.038 5     -2726.679          33.000
G07  20984280.766 8 110273119.296 8     -1018.809          51.000    20984279.328 8  85927096.262 8      -793.877          51.000
G30  20587753.375 8 108189431.152 8      1136.789          51.000    20587754.555 8  84303443.992 8       885.810          51.000
R03  19640103.875 8 105135028.768 8      -796.590          51.000    19640105.586 8  81771706.137 8      -619.573          49.000
R13  19569592.484 7 104500550.556 7      -498.367          42.000    19569595.023 7  81278192.377 7      -387.619          45.000
R14  20819881.781 8 110981716.274 8      3529.652          51.000    20819883.852 7  86319129.134 7      2745.288          47.000
C05  39795788.117 6 207227110.422 6        -8.066          36.000    39795785.594 6 160241133.968 6        -6.256          41.000
C21  21692732.523 8 112959741.071 8       238.625          51.000
C22  23804554.227 8 123956533.248 8     -2384.832          50.000
C26  24123311.250 6 125616466.952 6      3165.754          38.000
E07  23681159.359 8 124445317.349 8      -645.020          51.000    23681161.172 8  95354218.188 8      -494.248          51.000
E27  25694077.750 8 135023329.798 8      2916.395          49.000    25694075.742 7 103459377.134 7      2234.595          47.000
E30  23220652.102 7 122025376.344 7       575.863          43.000    23220656.750 7  93499974.279 7       441.192          45.000
> 2020 05 11 02 12  0.0000000  0 16        .000000000000
G02  23320736.125 8 122551269.654 8     -2153.449          50.000    23320730.852 7  95494482.034 7     -1678.012          44.000
G06  24370126.906 5 128065912.437 5     -3496.652          33.000
G07  20990125.188 8 110303832.254 8     -1029.094          51.000    20990123.719 8  85951028.448 8      -801.888          51.000
G09  22551809.352 6 118510555.557 6     -2525.332          37.000    22551820.547 6  92345908.637 6     -1967.797          37.000
G30  20581298.672 8 108155512.908 8      1124.035          51.000    20581300.055 8  84277014.206 8       875.872          51.000
R03  19644601.133 8 105159102.376 8      -808.688          51.000    19644602.758 8  81790430.051 8      -628.979          48.000
R12  22729901.867 5 121418995.279 5     -3877.648          34.000
R13  19572457.633 6 104515850.268 6      -521.855          41.000    19572460.336 7  81290092.155 7      -405.888          45.000
R14  20800052.688 8 110876014.365 8      3516.719          51.000    20800054.414 8  86236916.576 8      2735.226          48.000
C05  39795823.500 6 207227294.898 6        -4.469          37.000    39795821.117 6 160241276.633 6        -3.631          41.000
C21  21691381.195 8 112952703.788 8       230.203          51.000
C22  23818307.008 8 124028145.415 8     -2389.590          51.000
C26  24105079.305 6 125521535.266 6      3162.668          38.000
E07  23684848.797 8 124464706.601 8      -647.984          51.000    23684850.828 8  95369074.869 8      -496.484          51.000
E27  25677435.812 8 134935872.796 8      2913.680          50.000    25677434.750 8 103392364.663 8      2232.479          50.000
E30  23217397.000 7 122008267.803 7       564.453          45.000    23217400.352 7  93486865.144 7       432.308          44.000
> 2020 05 11 02 12 30.0000000  0 16        .000000000000
G02  23333080.227 8 122616137.614 8     -2168.898          48.000    23333074.773 7  95545028.466 7     -1690.051          46.000
G07  20996058.516 8 110335012.565 8     -1047.445          51.000    20996057.336 8  85975324.811 8      -816.191          51.000
G09  22566260.125 5 118586497.486 5     -2535.637          34.000    22566267.812 6  92405083.966 6     -1975.833          36.000
G30  20574946.367 8 108122132.084 8      1103.340          51.000    20574947.820 8  84251003.176 8       859.745          51.000
R02  22839081.578 5 121873719.525 5     -3241.781          31.000
R03  19649196.195 8 105183699.711 8      -829.027          51.000    19649197.531 8  81809561.311 8      -644.799          48.000
R12  22751722.188 6 121535570.120 6     -3892.520          36.000
R13  19575484.766 7 104532015.607 7      -553.617          43.000    19575487.469 7  81302665.208 7      -430.591          44.000
R14  20780326.414 8 110770863.606 8      3495.379          49.000    20780328.391 8  86155132.684 8      2718.631          49.000
C05  39795869.688 6 207227535.526 6        -8.906          36.000    39795867.328 6 160241462.705 6        -7.110          41.000
C21  21690108.641 8 112946077.984 8       213.684          51.000
C22  23832117.797 8 124100057.658 8     -2402.465          51.000
C26  24086896.883 6 125426858.377 6      3151.488          38.000
E07  23688585.742 8 124484345.033 8      -659.043          51.000    23688587.875 8  95384122.493 8      -504.972          51.000
E27  25660840.070 8 134848658.719 8      2902.789          50.000    25660840.750 8 103325538.314 8      2224.173          51.000
E30  23214237.383 7 121991662.079 7       544.918          46.000    23214239.531 7  93474141.318 7       417.520          45.000
> 2020 05 11 02 13  0.0000000  0 14        .000000000000
G02  23345486.750 7 122681335.772 7     -2178.344          45.000    23345481.867 7  95595832.228 7     -1697.411          45.000
G07  21002071.062 8 110366608.666 8     -1059.691          51.000    21002069.562 8  85999945.154 8      -825.734          51.000
G30  20568686.781 8 108089238.174 8      1088.672          51.000    20568688.188 8  84225371.552 8       848.316          51.000
R03  19653879.695 8 105208769.993 8      -843.102          51.000    19653881.203 8  81829060.397 8      -655.749          48.000
R12  22773603.477 6 121652465.669 6     -3901.672          37.000
R13  19578664.414 7 104548994.241 7      -578.828          42.000    19578666.805 7  81315870.814 7      -450.200          44.000
R14  20760693.695 8 110666216.032 8      3480.258          48.000    20760697.102 8  86073740.112 8      2706.867          50.000
C05  39795917.008 6 207227781.976 6        -7.914          36.000    39795914.633 6 160241653.241 6        -5.793          41.000
C21  21688905.711 8 112939814.321 8       203.160          51.000
C22  23845976.430 8 124172219.097 8     -2409.078          51.000
C26  24068754.914 6 125332387.797 6      3145.930          39.000
E07  23692360.602 8 124504182.186 8      -664.016          51.000    23692362.727 8  95399322.386 8      -508.809          51.000
E27  25644281.039 8 134761638.667 8      2897.922          50.000    25644283.242 8 103258860.624 8      2220.471          51.000
E30  23211163.820 7 121975508.795 7       531.332          47.000    23211165.938 7  93461764.162 7       407.184          47.000
> 2020 05 11 02 13 30.0000000  0 15        .000000000000
G02  23357950.359 7 122746836.237 7     -2188.051          43.000    23357946.906 7  95646871.574 7     -1704.975          44.000
G07  21008157.578 8 110398593.355 8     -1072.164          51.000    21008155.852 8  86024868.292 8      -835.449          51.000
G09  22595259.289 5 118738880.726 5     -2544.758          32.000    22595256.242 5  92523765.400 5     -1982.931          33.000
G30  20562514.984 8 108056805.832 8      1073.828          51.000    20562516.523 8  84200099.595 8       836.749          51.000
R03  19658646.898 8 105234287.558 8      -857.668          51.000    19658648.375 8  81848907.371 8      -667.075          48.000
R12  22795540.250 5 121769651.872 5     -3910.707          35.000
R13  19581991.281 7 104566759.046 7      -604.996          43.000    19581993.336 7  81329687.903 7      -470.553          44.000
R14  20741151.156 8 110562049.020 8      3464.586          48.000    20741155.859 8  85992721.284 8      2694.675          50.000
C05  39795960.719 6 207228008.893 6        -7.047          36.000    39795958.305 6 160241828.716 6        -5.262          41.000
C21  21687767.750 8 112933888.274 8       192.238          51.000
C22  23859877.477 8 124244603.838 8     -2416.246          51.000
C26  24050648.555 6 125238099.769 6      3140.203          41.000
E07  23696168.508 8 124524192.720 8      -669.504          51.000    23696170.398 8  95414655.138 8      -512.976          51.000
E27  25627754.109 8 134674788.873 8      2892.566          48.000    25627757.336 8 103192313.375 8      2216.340          51.000
E30  23208171.461 8 121959782.624 8       517.449          48.000    23208173.555 7  93449714.269 7       396.469          47.000
> 2020 05 11 02 14  0.0000000  0 14        .000000000000
G02  23370477.836 7 122812669.579 7     -2199.258          47.000    23370475.234 7  95698170.286 7     -1713.707          46.000
G07  21014324.133 8 110430998.387 8     -1086.473          51.000    21014322.688 8  86050118.986 8      -846.602          51.000
G30  20556437.461 8 108024868.726 8      1057.012          51.000    20556439.180 8  84175213.550 8       823.649          51.000
R03  19663503.883 8 105260287.211 8      -873.965          51.000    19663504.836 8  81869129.336 8      -679.750          48.000
R12  22817538.102 5 121887158.487 5     -3921.293          32.000    22817535.719 4  94801137.353 4     -3049.895          25.000
R13  19585471.625 7 104585342.534 7      -632.359          44.000    19585473.539 7  81344141.739 7      -491.835          45.000
R14  20721707.312 8 110458399.825 8      3447.074          51.000    20721711.758 8  85912105.229 8      2681.058          50.000
C05                                                                  39796004.500 6 160242014.605 6        -5.709          41.000
C21  21686700.992 8 112928333.757 8       179.625          51.000
C22  23873827.031 8 124317244.285 8     -2424.871          51.000
C26  24032584.164 6 125144029.056 6      3132.543          41.000
E07  23700015.820 8 124544410.268 8      -676.559          51.000    23700017.547 8  95430146.514 8      -518.414          51.000
E27  25611265.609 7 134588144.526 7      2885.465          46.000    25611269.883 8 103125923.515 8      2210.947          51.000
E30  23205266.609 8 121944517.239 8       501.949          48.000    23205268.695 8  93438017.425 8       384.610          48.000
> 2020 05 11 02 14 30.0000000  0 14        .000000000000
G02  23383063.547 8 122878807.088 8     -2209.609          48.000    23383061.508 7  95749705.996 7     -1721.774          44.000
G07  21020565.500 8 110463796.429 8     -1099.785          51.000    21020563.875 8  86075675.904 8      -856.975          51.000
G30  20550449.250 8 107993400.894 8      1041.160          51.000    20550451.008 8  84150693.174 8       811.297          51.000
R03  19668446.023 8 105286742.966 8      -889.441          51.000    19668447.070 8  81889706.020 8      -691.788          48.000
R12  22839591.023 5 122004955.098 5     -3931.750          30.000    22839590.320 4  94892756.965 4     -3058.028          28.000
R13  19589099.773 7 104604716.115 7      -658.996          43.000    19589101.430 7  81359210.088 7      -512.549          45.000
R14  20702356.672 8 110355245.336 8      3430.246          51.000    20702360.383 8  85831873.983 8      2667.969          48.000
C05  39796050.703 6 207228478.271 6        -7.258          36.000    39796048.258 6 160242190.902 6        -5.630          41.000
C21  21685700.609 8 112923125.679 8       167.832          51.000
C22  23887820.719 8 124390113.817 8     -2432.707          51.000
C26  24014557.031 6 125050151.387 6      3125.863          38.000
E07  23703897.562 8 124564808.930 8      -682.945          51.000    23703899.523 8  95445776.660 8      -523.305          51.000
E27  25594811.438 7 134501681.215 7      2879.020          46.000    25594816.445 8 103059672.352 8      2206.041          51.000
E30  23202444.242 8 121929686.728 8       487.172          48.000    23202446.656 8  93426653.806 8       373.255          49.000
> 2020 05 11 02 15  0.0000000  0 15        .000000000000
G02  23395719.422 7 122945314.080 7     -2215.852          46.000    23395717.977 7  95801529.625 7     -1726.638          44.000
G07  21026894.180 8 110497053.673 8     -1108.879          51.000    21026892.367 8  86101590.651 8      -864.061          51.000
G09  22639010.359 4 118968802.289 4     -2555.926          29.000
G30  20544563.195 8 107962470.491 8      1029.312          51.000    20544565.039 8  84126591.561 8       802.062          51.000
R02  22930705.453 5 122362656.250 5     -3272.723          34.000
R03  19673486.266 8 105313724.673 8      -900.762          50.000    19673487.930 8  81910691.776 8      -700.592          48.000
R13  19592888.508 7 104624947.482 7      -681.180          44.000    19592890.297 7  81374945.618 7      -529.806          45.000
R14  20683112.195 8 110252658.076 8      3417.453          51.000    20683114.641 7  85752083.936 7      2658.022          45.000
C05  39796104.992 6 207228760.188 6        -3.219          36.000    39796102.555 6 160242409.682 6        -2.380          41.000
C21  21684779.867 8 112918332.208 8       160.102          51.000
C22  23901870.562 8 124463279.195 8     -2436.555          48.000
C26  23996580.977 6 124956535.732 6      3123.430          38.000
E07  23707826.781 8 124585456.867 8      -685.020          51.000    23707829.195 8  95461597.803 8      -524.906          51.000
E27  25578405.828 8 134415468.622 8      2876.879          48.000    25578410.469 8 102993613.327 8      2204.359          51.000
E30  23199717.680 7 121915359.269 7       476.461          47.000    23199720.250 8  93415675.625 8       365.191          49.000
> 2020 05 11 02 15 30.0000000  0 13        .000000000000
G02  23408424.953 7 123012082.385 7     -2230.047          44.000    23408423.875 7  95853556.921 7     -1737.696          44.000
G07  21033289.961 8 110530663.463 8     -1126.262          51.000    21033288.359 8  86127780.106 8      -877.607          51.000
G30  20538759.391 8 107931972.290 8      1009.363          51.000    20538761.523 8  84102826.743 8       786.517          51.000
R03  19678604.836 8 105341125.500 8      -920.422          50.000    19678606.328 8  81932003.554 8      -715.881          48.000
R13  19596817.594 7 104645927.753 7      -711.848          44.000    19596819.375 7  81391263.616 7      -553.659          46.000
R14  20663953.844 8 110150534.372 8      3396.301          50.000    20663955.805 7  85672654.439 7      2641.567          46.000
C05  39796149.812 6 207228993.549 6        -7.242          37.000    39796147.367 6 160242590.141 6        -5.497          41.000
C21  21683918.906 8 112913849.774 8       144.105          51.000
C22  23915956.664 8 124536635.373 8     -2448.418          48.000
C26  23978636.000 5 124863079.481 5      3112.496          35.000
E07  23711783.344 8 124606248.964 8      -695.555          51.000    23711786.172 8  95477529.411 8      -532.931          51.000
