     3.02           OBSERVATION DATA    M (MIXED)           RINEX VERSION / TYPE
SAVERINEX           SC600               20200506 015932 LCL PGM / RUN BY / DATE
       G = GPS       R = GLONASS       C = COMPASS          COMMENT
       S = SBAS      J = QZSS          E = GALILEO          COMMENT
BEAN                                                        MARKER NAME
1                                                           MARKER NUMBER
GEODETIC                                                    MARKER TYPE
Unige DICCA         GTER                                    OBSERVER / AGENCY
SC60291900056       SC600               2.12(191226)        REC # / TYPE / VERS
                    HEMA45          NONE                    ANT # / TYPE
  4509407.8091   693652.4678  4442337.6214                  APPROX POSITION XYZ
        0.0000        0.0000        0.0000                  ANTENNA: DELTA H/E/N
G    8 C1C L1C D1C S1C C2Y L2Y D2Y S2Y                      SYS / # / OBS TYPES
R    8 C1C L1C D1C S1C C2P L2P D2P S2P                      SYS / # / OBS TYPES
C    4 C1I L1I D1I S1I                                      SYS / # / OBS TYPES
E    8 C1C L1C D1C S1C C7Q L7Q D7Q S7Q                      SYS / # / OBS TYPES
DBHZ                                                        COMMENT
     30.000                                                 INTERVAL
  2020    05    05    23    00    0.0000000     GPS         TIME OF FIRST OBS
  2020    05    05    23    59   30.0000000     GPS         TIME OF LAST OBS
     0                                                      RCV CLOCK OFFS APPL
G L1C  0.00000                                              SYS / PHASE SHIFT
G L2Y  0.00000                                              SYS / PHASE SHIFT
R L1C  0.00000                                              SYS / PHASE SHIFT
R L2P  0.25000                                              SYS / PHASE SHIFT
C L1I  0.00000                                              SYS / PHASE SHIFT
E L1C  0.50000                                              SYS / PHASE SHIFT
E L7Q -0.25000                                              SYS / PHASE SHIFT
 14 R02 -4 R03  5 R04  6 R05  1 R10 -5 R12 -1 R13 -2 R14 -7 GLONASS SLOT / FRQ #
    R15  0 R17  4 R18 -3 R19  3 R20  2 R21  4               GLONASS SLOT / FRQ #
 C1C   71.950 C2C   71.950 C2P   71.950                     GLONASS COD/PHS/BIS
    18                                                      LEAP SECONDS
*** Above antenna height is from mark to ANTENNA BOTTOM.    COMMENT
    17     4        0.0000        ANT MEASURE TYPE/HEIGT    COMMENT
    0.0000    0.0000    0.0458    0.0405    0.0000          COMMENT
                    BASE STATION                            COMMENT
                                                            END OF HEADER
> 2020 05 05 23 00  0.0000000  0 14        .000000000000
G01  24041128.203 6 126336971.784 6     -3674.145          37.000    24041133.047 6  98444397.585 6     -2862.970          37.000
G04  20258117.539 8 106457136.922 8      -215.391          51.000    20258117.391 8  82953670.490 8      -167.837          51.000
G09  21128959.812 8 111033510.656 8      2059.594          51.000    21128961.539 8  86519609.258 8      1604.878          51.000
G17  22968135.969 8 120698358.665 8     -2248.766          48.000    22968134.945 8  94050678.965 8     -1752.285          48.000
G22  23295230.273 5 122417259.321 5     -2550.750          31.000
R04  20636276.953 6 110506340.724 6     -2290.438          40.000    20636276.203 4  85949367.250 4     -1781.457          27.000
R20  19888128.906 6 106350768.830 6      -637.445          36.000    19888135.547 7  82717278.668 7      -495.791          42.000
C23  24782380.141 5 129048402.050 5      1983.141          33.000
C30  23598600.312 8 122884124.443 8     -2563.816          48.000
E04  23467373.820 8 123321981.846 8      -441.305          50.000    23467374.727 8  94493443.744 8      -338.199          51.000
E09  23211762.469 7 121978748.776 7      1880.156          45.000    23211765.766 8  93464168.877 8      1440.645          48.000
E11  22991798.203 8 120822711.990 8     -1191.906          50.000    22991795.875 8  92578428.370 8      -913.324          50.000
E12  24888125.078 6 130787996.882 6     -3118.883          38.000
E19  27039836.289 5 142095297.781 5     -2424.078          31.000
> 2020 05 05 23 00 30.0000000  0 15        .000000000000
G01  24062125.484 6 126447310.810 6     -3680.773          37.000    24062130.305 6  98530376.062 6     -2868.135          38.000
G03  21324252.727 5 112059729.614 5     -1822.617          34.000    21324254.516 5  87319249.927 5     -1420.224          34.000
G04  20259399.234 8 106463872.613 8      -232.914          51.000    20259399.031 8  82958919.074 8      -181.491          50.000
G09  21117245.594 8 110971952.898 8      2044.961          51.000    21117247.930 8  86471642.192 8      1593.476          51.000
G17  22981013.852 8 120766033.551 8     -2262.047          48.000    22981013.320 7  94103412.648 7     -1762.634          47.000
G22  23309810.742 4 122493877.284 4     -2555.477          29.000
R04  20649134.078 6 110575191.365 6     -2298.645          38.000    20649130.750 4  86002901.638 4     -1787.838          26.000
R20  19891792.695 6 106370344.163 6      -666.863          37.000    19891796.617 7  82732503.895 7      -518.671          42.000
C23  24770992.750 5 128989107.261 5      1970.895          31.000
C25  25379475.766 5 132157593.128 5      -566.715          31.000
C30  23613405.273 7 122961223.176 7     -2575.465          47.000
E04  23469921.305 8 123335369.606 8      -450.504          50.000    23469922.492 8  94503701.911 8      -345.212          51.000
E09  23201052.695 7 121922469.342 7      1872.309          45.000    23201056.203 8  93421045.638 8      1434.773          48.000
E11  22998646.117 8 120858698.258 8     -1206.617          50.000    22998644.039 8  92606002.251 8      -924.590          51.000
E12  24905947.297 6 130881649.830 6     -3124.031          39.000
> 2020 05 05 23 01  0.0000000  0 14        .000000000000
G01  24083118.094 6 126557623.159 6     -3678.703          38.000    24083122.641 6  98616333.723 6     -2866.519          38.000
G03  21334648.617 6 112114359.207 6     -1824.355          38.000    21334650.180 6  87361818.403 6     -1421.576          38.000
G04  20260741.562 8 106470926.600 8      -242.594          51.000    20260741.602 8  82964415.707 8      -189.034          50.000
G09  21105576.453 8 110910630.612 8      2037.961          51.000    21105578.773 8  86423858.618 8      1588.022          51.000
G17  22993928.539 8 120833900.908 8     -2267.598          49.000    22993928.375 8  94156296.283 8     -1766.959          48.000
R04  20661999.781 6 110644080.864 6     -2298.938          39.000    20662001.820 4  86056488.808 4     -1788.059          29.000
R20  19895578.812 5 106390594.030 5      -688.949          35.000    19895581.969 6  82748253.799 6      -535.849          41.000
C23  24759640.555 5 128929988.427 5      1965.348          30.000
C25  25382750.133 5 132174650.495 5      -576.355          30.000
C30  23628237.930 8 123038461.665 8     -2579.137          49.000
E04  23472481.930 8 123348825.196 8      -451.855          50.000    23472483.188 8  94514012.033 8      -346.224          51.000
E09  23190347.648 7 121866214.590 7      1872.430          46.000    23190351.508 8  93377941.347 8      1434.788          48.000
E11  23005539.219 8 120894921.715 8     -1213.547          50.000    23005537.477 8  92633757.903 8      -929.897          51.000
E12  24923760.227 6 130975253.782 6     -3121.371          36.000
> 2020 05 05 23 01 30.0000000  0 13        .000000000000
G01  24104162.266 6 126668207.013 6     -3688.688          38.000    24104166.586 6  98702503.014 6     -2874.299          38.000
G03  21345118.664 7 112169375.467 7     -1838.242          42.000    21345118.258 7  87404688.312 7     -1432.393          42.000
G04  20262201.352 8 106478598.010 8      -263.969          51.000    20262201.305 8  82970393.461 8      -205.690          50.000
G09  21094009.438 8 110849844.762 8      2019.199          51.000    21094011.445 8  86376493.035 8      1573.402          51.000
G17  23006936.820 8 120902258.460 8     -2284.676          51.000    23006936.594 7  94209561.902 7     -1780.267          47.000
R04  20674929.562 6 110713313.011 6     -2311.609          36.000    20674932.117 5  86110336.089 5     -1797.918          30.000
R20  19899547.602 5 106411823.023 5      -722.113          35.000    19899552.266 7  82764765.238 7      -561.644          43.000
C25  25386145.398 5 132192328.663 5      -597.883          33.000
C30  23643154.281 8 123116135.004 8     -2594.227          49.000
E04  23475112.664 8 123362647.941 8      -464.824          50.000    23475113.484 8  94524603.488 8      -356.101          51.000
E09  23179705.109 8 121810284.740 8      1860.906          48.000    23179708.031 7  93335086.015 7      1425.991          47.000
E11  23012534.172 8 120931682.043 8     -1232.113          49.000    23012533.266 8  92661924.902 8      -944.126          51.000
E12  24941620.297 5 131069098.324 5     -3130.586          33.000    24941621.070 5 100429568.281 5     -2398.734          32.000
> 2020 05 05 23 02  0.0000000  0 15        .000000000000
G01  24125226.484 6 126778901.372 6     -3691.887          36.000    24125231.438 5  98788758.389 5     -2876.795          35.000
G03  21355631.734 7 112224619.022 7     -1845.766          42.000    21355631.617 7  87447735.284 7     -1438.256          42.000
G04  20263748.250 8 106486726.811 8      -279.016          51.000    20263747.828 8  82976727.588 8      -217.415          50.000
G09  21082514.305 8 110789437.013 8      2006.891          51.000    21082515.984 8  86329422.059 8      1563.811          51.000
G17  23020007.391 8 120970944.150 8     -2295.367          50.000    23020006.977 7  94263083.195 7     -1788.598          46.000
G19  22540167.188 5 118449378.420 5     -1638.922          30.000
R04  20687893.109 6 110782724.775 6     -2317.090          37.000    20687894.000 5  86164323.087 5     -1802.178          30.000
R20  19903670.656 6 106433868.569 6      -749.039          37.000    19903675.242 7  82781911.769 7      -582.586          44.000
C20  23237325.555 5 121002841.552 5      1747.598          33.000
C25  25389629.234 5 132210469.494 5      -613.031          34.000
C30  23658122.727 8 123194083.289 8     -2603.297          49.000
E04  23477782.750 8 123376678.031 8      -471.613          51.000    23477783.164 8  94535353.809 8      -361.336          51.000
E09  23169094.711 8 121754520.795 8      1855.562          48.000    23169096.219 7  93292357.857 7      1421.726          47.000
E11  23019601.016 8 120968819.535 8     -1244.480          50.000    23019600.750 8  92690380.906 8      -953.671          51.000
E12                                                                  24959499.680 5 100501559.188 5     -2400.931          34.000
> 2020 05 05 23 02 30.0000000  0 15        .000000000000
G01  24146316.812 6 126889733.424 6     -3688.660          37.000    24146322.008 6  98875121.010 6     -2874.281          37.000
G03  21366192.922 7 112280118.504 7     -1846.348          42.000    21366193.266 6  87490981.633 6     -1438.712          41.000
G04  20265387.414 8 106495340.971 8      -287.145          51.000    20265387.391 8  82983439.935 8      -223.749          51.000
G09  21071096.883 8 110729437.143 8      2001.109          51.000    21071098.289 8  86282668.906 8      1559.306          51.000
G17  23033145.289 8 121039984.211 8     -2299.512          50.000    23033144.625 7  94316880.653 7     -1791.827          46.000
G19  22549576.438 4 118498838.434 4     -1649.730          29.000
R04  20700895.875 6 110852344.194 6     -2315.664          36.000    20700893.898 5  86218471.416 5     -1801.075          30.000
R20  19907951.906 6 106456759.366 6      -769.078          37.000    19907955.992 7  82799715.721 7      -598.172          44.000
C20  23227277.148 5 120950507.423 5      1748.945          31.000
C25  25393205.281 5 132229101.415 5      -621.777          32.000
C30  23673149.094 8 123272332.902 8     -2605.414          50.000
E04  23480497.453 8 123390943.695 8      -471.539          51.000    23480497.914 8  94546284.648 8      -361.249          51.000
E09  23158521.445 7 121698951.913 7      1856.938          47.000    23158521.859 7  93249779.132 7      1422.866          47.000
E11  23026745.328 8 121006362.671 8     -1250.102          51.000    23026745.133 8  92719147.718 8      -957.831          51.000
E12  24977402.742 5 131257136.943 5     -3129.398          32.000    24977398.422 5 100573630.286 5     -2397.548          34.000
> 2020 05 05 23 03  0.0000000  0 16        .000000000000
G01  24167426.398 6 127000665.616 6     -3696.309          39.000    24167431.273 6  98961561.722 6     -2880.240          39.000
G03  21376795.828 7 112335838.099 7     -1858.066          43.000    21376795.953 7  87534399.510 7     -1447.844          43.000
G04  20267112.195 8 106504404.150 8      -306.438          51.000    20267112.359 8  82990502.154 8      -238.782          51.000
G09  21059750.531 8 110669810.531 8      1984.270          51.000    21059751.695 8  86236206.617 8      1546.184          51.000
G17  23046343.195 8 121109340.430 8     -2314.023          49.000    23046342.734 7  94370924.474 7     -1803.135          46.000
G19  22559082.727 5 118548753.874 5     -1670.652          34.000
R04  20713930.883 5 110922133.555 5     -2325.938          33.000    20713927.039 5  86272752.014 5     -1809.059          30.000
R20  19912383.867 6 106480458.718 6      -800.176          36.000    19912388.094 7  82818148.584 7      -622.359          44.000
C20  23217255.797 5 120898320.801 5      1740.609          33.000
C23  24714971.156 5 128697368.812 5      1919.906          30.000
C25  25396870.227 4 132248189.067 4      -641.258          29.000
C30  23688226.812 8 123350846.546 8     -2618.457          51.000
E04  23483250.094 8 123405408.816 8      -482.484          51.000    23483250.758 8  94557368.321 8      -369.648          51.000
E09  23147977.086 7 121643542.801 7      1847.395          44.000    23147978.445 7  93207322.825 7      1415.533          47.000
E11  23033959.906 8 121044275.509 8     -1266.719          51.000    23033959.648 8  92748197.827 8      -970.576          51.000
E12                                                                  24995313.062 5 100645762.363 5     -2403.002          34.000
> 2020 05 05 23 03 30.0000000  0 16        .000000000000
G01  24188572.414 6 127111788.583 6     -3710.887          39.000    24188576.914 6  99048151.037 6     -2891.600          39.000
G03  21387457.969 7 112391869.812 7     -1876.422          42.000    21387458.234 7  87578060.601 7     -1462.147          42.000
G04  20268939.781 8 106514007.671 8      -332.812          51.000    20268939.781 8  82997985.423 8      -259.334          51.000
G09  21048492.633 8 110610650.325 8      1960.555          51.000    21048493.703 8  86190107.785 8      1527.708          51.000
G17  23059618.523 8 121179102.594 8     -2335.641          50.000    23059618.031 7  94425284.596 7     -1819.980          46.000
G19  22568696.102 6 118599308.998 6     -1699.203          37.000
R04  20727013.281 5 110992185.481 5     -2342.695          30.000    20727008.961 4  86327236.866 4     -1822.084          29.000
R20  19916984.125 6 106505059.665 6      -838.914          36.000    19916988.484 7  82837282.649 7      -652.489          43.000
C20  23207281.391 5 120846373.766 5      1724.289          31.000
C23  24703978.516 4 128640126.315 4      1897.695          29.000
C25  25400638.492 4 132267823.378 4      -666.562          28.000
C30  23703372.664 8 123429713.479 8     -2638.324          51.000
E04  23486058.156 8 123420165.056 8      -500.273          50.000    23486058.805 8  94568675.054 8      -383.353          51.000
E09  23137479.641 7 121588386.046 7      1830.879          43.000    23137483.055 7  93165059.828 7      1402.785          47.000
E11  23041262.336 8 121082649.864 8     -1290.273          51.000    23041261.703 8  92777601.560 8      -988.651          51.000
E12  25013263.094 5 131445584.434 5     -3150.430          32.000
> 2020 05 05 23 04  0.0000000  0 15        .000000000000
G01  24209745.516 6 127223054.881 6     -3708.297          38.000    24209750.438 6  99134852.014 6     -2889.585          39.000
G03  21398170.734 7 112448167.815 7     -1878.582          42.000    21398171.719 7  87621929.167 7     -1463.830          42.000
G04  20270861.344 8 106524105.134 8      -342.262          51.000    20270861.492 8  83005853.580 8      -266.697          51.000
G09  21037314.703 8 110551911.868 8      1953.449          51.000    21037315.859 8  86144337.581 8      1522.168          51.000
G17  23072961.992 8 121249222.659 8     -2340.691          50.000    23072960.883 7  94479923.584 7     -1823.915          45.000
G19  22578414.805 6 118650417.174 6     -1710.312          38.000
R04  20740131.586 5 111062452.665 5     -2343.121          33.000    20740130.133 4  86381889.091 4     -1822.428          29.000
R20  19921744.219 5 106530515.276 5      -859.738          34.000    19921747.617 6  82857081.445 6      -668.688          41.000
C23  24693057.320 5 128583252.785 5      1892.395          30.000
C25  25404503.258 5 132287959.069 5      -676.926          30.000
C30  23718577.250 8 123508886.362 8     -2641.719          51.000
E04  23488912.680 8 123435166.196 8      -501.480          49.000    23488913.141 8  94580169.428 8      -384.239          51.000
E09  23127022.234 7 121533436.216 7      1830.809          44.000    23127026.359 7  93122955.387 7      1402.845          45.000
E11  23048643.641 8 121121439.683 8     -1297.336          51.000    23048642.523 8  92807323.617 8      -993.997          51.000
E12  25031233.367 6 131540015.795 6     -3147.219          36.000
> 2020 05 05 23 04 30.0000000  0 16        .000000000000
G01  24230932.023 6 127334391.734 6     -3708.805          39.000    24230937.531 6  99221608.004 6     -2889.978          39.000
G03  21408920.641 6 112504660.894 6     -1883.164          41.000    21408922.094 7  87665949.757 7     -1467.401          42.000
G04  20272863.195 8 106534624.583 8      -354.375          51.000    20272863.406 8  83014050.570 8      -276.136          51.000
G09  21026203.867 8 110493525.024 8      1943.512          51.000    21026205.047 8  86098841.333 8      1514.425          51.000
G17  23086359.656 8 121319627.043 8     -2348.281          51.000    23086357.789 7  94534784.123 7     -1829.830          46.000
G19  22588242.430 5 118702015.900 5     -1723.980          35.000
R04  20753278.484 5 111132861.200 5     -2345.566          30.000    20753277.750 5  86436651.281 5     -1824.332          30.000
R20  19926650.008 5 106556752.586 5      -884.188          35.000    19926652.984 6  82877488.179 6      -687.701          41.000
C20  23187416.547 4 120742962.160 4      1721.098          28.000
C23  24682193.656 4 128526680.148 4      1883.438          28.000
C25  25408454.188 5 132308525.668 5      -689.566          34.000
C30  23733826.586 8 123588292.652 8     -2647.445          51.000
E04  23491800.000 8 123450340.663 8      -505.379          50.000    23491800.453 8  94591796.613 8      -387.188          51.000
E09  23116591.523 7 121478622.498 7      1828.148          45.000    23116594.398 7  93080955.285 7      1400.789          44.000
E11  23056090.227 8 121160573.539 8     -1306.938          50.000    23056088.695 8  92837309.295 8     -1001.309          51.000
E12  25049212.445 5 131634499.193 5     -3146.688          35.000
> 2020 05 05 23 05  0.0000000  0 15        .000000000000
G01  24252148.578 6 127445884.971 6     -3717.309          39.000    24252154.320 6  99308485.864 6     -2896.607          38.000
G03  21419724.148 5 112561436.420 5     -1895.523          35.000    21419725.008 5  87710190.443 5     -1477.031          35.000
G04  20274961.820 8 106545652.766 8      -374.668          51.000    20274962.031 8  83022643.960 8      -291.949          51.000
G09  21015176.891 8 110435578.253 8      1925.594          51.000    21015178.000 8  86053688.001 8      1500.463          51.000
G17  23099827.422 8 121390400.226 8     -2363.855          49.000    23099825.523 7  94589932.038 7     -1841.965          47.000
R05  19727570.188 5 105455182.791 5       643.531          30.000    19727568.859 4  82020686.400 4       500.527          28.000
R20  19931719.039 6 106583859.632 6      -916.336          36.000    19931721.539 7  82898571.460 7      -712.709          42.000
C20  23177550.742 5 120691545.162 5      1711.699          31.000
C23  24671407.344 5 128470493.611 5      1868.469          31.000
C25  25412504.969 6 132329609.614 6      -709.785          37.000
C30  23749137.023 8 123668017.022 8     -2661.355          50.000
E04  23494736.969 8 123465775.472 8      -517.363          50.000    23494737.539 8  94603623.285 8      -396.484          51.000
E09  23106203.500 6 121424032.805 6      1817.348          41.000    23106204.828 7  93039126.843 7      1392.504          44.000
E11  23063618.930 8 121200138.614 8     -1324.789          50.000    23063617.086 8  92867625.391 8     -1014.990          50.000
E12  25067217.578 5 131729119.950 5     -3155.008          34.000
> 2020 05 05 23 05 30.0000000  0 15        .000000000000
G01  24273384.422 6 127557478.102 6     -3721.672          41.000    24273389.688 6  99395441.563 6     -2900.004          40.000
G03  21430571.297 6 112618439.473 6     -1904.102          38.000    21430572.602 6  87754608.439 6     -1483.712          37.000
G04  20277146.586 8 106557134.043 8      -390.617          51.000    20277146.992 8  83031590.418 8      -304.377          51.000
G09  21004223.641 8 110378017.779 8      1911.785          51.000    21004224.492 8  86008835.683 8      1489.703          51.000
G17  23113354.438 8 121461485.451 8     -2374.984          48.000    23113353.094 8  94645323.107 8     -1850.634          48.000
G19  22608171.297 4 118806741.637 4     -1763.902          27.000
G22  23457069.578 5 123267772.774 5     -2604.684          31.000
R20  19936940.445 6 106611780.386 6      -944.258          37.000    19936943.109 7  82920287.624 7      -734.423          44.000
C23  24660684.219 5 128414648.638 5      1855.574          34.000
C25  25416643.898 6 132351156.345 6      -726.180          37.000
C30  23764497.797 8 123748003.133 8     -2670.977          50.000
E04  23497713.094 8 123481415.337 8      -525.223          50.000    23497713.859 8  94615607.070 8      -402.437          51.000
E09  23095847.453 6 121369612.699 6      1810.742          39.000    23095848.625 7  92997428.338 7      1387.503          44.000
E11  23071219.398 8 121240079.703 8     -1338.211          51.000    23071217.203 8  92898229.605 8     -1025.332          50.000
E12  25085238.016 5 131823815.936 5     -3158.516          34.000    25085228.289 5 101007822.834 5     -2419.976          35.000
> 2020 05 05 23 06  0.0000000  0 16        .000000000000
G01  24294648.297 6 127669217.646 6     -3725.293          41.000    24294650.828 5  99482511.209 5     -2902.829          35.000
G03  21441471.062 5 112675718.164 5     -1912.395          33.000    21441472.180 5  87799241.195 5     -1490.181          31.000
G04  20279426.672 8 106569115.886 8      -406.141          51.000    20279427.281 8  83040926.911 8      -316.473          51.000
G09  20993353.578 8 110320892.780 8      1898.383          51.000    20993353.938 8  85964322.693 8      1479.259          51.000
G17  23126949.383 8 121532928.145 8     -2385.852          48.000    23126948.625 7  94700992.748 7     -1859.102          47.000
G19  22618299.414 5 118859962.031 5     -1781.277          32.000
G22  23471958.406 4 123345976.441 4     -2609.734          29.000
R20  19942323.539 6 106640562.591 6      -972.508          38.000    19942325.859 7  82942673.765 7      -756.395          43.000
C20  23157905.875 5 120589292.388 5      1699.789          32.000
C23  24650037.508 5 128359192.361 5      1842.941          33.000
C25  25420880.531 5 132373213.478 5      -742.285          35.000
C30  23779917.500 8 123828296.689 8     -2679.961          50.000
E04  23500737.242 8 123497307.948 8      -532.449          50.000    23500738.352 8  94627784.521 8      -407.966          51.000
E09  23085532.789 6 121315410.722 6      1804.746          39.000    23085535.141 7  92955896.960 7      1382.810          45.000
E11  23078900.961 8 121280444.634 8     -1351.152          51.000    23078898.203 8  92929158.568 8     -1035.290          50.000
E12                                                                  25103275.758 6 101080484.864 6     -2422.424          37.000
> 2020 05 05 23 06 30.0000000  0 16        .000000000000
G01  24315929.859 6 127781051.675 6     -3730.160          39.000    24315933.562 6  99569654.500 6     -2906.621          38.000
G03  21452413.664 5 112733222.070 5     -1922.062          34.000    21452414.031 5  87844049.441 5     -1497.708          33.000
G04  20281792.195 8 106581547.085 8      -422.777          51.000    20281793.047 8  83050613.572 8      -329.437          51.000
G09  20982556.969 8 110264153.872 8      1884.004          51.000    20982556.875 8  85920110.567 8      1468.058          51.000
G17  23140602.547 8 121604675.522 8     -2397.520          50.000    23140601.852 7  94756899.802 7     -1868.194          46.000
G19  22628521.016 4 118913680.233 4     -1800.203          28.000
G22  23486866.508 5 123424319.405 5     -2614.508          30.000
R20  19947858.000 6 106670154.415 6     -1000.969          38.000    19947860.016 7  82965689.649 7      -778.528          43.000
C20  23148131.711 4 120538396.658 4      1692.352          29.000
C23  24639454.172 4 128304076.697 4      1830.051          28.000
C25  25425205.664 6 132395731.013 6      -759.254          36.000
C30  23795385.703 8 123908845.721 8     -2690.059          49.000
E04  23503799.859 8 123513402.505 8      -540.688          50.000    23503801.109 8  94640116.708 8      -414.257          51.000
E09  23075250.508 7 121261376.871 7      1797.348          43.000    23075254.359 7  92914494.427 7      1377.248          45.000
E11  23086653.852 8 121321182.752 8     -1365.180          51.000    23086650.469 8  92960373.479 8     -1046.032          50.000
E12                                                                  25121336.555 6 101153205.608 6     -2425.630          37.000
> 2020 05 05 23 07  0.0000000  0 14        .000000000000
G01  24337228.047 6 127892973.553 6     -3732.949          37.000    24337233.430 6  99656866.390 6     -2908.789          37.000
G03  21463413.352 5 112791004.302 5     -1928.422          31.000    21463405.188 5  87889055.271 5     -1502.666          32.000
G04  20284242.203 8 106594421.966 8      -437.016          51.000    20284242.852 8  83060645.940 8      -340.532          51.000
G09  20971832.555 8 110207797.112 8      1871.766          51.000    20971832.672 8  85876196.218 8      1458.519          51.000
G17  23154312.656 8 121676720.695 8     -2406.984          51.000    23154311.461 7  94813038.887 7     -1875.572          46.000
R04  20819608.055 5 111488042.971 5     -2382.336          33.000
R20  19953542.141 6 106700550.007 6     -1027.043          37.000    19953544.531 7  82989330.671 7      -798.811          43.000
C23  24628936.297 5 128249354.070 5      1819.535          30.000
C25  25429617.609 6 132418703.786 6      -773.789          37.000
C30  23810901.242 8 123989643.374 8     -2697.895          49.000
E04  23506900.070 8 123529693.697 8      -546.809          50.000    23506901.141 8  94652599.570 8      -418.962          51.000
E09  23064999.914 7 121207506.664 7      1792.391          45.000    23065004.148 7  92873217.263 7      1373.498          44.000
E11  23094476.688 8 121362288.794 8     -1377.039          51.000    23094472.859 8  92991870.289 8     -1055.086          50.000
E12                                                                  25139410.086 6 101225980.365 6     -2427.210          38.000
> 2020 05 05 23 07 30.0000000  0 17        .000000000000
G01  24358554.039 6 128005039.699 6     -3738.223          36.000    24358559.367 6  99744190.660 6     -2912.901          37.000
G03  21474457.531 5 112849035.846 5     -1938.371          34.000
G04  20286787.539 8 106607797.768 8      -454.238          51.000    20286788.156 8  83071068.645 8      -353.952          51.000
G09  20961191.852 8 110151881.543 8      1856.418          51.000    20961192.328 8  85832625.643 8      1446.559          51.000
G17  23168089.938 8 121749118.737 8     -2419.285          50.000    23168088.289 7  94869452.907 7     -1885.157          46.000
G19  22649261.273 6 119022672.494 6     -1834.434          37.000    22649272.688 4  92744985.233 4     -1429.429          25.000
G22  23516767.922 5 123581449.882 5     -2624.152          31.000
R04  20832978.742 6 111559623.080 6     -2389.477          36.000    20832947.523 5  86768529.769 5     -1858.479          31.000
R20  19959387.273 6 106731807.486 6     -1055.934          37.000    19959390.000 7  83013642.002 7      -821.282          43.000
C20  23128671.742 5 120437054.346 5      1680.480          33.000
C23  24618491.328 5 128194974.842 5      1805.793          31.000
C25  25434127.289 6 132442189.165 6      -791.430          37.000
C30  23826475.664 8 124070745.119 8     -2708.566          50.000
E04  23510048.547 8 123546239.133 8      -555.820          50.000    23510049.625 8  94665277.243 8      -425.903          51.000
E09  23054791.727 7 121153858.543 7      1784.406          47.000    23054794.984 7  92832110.269 7      1367.248          44.000
E11  23102380.305 8 121403820.468 8     -1391.719          51.000    23102376.492 8  93023693.235 8     -1066.409          50.000
E12                                                                  25157508.242 6 101298852.615 6     -2430.799          38.000
> 2020 05 05 23 08  0.0000000  0 13        .000000000000
G01  24379903.359 6 128117229.857 6     -3741.324          36.000    24379908.625 6  99831611.590 6     -2915.318          36.000
G04  20289424.477 8 106621655.066 8      -469.543          51.000    20289425.281 8  83081866.552 8      -365.878          51.000
G09  20950631.859 8 110096389.521 8      1842.930          51.000    20950632.406 8  85789385.120 8      1436.052          51.000
G17  23181930.023 8 121821848.194 8     -2429.484          48.000    23181928.156 7  94926125.191 7     -1893.105          46.000
G19  22659783.453 6 119077962.877 6     -1851.730          41.000    22659783.578 4  92788013.460 4     -1442.904          26.000
R20  19965390.047 6 106763907.183 6     -1083.203          38.000    19965392.820 7  83038608.425 7      -842.488          44.000
C20  23119006.297 5 120386713.187 5      1675.160          34.000
C25  25438731.773 5 132466168.418 5      -807.414          34.000
C30  23842105.109 8 124152130.481 8     -2717.172          50.000
E04  23513241.648 8 123563019.741 8      -562.883          50.000    23513242.945 8  94678135.104 8      -431.285          51.000
E09  23044622.539 7 121100414.232 7      1778.531          47.000    23044623.773 7  92791159.445 7      1362.729          44.000
E11  23110361.180 8 121445758.674 8     -1404.355          51.000    23110357.398 8  93055827.685 8     -1076.086          50.000
E12                                                                  25175627.023 6 101371807.200 6     -2432.738          37.000
> 2020 05 05 23 08 30.0000000  0 16        .000000000000
G01  24401271.547 6 128229519.404 6     -3743.953          37.000    24401276.383 6  99919109.938 6     -2917.369          37.000
G03  21496666.727 5 112965743.849 5     -1953.430          35.000    21496656.352 5  88025219.593 5     -1522.156          35.000
G04  20292148.562 8 106635970.031 8      -484.324          51.000    20292149.125 8  83093021.066 8      -377.395          51.000
G09  20940148.148 8 110041298.957 8      1830.223          51.000    20940148.852 8  85746457.446 8      1426.151          51.000
G17  23195828.086 7 121894883.737 7     -2439.211          46.000    23195826.125 7  94983036.022 7     -1900.684          46.000
G19  22670401.156 6 119133757.193 6     -1867.680          41.000    22670398.359 5  92831489.518 5     -1455.335          33.000
R04  20859808.062 4 111703324.249 4     -2401.027          29.000
R20  19971545.172 6 106796824.684 6     -1110.301          36.000    19971548.734 7  83064210.914 7      -863.567          44.000
C20  23109369.188 4 120336541.944 4      1669.797          28.000
C23  24597815.484 4 128087286.268 4      1782.230          28.000
C25  25443426.555 5 132490618.638 5      -822.262          33.000
C30  23857784.086 8 124233774.645 8     -2725.301          49.000
E04  23516475.164 8 123580012.106 8      -569.488          50.000    23516476.492 8  94691155.222 8      -436.370          51.000
E09  23034487.555 7 121047151.127 7      1772.949          45.000    23034486.852 7  92750347.471 7      1358.368          43.000
E11  23118414.633 8 121488080.166 8     -1416.602          51.000    23118410.906 8  93088255.825 8     -1085.508          50.000
E12  25193764.578 5 132394125.087 5     -3176.867          33.000    25193761.922 6 101444825.563 6     -2434.528          37.000
> 2020 05 05 23 09  0.0000000  0 15        .000000000000
G01  24422662.203 6 128341925.372 6     -3749.922          39.000    24422666.039 6 100006699.052 6     -2922.014          39.000
G03  21507839.336 5 113024497.077 5     -1963.727          33.000    21507835.492 5  88071001.336 5     -1530.177          34.000
G04  20294963.125 8 106650760.498 8      -502.023          51.000    20294963.570 8  83104546.109 8      -391.187          51.000
G09  20929744.586 8 109986629.337 8      1814.227          51.000    20929745.844 8  85703857.775 8      1413.683          51.000
G17  23209787.422 7 121968241.966 7     -2451.680          47.000    23209785.266 7  95040198.270 7     -1910.400          45.000
G19  22681116.477 7 119190072.136 7     -1886.965          42.000    22681113.922 4  92875371.236 4     -1470.365          29.000
G22  23561834.484 5 123818279.346 5     -2639.246          30.000
R20  19977856.445 6 106830577.741 6     -1140.043          37.000    19977860.492 7  83090463.287 7      -886.700          45.000
C23  24587586.773 5 128034030.746 5      1768.137          31.000
C25  25448215.102 5 132515557.960 5      -839.918          34.000
C30  23873515.195 7 124315694.056 7     -2736.332          47.000
E04  23519752.586 8 123597234.410 8      -578.934          51.000    23519753.680 8  94704351.531 8      -443.613          51.000
E09  23024390.344 7 120994088.252 7      1764.445          45.000    23024388.492 7  92709688.927 7      1351.831          42.000
E11  23126543.805 8 121530803.168 8     -1431.801          50.000    23126540.656 8  93120991.630 8     -1097.109          49.000
E12  25211917.695 5 132489520.883 5     -3183.074          35.000    25211916.055 6 101517921.033 6     -2438.542          37.000
> 2020 05 05 23 09 30.0000000  0 14        .000000000000
G01  24444075.055 6 128454448.670 6     -3751.426          40.000    24444077.773 6 100094379.566 6     -2923.192          40.000
G03  21519061.836 6 113083507.931 6     -1969.930          36.000    21519065.211 6  88116983.739 6     -1535.010          37.000
G04  20297868.477 8 106666028.231 8      -515.496          51.000    20297868.898 8  83116443.046 8      -401.685          51.000
G09  20919422.203 8 109932384.552 8      1802.406          51.000    20919423.805 8  85661589.123 8      1404.472          51.000
G17  23223808.398 7 122041922.926 7     -2460.000          47.000    23223806.281 7  95097611.961 7     -1916.883          46.000
G19  22691931.031 7 119246907.803 7     -1901.930          42.000    22691930.797 5  92919658.707 5     -1482.026          30.000
R20  19984324.336 6 106865168.150 6     -1165.602          37.000    19984329.141 7  83117366.919 7      -906.579          45.000
C20  23090214.594 5 120236808.838 5      1658.293          30.000
C25  25453099.047 5 132540988.841 5      -855.016          32.000
C30  23889298.938 7 124397889.221 7     -2743.246          47.000
E04  23523074.188 8 123614688.846 8      -584.375          51.000    23523075.078 8  94717725.723 8      -447.786          51.000
E09  23014331.688 7 120941228.592 7      1759.836          45.000    23014328.352 6  92669186.078 6      1348.598          41.000
E11  23134749.414 8 121573929.864 8     -1442.898          48.000    23134747.258 8  93154036.778 8     -1105.657          49.000
E12  25230089.375 5 132585014.633 5     -3183.918          35.000    25230089.195 6 101591094.645 6     -2439.563          36.000
> 2020 05 05 23 10  0.0000000  0 16        .000000000000
G01  24465504.617 6 128567059.251 6     -3754.371          39.000    24465506.414 6 100182128.043 6     -2925.487          39.000
G03  21530332.320 6 113142747.710 6     -1977.582          41.000    21530338.281 6  88163144.604 6     -1540.973          41.000
G04  20300859.109 8 106681743.907 8      -530.684          51.000    20300859.273 8  83128689.026 8      -413.520          51.000
G09  20909175.477 8 109878536.896 8      1788.898          51.000    20909176.742 8  85619629.914 8      1393.947          51.000
G17  23237884.875 7 122115895.228 7     -2470.062          46.000    23237883.352 7  95155252.680 7     -1924.727          46.000
G19  22702838.664 6 119304233.407 6     -1918.289          40.000    22702838.906 4  92964328.020 4     -1494.771          24.000
G22  23592024.547 4 123976925.423 4     -2647.652          28.000
R14  22109641.000 5 117856842.687 5      1904.457          35.000
R20  19990944.039 6 106900565.814 6     -1192.715          37.000    19990948.531 7  83144898.435 7      -927.667          44.000
C23  24567363.430 5 127928722.783 5      1744.074          30.000
C25  25458072.391 5 132566882.610 5      -870.160          31.000
C30  23905130.438 7 124480329.878 7     -2751.391          47.000
E04  23526434.453 8 123632346.522 8      -591.301          51.000    23526435.391 8  94731255.636 8      -453.081          51.000
E09  23004306.758 7 120888544.070 7      1753.922          47.000    23004301.711 7  92628817.446 7      1343.887          42.000
E11  23143026.797 8 121617431.438 8     -1455.445          49.000    23143025.227 8  93187369.167 8     -1115.277          49.000
E12  25248274.586 5 132680584.681 5     -3185.770          35.000    25248275.500 5 101664323.728 5     -2441.664          34.000
> 2020 05 05 23 10 30.0000000  0 16        .000000000000
G01  24486952.453 6 128679766.298 6     -3759.055          40.000    24486953.875 6 100269951.664 6     -2929.134          41.000
G03  21541649.320 6 113202227.280 6     -1987.109          38.000    21541656.984 6  88209492.311 6     -1548.400          37.000
G04  20303936.719 8 106697917.490 8      -547.332          51.000    20303936.898 8  83141291.831 8      -426.492          51.000
G09  20899006.570 8 109825098.063 8      1773.969          51.000    20899006.906 8  85577989.255 8      1382.310          51.000
G17  23252018.234 7 122190167.323 7     -2481.234          44.000    23252017.859 7  95213127.056 7     -1933.429          44.000
G19  22713840.297 5 119362057.536 5     -1936.730          35.000    22713843.445 5  93009385.949 5     -1509.131          30.000
G22  23607150.055 5 124056405.143 5     -2654.207          31.000
R05  19692015.102 5 105265125.729 5       508.273          31.000    19692018.414 4  81872884.209 4       395.321          28.000
R20  19997716.883 6 106936780.937 6     -1221.297          38.000    19997720.328 7  83173065.725 7      -949.898          44.000
C23  24557343.180 5 127876593.593 5      1730.961          30.000
C25  25463137.375 5 132593249.837 5      -887.375          32.000
C30  23921011.547 7 124563024.734 7     -2761.141          47.000
E04  23529835.211 8 123650217.823 8      -599.945          51.000    23529836.609 8  94744949.236 8      -459.689          51.000
E09  22994317.430 7 120836045.860 7      1746.250          46.000    22994311.594 7  92588591.606 7      1338.036          42.000
E11  23151378.219 8 121661318.192 8     -1469.699          50.000    23151376.516 8  93220996.677 8     -1126.214          49.000
E12  25266475.633 5 132776236.678 5     -3190.273          35.000    25266477.945 5 101737635.540 5     -2444.423          34.000
> 2020 05 05 23 11  0.0000000  0 15        .000000000000
G01  24508449.445 6 128792731.687 6     -3763.375          41.000    24508450.797 6 100357976.630 6     -2932.500          40.000
G03  21553044.352 6 113262110.134 6     -1996.105          41.000    21553053.578 6  88256154.157 6     -1555.407          41.000
G04  20307132.438 8 106714711.621 8      -563.719          51.000    20307132.688 8  83154378.171 8      -439.261          50.000
G09  20888946.844 8 109772232.537 8      1759.059          51.000    20888946.547 8  85536795.329 8      1370.695          51.000
G17  23266239.102 7 122264900.145 7     -2492.449          44.000    23266239.883 7  95271360.463 7     -1942.165          44.000
G19  22724968.367 6 119420541.277 6     -1953.836          37.000    22724974.609 5  93054957.706 5     -1522.463          34.000
R04  20927529.586 5 112065955.530 5     -2432.859          30.000    20927528.867 5  87162425.601 5     -1892.224          30.000
R15  23566113.867 7 125930164.453 7      4000.309          43.000    23566115.922 6  97945689.334 6      3111.354          40.000
R20  20004673.945 6 106973978.210 6     -1249.922          39.000    20004675.562 7  83201996.933 7      -972.161          43.000
C25  25468323.125 5 132620252.150 5      -904.180          33.000
C30  23936972.688 7 124646133.746 7     -2770.734          47.000
E04  23533307.508 8 123668465.831 8      -608.117          50.000    23533309.508 8  94758931.486 8      -465.945          51.000
E09  22984394.336 7 120783897.895 7      1738.887          44.000    22984389.469 7  92548634.108 7      1332.331          44.000
E11  23159834.344 8 121705753.309 8     -1483.691          50.000    23159832.312 8  93255044.357 8     -1136.884          50.000
E12  25284723.211 5 132872132.859 5     -3193.934          34.000    25284727.422 5 101811114.487 5     -2447.548          33.000
> 2020 05 05 23 11 30.0000000  0 16        .000000000000
G01  24529905.312 6 128905482.873 6     -3765.918          40.000    24529906.781 6 100445834.723 6     -2934.478          40.000
G03  21564426.695 7 113321925.213 7     -2003.746          43.000    21564434.148 6  88302763.312 6     -1561.358          41.000
G04  20310356.461 8 106731654.561 8      -578.336          50.000    20310356.711 8  83167580.458 8      -450.651          50.000
G09  20878906.859 8 109719470.264 8      1745.977          51.000    20878906.602 8  85495681.872 8      1360.501          51.000
G17  23280457.852 7 122339620.444 7     -2501.609          47.000    23280458.867 7  95329584.084 7     -1949.306          42.000
G19  22736133.086 6 119479211.444 6     -1969.613          38.000    22736140.070 5  93100674.729 5     -1534.761          31.000
R15  23543626.195 6 125809999.941 6      3997.820          39.000    23543627.641 6  97852228.054 6      3109.416          39.000
R20  20011724.570 6 107011677.642 6     -1276.434          40.000    20011725.711 7  83231318.718 7      -992.782          45.000
C20  23052302.469 5 120039376.590 5      1632.395          35.000
C23  24537550.180 5 127773463.674 5      1704.965          33.000
C25  25473541.328 5 132647422.623 5      -919.230          33.000
C30  23952923.469 7 124729188.262 7     -2778.574          47.000
E04  23536761.758 8 123686619.266 8      -614.520          50.000    23536764.062 8  94772841.273 8      -470.937          51.000
E09  22974446.977 6 120731629.645 6      1733.027          39.000    22974445.758 7  92508584.419 7      1327.976          45.000
E11  23168304.961 8 121750265.422 8     -1495.996          49.000    23168302.805 8  93289151.021 8     -1146.244          50.000
E12  25302927.531 5 132967801.160 5     -3196.098          34.000    25302932.977 5 101884418.830 5     -2449.147          34.000
> 2020 05 05 23 12  0.0000000  0 16        .000000000000
G01  24551428.422 6 129018586.463 6     -3776.492          41.000    24551430.117 6 100533967.432 6     -2942.721          41.000
G03  21575905.359 6 113382240.796 6     -2019.562          40.000    21575911.555 6  88349762.455 6     -1573.688          41.000
G04  20313716.898 8 106749313.677 8      -601.172          51.000    20313717.078 8  83181340.814 8      -468.446          51.000
G09  20868994.789 8 109667380.431 8      1724.504          51.000    20868995.039 8  85455092.411 8      1343.769          51.000
G17  23294781.930 7 122414893.780 7     -2518.820          47.000    23294782.297 6  95388238.623 6     -1962.717          41.000
G19  22747441.250 6 119538634.192 6     -1994.129          39.000    22747449.594 5  93146978.169 5     -1553.876          34.000
R04  20954828.156 5 112212157.724 5     -2452.484          31.000    20954822.266 4  87276119.335 4     -1907.485          27.000
R15  23521201.586 5 125690190.768 5      3986.934          31.000    23521206.461 6  97759043.109 6      3100.948          39.000
R20  20018976.758 6 107050456.092 6     -1311.008          39.000    20018978.188 7  83261479.746 7     -1019.670          46.000
C23  24527773.891 5 127722588.250 5      1684.562          30.000
C25  25478899.484 5 132675324.012 5      -942.887          35.000
C30  23968971.383 7 124812749.286 7     -2794.273          47.000
E04  23540306.180 8 123705245.963 8      -629.320          51.000    23540308.320 8  94787113.661 8      -482.218          51.000
E09  22964583.461 6 120679809.794 6      1719.301          37.000    22964587.445 7  92468878.238 7      1317.416          46.000
E11  23176898.055 8 121795422.335 8     -1516.340          50.000    23176896.141 8  93323751.778 8     -1161.883          49.000
E12  25321196.789 5 133063786.569 5     -3206.445          34.000    25321203.055 6 101957982.938 6     -2456.973          36.000
> 2020 05 05 23 12 30.0000000  0 17        .000000000000
G01  24572958.852 6 129131730.368 6     -3770.117          40.000    24572961.500 6 100622131.521 6     -2937.754          40.000
G03  21587420.828 7 113442746.348 7     -2017.840          42.000    21587426.188 7  88396909.577 7     -1572.343          42.000
G04  20317154.328 8 106767377.551 8      -606.953          51.000    20317154.586 8  83195416.564 8      -472.950          51.000
G09  20859151.367 8 109615653.393 8      1720.180          51.000    20859152.188 8  85414785.640 8      1340.400          51.000
G17  23309151.594 7 122490407.295 7     -2519.043          47.000    23309150.250 6  95447080.263 6     -1962.894          37.000
G19  22758832.906 6 119598496.641 6     -2000.867          41.000    22758843.422 4  93193624.397 4     -1559.108          26.000
R04  20968538.312 4 112285603.316 4     -2448.668          28.000    20968540.375 4  87333216.702 4     -1904.523          29.000
R05  19681168.758 5 105207113.299 5       462.340          30.000
R20  20026370.797 6 107089996.279 6     -1328.570          39.000    20026373.547 7  83292233.205 7     -1033.332          47.000
C20  23033594.016 4 119941959.646 4      1621.977          29.000
C23  24518063.156 5 127672047.642 5      1681.426          34.000
C25  25484338.492 6 132703648.214 6      -949.176          37.000
C30  23985057.102 8 124896507.158 8     -2793.215          48.000
E04  23543881.625 8 123724034.967 8      -626.906          51.000    23543883.570 8  94801510.423 8      -480.408          51.000
E09  22954747.086 6 120628128.144 6      1722.215          38.000    22954754.453 7  92429277.929 7      1319.805          45.000
E11  23185554.812 8 121840913.127 8     -1519.758          51.000    23185553.375 8  93358608.363 8     -1164.436          49.000
E12  25339471.781 6 133159821.367 6     -3199.531          36.000    25339478.055 6 102031568.021 6     -2451.858          37.000
> 2020 05 05 23 13  0.0000000  0 17        .000000000000
G01  24594495.156 6 129244905.799 6     -3775.371          39.000    24594498.711 6 100710320.152 6     -2941.851          39.000
G03  21598971.195 7 113503434.539 7     -2028.250          42.000    21598976.094 7  88444199.076 7     -1580.455          42.000
G04  20320667.234 8 106785838.147 8      -624.316          51.000    20320667.578 8  83209801.442 8      -486.480          51.000
G09  20849375.469 8 109564282.845 8      1704.078          51.000    20849376.734 8  85374756.658 8      1327.853          51.000
G17  23323565.062 7 122566151.042 7     -2530.832          46.000    23323561.500 6  95506101.336 6     -1972.077          38.000
G19  22770306.164 6 119658788.902 6     -2019.148          41.000    22770319.773 4  93240648.580 4     -1573.353          29.000
R04  20982273.242 5 112359161.438 5     -2456.215          31.000    20982280.125 4  87390428.605 4     -1910.392          29.000
R14  22047591.141 5 117526047.132 5      1769.641          30.000
R15  23476383.734 6 125450726.631 6      3987.652          36.000    23476390.375 6  97572792.484 6      3101.510          40.000
R20  20033905.445 6 107130289.639 6     -1358.234          37.000    20033909.375 7  83323572.501 7     -1056.401          47.000
C23  24508419.852 5 127621837.140 5      1665.098          31.000
C25  25489857.547 6 132732387.899 6      -967.398          36.000
C30  24001178.500 8 124980452.673 8     -2803.672          49.000
E04  23547486.586 8 123742978.723 8      -636.344          51.000    23547488.586 8  94816025.766 8      -487.588          51.000
E09  22944937.523 6 120576577.858 6      1713.824          40.000    22944944.930 7  92389778.329 7      1313.325          43.000
E11  23194273.664 8 121886730.069 8     -1534.957          50.000    23194272.656 8  93393714.869 8     -1176.052          49.000
E12  25357750.523 5 133255875.068 5     -3204.324          34.000    25357755.828 6 102105167.630 6     -2455.246          36.000
> 2020 05 05 23 13 30.0000000  0 18        .000000000000
G01  24616037.852 6 129358114.292 6     -3772.781          38.000    24616042.289 6 100798534.548 6     -2939.830          39.000
G03  21610556.594 6 113564308.546 6     -2030.656          40.000    21610563.867 6  88491633.333 6     -1582.330          40.000
G04  20324256.055 8 106804697.732 8      -633.707          50.000    20324256.438 8  83224497.227 8      -493.798          50.000
G09  20839668.070 8 109513272.888 8      1695.957          51.000    20839669.906 8  85335008.663 8      1321.525          51.000
G17  23338022.555 7 122642125.802 7     -2534.832          46.000    23338018.070 6  95565302.452 6     -1975.191          39.000
G19  22781861.422 6 119719512.210 6     -2029.840          40.000    22781876.922 5  93287965.505 5     -1581.703          31.000
R04  20996039.531 5 112432853.711 5     -2456.188          33.000    20996041.922 4  87447774.944 4     -1910.374          29.000
R14  22037677.172 5 117473252.062 5      1754.176          33.000
R15  23453988.227 6 125331052.963 6      3989.703          39.000    23453996.078 6  97479713.009 6      3103.102          41.000
R20  20041580.875 6 107171338.027 6     -1379.238          37.000    20041586.016 7  83355498.996 7     -1072.741          47.000
C20  23014960.523 4 119844951.507 4      1613.699          28.000
C25  25495457.156 5 132761545.815 5      -977.281          35.000
C30  24017335.633 8 125064586.959 8     -2806.109          48.000
E04  23551121.555 8 123762080.013 8      -637.867          51.000    23551123.609 8  94830661.819 8      -488.740          51.000
E09  22935154.648 7 120525162.557 7      1713.191          42.000    22935159.633 7  92350382.223 7      1312.648          42.000
E11  23203054.914 8 121932875.998 8     -1542.203          50.000    23203054.406 8  93429073.440 8     -1181.628          49.000
E12                                                                  25376037.320 6 102178783.383 6     -2453.124          36.000
E19  27415405.570 5 144068921.732 5     -2441.359          34.000    27415405.070 5 110390475.842 5     -1871.023          33.000
> 2020 05 05 23 14  0.0000000  0 17        .000000000000
G01  24637613.094 6 129471493.611 6     -3781.121          37.000    24637618.594 6 100886882.074 6     -2946.328          36.000
G03  21622203.633 6 113625507.935 6     -2044.340          39.000    21622209.617 6  88539321.245 6     -1592.980          37.000
G04  20327947.172 8 106824094.853 8      -654.453          51.000    20327947.586 8  83239611.885 8      -509.963          51.000
G09  20830056.133 8 109462763.829 8      1676.340          51.000    20830058.523 8  85295650.969 8      1306.239          51.000
G17  23352550.047 7 122718468.560 7     -2549.723          47.000    23352546.289 6  95624790.278 6     -1986.797          40.000
G19  22793524.719 6 119780802.938 6     -2051.402          40.000    22793540.484 4  93335736.478 4     -1598.508          26.000
R14  22027894.141 5 117421128.607 5      1725.961          33.000
R15  23431631.211 6 125211575.594 6      3980.180          40.000    23431637.688 6  97386786.197 6      3095.695          41.000
R20  20049424.641 6 107213281.694 6     -1412.102          39.000    20049429.898 7  83388121.834 7     -1098.301          47.000
C20  23005709.211 5 119796780.389 5      1601.980          33.000
C25  25501163.188 5 132791259.743 5      -999.035          35.000
C30  24033554.734 8 125149046.106 8     -2819.723          48.000
E04  23554813.055 8 123781477.886 8      -650.535          51.000    23554814.742 8  94845525.126 8      -498.444          51.000
E09  22925424.398 7 120474022.015 7      1701.062          43.000    22925426.172 6  92311196.688 6      1303.432          41.000
E11  23211925.141 8 121979489.805 8     -1560.656          50.000    23211925.055 8  93464790.517 8     -1195.717          49.000
E12                                                                  25394349.781 6 102252521.105 6     -2459.197          36.000
E19                                                                  27429375.555 5 110446728.930 5     -1875.591          31.000
> 2020 05 05 23 14 30.0000000  0 15        .000000000000
G01  24659206.492 5 129584969.300 5     -3783.082          34.000    24659213.570 4 100975304.794 4     -2947.859          29.000
G03  21633898.297 6 113686959.486 6     -2051.773          37.000    21633907.477 6  88587205.672 6     -1598.781          37.000
G04  20331726.562 8 106843955.708 8      -668.992          50.000    20331726.844 8  83255087.864 8      -521.293          50.000
G09  20820526.109 8 109412683.588 8      1662.977          51.000    20820528.664 8  85256627.401 8      1295.826          51.000
G17  23367133.203 7 122795103.623 7     -2558.461          47.000    23367130.586 6  95684505.847 6     -1993.609          40.000
G19  22805281.492 6 119842586.244 6     -2067.039          40.000    22805277.992 5  93383782.603 5     -1610.671          32.000
R15  23409298.078 7 125092225.358 7      3976.941          42.000    23409301.945 6  97293958.197 6      3093.174          39.000
R20  20057421.688 6 107256045.223 6     -1438.359          38.000    20057426.367 7  83421382.343 7     -1118.724          46.000
C20  22996495.062 5 119748809.480 5      1596.672          33.000
C25  25506961.375 5 132821456.958 5     -1013.945          34.000
C30  24049821.578 7 125233755.799 7     -2827.137          47.000
E04  23558546.992 8 123801099.013 8      -656.930          51.000    23558548.172 8  94860559.495 8      -503.404          51.000
E09  22915732.281 7 120423083.729 7      1695.293          43.000    22915733.109 6  92272166.101 6      1299.158          41.000
E11  23220870.688 8 122026498.101 8     -1572.836          51.000    23220870.266 8  93500809.865 8     -1205.127          49.000
E12                                                                  25412678.406 5 102326324.007 5     -2460.472          35.000
> 2020 05 05 23 15  0.0000000  0 16        .000000000000
G01  24680813.656 5 129698550.320 5     -3785.754          31.000
G03  21645635.797 4 113748583.170 4     -2060.523          29.000    21645645.219 4  88635301.953 4     -1605.621          29.000
G04  20335589.086 8 106864253.901 8      -684.578          50.000    20335589.461 8  83270904.645 8      -533.438          50.000
G09  20811073.266 8 109363007.607 8      1648.477          51.000    20811075.195 8  85217918.860 8      1284.527          51.000
G17  23381766.898 8 122872003.115 8     -2568.492          48.000    23381765.281 6  95744427.477 6     -2001.422          41.000
G19  22817126.789 6 119904834.295 6     -2083.352          39.000    22817124.000 5  93432287.540 5     -1623.391          34.000
R04  21037543.922 5 112655122.426 5     -2479.172          31.000    21037549.883 4  87620655.050 4     -1928.236          27.000
R15  23386984.125 7 124972980.912 7      3972.270          44.000    23386986.148 6  97201212.502 6      3089.543          36.000
R20  20065566.797 6 107299601.326 6     -1465.734          39.000    20065570.969 7  83455259.282 7     -1140.016          46.000
C20  22987314.711 5 119701006.730 5      1590.391          31.000
C25  25512847.336 4 132852111.822 4     -1030.184          28.000
C30  24066131.320 7 125318688.786 7     -2835.527          46.000
E04  23562318.461 8 123820917.589 8      -664.543          51.000    23562319.352 8  94875745.155 8      -509.213          51.000
E09  22906073.289 7 120372322.686 7      1688.336          43.000    22906074.359 7  92233271.273 7      1293.633          42.000
E11  23229886.602 8 122073875.053 8     -1586.082          51.000    23229885.125 8  93537111.652 8     -1215.229          49.000
E12                                                                  25431017.984 5 102400171.747 5     -2462.421          35.000
> 2020 05 05 23 15 30.0000000  0 12        .000000000000
G03  21657437.875 6 113810600.389 6     -2066.793          37.000    21657443.102 6  88683627.124 6     -1610.491          38.000
G04  20339556.156 8 106885100.491 8      -697.852          51.000    20339556.500 8  83287148.741 8      -543.780          51.000
G09  20801718.844 8 109313848.646 8      1636.242          51.000    20801719.367 8  85179613.208 8      1274.994          51.000
G17  23396471.859 7 122949276.597 7     -2575.941          47.000    23396470.922 7  95804640.572 7     -2007.227          43.000
G19  22829081.438 5 119967656.286 5     -2097.363          34.000    22829080.570 5  93481239.709 5     -1634.312          32.000
R15  23364711.391 7 124853961.267 7      3969.812          45.000    23364711.531 5  97108641.676 5      3087.632          34.000
R20  20073881.797 6 107344062.405 6     -1490.898          41.000    20073885.500 7  83489840.108 7     -1159.585          47.000
C30  24082504.969 7 125403954.037 7     -2841.582          44.000
E04  23566148.742 8 123841045.219 8      -670.051          51.000    23566149.531 8  94891167.627 8      -513.433          51.000
E09  22896469.156 7 120321851.211 7      1683.637          42.000    22896470.664 7  92194598.284 7      1290.113          43.000
E11  23238993.789 8 122121732.107 8     -1597.297          50.000    23238991.258 8  93573781.291 8     -1223.837          48.000
E12                                                                  25449390.383 5 102474149.145 5     -2463.325          35.000
> 2020 05 05 23 16  0.0000000  0 13        .000000000000
G03  21669260.430 5 113872729.801 5     -2076.660          31.000    21669261.016 4  88732001.816 4     -1618.177          29.000
