     3.02           OBSERVATION DATA    M (MIXED)           RINEX VERSION / TYPE
SAVERINEX           SC600               20200515 015932 LCL PGM / RUN BY / DATE
       G = GPS       R = GLONASS       C = COMPASS          COMMENT
       S = SBAS      J = QZSS          E = GALILEO          COMMENT
BEAN                                                        MARKER NAME
1                                                           MARKER NUMBER
GEODETIC                                                    MARKER TYPE
Unige DICCA         GTER                                    OBSERVER / AGENCY
SC60291900056       SC600               2.12(191202)        REC # / TYPE / VERS
                    HEMA45          NONE                    ANT # / TYPE
  4509407.8091   693652.4678  4442337.6214                  APPROX POSITION XYZ
        0.0000        0.0000        0.0000                  ANTENNA: DELTA H/E/N
G    8 C1C L1C D1C S1C C2Y L2Y D2Y S2Y                      SYS / # / OBS TYPES
R    8 C1C L1C D1C S1C C2P L2P D2P S2P                      SYS / # / OBS TYPES
C    8 C1I L1I D1I S1I C7I L7I D7I S7I                      SYS / # / OBS TYPES
E    8 C1C L1C D1C S1C C7Q L7Q D7Q S7Q                      SYS / # / OBS TYPES
DBHZ                                                        COMMENT
     30.000                                                 INTERVAL
  2020    05    14    23    00    0.0000000     GPS         TIME OF FIRST OBS
  2020    05    14    23    59   30.0000000     GPS         TIME OF LAST OBS
     0                                                      RCV CLOCK OFFS APPL
G L1C  0.00000                                              SYS / PHASE SHIFT
G L2Y  0.00000                                              SYS / PHASE SHIFT
R L1C  0.00000                                              SYS / PHASE SHIFT
R L2P  0.25000                                              SYS / PHASE SHIFT
C L1I  0.00000                                              SYS / PHASE SHIFT
C L7I  0.00000                                              SYS / PHASE SHIFT
E L1C  0.50000                                              SYS / PHASE SHIFT
E L7Q -0.25000                                              SYS / PHASE SHIFT
 13 R04  6 R05  1 R06 -4 R07  5 R10 -5 R13 -2 R14 -7 R15  0 GLONASS SLOT / FRQ #
    R16 -1 R19  3 R20  2 R21  4 R22 -3                      GLONASS SLOT / FRQ #
 C1C   71.950 C2C   71.950 C2P   71.950                     GLONASS COD/PHS/BIS
    18                                                      LEAP SECONDS
*** Above antenna height is from mark to ANTENNA BOTTOM.    COMMENT
    17     4        0.0000        ANT MEASURE TYPE/HEIGT    COMMENT
    0.0000    0.0000    0.0458    0.0405    0.0000          COMMENT
                    BASE STATION                            COMMENT
                                                            END OF HEADER
> 2020 05 14 23 00  0.0000000  0 16        .000000000000
G03  22242740.203 5 116886386.107 5     -2416.141          33.000    22242744.172 5  91080297.935 5     -1882.704          33.000
G04  20584465.445 8 108172108.195 8     -1291.883          50.000    20584466.156 8  84290004.017 8     -1006.662          50.000
G09  20486483.336 8 107657295.255 8      1044.793          51.000    20486482.820 8  83888796.397 8       814.127          51.000
G17  24058794.594 6 126429794.955 6     -2872.051          38.000    24058794.438 6  98516717.849 6     -2237.965          39.000
G19  23409687.039 7 123018731.862 7     -2677.469          46.000    23409684.906 7  95858721.987 7     -2086.339          43.000
R15  21713181.234 5 116028608.460 5       569.270          30.000    21713165.883 4  90244461.308 4       442.753          26.000
R16  22422263.070 7 119775695.802 7      3730.984          46.000    22422263.055 6  93158901.239 6      2901.880          38.000
R21  20415893.445 8 109249593.301 8     -2301.465          50.000    20415897.172 8  84971886.802 8     -1790.028          49.000
C14  22828949.008 6 118876326.593 6     -1757.820          36.000    22828946.516 7  91922806.898 7     -1359.473          43.000
C24  24092024.906 5 125453533.209 5      1702.082          32.000
C26  24627890.273 5 128243886.421 5      -967.859          32.000
C28  24033149.328 7 125146890.866 7     -2679.637          44.000
E03  23543625.820 8 123722598.662 8       528.777          50.000    23543628.977 8  94800520.530 8       405.149          51.000
E05  24723565.898 6 129923231.440 6     -1732.535          36.000    24723567.992 6  99551621.303 6     -1327.533          41.000
E08  24827690.656 7 130470393.875 7      2252.418          43.000    24827695.422 7  99970843.042 7      1725.977          43.000
E15  23809249.406 6 125118434.178 6      -472.574          39.000    23809252.484 7  95869985.138 7      -361.866          43.000
> 2020 05 14 23 00 30.0000000  0 16        .000000000000
G04  20591880.828 8 108211076.428 8     -1305.070          50.000    20591881.414 8  84320368.854 8     -1016.938          50.000
G09  20480563.031 8 107626183.665 8      1030.293          51.000    20480562.516 8  83864553.607 8       802.826          51.000
G17  24075206.031 6 126516037.126 6     -2876.801          39.000    24075204.133 6  98583919.451 6     -2241.663          38.000
G19  23425008.414 7 123099245.749 7     -2689.113          47.000    23425006.250 7  95921460.073 7     -2095.410          43.000
R05  21747745.242 5 116254155.267 5     -2728.176          31.000    21747754.289 4  90419900.990 4     -2121.908          28.000
R16  22401343.227 7 119663946.513 7      3720.059          43.000    22401343.820 6  93071985.182 6      2893.382          38.000
R21  20428867.023 8 109319015.186 8     -2325.715          51.000    20428870.898 8  85025881.605 8     -1808.889          49.000
C14  22839096.484 6 118929168.087 6     -1763.512          36.000    22839094.047 6  91963667.311 6     -1363.686          41.000
C24  24082263.727 6 125402703.114 6      1688.156          37.000
C26  24633509.477 5 128273174.722 5      -983.762          35.000
C27  23827572.336 4 124076416.397 4      -109.770          29.000
C28  24048616.250 7 125227435.410 7     -2688.789          43.000
E03  23540632.391 8 123706865.778 8       521.211          50.000    23540635.016 8  94788465.469 8       399.334          51.000
E05  24733470.711 5 129975265.308 5     -1736.773          33.000    24733473.523 6  99591509.822 6     -1330.739          41.000
E08  24814845.445 6 130402897.227 6      2248.387          40.000    24814850.898 7  99919124.833 7      1722.730          42.000
E15  23811992.469 7 125132846.128 7      -487.348          42.000    23811995.211 7  95881028.012 7      -373.395          42.000
> 2020 05 14 23 01  0.0000000  0 18        .000000000000
G04  20599364.055 8 108250401.013 8     -1315.441          51.000    20599364.648 8  84351011.392 8     -1025.019          50.000
G09  20474718.328 8 107595471.203 8      1018.477          51.000    20474718.234 8  83840621.807 8       793.618          51.000
G17  24091639.336 6 126602393.781 6     -2879.316          39.000    24091636.469 6  98651210.264 6     -2243.626          39.000
G19  23440389.289 7 123180071.120 7     -2698.008          46.000    23440386.859 7  95984440.849 7     -2102.344          44.000
R05  21763073.641 5 116336071.482 5     -2729.828          35.000
R15  21707074.453 5 115996018.114 5       519.633          35.000    21707066.812 4  90219105.028 4       404.159          26.000
R16  22380477.719 6 119552489.525 6      3711.941          41.000    22380479.672 6  92985296.454 6      2887.066          40.000
R21  20441970.227 8 109389127.779 8     -2347.227          51.000    20441972.930 8  85080413.610 8     -1825.621          48.000
C14  22849268.008 5 118982137.555 5     -1766.367          34.000    22849266.211 6  92004626.630 6     -1365.749          41.000
C24  24072576.891 5 125352251.500 5      1676.758          35.000
C25  25851913.305 6 134617700.924 6      3289.297          38.000
C26  24639218.266 6 128302916.335 6      -997.637          36.000
C27  23828246.828 5 124079930.328 5      -123.617          30.000
C28  24064128.891 7 125308212.514 7     -2694.977          43.000
E03  23537674.891 8 123691321.232 8       516.336          50.000    23537676.969 8  94776554.734 8       395.613          51.000
E05                                                                  24743396.305 6  99631465.025 6     -1332.026          40.000
E08  24802015.289 6 130335484.267 6      2246.891          36.000    24802021.648 6  99867470.788 6      1721.700          41.000
E15  23814814.703 7 125147673.616 7      -500.000          43.000    23814815.758 6  95892389.312 6      -383.039          41.000
> 2020 05 14 23 01 30.0000000  0 16        .000000000000
G04  20606933.203 8 108290176.615 8     -1332.281          51.000    20606933.891 8  84382005.380 8     -1038.141          51.000
G09  20468967.844 8 107565253.945 8       999.996          51.000    20468968.250 8  83817075.910 8       779.221          51.000
G17  24108111.953 6 126688958.717 6     -2888.066          40.000    24108109.680 6  98718663.434 6     -2250.441          40.000
G19  23455846.992 7 123261300.635 7     -2713.195          46.000    23455844.188 7  96047736.577 7     -2114.178          42.000
R15  21704247.344 5 115980950.692 5       489.109          33.000
R16  22359685.188 6 119441427.602 6      3696.625          39.000    22359689.602 6  92898914.950 6      2875.153          41.000
R21  20455219.508 8 109460025.638 8     -2375.199          50.000    20455221.539 7  85135556.360 7     -1847.377          47.000
C14  22859482.078 6 119035330.023 6     -1775.906          37.000    22859481.562 7  92045758.401 7     -1373.107          44.000
C24  24062980.938 5 125302275.536 5      1658.934          33.000
C25  25832985.992 6 134519138.088 6      3285.004          37.000
C26  24645034.633 5 128333205.844 5     -1017.551          35.000
C28  24079705.102 7 125389315.306 7     -2707.801          45.000
E03  23534771.242 8 123676060.971 8       505.133          50.000    23534773.023 8  94764861.830 8       387.038          51.000
E05  24753349.672 5 130079730.633 5     -1745.977          32.000    24753354.062 6  99671560.161 6     -1337.943          40.000
E08  24789219.852 5 130268251.392 5      2239.074          33.000    24789224.320 6  99815954.744 6      1715.705          40.000
E15  23817734.211 7 125163012.739 7      -518.668          44.000    23817733.273 6  95904142.662 6      -397.481          41.000
> 2020 05 14 23 02  0.0000000  0 17        .000000000000
G04  20614566.891 8 108330291.159 8     -1343.551          51.000    20614567.547 8  84413263.472 8     -1046.923          51.000
G09  20463290.742 8 107535421.327 8       987.359          51.000    20463291.219 8  83793829.734 8       769.371          51.000
G17  24124602.320 6 126775617.847 6     -2890.754          40.000    24124601.070 6  98786190.007 6     -2252.536          39.000
G19  23471359.742 7 123342820.430 7     -2722.586          47.000    23471356.750 7  96111258.488 7     -2121.496          42.000
R05  21793800.156 5 116500323.667 5     -2740.852          32.000
R15  21701558.898 5 115966628.575 5       464.324          30.000
R16  22338946.266 6 119330652.814 6      3686.844          39.000    22338952.891 6  92812756.760 6      2867.545          40.000
R21  20468593.453 8 109531593.235 8     -2397.473          50.000    20468595.180 7  85191220.051 7     -1864.701          47.000
C14  22869718.906 5 119088635.563 5     -1778.973          32.000    22869718.875 7  92086977.610 7     -1376.019          43.000
C24  24053455.250 6 125252667.414 6      1646.871          37.000
C25  25814052.797 6 134420548.063 6      3285.906          37.000
C26  24650935.289 6 128363932.656 6     -1032.328          36.000
C28  24095322.711 7 125470631.596 7     -2714.941          47.000
E03  23531900.445 8 123660974.044 8       499.258          50.000    23531901.898 8  94753301.719 8       382.554          51.000
E05  24763321.070 5 130132129.667 5     -1748.676          33.000    24763325.023 6  99711710.058 6     -1339.823          40.000
E08                                                                  24776439.164 6  99764492.021 6      1713.825          38.000
E15  23820729.961 7 125178752.720 7      -531.984          43.000    23820727.656 6  95916203.178 6      -407.559          41.000
> 2020 05 14 23 02 30.0000000  0 17        .000000000000
G04  20622275.836 8 108370801.481 8     -1353.734          51.000    20622276.492 8  84444829.969 8     -1054.858          51.000
G09  20457697.906 8 107506031.956 8       975.543          51.000    20457698.664 8  83770928.949 8       760.163          51.000
G17  24141120.891 6 126862426.568 6     -2893.246          39.000    24141120.461 6  98853833.140 6     -2254.477          39.000
G19  23486938.211 7 123424685.905 7     -2731.348          46.000    23486935.344 7  96175049.747 7     -2128.323          44.000
R15  21699041.102 5 115953073.492 5       440.355          35.000
R16  22318274.555 6 119220229.695 6      3677.867          41.000    22318281.039 6  92726872.101 6      2860.563          39.000
R21  20482103.047 8 109603886.621 8     -2418.578          50.000    20482104.383 7  85247448.240 7     -1881.116          47.000
C14  22879988.461 5 119142112.127 5     -1782.215          35.000    22879988.938 7  92128329.013 7     -1378.288          43.000
C24  24044012.562 6 125203487.338 6      1635.188          38.000
C25  25795125.711 6 134321991.211 6      3287.758          38.000
C26  24656931.031 5 128395154.143 5     -1045.770          33.000
C27  23830887.852 4 124093689.725 4      -176.891          29.000
C28  24110991.742 7 125552217.117 7     -2720.832          46.000
E03  23529073.555 8 123646118.790 8       494.359          49.000    23529074.898 8  94741919.118 8       378.777          51.000
E05  24773318.320 6 130184657.941 6     -1750.277          36.000    24773320.555 6  99751958.948 6     -1340.981          39.000
E08                                                                  24763679.875 6  99713127.689 6      1712.838          38.000
E15  23823811.547 6 125194952.236 6      -544.570          39.000    23823809.945 7  95928615.775 7      -417.274          42.000
> 2020 05 14 23 03  0.0000000  0 19        .000000000000
G03  22326247.781 5 117325240.983 5     -2460.695          35.000    22326248.281 5  91422243.069 5     -1917.419          35.000
G04  20630048.219 8 108411644.974 8     -1369.789          51.000    20630048.664 8  84476656.067 8     -1067.368          51.000
G09  20452177.805 8 107477024.604 8       957.781          51.000    20452178.969 8  83748325.848 8       746.323          51.000
G17  24157655.453 6 126949320.758 6     -2900.539          37.000    24157655.570 6  98921542.906 6     -2260.160          37.000
G19  23502569.953 7 123506832.645 7     -2745.656          45.000    23502567.664 7  96239060.202 7     -2139.469          42.000
R07  22074439.312 5 118166196.187 5      2653.945          30.000
R15  21696666.547 6 115940303.062 6       410.703          36.000
R16  22297658.680 6 119110100.666 6      3663.051          41.000    22297663.875 6  92641216.254 6      2849.043          39.000
R21  20495735.758 8 109676840.271 8     -2445.645          48.000    20495737.594 8  85304189.962 8     -1902.171          48.000
C14  22890279.594 6 119195698.747 6     -1791.055          36.000    22890279.461 7  92169765.595 7     -1384.773          42.000
C24  24034639.750 6 125154676.374 6      1618.062          41.000
C25  25776193.531 6 134223409.407 6      3283.969          37.000
C26  24663011.203 5 128426808.905 5     -1064.824          31.000
C27  23831955.758 4 124099256.622 4      -196.145          29.000
C28  24126699.234 7 125634008.880 7     -2732.609          45.000
E03  23526278.711 8 123631433.606 8       483.824          48.000    23526280.469 8  94730666.823 8       370.746          51.000
E05  24783328.141 6 130237253.652 6     -1757.441          38.000    24783329.336 6  99792259.532 6     -1346.416          39.000
E08  24750950.289 5 130067084.857 5      2228.055          34.000    24750935.297 6  99661814.923 6      1707.477          37.000
E15  23826968.297 6 125211549.883 6      -563.035          39.000    23826968.930 7  95941333.428 7      -431.207          44.000
> 2020 05 14 23 03 30.0000000  0 19        .000000000000
G03  22340308.703 5 117399125.252 5     -2461.812          34.000    22340312.500 5  91479815.277 5     -1918.298          34.000
G04  20637894.641 8 108452877.381 8     -1376.094          51.000    20637894.836 8  84508785.213 8     -1072.281          51.000
G09  20446741.547 8 107448456.543 8       949.555          51.000    20446742.789 8  83726065.037 8       739.916          51.000
G17  24174217.195 5 127036355.210 5     -2898.238          35.000    24174217.109 6  98989361.952 6     -2258.364          37.000
G19  23518265.492 7 123589315.084 7     -2750.219          45.000    23518263.758 7  96303332.252 7     -2143.028          44.000
R05  21840013.547 5 116747327.193 5     -2746.414          35.000
R07  22059576.820 5 118086625.556 5      2653.996          31.000
R15  21694435.391 5 115928454.486 5       390.375          34.000
R16  22277109.859 7 119000328.998 7      3657.820          42.000    22277113.734 6  92555838.384 6      2844.974          39.000
R21  20509502.391 8 109750509.255 8     -2462.668          49.000    20509505.047 8  85361488.061 8     -1915.405          49.000
C14  22900602.445 5 119249452.142 5     -1789.566          34.000    22900600.891 6  92211331.191 6     -1384.075          39.000
C24  24025348.953 6 125106293.370 6      1610.414          38.000
C25  25757268.141 6 134124861.968 6      3288.918          38.000
C26  24669187.219 4 128458930.224 4     -1074.863          27.000
C28  24142456.281 7 125716061.379 7     -2734.664          44.000
E03  23523527.094 8 123616975.661 8       482.953          49.000    23523529.383 8  94719588.673 8       370.001          51.000
E05  24793361.219 6 130289973.556 6     -1754.215          38.000    24793361.836 6  99832655.358 6     -1344.381          39.000
E08  24738231.055 5 130000283.316 5      2230.750          35.000    24738215.938 6  99610598.018 6      1709.273          38.000
E15  23830212.625 6 125228602.817 6      -571.312          40.000    23830215.156 7  95954399.969 7      -437.642          45.000
> 2020 05 14 23 04  0.0000000  0 20        .000000000000
G03  22354407.977 5 117473222.666 5     -2475.125          32.000    22354412.164 5  91537553.498 5     -1928.666          32.000
G04  20645811.750 8 108494481.504 8     -1394.484          51.000    20645812.000 8  84541204.003 8     -1086.611          51.000
G09  20441385.953 8 107420312.097 8       929.648          51.000    20441387.008 8  83704134.316 8       724.401          51.000
G17  24190803.031 6 127123511.089 6     -2908.664          37.000    24190801.812 6  99057275.596 6     -2266.488          38.000
G19  23534021.375 7 123672113.772 7     -2766.551          46.000    23534020.047 7  96367850.700 7     -2155.754          44.000
R05  21855479.547 5 116830047.428 5     -2756.949          31.000
R07  22044743.148 5 118007230.032 5      2642.523          31.000
R15  21692341.273 5 115917278.202 5       357.805          34.000    21692343.266 5  90157893.146 5       278.293          30.000
R16  22256626.336 7 118890903.010 7      3640.285          42.000    22256628.617 6  92470729.296 6      2831.333          39.000
R21  20523399.695 8 109824874.282 8     -2491.879          51.000    20523402.664 8  85419327.538 8     -1938.128          49.000
R22  21266936.000 4 113524344.763 4      1813.961          28.000    21266931.875 4  88296697.547 4      1410.859          29.000
C14  22910953.922 5 119303356.523 5     -1800.637          35.000    22910952.172 6  92253013.447 6     -1392.448          40.000
C24  24016136.758 6 125058324.539 6      1590.617          40.000
C25  25738346.703 6 134026335.673 6      3282.469          36.000
C26  24675451.633 4 128491548.294 4     -1096.629          29.000
C28  24158260.367 7 125798356.568 7     -2748.523          44.000
E03  23520815.930 8 123602728.745 8       470.016          50.000    23520818.367 8  94708672.206 8       360.142          51.000
E05  24803414.398 6 130342801.498 6     -1764.074          37.000    24803415.195 6  99873133.856 6     -1351.654          39.000
E08  24725532.625 5 129933547.257 5      2220.992          35.000    24725519.047 6  99559464.909 6      1702.024          40.000
E15  23833540.953 6 125246095.222 6      -591.789          40.000    23833544.367 7  95967803.264 7      -453.365          45.000
> 2020 05 14 23 04 30.0000000  0 18        .000000000000
G03  22368568.422 5 117547637.933 5     -2480.434          32.000    22368572.039 5  91595539.372 5     -1932.808          32.000
G04  20653819.234 8 108536560.885 8     -1405.121          51.000    20653819.555 8  84573993.129 8     -1094.900          51.000
G09  20436130.883 8 107392696.424 8       917.098          51.000    20436131.609 8  83682615.626 8       714.625          51.000
G17  24207431.797 6 127210890.716 6     -2910.926          39.000    24207429.711 6  99125363.597 6     -2268.254          38.000
G19  23549856.984 7 123755331.005 7     -2775.387          45.000    23549855.789 7  96432695.285 7     -2162.639          45.000
R05  21870941.891 5 116912708.288 5     -2758.477          33.000
R16  22236228.039 7 118781934.804 7      3629.863          42.000    22236229.727 6  92385976.276 6      2823.227          40.000
R21  20537447.109 8 109900039.149 8     -2513.207          51.000    20537449.539 8  85477789.102 8     -1954.717          49.000
R22  21256831.844 4 113470386.619 4      1790.176          29.000
C14  22921355.258 5 119357515.769 5     -1804.125          35.000    22921353.672 6  92294892.818 6     -1395.179          41.000
C24  24007024.641 6 125010876.111 6      1578.598          37.000
C25  25719449.617 5 133927937.087 5      3283.148          35.000
C26  24681823.359 5 128524741.694 5     -1110.270          31.000
C28  24174130.625 6 125880996.338 6     -2754.953          41.000
E03  23518165.039 8 123588797.918 8       464.453          49.000    23518167.375 8  94697997.944 8       355.883          51.000
E05  24813507.750 6 130395841.741 6     -1766.395          36.000    24813509.102 6  99913775.099 6     -1353.399          39.000
E08  24712873.258 6 129867028.985 6      2219.016          37.000    24712863.891 6  99508496.439 6      1700.452          41.000
E15  23836972.797 6 125264132.217 6      -604.957          38.000    23836975.984 7  95981623.831 7      -463.512          44.000
> 2020 05 14 23 05  0.0000000  0 16        .000000000000
G03  22382747.836 6 117622149.116 6     -2489.805          37.000    22382752.164 6  91653600.061 6     -1940.108          37.000
G04  20661874.742 8 108578892.697 8     -1420.195          51.000    20661875.062 8  84606978.959 8     -1106.646          51.000
G09  20430934.508 8 107365388.232 8       900.172          51.000    20430934.711 8  83661336.539 8       701.433          51.000
G17  24224060.266 6 127298269.621 6     -2917.461          40.000    24224058.211 6  99193451.021 6     -2273.349          40.000
G19  23565729.578 7 123838742.302 7     -2788.551          44.000    23565727.938 7  96497691.077 7     -2172.897          44.000
R05  21886427.672 5 116995502.604 5     -2765.395          31.000
R16  22215874.023 6 118673203.936 6      3615.336          41.000    22215875.188 6  92301407.804 6      2811.925          38.000
R21  20551600.844 8 109975774.980 8     -2539.152          49.000    20551602.352 7  85536694.746 7     -1974.893          46.000
C14  22931763.898 6 119411710.411 6     -1812.359          36.000    22931762.484 6  92336799.545 6     -1401.162          41.000
C24  23997971.633 6 124963730.722 6      1561.684          41.000
C25  25700536.039 6 133829449.432 6      3278.973          36.000
C28  24190023.945 6 125963758.988 6     -2765.574          40.000
E03  23515532.102 8 123574961.591 8       454.734          50.000    23515534.406 8  94687396.082 8       348.475          51.000
E05  24823598.977 6 130448872.567 6     -1772.262          37.000    24823601.047 6  99954409.150 6     -1358.158          39.000
E08  24700213.281 6 129800504.528 6      2212.797          37.000    24700207.625 7  99457523.182 7      1695.376          43.000
E15  23840465.945 6 125282492.341 6      -622.059          38.000    23840468.867 7  95995691.999 7      -476.837          44.000
> 2020 05 14 23 05 30.0000000  0 15        .000000000000
G03  22396978.172 5 117696927.181 5     -2494.629          34.000    22396979.977 5  91711868.800 5     -1943.864          35.000
G04  20670010.477 8 108621646.388 8     -1430.031          51.000    20670010.781 8  84640293.517 8     -1114.310          51.000
G09  20425829.188 8 107338558.335 8       888.520          51.000    20425829.266 8  83640430.136 8       692.353          51.000
G17  24240720.117 6 127385815.841 6     -2918.488          38.000    24240718.812 6  99261668.829 6     -2274.147          38.000
G19  23581671.023 7 123922515.109 7     -2796.273          45.000    23581668.586 7  96562968.591 7     -2178.914          44.000
R16  22195597.094 6 118564889.234 6      3605.621          40.000    22195598.258 6  92217163.067 6      2804.375          37.000
R21  20565891.977 8 110052252.478 8     -2559.316          49.000    20565892.344 7  85596177.234 7     -1990.582          44.000
C14  22942211.742 5 119466109.718 5     -1814.883          31.000    22942210.164 6  92378864.483 6     -1403.059          39.000
C24  23989009.320 6 124917059.511 6      1550.012          40.000
C25  25681639.031 6 133731044.647 6      3280.938          37.000
C28  24205971.922 5 126046811.549 5     -2771.441          35.000
E03  23512949.828 8 123561390.426 8       449.938          50.000    23512952.023 8  94676997.403 8       344.763          51.000
E05  24833720.414 6 130502064.262 6     -1773.652          38.000    24833723.641 6  99995166.460 6     -1358.984          39.000
E08  24687584.727 6 129734144.946 6      2211.102          38.000    24687582.297 7  99406676.300 7      1694.319          43.000
E15  23844053.781 6 125301346.357 6      -634.617          38.000    23844055.672 7  96010138.580 7      -486.229          43.000
> 2020 05 14 23 06  0.0000000  0 18        .000000000000
G03  22411237.188 5 117771861.226 5     -2503.051          33.000    22411238.867 5  91770258.965 5     -1950.432          32.000
G04  20678205.156 8 108664710.180 8     -1443.637          51.000    20678205.281 8  84673849.732 8     -1124.912          51.000
G09  20420793.586 8 107312096.530 8       872.973          51.000    20420793.992 8  83619810.529 8       680.235          51.000
G17  24257389.703 5 127473416.271 5     -2923.539          33.000    24257389.547 5  99329928.940 5     -2278.082          32.000
G19  23597659.773 7 124006536.052 7     -2807.797          45.000    23597656.570 7  96628439.419 7     -2187.894          44.000
R05  21917473.016 5 117161452.024 5     -2770.656          33.000    21917473.773 4  91125588.215 4     -2154.952          27.000
R16  22175377.398 6 118456883.083 6      3592.062          40.000    22175378.641 5  92133158.293 5      2793.826          34.000
R21  20580300.008 8 110129355.849 8     -2583.621          48.000    20580299.672 7  85656146.507 7     -2009.483          44.000
R22  21227272.078 6 113312603.416 6      1712.387          36.000    21227299.016 4  88132103.452 4      1331.847          24.000
C14  22952675.922 5 119520604.363 5     -1820.848          35.000    22952675.164 6  92421003.148 6     -1408.221          36.000
C24  23980116.328 6 124870754.922 6      1534.543          36.000
C25  25662737.461 5 133632615.935 5      3278.395          35.000
C27  23840475.406 5 124143607.977 5      -298.215          31.000
C28  24221951.625 5 126130042.166 5     -2780.340          33.000
E03  23510397.008 8 123547973.895 8       441.598          50.000    23510399.117 8  94666717.217 8       338.328          51.000
E05  24843851.266 5 130555306.067 5     -1778.668          35.000    24843856.625 6 100035962.134 6     -1362.795          40.000
E08  24674966.531 5 129667840.232 5      2206.180          35.000    24674966.031 6  99355871.436 6      1690.611          41.000
E15  23847714.938 6 125320583.884 6      -650.809          37.000    23847715.344 7  96024879.006 7      -498.570          43.000
> 2020 05 14 23 06 30.0000000  0 17        .000000000000
G03  22425546.578 5 117847044.838 5     -2509.125          33.000    22425558.852 5  91828883.809 5     -1955.171          33.000
G04  20686480.477 8 108708197.448 8     -1454.043          51.000    20686480.430 8  84707735.909 8     -1133.020          51.000
G09  20415849.773 8 107286117.651 8       860.492          51.000    20415850.406 8  83599567.249 8       670.513          51.000
G19  23613716.938 7 124090916.967 7     -2816.199          45.000    23613713.500 7  96694190.782 7     -2194.441          44.000
R05  21933035.664 4 117244627.740 4     -2772.848          28.000    21933038.680 5  91190280.505 5     -2156.662          30.000
R15  21684133.578 5 115873427.904 5       227.418          32.000
R16  22155238.625 6 118349307.024 6      3581.293          41.000    22155238.953 5  92049488.051 5      2785.450          34.000
R21  20594846.250 8 110207198.852 8     -2604.391          48.000    20594846.898 7  85716691.062 7     -2025.637          45.000
C14  22963181.523 5 119575307.865 5     -1824.500          33.000    22963181.188 5  92463303.537 5     -1410.795          35.000
C24  23971318.492 5 124824933.026 5      1521.633          35.000
C25  25643853.469 5 133534279.551 5      3278.336          32.000
C27  23842238.727 5 124152800.875 5      -313.680          32.000
C28  24237991.211 6 126213562.788 6     -2786.160          38.000
E03  23507895.102 8 123534826.597 8       436.395          49.000    23507897.211 8  94656643.339 8       334.350          51.000
E05  24854013.828 6 130608712.366 6     -1780.281          36.000    24854020.477 6 100076883.870 6     -1364.234          39.000
E08  24662380.914 5 129601705.636 5      2203.965          35.000    24662380.859 6  99305196.901 6      1689.046          40.000
E15  23851471.000 6 125340319.778 6      -663.648          37.000    23851470.312 7  96040001.273 7      -508.360          43.000
> 2020 05 14 23 07  0.0000000  0 18        .000000000000
G03  22439891.805 5 117922416.583 5     -2515.160          35.000    22439897.742 5  91887614.912 5     -1959.871          34.000
G04  20694816.469 8 108752003.388 8     -1465.691          51.000    20694816.609 8  84741870.412 8     -1142.097          51.000
G07  23780690.703 6 124968371.116 6      3353.598          37.000    23780687.523 6  97377942.887 6      2613.196          36.000
G09  20410978.266 8 107260518.444 8       846.824          51.000    20410978.742 8  83579619.827 8       659.863          51.000
G19  23629822.234 7 124175551.320 7     -2825.461          45.000    23629818.977 7  96760139.646 7     -2201.658          44.000
R15  21682933.938 5 115867016.760 5       201.520          34.000    21682941.047 4  90118844.963 4       156.725          29.000
R16  22135161.656 7 118242061.085 7      3569.262          42.000    22135161.961 5  91966074.602 5      2776.095          35.000
R21  20609511.086 8 110285672.834 8     -2626.422          50.000    20609512.562 7  85777726.373 7     -2042.773          46.000
C14  22973707.266 6 119630117.933 6     -1828.629          36.000    22973708.086 5  92505686.044 5     -1413.906          34.000
C24  23962595.273 5 124779516.931 5      1508.320          32.000
C25  25624967.281 5 133435935.676 5      3277.824          34.000
C26  24714967.305 5 128697314.039 5     -1188.602          30.000
C27  23844092.219 5 124162458.025 5      -330.039          35.000
C28  24254067.031 6 126297268.685 6     -2793.254          41.000
E03  23505424.641 8 123521845.135 8       430.035          49.000    23505426.617 8  94646696.512 8       329.463          51.000
E05  24864188.844 6 130662179.358 6     -1783.398          37.000    24864195.211 6 100117852.088 6     -1366.327          38.000
E08  24649807.320 5 129535637.978 5      2200.957          35.000    24649807.000 6  99254573.672 6      1686.525          39.000
E15  23855302.000 6 125360450.541 6      -677.441          37.000    23855301.453 7  96055426.067 7      -519.090          44.000
> 2020 05 14 23 07 30.0000000  0 20        .000000000000
G03  22454291.047 6 117998072.082 6     -2524.914          38.000    22454287.695 6  91946567.317 6     -1967.466          38.000
G04  20703235.102 8 108796243.697 8     -1480.207          51.000    20703235.312 8  84776343.392 8     -1153.405          51.000
G07  23761571.852 6 124867901.676 6      3347.379          38.000    23761568.188 6  97299655.056 6      2608.347          38.000
G09  20406201.281 8 107235415.974 8       830.113          51.000    20406201.352 8  83560059.464 8       646.842          51.000
G19  23645997.242 7 124260553.032 7     -2837.758          43.000    23645994.391 7  96826374.725 7     -2211.240          43.000
G22  24759308.430 5 130111045.299 5     -2951.832          32.000
R05  21964208.750 4 117411288.722 4     -2781.527          29.000    21964206.664 4  91319884.035 4     -2163.407          26.000
R15  21681908.055 6 115861501.926 6       172.023          38.000    21681897.664 4  90114499.907 4       133.799          27.000
R16  22115170.391 7 118135269.272 7      3553.734          44.000    22115170.664 6  91883014.364 6      2764.019          36.000
R21  20624315.398 8 110364893.392 8     -2651.555          49.000    20624317.523 7  85839342.387 7     -2062.317          46.000
R22  21199032.211 5 113161878.763 5      1635.809          31.000
C14  22984276.828 6 119685150.430 6     -1836.648          37.000    22984277.547 5  92548240.621 5     -1420.089          32.000
C24  23953967.844 5 124734577.128 5      1491.477          35.000
C25  25606102.641 5 133337703.119 5      3272.984          30.000
C26  24721873.602 5 128733295.618 5     -1207.012          33.000
C28  24270199.719 6 126381273.506 6     -2803.418          40.000
E03  23503008.086 8 123509146.467 8       420.297          50.000    23503009.867 8  94636966.357 8       321.974          51.000
E05  24874397.344 6 130715823.679 6     -1789.617          39.000    24874403.289 6 100158956.201 6     -1371.002          37.000
E08  24637269.641 6 129469754.782 6      2194.641          36.000    24637268.750 6  99204091.755 6      1681.518          41.000
E15  23859230.703 6 125381093.008 6      -694.891          40.000    23859230.492 7  96071242.992 7      -532.529          45.000
> 2020 05 14 23 08  0.0000000  0 18        .000000000000
G03  22468723.727 6 118073912.263 6     -2529.535          39.000    22468723.047 6  92005663.588 6     -1971.066          39.000
G04  20711717.336 8 108840817.999 8     -1489.863          51.000    20711717.359 8  84811076.634 8     -1160.932          51.000
G07  23742472.250 6 124767531.658 6      3345.316          39.000    23742468.258 6  97221444.681 6      2606.740          39.000
G09  20401500.078 8 107210711.292 8       818.426          51.000    20401500.023 8  83540809.097 8       637.737          51.000
G19  23662222.844 7 124345819.904 7     -2845.004          45.000    23662220.117 7  96892816.437 7     -2216.886          43.000
G22  24776168.891 5 130199645.531 5     -2953.082          33.000
R15  21681011.656 5 115856704.364 5       147.637          35.000
R16  22095246.008 7 118028835.924 7      3543.285          42.000    22095246.711 6  91800232.915 6      2755.891          37.000
R21  20639238.922 8 110444756.662 8     -2671.355          49.000    20639242.211 7  85901458.292 7     -2077.721          45.000
C14  22994869.391 5 119740307.109 5     -1839.441          34.000
C24  23945415.805 5 124690041.044 5      1478.336          30.000
C25  25587239.930 4 133239476.074 4      3274.676          29.000
C26  24728867.008 5 128769718.191 5     -1219.949          33.000
C28  24286369.117 6 126465476.943 6     -2808.773          36.000
E03  23500626.516 8 123496631.341 8       415.477          50.000    23500628.219 8  94627376.849 8       318.352          51.000
E05  24884620.148 6 130769545.950 6     -1790.754          40.000    24884624.727 6 100200120.039 6     -1372.097          36.000
E08  24624749.438 5 129403930.408 5      2193.109          35.000    24624747.875 6  99153675.700 6      1680.662          41.000
E15  23863237.766 6 125402148.152 6      -706.934          39.000    23863238.141 7  96087376.210 7      -541.892          45.000
> 2020 05 14 23 08 30.0000000  0 17        .000000000000
G03  22483195.336 6 118149957.173 6     -2540.754          38.000    22483195.359 6  92064919.311 6     -1979.808          38.000
G04  20720266.750 8 108885745.378 8     -1505.828          51.000    20720266.773 8  84846084.985 8     -1173.373          51.000
G07  23723396.211 6 124667284.682 6      3336.887          38.000    23723393.203 6  97143330.180 6      2600.171          38.000
G09  20396878.438 8 107186425.102 8       800.184          51.000    20396878.617 8  83521884.803 8       623.520          51.000
G19  23678502.453 7 124431369.595 7     -2858.699          44.000    23678499.719 7  96959478.548 7     -2227.558          43.000
R16  22075393.086 6 117922786.368 6      3526.023          41.000    22075394.867 6  91717749.958 6      2742.463          38.000
R21  20654286.336 8 110525280.044 8     -2697.492          49.000    20654289.758 7  85964087.545 7     -2098.049          44.000
R22  21180922.516 5 113065218.916 5      1583.250          31.000
C14  23005488.680 5 119795608.635 5     -1848.363          33.000    23005487.555 5  92633563.048 5     -1428.782          30.000
C24  23936943.867 5 124645931.278 5      1460.578          33.000
C25  25568384.680 5 133141297.842 5      3269.582          35.000
C26  24735948.023 5 128806601.236 5     -1239.117          34.000
C28  24302577.328 5 126549898.039 5     -2820.051          30.000
E03  23498283.758 8 123484320.174 8       404.613          51.000    23498285.500 8  94617943.628 8       310.013          51.000
E05  24894861.922 6 130823366.247 6     -1798.352          40.000    24894865.812 6 100241358.943 6     -1377.706          37.000
E08  24612250.961 5 129338249.801 5      2185.477          34.000    24612247.406 6  99103341.353 6      1674.598          41.000
E15  23867325.781 6 125423636.633 6      -725.805          37.000    23867328.203 7  96103841.463 7      -556.136          46.000
> 2020 05 14 23 09  0.0000000  0 17        .000000000000
G03  22497703.445 5 118226195.316 5     -2544.195          33.000    22497702.336 5  92124325.690 5     -1982.484          31.000
G04  20728880.859 8 108931012.877 8     -1513.926          51.000    20728880.938 8  84881358.379 8     -1179.682          51.000
G07  23704341.320 6 124567151.778 6      3336.441          38.000    23704339.570 6  97065304.580 6      2599.828          38.000
G09  20392334.156 8 107162545.859 8       789.703          51.000    20392334.477 8  83503277.605 8       615.353          51.000
G19  23694832.812 7 124517187.144 7     -2864.566          42.000    23694830.461 7  97026349.353 7     -2232.130          42.000
R15  21679663.188 6 115849495.446 6        93.730          36.000
R16  22055610.664 7 117817113.980 7      3516.680          42.000    22055613.484 6  91635560.379 6      2735.195          37.000
R21  20669454.781 8 110606448.265 8     -2715.625          49.000    20669457.758 7  86027218.329 7     -2112.153          44.000
R22  21172075.430 5 113017996.986 5      1559.973          30.000
C14  23016135.914 5 119851043.089 5     -1849.086          35.000    23016127.969 6  92676428.694 6     -1430.269          36.000
C24  23928552.406 5 124602238.098 5      1450.047          33.000
C25  25549535.258 6 133043149.580 6      3271.699          36.000
C26  24743116.852 5 128843932.591 5     -1251.117          34.000
E03  23495977.703 8 123472201.331 8       401.383          51.000    23495979.391 8  94608657.781 8       307.514          51.000
E05  24905120.688 6 130877272.627 6     -1797.766          40.000    24905125.102 6 100282663.820 6     -1377.566          37.000
E08                                                                  24599765.484 6  99053080.141 6      1674.574          41.000
E15  23871494.430 6 125445546.729 6      -736.902          41.000    23871498.281 7  96120629.729 7      -564.580          47.000
> 2020 05 14 23 09 30.0000000  0 17        .000000000000
G04  20737556.539 8 108976603.779 8     -1534.719          51.000    20737556.281 8  84916883.755 8     -1195.885          51.000
G07  23685305.719 6 124467120.330 6      3323.105          39.000    23685304.766 6  96987358.017 6      2589.433          39.000
G09  20387864.609 8 107139058.170 8       766.785          51.000    20387864.891 8  83484975.524 8       597.495          51.000
G19  23711210.656 7 124603254.500 7     -2882.930          42.000    23711208.922 7  97093414.799 7     -2246.439          42.000
R05  22026801.891 5 117745897.567 5     -2803.172          31.000
R15  21679213.336 5 115847149.918 5        58.109          33.000
R16  22035897.469 7 117711807.821 7      3494.238          43.000    22035900.320 6  91553655.601 6      2717.744          36.000
R21  20684740.352 8 110688242.260 8     -2746.781          50.000    20684742.398 7  86090835.889 7     -2136.385          43.000
R22  21163385.281 5 112971577.731 5      1525.809          31.000
C14  23026803.703 4 119906595.591 4     -1863.602          29.000    23026794.023 5  92719385.383 5     -1440.741          34.000
C24  23920234.602 4 124558940.300 4      1426.449          29.000
C25  25530689.766 6 132945018.540 6      3261.477          38.000
C26  24750369.297 5 128881696.220 5     -1275.867          33.000
C27  23854852.078 4 124218522.268 4      -423.211          27.000
E03  23493705.195 8 123460259.321 8       385.398          51.000    23493706.875 8  94599507.410 8       295.302          51.000
E05  24915392.812 6 130931249.259 6     -1809.938          40.000    24915398.805 6 100324022.520 6     -1386.817          37.000
E15  23875741.602 7 125467862.991 7      -760.230          44.000    23875745.250 7  96137729.207 7      -582.574          47.000
> 2020 05 14 23 10  0.0000000  0 16        .000000000000
G04  20746278.930 8 109022440.469 8     -1537.000          51.000    20746278.422 8  84952600.647 8     -1197.662          51.000
G07  23666275.164 6 124367116.841 6      3327.840          39.000    23666274.922 6  96909433.196 6      2593.119          39.000
G09  20383455.164 8 107115885.999 8       762.133          51.000    20383455.500 8  83466919.297 8       593.870          51.000
G19  23727620.906 7 124689492.123 7     -2882.230          44.000    23727619.859 7  97160612.944 7     -2245.894          42.000
R15  21678887.656 5 115845391.299 5        40.660          31.000    21678868.297 4  90101913.696 4        31.625          26.000
R16  22016239.711 7 117606795.875 7      3490.430          44.000    22016241.898 5  91471979.663 5      2714.779          35.000
R21  20700128.219 8 110770580.915 8     -2758.723          51.000    20700129.320 7  86154877.061 7     -2145.676          44.000
C14  23037479.539 5 119962190.506 5     -1858.777          32.000    23037471.328 5  92762374.920 5     -1437.593          34.000
C24  23911981.148 5 124515975.219 5      1421.020          32.000
C25  25511833.742 6 132846832.001 6      3268.715          38.000
C26  24757689.570 5 128919815.781 5     -1281.844          35.000
C27  23857296.109 5 124231197.347 5      -430.344          32.000
C28  24351436.773 6 126804286.040 6     -2837.090          39.000
E03  23491451.602 8 123448417.907 8       388.051          51.000    23491453.562 8  94590434.115 8       297.383          51.000
E05  24925663.594 6 130985219.723 6     -1803.965          38.000    24925670.375 6 100365376.467 6     -1382.067          37.000
E15  23880051.758 7 125490509.087 7      -765.348          45.000    23880054.125 7  96155081.383 7      -586.435          46.000
> 2020 05 14 23 10 30.0000000  0 14        .000000000000
G04  20755124.867 8 109068926.815 8     -1532.273          51.000    20755124.438 8  84988823.766 8     -1193.979          50.000
G07  23647327.258 6 124267549.109 6      3339.672          40.000    23647327.727 6  96831847.965 6      2602.342          40.000
G09  20379182.836 8 107093434.602 8       764.500          51.000    20379183.289 8  83449424.715 8       595.714          51.000
G19  23744140.242 7 124776302.199 7     -2875.000          44.000    23744139.633 6  97228257.173 6     -2240.260          41.000
R16  21996714.578 6 117502494.677 6      3493.434          41.000    21996716.422 5  91390856.557 5      2717.118          34.000
R21  20715693.992 8 110853873.396 8     -2763.590          50.000    20715694.586 7  86219660.089 7     -2149.462          45.000
C14                                                                  23048234.930 5  92805707.859 5     -1428.701          34.000
C25  25493045.414 6 132748994.210 6      3283.363          40.000
C26  24765154.812 5 128958692.287 5     -1281.055          34.000
C27  23859853.781 5 124244489.101 5      -431.523          32.000
C28  24367846.516 7 126889709.805 7     -2828.094          42.000
E03  23489294.281 8 123437082.152 8       397.602          51.000    23489296.766 8  94581748.280 8       304.743          51.000
E05  24936009.820 6 131039588.885 6     -1790.621          38.000    24936015.812 6 100407035.980 6     -1372.136          37.000
E15  23884501.570 7 125513890.154 7      -763.402          45.000    23884502.047 7  96172996.763 7      -584.972          45.000
> 2020 05 14 23 11  0.0000000  0 17        .000000000000
G03  22556122.836 5 118533227.235 5     -2578.145          35.000    22556135.961 5  92363574.656 5     -2008.935          32.000
G04  20764003.656 8 109115585.657 8     -1567.316          51.000    20764003.312 8  85025181.291 8     -1221.286          50.000
G07  23628372.375 6 124167944.068 6      3311.645          41.000    23628373.242 6  96754233.658 6      2580.502          41.000
G09  20374957.359 8 107071228.128 8       726.844          51.000    20374957.789 8  83432120.983 8       566.372          51.000
G19  23760677.719 7 124863206.150 7     -2907.289          44.000    23760676.719 6  97295974.551 6     -2265.423          40.000
R16  21977232.172 6 117398425.169 6      3455.762          37.000    21977234.531 5  91309913.697 5      2687.818          33.000
R21  20731345.734 8 110937631.698 8     -2809.070          49.000    20731347.117 7  86284805.451 7     -2184.832          45.000
C14                                                                  23058992.070 5  92849019.573 5     -1450.473          33.000
C24  23895844.703 5 124431933.423 5      1385.512          31.000
C25  25474234.367 6 132651036.389 6      3257.559          38.000
C26  24772675.508 5 128997853.145 5     -1319.012          33.000
C27  23862482.391 5 124258222.576 5      -471.773          33.000
C28  24384260.461 7 126975166.984 7     -2858.191          43.000
E03  23487142.805 8 123425776.282 8       367.090          50.000    23487145.633 8  94573085.357 8       281.253          51.000
E05  24946340.930 6 131093880.611 6     -1817.824          38.000    24946347.070 6 100448636.134 6     -1392.612          37.000
E08  24550051.328 5 129011385.509 5      2164.180          34.000    24550044.766 6  98852862.795 6      1658.151          37.000
E15  23889000.328 7 125537530.180 7      -801.590          45.000    23888999.773 7  96191110.561 7      -614.199          46.000
> 2020 05 14 23 11 30.0000000  0 17        .000000000000
G03  22570855.680 5 118610644.233 5     -2581.574          30.000    22570866.930 5  92423934.729 5     -2011.622          30.000
G04  20772981.883 8 109162767.005 8     -1575.324          51.000    20772981.609 8  85061945.971 8     -1227.525          50.000
G07  23609477.961 7 124068656.270 7      3310.258          42.000    23609478.930 7  96676866.540 7      2579.419          42.000
G09  20370845.406 8 107049618.147 8       716.578          51.000    20370845.719 8  83415282.037 8       558.373          51.000
G19  23777299.461 7 124950552.040 7     -2912.609          46.000    23777297.258 6  97364036.285 6     -2269.566          40.000
R15  21678931.797 5 115845631.053 5       -41.703          34.000    21678934.414 4  90102169.075 4       -32.439          27.000
R16  21957860.805 6 117294949.927 6      3445.285          37.000    21957863.977 5  91229433.012 5      2679.669          31.000
R21  20747150.672 8 111022210.139 8     -2826.656          50.000    20747153.188 7  86350588.659 7     -2198.513          46.000
C14  23069813.016 5 120130590.532 5     -1877.406          30.000    23069810.445 6  92892579.481 6     -1451.373          38.000
C24  23887879.672 5 124390584.261 5      1374.402          31.000
C25  25455467.609 5 132553309.249 5      3259.770          35.000
C26  24780317.883 5 129037645.918 5     -1330.559          35.000
C28  24400745.266 7 127061003.729 7     -2861.484          43.000
E03  23485063.797 8 123414851.438 8       363.945          50.000    23485066.516 8  94564714.380 8       278.897          51.000
E05  24956724.266 6 131148445.926 6     -1817.168          37.000    24956730.102 6 100490445.995 6     -1392.483          37.000
E08  24537704.867 5 128946510.477 5      2164.207          34.000    24537704.484 6  98803151.114 6      1658.163          40.000
E15  23893615.117 7 125561780.611 7      -812.301          45.000    23893615.008 7  96209692.086 7      -622.508          47.000
> 2020 05 14 23 12  0.0000000  0 19        .000000000000
G03  22585567.062 5 118687945.532 5     -2583.684          35.000    22585576.578 5  92484169.426 5     -2013.263          34.000
G04  20781961.617 8 109209955.961 8     -1582.516          51.000    20781961.328 8  85098716.598 8     -1233.129          50.000
G07  23590546.898 7 123969175.000 7      3309.789          42.000    23590547.977 7  96599348.695 7      2579.056          42.000
G09  20366749.023 8 107028091.107 8       706.730          51.000    20366749.273 8  83398507.734 8       550.699          51.000
G19  23793907.055 7 125037823.109 7     -2917.238          46.000    23793902.953 6  97432039.702 6     -2273.173          41.000
R07  21812064.070 4 116761608.850 4      2549.398          29.000
R16  21938504.555 6 117191551.855 6      3435.867          38.000    21938507.344 5  91149012.376 5      2672.344          30.000
R21  20763010.938 8 111107082.427 8     -2843.566          51.000    20763013.891 7  86416600.408 7     -2211.663          47.000
R22  21122130.289 4 112751364.615 4      1406.105          29.000
C14                                                                  23080592.953 6  92935993.921 6     -1452.001          37.000
C24  23879941.109 5 124349341.756 5      1363.738          32.000
C25  25436648.156 5 132455306.740 5      3262.273          34.000
C26  24787983.102 5 129077560.764 5     -1341.941          33.000
C27  23868040.984 4 124287173.038 4      -497.707          29.000
C28  24417203.672 7 127146708.887 7     -2864.074          44.000
E03  23482959.578 8 123403794.160 8       361.297          50.000    23482961.688 8  94556241.944 8       276.805          51.000
E05  24967061.867 6 131202771.074 6     -1816.297          37.000    24967068.375 6 100532071.713 6     -1391.750          36.000
E08                                                                  24525317.914 6  98753265.790 6      1658.268          41.000
E15  23898248.219 7 125586127.778 7      -822.633          44.000    23898249.242 8  96228347.705 8      -630.392          48.000
> 2020 05 14 23 12 30.0000000  0 17        .000000000000
G04  20791055.219 8 109257742.983 8     -1600.328          51.000    20791054.891 8  85135953.241 8     -1247.009          50.000
G07  23571692.164 7 123870094.277 7      3298.547          42.000    23571692.656 6  96522142.947 6      2570.296          41.000
G09  20362781.164 8 107007238.795 8       686.355          51.000    20362781.281 8  83382259.216 8       534.825          51.000
G19  23810612.320 7 125125608.117 7     -2932.262          46.000    23810606.656 6  97500443.588 6     -2284.879          39.000
R15  21679686.188 5 115849614.653 5       -98.512          34.000    21679673.195 4  90105243.856 4       -76.620          26.000
R16  21919276.734 6 117088837.087 6      3414.754          38.000    21919277.609 4  91069123.090 4      2655.917          28.000
R21  20779038.039 8 111192847.356 8     -2871.121          50.000    20779041.125 7  86483306.441 7     -2233.094          47.000
C14  23091454.469 4 120243270.659 4     -1888.809          29.000    23091452.727 6  92979716.355 6     -1460.680          38.000
C24  23872147.594 5 124308794.283 5      1342.434          33.000
C25  25417889.086 5 132357617.996 5      3253.934          33.000
C26  24795784.273 5 129118183.356 5     -1363.238          31.000
C27  23870979.719 5 124302476.445 5      -520.074          34.000
C28  24433747.719 7 127232866.613 7     -2876.891          43.000
E03  23480942.945 8 123393196.019 8       348.109          51.000    23480944.688 8  94548121.298 8       266.703          51.000
E05                                                                  24977471.719 5 100573966.464 5     -1399.131          35.000
E08                                                                  24513000.016 7  98703660.673 7      1650.650          42.000
E15  23903011.664 7 125611163.208 7      -843.418          42.000    23903014.312 8  96247530.672 8      -646.372          49.000
> 2020 05 14 23 13  0.0000000  0 18        .000000000000
G04  20800209.695 8 109305849.951 8     -1625.184          51.000    20800209.406 8  85173439.200 8     -1266.377          50.000
G07  23552861.766 6 123771140.494 6      3279.934          41.000    23552862.414 6  96445036.096 6      2555.792          41.000
G09  20358888.914 8 106986784.593 8       658.770          51.000    20358889.156 8  83366320.896 8       513.330          51.000
G19  23827361.969 7 125213627.565 7     -2954.133          45.000    23827356.031 6  97569030.163 6     -2301.922          40.000
R05  22137058.047 5 118335269.634 5     -2835.672          32.000    22137073.516 4  92038570.443 4     -2205.526          25.000
R16  21900123.898 5 116986529.591 5      3386.344          33.000    21900124.094 5  90989525.529 5      2633.820          30.000
R21  20795179.180 8 111279219.702 8     -2905.789          51.000    20795182.070 7  86550484.918 7     -2260.058          47.000
R22  21106663.688 5 112668806.893 5      1333.484          30.000
C14  23102370.922 5 120300108.615 5     -1907.199          31.000    23102335.852 6  93023534.997 6     -1474.840          37.000
C24  23864438.469 5 124268401.381 5      1313.938          33.000
C25  25399137.883 5 132259971.536 5      3237.562          31.000
C26  24803669.172 5 129159238.582 5     -1391.250          31.000
C27  23874003.055 5 124318197.582 5      -550.195          32.000
C28  24450325.320 7 127319200.527 7     -2896.789          42.000
E03  23478961.195 8 123382780.356 8       327.832          51.000    23478963.086 8  94540140.478 8       251.220          51.000
E05                                                                  24987887.188 5 100615918.009 5     -1412.037          34.000
E08                                                                  24500697.945 6  98654124.056 6      1637.621          41.000
E15  23907853.641 7 125636610.124 7      -871.273          43.000    23907857.344 8  96267028.917 8      -667.722          49.000
> 2020 05 14 23 13 30.0000000  0 21        .000000000000
G03  22630090.914 6 118921937.197 6     -2605.582          37.000    22630093.141 6  92666435.760 6     -2030.324          36.000
G04  20809450.414 8 109354410.376 8     -1617.809          51.000    20809450.219 8  85211278.509 8     -1260.630          50.000
G07  23534081.719 6 123672451.298 6      3293.492          41.000    23534083.727 6  96368135.429 6      2566.358          40.000
G09  20355097.875 8 106966863.295 8       663.461          51.000    20355098.391 8  83350797.815 8       516.983          51.000
G19  23844180.984 7 125302013.010 7     -2943.773          44.000    23844175.961 6  97637901.930 6     -2293.849          41.000
R05  22152922.281 4 118420013.991 4     -2819.855          29.000    22152929.133 4  92104482.932 4     -2193.218          28.000
R07  21769441.344 5 116533513.070 5      2530.254          30.000
R15  21681057.312 5 115856986.288 5      -146.043          31.000
R16  21881072.578 5 116884771.145 5      3391.277          31.000    21881075.047 5  90910380.014 5      2637.660          33.000
R21  20811458.797 8 111366333.126 8     -2907.492          50.000    20811461.312 7  86618239.822 7     -2261.380          46.000
R22  21099173.539 5 112628835.339 5      1326.039          31.000
C14  23113293.141 5 120357033.114 5     -1893.523          34.000    23113267.281 6  93067553.184 6     -1464.223          37.000
C24  23856832.945 5 124228834.788 5      1317.793          35.000
C25  25380420.422 5 132162503.501 5      3253.977          31.000
C26  24811661.242 5 129200859.300 5     -1388.125          30.000
C27  23877147.750 5 124334589.399 5      -548.254          34.000
C28  24466961.680 6 127405842.201 6     -2884.805          39.000
E03  23477039.672 8 123372681.938 8       339.746          50.000    23477041.836 8  94532402.749 8       260.235          51.000
E05                                                                  24998343.156 5 100658029.531 5     -1400.122          35.000
E08                                                                  24488438.016 6  98604759.547 6      1649.052          40.000
E15  23912799.836 7 125662603.095 7      -867.344          44.000    23912803.859 8  96286945.623 8      -664.462          49.000
> 2020 05 14 23 14  0.0000000  0 19        .000000000000
G03  22644988.984 5 119000216.262 5     -2609.824          33.000    22644986.000 4  92727432.542 4     -2033.623          25.000
G04  20818720.742 8 109403126.215 8     -1626.270          51.000    20818720.570 8  85249238.906 8     -1267.223          50.000
G07  23515296.070 7 123573732.611 7      3291.242          43.000    23515299.859 6  96291211.783 6      2564.604          40.000
G09  20351351.867 8 106947178.207 8       652.445          51.000    20351352.445 8  83335458.801 8       508.402          51.000
G19  23861012.430 7 125390464.822 7     -2949.137          44.000    23861008.508 6  97706825.418 6     -2298.026          41.000
R05  22168760.398 4 118504730.672 4     -2820.766          28.000    22168769.195 4  92170375.607 4     -2193.926          25.000
R15  21681965.234 5 115861792.996 5      -170.242          31.000    21681965.367 4  90114748.111 4      -132.417          27.000
R16  21862070.148 5 116783265.037 5      3379.562          33.000    21862073.328 5  90831430.908 5      2628.555          33.000
R21  20827819.477 8 111453881.994 8     -2925.430          50.000    20827821.609 7  86686333.388 7     -2275.334          45.000
C14                                                                  23124192.578 6  93111543.560 6     -1465.787          39.000
C24  23849307.586 4 124189618.165 4      1306.645          29.000
C25  25361681.844 5 132064922.914 5      3255.008          34.000
C27  23880355.586 5 124351297.505 5      -561.859          35.000
C28  24483600.469 5 127492495.330 5     -2888.086          35.000
