     3.02           OBSERVATION DATA    M (MIXED)           RINEX VERSION / TYPE
SAVERINEX           SC600               20200513 095931 LCL PGM / RUN BY / DATE
       G = GPS       R = GLONASS       C = COMPASS          COMMENT
       S = SBAS      J = QZSS          E = GALILEO          COMMENT
BEAN                                                        MARKER NAME
1                                                           MARKER NUMBER
GEODETIC                                                    MARKER TYPE
Unige DICCA         GTER                                    OBSERVER / AGENCY
SC60291900056       SC600               2.12(191226)        REC # / TYPE / VERS
                    HEMA45          NONE                    ANT # / TYPE
  4509407.8091   693652.4678  4442337.6214                  APPROX POSITION XYZ
        0.0000        0.0000        0.0000                  ANTENNA: DELTA H/E/N
G    8 C1C L1C D1C S1C C2Y L2Y D2Y S2Y                      SYS / # / OBS TYPES
R    8 C1C L1C D1C S1C C2P L2P D2P S2P                      SYS / # / OBS TYPES
C    4 C1I L1I D1I S1I                                      SYS / # / OBS TYPES
E    8 C1C L1C D1C S1C C7Q L7Q D7Q S7Q                      SYS / # / OBS TYPES
DBHZ                                                        COMMENT
     30.000                                                 INTERVAL
  2020    05    13    07    00    0.0000000     GPS         TIME OF FIRST OBS
  2020    05    13    07    59   30.0000000     GPS         TIME OF LAST OBS
     0                                                      RCV CLOCK OFFS APPL
G L1C  0.00000                                              SYS / PHASE SHIFT
G L2Y  0.00000                                              SYS / PHASE SHIFT
R L1C  0.00000                                              SYS / PHASE SHIFT
R L2P  0.25000                                              SYS / PHASE SHIFT
C L1I  0.00000                                              SYS / PHASE SHIFT
E L1C  0.50000                                              SYS / PHASE SHIFT
E L7Q -0.25000                                              SYS / PHASE SHIFT
 12 R05  1 R06 -4 R07  5 R08  6 R09 -2 R10 -7 R11  0 R16 -1 GLONASS SLOT / FRQ #
    R17  4 R18 -3 R19  3 R20  2                             GLONASS SLOT / FRQ #
 C1C   71.950 C2C   71.950 C2P   71.950                     GLONASS COD/PHS/BIS
    18                                                      LEAP SECONDS
*** Above antenna height is from mark to ANTENNA BOTTOM.    COMMENT
    17     4        0.0000        ANT MEASURE TYPE/HEIGT    COMMENT
    0.0000    0.0000    0.0458    0.0405    0.0000          COMMENT
                    BASE STATION                            COMMENT
                                                            END OF HEADER
> 2020 05 13 07 00  0.0000000  0 15        .000000000000
G12  21612838.906 8 113576253.776 8      2691.637          51.000    21612836.688 8  88500958.373 8      2097.379          51.000
G13  23016401.711 7 120952015.499 7     -3488.691          43.000    23016405.438 7  94248325.207 7     -2718.464          42.000
G15  21650489.031 8 113774076.804 8     -2724.895          50.000    21650488.086 8  88655129.381 8     -2123.294          50.000
G19  21634795.328 6 113691615.073 6       766.820          38.000    21634797.672 5  88590869.182 5       597.531          33.000
G25  24226002.062 6 127308518.793 6      3527.195          39.000    24225999.844 5  99201402.607 5      2748.470          30.000
R07  22725111.961 5 121649268.785 5     -4433.469          32.000    22725109.719 4  94616100.473 4     -3448.250          25.000
R08  20321998.070 8 108823357.986 8     -1919.285          49.000    20321998.727 7  84640404.610 7     -1492.777          44.000
R09  20593253.461 6 109966808.942 6     -2136.781          41.000    20593254.195 6  85529739.090 6     -1661.941          41.000
R11  22389619.852 5 119643343.543 5      2812.547          33.000    22389619.367 5  93055941.232 5      2187.536          31.000
C22  25593343.547 6 133271240.624 6     -3266.766          36.000
C29  24399975.203 7 127057091.054 7      2832.441          47.000
E05  24555067.469 8 129037736.387 8     -2014.180          51.000    24555070.453 8  98873077.161 8     -1543.279          51.000
E24  22020811.805 8 115720138.962 8     -1051.188          51.000    22020824.258 8  88668770.527 8      -805.410          51.000
E25  24408660.344 5 128268375.092 5      1344.375          32.000    24408656.742 6  98283516.752 6      1029.938          39.000
E31  27328586.000 5 143612674.916 5     -2438.699          34.000    27328588.148 5 110040898.766 5     -1868.934          31.000
> 2020 05 13 07 00 30.0000000  0 17        .000000000000
G12  21597505.508 8 113495675.851 8      2679.184          51.000    21597502.594 8  88438170.396 8      2087.676          51.000
G13  23036338.672 7 121056783.604 7     -3496.797          44.000    23036342.234 7  94329962.662 7     -2724.777          43.000
G15  21666080.312 8 113856008.645 8     -2738.312          51.000    21666079.047 8  88718972.364 8     -2133.750          51.000
G19  21630475.664 5 113668918.410 5       744.879          34.000    21630476.648 5  88573183.433 5       580.428          30.000
G20  24010064.492 5 126173735.626 5     -2047.742          31.000
G24  20346431.656 5 106921225.678 5       928.621          32.000    20346431.453 5  83315217.877 5       723.601          32.000
G25  24205875.531 6 127202766.385 6      3521.645          39.000    24205876.633 5  99118998.143 5      2744.142          31.000
R07  22749967.852 5 121782341.839 5     -4439.422          33.000    22749969.508 4  94719601.647 4     -3452.887          26.000
R08  20332819.211 8 108881303.594 8     -1944.598          49.000    20332819.391 7  84685473.404 7     -1512.468          44.000
R09  20605276.406 6 110031012.492 6     -2144.621          36.000    20605277.734 6  85579675.125 6     -1668.039          40.000
C21  23745267.648 6 123647896.712 6     -1529.805          36.000
C22  25612171.062 5 133369267.916 5     -3269.621          35.000
C29  24383675.016 7 126972218.585 7      2824.559          45.000
E05  24566594.828 8 129098314.039 8     -2025.387          51.000    24566597.602 8  98919493.804 8     -1551.887          51.000
E24  22026828.336 8 115751755.572 8     -1057.594          51.000    22026840.555 8  88692996.230 8      -810.379          51.000
E25  24401015.969 5 128228145.735 5      1336.617          35.000    24401001.406 6  98252691.575 6      1024.287          37.000
E31  27342507.852 5 143685838.812 5     -2439.309          35.000    27342511.000 4 110096961.314 4     -1869.018          29.000
> 2020 05 13 07 01  0.0000000  0 14        .000000000000
G12  21582243.984 8 113415476.476 8      2661.836          51.000    21582241.133 8  88375677.417 8      2074.158          51.000
G13  23056322.742 7 121161799.263 7     -3509.695          44.000    23056326.008 7  94411793.067 7     -2734.828          44.000
G15  21681748.508 8 113938344.466 8     -2756.340          51.000    21681746.773 8  88783130.155 8     -2147.797          51.000
G25  24185769.695 6 127097082.851 6      3511.320          36.000
R07  22774858.969 5 121915600.259 5     -4449.730          31.000    22774863.539 4  94823247.065 4     -3460.905          27.000
R08  20343781.984 8 108940008.881 8     -1974.809          50.000    20343781.648 7  84731133.031 7     -1535.962          44.000
R09  20617343.789 6 110095454.102 6     -2157.398          37.000    20617345.641 6  85629796.308 6     -1677.977          40.000
C21  23754118.047 6 123694000.516 6     -1549.309          37.000
C22  25631009.484 5 133467370.854 5     -3276.574          35.000
C29  24367420.477 7 126887584.281 7      2812.117          45.000
E05  24578187.156 8 129159236.648 8     -2041.582          51.000    24578190.422 8  98966174.774 8     -1564.374          51.000
E24  22032882.961 8 115783572.207 8     -1069.062          51.000    22032895.039 8  88717375.186 8      -819.116          51.000
E25  24393410.250 6 128188231.657 6      1324.855          36.000
E31                                                                  27356438.062 5 110153039.460 5     -1872.933          30.000
> 2020 05 13 07 01 30.0000000  0 17        .000000000000
G12  21567064.195 8 113335707.509 8      2670.180          49.000    21567062.312 8  88313519.808 8      2080.659          50.000
G13  23076363.445 7 121267111.762 7     -3496.996          45.000    23076366.242 7  94493854.731 7     -2724.932          45.000
G15  21697502.867 8 114021132.793 8     -2748.812          51.000    21697500.844 8  88847640.515 8     -2141.932          51.000
G20  24033585.688 5 126297307.190 5     -2054.680          33.000
G24  20335973.766 5 106866243.994 5       919.812          31.000
G25  24165718.609 5 126991725.069 5      3526.707          33.000    24165722.172 5  98954596.691 5      2748.077          32.000
R07  22799794.898 5 122049091.517 5     -4434.719          30.000    22799802.977 4  94927073.536 4     -3449.226          27.000
R08  20354895.227 8 108999522.898 8     -1978.547          49.000    20354895.445 7  84777421.690 7     -1538.867          45.000
R09  20629465.406 6 110160184.259 6     -2144.031          39.000    20629467.789 6  85680141.992 6     -1667.580          39.000
R11  22342406.438 4 119391080.994 4      2809.195          29.000    22342412.125 4  92859724.993 4      2184.930          29.000
C21  23763066.461 6 123740608.088 6     -1543.828          37.000
C22  25649871.547 6 133565597.568 6     -3258.148          36.000
C29  24351222.805 7 126803241.026 7      2824.707          46.000
E05  24589854.430 8 129220553.926 8     -2032.078          51.000    24589858.453 8  99013158.137 8     -1557.056          51.000
E09  26012934.156 5 136698895.251 5     -3185.156          32.000
E24  22038985.164 8 115815638.957 8     -1054.594          51.000    22038997.195 8  88741945.795 8      -808.017          51.000
E25  24385836.320 6 128148485.689 6      1338.340          40.000
> 2020 05 13 07 02  0.0000000  0 17        .000000000000
G12  21551932.555 8 113256190.408 8      2644.141          50.000    21551932.078 8  88251558.447 8      2060.366          50.000
G13  23096426.297 8 121372539.169 8     -3518.441          48.000    23096428.484 7  94576005.907 7     -2741.646          45.000
G15  21713308.781 8 114104191.589 8     -2775.391          51.000    21713306.516 8  88912361.635 8     -2162.642          51.000
G19  21618279.242 6 113604837.828 6       681.086          36.000
G20  24045423.047 5 126359556.857 5     -2079.820          35.000
G24  20330833.203 6 106839222.130 6       894.602          37.000    20330836.742 6  83251364.807 6       697.092          38.000
G25  24145678.727 6 126886412.842 6      3507.574          40.000    24145680.352 6  98872535.209 6      2733.175          36.000
R07  22824739.773 5 122182628.533 5     -4453.535          30.000    22824749.773 4  95030935.621 4     -3463.861          27.000
R08  20366124.914 8 109059659.799 8     -2017.199          49.000    20366126.641 7  84824194.842 7     -1568.933          47.000
R09  20641606.977 6 110225019.160 6     -2165.043          40.000    20641609.984 6  85730569.156 6     -1683.922          40.000
R11  22326733.781 5 119307285.433 5      2790.258          34.000    22326733.148 5  92794550.682 5      2170.204          31.000
C21  23772078.000 6 123787539.377 6     -1571.863          37.000
C22  25668723.117 6 133663767.381 6     -3273.598          36.000
C29  24335048.289 8 126719013.159 8      2803.316          49.000
E05  24601562.898 8 129282084.777 8     -2056.879          51.000    24601567.016 8  99060305.135 8     -1575.939          51.000
E24  22045100.547 8 115847775.198 8     -1074.602          51.000    22045112.586 8  88766569.646 8      -823.366          51.000
E25  24378288.492 7 128108844.694 7      1317.484          43.000    24378288.016 6  98161243.032 6      1009.609          36.000
> 2020 05 13 07 02 30.0000000  0 16        .000000000000
G12  21536869.539 8 113177032.893 8      2632.645          51.000    21536870.195 8  88189877.232 8      2051.405          51.000
G13  23116530.844 7 121478186.120 7     -3525.121          47.000    23116532.383 7  94658328.152 7     -2746.851          44.000
G15  21729185.969 8 114187625.338 8     -2787.332          51.000    21729183.680 8  88977374.916 8     -2171.947          51.000
G19  21614443.609 6 113584709.323 6       659.973          39.000
G20  24057326.625 5 126422128.685 5     -2090.504          35.000
G24  20325758.930 6 106812551.344 6       883.227          39.000    20325760.039 6  83230582.307 6       688.225          39.000
G25  24125667.891 7 126781253.688 7      3502.816          43.000    24125668.289 5  98790593.044 5      2729.464          34.000
R07  22849711.570 5 122316315.424 5     -4458.945          32.000
R08  20377491.578 8 109120525.319 8     -2040.930          50.000    20377494.031 7  84871534.668 7     -1587.393          47.000
R09  20653788.812 6 110290066.368 6     -2171.527          40.000    20653791.383 6  85781161.403 6     -1688.966          40.000
C21  23781172.609 6 123834898.615 6     -1585.629          40.000
C22  25687582.781 5 133761983.759 5     -3274.641          33.000
C29  24318917.250 8 126635008.987 8      2796.395          50.000
E05  24613332.703 8 129343934.641 8     -2066.941          51.000    24613336.008 8  99107696.569 8     -1583.700          51.000
E24  22051249.273 8 115880086.825 8     -1079.977          51.000    22051261.344 8  88791327.902 8      -827.541          51.000
E25  24370781.359 6 128069403.287 6      1311.301          40.000    24370784.234 5  98131021.614 5      1004.787          35.000
> 2020 05 13 07 03  0.0000000  0 14        .000000000000
G12  21521880.531 8 113098263.722 8      2621.176          51.000    21521881.242 8  88128498.661 8      2042.472          51.000
G13  23136681.570 7 121584077.933 7     -3531.840          47.000    23136682.969 7  94740841.215 7     -2752.086          45.000
G15  21745139.062 8 114271459.222 8     -2799.109          51.000    21745136.977 8  89042699.978 8     -2181.127          51.000
G19  21610739.734 7 113565256.092 7       639.078          42.000    21610732.930 4  88492348.991 4       498.001          26.000
G24  20320756.039 6 106786259.565 6       872.289          37.000    20320754.516 6  83210095.160 6       679.703          36.000
G25  24105691.766 7 126676276.626 7      3498.039          44.000    24105690.609 6  98708792.787 6      2725.748          36.000
R08  20388999.273 8 109182144.862 8     -2064.480          50.000    20389001.297 7  84919460.923 7     -1605.707          46.000
R09  20666015.938 6 110355352.758 6     -2178.148          41.000    20666016.875 6  85831939.613 6     -1694.115          38.000
C21  23790354.945 6 123882711.468 6     -1599.312          40.000
C22  25706456.547 5 133860271.758 5     -3275.621          35.000
C29  24302834.539 8 126551258.424 8      2789.438          49.000
E05  24625168.609 8 129406129.943 8     -2076.848          51.000    24625170.836 8  99155352.671 8     -1591.381          51.000
E24  22057436.492 8 115912600.718 8     -1085.145          51.000    22057448.641 8  88816241.141 8      -831.483          51.000
E25                                                                  24363325.219 5  98100974.149 5      1000.136          34.000
> 2020 05 13 07 03 30.0000000  0 13        .000000000000
G12  21506953.867 8 113019822.713 8      2608.340          51.000    21506953.516 8  88067375.803 8      2032.473          51.000
G13  23156866.586 7 121690151.601 7     -3539.590          47.000    23156868.422 7  94823495.978 7     -2758.125          44.000
G15  21761156.141 8 114355630.067 8     -2812.215          51.000    21761154.273 8  89108287.596 8     -2191.339          51.000
G19  21607154.422 6 113546417.606 6       616.887          40.000    21607152.109 5  88477669.581 5       480.694          32.000
G24  20315813.414 6 106760286.555 6       859.340          36.000    20315811.094 6  83189856.483 6       669.619          36.000
G25  24085738.656 7 126571421.520 7      3492.086          44.000    24085737.008 6  98627087.532 6      2721.106          36.000
R08  20400634.422 8 109244453.202 8     -2089.344          48.000    20400636.617 7  84967922.919 7     -1625.048          46.000
R09  20678275.641 6 110420814.848 6     -2186.066          41.000    20678273.695 6  85882854.589 6     -1700.271          38.000
C21  23799612.930 6 123930915.292 6     -1614.020          39.000
C22  25725333.398 5 133958567.997 5     -3277.969          34.000
C29  24286788.406 8 126467703.088 8      2780.977          48.000
E05  24637058.383 8 129468607.958 8     -2088.219          51.000    24637059.852 8  99203225.400 8     -1600.067          51.000
E24  22063650.359 8 115945254.638 8     -1091.668          51.000    22063662.570 8  88841261.665 8      -836.488          51.000
> 2020 05 13 07 04  0.0000000  0 13        .000000000000
G12  21492096.633 8 112941746.393 8      2596.047          51.000    21492094.633 8  88006537.136 8      2022.897          51.000
G13  23177092.344 7 121796440.149 7     -3546.930          47.000    23177094.367 7  94906318.191 7     -2763.844          42.000
G15  21777243.648 8 114440170.411 8     -2824.543          51.000    21777242.133 8  89174163.145 8     -2200.943          51.000
G19  21603693.367 6 113528230.041 6       595.105          38.000    21603693.695 5  88463497.649 5       463.725          35.000
G24  20310937.672 5 106734668.442 5       847.414          35.000    20310936.992 6  83169894.335 6       660.329          36.000
G25  24065815.336 7 126466724.953 7      3486.668          43.000    24065813.992 6  98545505.806 6      2716.887          39.000
R08  20412403.445 8 109307482.963 8     -2113.305          48.000    20412407.023 7  85016946.054 7     -1643.681          47.000
R09  20690573.867 6 110486487.588 6     -2192.879          39.000    20690572.391 6  85933933.345 6     -1705.572          39.000
C21  23808952.023 6 123979543.195 6     -1628.410          38.000
C22  25744218.656 5 134056905.164 5     -3278.660          34.000
C29  24270786.672 7 126384380.403 7      2773.035          46.000
E05  24649008.305 8 129531402.653 8     -2098.801          51.000    24649009.484 8  99251340.788 8     -1608.190          51.000
E24  22069897.453 8 115978083.037 8     -1097.562          51.000    22069909.625 8  88866415.877 8      -840.942          51.000
> 2020 05 13 07 04 30.0000000  0 14        .000000000000
G12  21477310.211 8 112864042.924 8      2583.281          51.000    21477307.586 8  87945989.013 8      2012.946          51.000
G13  23197360.273 8 121902948.653 8     -3554.473          48.000    23197361.336 6  94989311.777 6     -2769.722          40.000
G15  21793402.383 8 114525085.488 8     -2837.336          51.000    21793401.422 8  89240330.701 8     -2210.911          51.000
G19  21600357.836 5 113510701.845 5       572.734          35.000    21600356.969 5  88449839.180 5       446.271          32.000
G24  20306130.047 5 106709413.724 5       834.941          33.000    20306132.117 5  83150215.358 5       650.601          32.000
G25  24045923.641 7 126362195.598 7      3480.738          42.000    24045923.273 6  98464054.366 6      2712.264          41.000
R08  20424309.148 8 109371238.977 8     -2137.809          49.000    20424313.562 7  85066534.070 7     -1662.740          47.000
R09  20702912.117 6 110552377.353 6     -2200.672          39.000    20702912.656 6  85985180.968 6     -1711.634          39.000
C21  23818373.961 6 124028600.725 6     -1643.035          40.000
C22  25763113.359 4 134155288.213 4     -3281.262          29.000
C29  24254831.258 7 126301300.209 7      2764.594          45.000
E05  24661019.383 8 129594520.111 8     -2109.836          51.000    24661020.883 8  99299703.496 8     -1616.693          51.000
E24  22076178.969 8 116011092.530 8     -1103.980          51.000    22076191.078 8  88891708.855 8      -845.874          51.000
E25  24341144.352 5 127913576.177 5      1284.102          34.000    24341155.266 6  98011739.268 6       983.943          39.000
> 2020 05 13 07 05  0.0000000  0 13        .000000000000
G12  21462593.867 8 112786710.299 8      2572.449          48.000    21462591.773 8  87885729.854 8      2004.506          48.000
G13  23217669.500 8 122009672.032 8     -3560.086          50.000    23217668.781 6  95072472.775 6     -2774.096          39.000
G15  21809631.188 8 114610369.956 8     -2848.059          50.000    21809631.125 8  89306786.113 8     -2219.266          51.000
G17  22661183.711 6 119085272.003 6     -1315.164          37.000
G24  20301391.875 5 106684519.962 5       824.492          35.000    20301395.094 6  83130817.635 6       642.458          36.000
G25  24026063.742 7 126257831.592 7      3476.828          45.000    24026064.219 6  98382731.758 6      2709.217          41.000
R08  20436350.227 8 109435715.057 8     -2160.195          51.000    20436354.258 7  85116682.120 7     -1680.152          46.000
R09  20715290.664 6 110618479.956 6     -2205.730          36.000    20715291.320 6  86036594.104 6     -1715.571          38.000
C21  23827877.922 7 124078083.097 7     -1655.656          43.000
C29  24238923.031 7 126218461.863 7      2757.965          46.000
E05  24673090.398 8 129657955.862 8     -2119.000          50.000    24673092.977 8  99348310.110 8     -1623.589          51.000
E24  22082494.234 8 116044279.190 8     -1108.309          51.000    22082506.297 8  88917137.593 8      -849.203          51.000
E25  24333828.281 5 127875131.025 5      1277.918          30.000    24333839.273 6  97982288.037 6       979.699          37.000
> 2020 05 13 07 05 30.0000000  0 13        .000000000000
G12  21447943.148 8 112709723.486 8      2559.855          49.000    21447941.883 8  87825740.140 8      1994.693          49.000
G13  23238014.422 8 122116581.793 8     -3567.246          51.000    23238012.391 6  95155778.988 6     -2779.675          39.000
G15  21825924.641 8 114695995.122 8     -2860.262          50.000    21825925.578 8  89373507.025 8     -2228.775          50.000
G17  22668744.500 5 119125053.286 5     -1332.715          32.000    22668739.336 5  92824679.551 5     -1038.494          31.000
G24  20296717.977 6 106659960.710 6       812.695          36.000    20296721.211 5  83111680.538 5       633.269          35.000
G25  24006230.750 8 126153607.770 8      3471.293          48.000    24006231.602 6  98301518.425 6      2704.904          41.000
R08  20448520.242 8 109500881.068 8     -2184.242          50.000    20448522.562 7  85167366.775 7     -1698.855          45.000
R09  20727703.969 6 110684767.732 6     -2213.223          40.000    20727705.961 6  86088151.222 6     -1721.395          36.000
C21  23837458.438 7 124127962.307 7     -1669.668          43.000
C29  24223057.172 7 126135841.755 7      2749.914          47.000
E05  24685216.148 8 129721682.199 8     -2129.555          50.000    24685220.109 8  99397139.393 8     -1631.701          51.000
E24  22088837.992 8 116077615.806 8     -1114.129          51.000    22088850.125 8  88942681.235 8      -853.692          51.000
E25                                                                  24326554.688 5  97952961.885 5       974.458          30.000
> 2020 05 13 07 06  0.0000000  0 13        .000000000000
G12  21433358.641 8 112633081.636 8      2548.527          51.000    21433357.898 8  87766019.216 8      1985.865          51.000
G13  23258393.992 8 122223674.366 8     -3573.199          51.000    23258391.938 6  95239227.664 6     -2784.314          40.000
G15  21842282.391 8 114781957.131 8     -2871.441          51.000    21842283.664 8  89440490.409 8     -2237.487          51.000
G19  21591092.047 6 113461942.708 6       509.703          38.000
G24  20292108.562 6 106635736.557 6       801.660          38.000    20292111.367 6  83092804.554 6       624.670          38.000
G25  23986424.445 8 126049523.897 8      3466.812          48.000    23986425.242 7  98220414.142 7      2701.412          42.000
R08  20460817.336 7 109566733.010 7     -2206.836          47.000    20460818.609 7  85218584.898 7     -1716.428          45.000
R09  20740151.547 6 110751237.704 6     -2219.039          36.000    20740154.828 6  86139850.122 6     -1725.922          36.000
R11  22202442.586 5 118643078.545 5      2745.703          32.000    22202458.383 4  92278034.212 4      2135.547          26.000
C21  23847114.086 7 124178234.924 7     -1682.539          45.000
C29  24207233.312 8 126053440.765 8      2742.566          48.000
E05  24697396.938 8 129785696.241 8     -2138.949          51.000    24697401.641 8  99446189.118 8     -1638.944          51.000
E24  22095209.734 8 116111100.029 8     -1118.980          51.000    22095222.016 8  88968337.976 8      -857.386          51.000
> 2020 05 13 07 06 30.0000000  0 13        .000000000000
G12  21418849.672 8 112556834.926 8      2535.043          51.000    21418849.273 8  87706606.207 8      1975.358          51.000
G13  23278817.148 8 122330996.798 8     -3581.238          51.000    23278815.695 6  95322855.455 6     -2790.575          41.000
G15  21858713.516 8 114868302.860 8     -2884.527          51.000    21858714.258 8  89507772.785 8     -2247.684          51.000
G19  21588249.461 6 113447014.156 6       486.312          41.000
G24  20287572.570 6 106611896.596 6       788.266          39.000    20287574.836 6  83074227.929 6       614.233          39.000
G25  23966654.367 7 125945630.530 7      3460.000          47.000    23966655.016 7  98139458.295 7      2696.104          42.000
R08  20473250.078 7 109633317.235 7     -2231.543          45.000    20473252.516 7  85270372.626 7     -1735.645          46.000
R09  20752642.141 6 110817939.245 6     -2227.062          39.000    20752647.039 5  86191729.029 5     -1732.160          34.000
R11  22187059.016 5 118560829.723 5      2738.457          31.000    22187065.656 4  92214063.009 4      2129.911          26.000
C21  23856854.195 7 124228948.021 7     -1697.730          45.000
C29  24191461.609 8 125971310.195 8      2733.227          49.000
E05  24709642.320 8 129850045.893 8     -2150.438          51.000    24709646.695 8  99495495.994 8     -1647.693          51.000
E24  22101618.703 8 116144780.293 8     -1125.844          51.000    22101631.195 8  88994144.926 8      -862.648          51.000
> 2020 05 13 07 07  0.0000000  0 12        .000000000000
G12  21404415.742 8 112480982.718 8      2523.316          51.000    21404415.422 8  87647500.566 8      1966.221          51.000
G13  23299283.180 8 122438544.673 8     -3587.207          51.000    23299282.000 6  95406658.937 6     -2795.226          41.000
G15  21875217.070 8 114955027.700 8     -2895.621          51.000    21875216.680 8  89575350.549 8     -2256.328          51.000
G19  21585537.562 7 113432765.207 7       464.922          43.000    21585532.336 5  88389167.815 5       362.274          34.000
G24  20283109.625 6 106588439.952 6       777.062          41.000    20283111.148 7  83055950.011 7       605.503          42.000
G25  23946920.148 7 125841926.598 7      3455.066          47.000    23946921.125 7  98058650.046 7      2692.260          43.000
R08  20485818.273 7 109700628.765 7     -2254.332          45.000    20485822.789 7  85322726.047 7     -1753.369          46.000
R09  20765176.031 6 110884868.836 6     -2233.340          37.000    20765181.562 5  86243785.361 5     -1737.042          35.000
C21  23866677.891 7 124280097.431 7     -1710.789          45.000
C29  24175741.703 8 125889450.245 8      2725.578          48.000
E05  24721951.328 8 129914727.589 8     -2160.203          51.000    24721954.875 8  99545057.276 8     -1655.179          51.000
E24  22108064.453 8 116178653.600 8     -1130.828          51.000    22108077.156 8  89020099.786 8      -866.500          51.000
> 2020 05 13 07 07 30.0000000  0 14        .000000000000
G12  21390047.273 8 112405475.858 8      2510.652          50.000    21390047.109 8  87588664.030 8      1956.352          50.000
G13  23319782.039 8 122546265.936 8     -3594.055          51.000    23319780.773 6  95490597.543 6     -2800.565          40.000
G15  21891782.883 8 115042079.446 8     -2907.559          51.000    21891781.328 8  89643183.062 8     -2265.630          51.000
G19  21582945.906 7 113419146.059 7       443.082          42.000    21582942.203 5  88378555.498 5       345.256          34.000
G24  20278710.156 6 106565317.611 6       764.879          40.000    20278711.461 6  83037932.598 6       596.006          40.000
G25  23927212.516 7 125738363.348 7      3449.227          46.000    23927214.164 7  97977951.444 7      2687.709          43.000
R08  20498513.703 7 109768613.776 7     -2277.773          47.000    20498518.578 7  85375603.230 7     -1771.605          46.000
R09  20777742.820 5 110951974.861 5     -2240.016          34.000    20777749.023 5  86295978.847 5     -1742.234          35.000
C21  23876575.086 7 124331631.811 7     -1724.758          45.000
C22  25876587.609 5 134746178.533 5     -3285.961          30.000
C29  24160063.625 7 125807813.737 7      2717.039          47.000
E05  24734313.797 8 129979689.902 8     -2170.570          51.000    24734316.586 8  99594833.572 8     -1663.176          51.000
E24  22114537.414 8 116212669.101 8     -1136.754          51.000    22114550.156 8  89046163.585 8      -871.004          51.000
E25  24297800.367 6 127685800.523 6      1245.211          37.000
> 2020 05 13 07 08  0.0000000  0 14        .000000000000
G12  21375747.977 8 112330331.112 8      2498.273          51.000    21375747.484 8  87530109.684 8      1946.707          51.000
G13  23340316.359 8 122654174.443 8     -3600.672          49.000    23340314.891 6  95574682.034 6     -2805.718          39.000
G15  21908413.094 8 115129471.520 8     -2919.230          50.000    21908411.180 8  89711280.770 8     -2274.725          50.000
G19  21580477.125 6 113406173.488 6       421.152          38.000    21580473.734 6  88368447.060 6       328.171          36.000
G24  20274377.281 7 106542545.597 7       752.660          42.000    20274378.500 7  83020188.130 7       586.488          42.000
G25  23907534.961 7 125634957.937 7      3443.793          47.000    23907537.312 7  97897375.841 7      2683.478          43.000
R08  20511338.547 7 109837284.487 7     -2300.828          47.000    20511342.812 7  85429013.745 7     -1789.536          47.000
R09  20790345.344 5 111019272.449 5     -2246.895          34.000    20790350.828 5  86348321.363 5     -1747.585          32.000
C21  23886548.102 7 124383564.993 7     -1738.172          45.000
C22  25895516.539 5 134844734.934 5     -3286.094          33.000
C29  24144432.594 7 125726419.018 7      2708.707          47.000
E05  24746732.406 8 130044947.396 8     -2180.609          51.000    24746734.383 8  99644836.032 8     -1670.833          51.000
E24  22121040.383 8 116246841.883 8     -1142.160          51.000    22121053.070 8  89072347.907 8      -875.168          51.000
E25  24290709.672 6 127648526.015 6      1238.996          41.000
> 2020 05 13 07 08 30.0000000  0 15        .000000000000
G12  21361521.484 8 112255569.364 8      2486.016          50.000    21361520.703 8  87471853.797 8      1937.158          50.000
G13  23360889.422 7 122762287.733 7     -3606.949          46.000    23360887.727 6  95658926.106 6     -2810.613          38.000
G15  21925111.023 8 115217221.488 8     -2930.625          49.000    21925109.320 8  89779657.362 8     -2283.604          49.000
G17  22716130.547 5 119374070.909 5     -1435.363          33.000
G19  21578135.484 5 113393868.093 5       399.469          35.000    21578132.984 5  88358858.407 5       311.268          35.000
G24  20270115.102 7 106520144.436 7       740.738          43.000    20270115.930 7  83002732.650 7       577.199          43.000
G25  23887891.547 7 125531731.453 7      3438.207          46.000    23887894.703 7  97816939.676 7      2679.125          44.000
R08  20524294.367 8 109906658.254 8     -2323.914          48.000    20524298.469 7  85482971.127 7     -1807.486          47.000
R09  20802988.484 5 111086780.613 5     -2253.168          34.000    20802991.867 5  86400827.605 5     -1752.470          33.000
C21  23896600.281 7 124435914.752 7     -1751.539          44.000
C22  25914447.156 5 134943319.910 5     -3286.066          32.000
C29  24128852.727 8 125645288.186 8      2700.277          48.000
E05  24759210.570 8 130110518.523 8     -2190.555          51.000    24759211.742 8  99695078.808 8     -1678.504          51.000
E24  22127576.844 8 116281191.045 8     -1147.566          51.000    22127589.578 8  89098667.378 8      -879.286          51.000
E25  24283657.477 6 127611459.217 6      1232.363          40.000    24283657.992 5  97780221.220 5       943.955          35.000
> 2020 05 13 07 09  0.0000000  0 14        .000000000000
G12  21347366.500 8 112181185.638 8      2475.551          48.000    21347365.398 8  87413892.444 8      1929.004          49.000
G13  23381499.164 7 122870597.878 7     -3611.062          42.000    23381498.391 6  95743323.588 6     -2813.815          37.000
G15  21941875.766 8 115305321.195 8     -2939.910          51.000    21941874.320 8  89848306.469 8     -2290.839          50.000
G19  21575927.141 5 113382262.360 5       379.176          35.000    21575919.055 4  88349773.520 4       295.471          29.000
G24  20265922.266 7 106498109.700 7       730.664          43.000    20265922.547 7  82985562.714 7       569.346          42.000
G25  23868281.344 7 125428679.351 7      3434.711          44.000    23868285.531 7  97736639.370 7      2676.398          44.000
R08  20537379.633 8 109976726.208 8     -2344.641          48.000    20537383.625 7  85537468.413 7     -1823.609          47.000
R09  20815669.531 6 111154492.542 6     -2257.965          38.000    20815674.109 5  86453492.464 5     -1756.195          31.000
C21  23906730.070 7 124488673.412 7     -1763.148          42.000
C22  25933382.867 5 135041925.266 5     -3284.512          35.000
C29  24113322.844 8 125564417.939 8      2693.621          48.000
E05  24771746.883 8 130176396.094 8     -2198.625          51.000    24771747.195 8  99745556.380 8     -1684.709          51.000
E24  22134145.555 8 116315709.972 8     -1151.070          51.000    22134158.438 8  89125116.923 8      -882.004          51.000
E25  24276641.211 6 127574594.048 6      1228.078          37.000    24276642.148 5  97751973.835 5       941.025          34.000
> 2020 05 13 07 09 30.0000000  0 13        .000000000000
G12  21333283.539 8 112107180.549 8      2459.199          51.000    21333281.969 8  87356226.157 8      1916.259          51.000
G13  23402144.547 6 122979102.193 6     -3621.117          38.000    23402146.492 6  95827872.474 6     -2821.647          38.000
G15  21958706.781 8 115393767.902 8     -2955.324          51.000    21958705.688 8  89917225.947 8     -2302.850          51.000
G24  20261798.758 6 106476441.577 6       714.969          41.000    20261798.680 6  82968678.474 6       557.119          41.000
G25  23848704.578 7 125325802.422 7      3425.027          43.000    23848709.516 7  97656475.568 7      2668.852          43.000
R08  20550594.430 8 110047484.418 8     -2371.406          48.000    20550597.430 7  85592502.540 7     -1844.430          47.000
R09  20828388.148 6 111222406.845 6     -2268.543          36.000    20828388.602 4  86506314.719 4     -1764.419          28.000
C21  23916937.867 7 124541838.667 7     -1780.199          44.000
C22  25952321.430 5 135140548.282 5     -3289.055          30.000
C29  24097843.062 8 125483810.277 8      2681.266          49.000
E05  24784340.992 8 130242578.326 8     -2212.414          51.000    24784340.242 8  99796267.410 8     -1695.256          50.000
E24  22140746.266 8 116350397.520 8     -1160.312          51.000    22140759.375 8  89151695.670 8      -889.056          51.000
E25  24269661.711 6 127537929.866 6      1217.512          37.000    24269662.625 5  97723880.446 5       932.923          34.000
> 2020 05 13 07 10  0.0000000  0 13        .000000000000
G12  21319272.414 8 112033553.040 8      2448.082          50.000    21319271.133 8  87298854.088 8      1907.596          50.000
G13  23422827.258 6 123087796.348 6     -3625.934          41.000    23422830.336 5  95912569.267 5     -2825.400          35.000
G15  21975602.914 8 115482556.645 8     -2965.070          51.000    21975602.211 8  89986411.934 8     -2310.447          51.000
G24  20257744.648 7 106455138.457 7       704.141          42.000    20257744.867 7  82952078.656 7       548.684          42.000
G25  23829160.883 7 125223099.625 7      3420.781          42.000    23829165.836 7  97576447.425 7      2665.544          42.000
R08  20563935.766 7 110118927.383 7     -2392.574          46.000    20563938.312 7  85648069.274 7     -1860.891          45.000
R09  20841144.711 6 111290520.297 6     -2273.594          40.000    20841140.984 4  86559301.909 4     -1768.354          29.000
R11  22080227.875 5 117990032.578 5      2698.379          31.000
C21  23927224.469 7 124595406.324 7     -1792.105          46.000
C29  24082413.375 8 125403465.348 8      2673.902          49.000
E05  24796992.109 8 130309061.438 8     -2220.824          51.000    24796990.383 8  99847208.979 8     -1701.700          49.000
E24  22147378.469 8 116385250.526 8     -1164.266          51.000    22147391.734 8  89178401.199 8      -892.100          51.000
E25  24262722.195 6 127501464.138 6      1212.344          39.000    24262723.797 6  97695939.139 6       928.993          37.000
> 2020 05 13 07 10 30.0000000  0 13        .000000000000
G12  21305330.141 8 111960286.679 8      2436.129          50.000    21305329.758 8  87241763.399 8      1898.282          50.000
G13  23443543.977 7 123196661.374 7     -3631.578          44.000    23443545.984 5  95997399.115 5     -2829.798          31.000
G15  21992560.328 8 115571667.916 8     -2975.734          51.000    21992560.211 8  90055849.240 8     -2318.754          51.000
G19  21570023.758 5 113351239.800 5       311.656          35.000
G24  20253757.000 7 106434184.359 7       692.688          43.000    20253757.742 7  82935750.776 7       539.756          43.000
G25  23809647.180 7 125120555.139 7      3415.285          43.000    23809651.445 7  97496542.636 7      2661.261          43.000
R08  20577400.461 7 110191034.215 7     -2414.656          47.000    20577402.859 7  85704152.317 7     -1878.069          44.000
R09  20853934.742 6 111358814.241 6     -2279.504          37.000    20853930.578 4  86612419.523 4     -1772.941          27.000
C21  23937585.891 7 124649357.537 7     -1804.742          47.000
C29  24067031.391 7 125323368.704 7      2665.539          47.000
E05  24809696.617 8 130375827.010 8     -2230.277          51.000    24809694.734 8  99898366.986 8     -1708.887          49.000
E24  22154038.844 8 116420251.167 8     -1169.207          51.000    22154052.125 8  89205219.852 8      -895.844          51.000
E25  24255818.234 6 127465179.545 6      1206.352          40.000    24255821.531 6  97668136.664 6       924.476          41.000
> 2020 05 13 07 11  0.0000000  0 13        .000000000000
G12  21291460.852 8 111887401.526 8      2423.051          51.000    21291460.961 8  87184969.757 8      1888.092          51.000
G13  23464297.016 7 123305714.209 7     -3638.359          45.000    23464295.398 4  96082375.212 4     -2835.094          27.000
G15  22009582.289 8 115661118.935 8     -2987.363          51.000    22009582.711 8  90125551.303 8     -2327.816          51.000
G19  21568308.258 6 113342225.782 6       289.477          37.000
G24  20249839.406 7 106413598.723 7       679.809          42.000    20249840.773 7  82919710.020 7       529.721          42.000
G25  23790167.523 7 125018189.173 7      3409.316          43.000    23790170.898 7  97416776.992 7      2656.613          43.000
R08  20590993.188 7 110263821.221 7     -2437.625          47.000    20590995.406 7  85760764.424 7     -1895.931          45.000
R09  20866760.406 5 111427307.353 5     -2286.402          35.000
C21  23948024.508 7 124703709.292 7     -1818.555          45.000
C29  24051701.219 8 125243541.643 8      2656.410          48.000
E05  24822457.898 8 130442892.686 8     -2240.613          51.000    24822457.406 8  99949754.952 8     -1716.825          49.000
E24  22160730.828 8 116455417.741 8     -1175.027          51.000    22160744.047 8  89232165.656 8      -900.340          51.000
E25  24248951.219 5 127429094.920 5      1199.945          33.000    24248957.484 6  97640487.449 6       918.948          41.000
> 2020 05 13 07 11 30.0000000  0 15        .000000000000
G12  21277663.195 8 111814892.233 8      2409.383          51.000    21277663.086 8  87128469.022 8      1877.441          51.000
G13  23485084.422 7 123414945.723 7     -3645.348          46.000    23485076.883 4  96167490.526 4     -2840.528          24.000
G15  22026667.328 8 115750900.664 8     -2999.445          50.000    22026668.008 8  90195511.068 8     -2337.233          50.000
G19  21566717.164 5 113333869.383 5       266.434          35.000
G20  24281615.000 4 127600749.191 4     -2269.266          29.000
G24  20245990.844 7 106393375.886 7       666.840          42.000    20245992.969 7  82903951.953 7       519.615          42.000
G25  23770720.977 6 124915996.374 6      3402.340          41.000    23770723.773 7  97337146.288 7      2651.174          42.000
R08  20604710.914 7 110337278.036 7     -2461.059          47.000    20604713.586 7  85817897.498 7     -1914.160          46.000
R09  20879622.320 5 111495992.136 5     -2294.199          31.000
R11  22034926.180 5 117747961.208 5      2679.121          32.000
C21  23958537.430 7 124758452.983 7     -1832.492          43.000
C29  24036422.211 8 125163980.100 8      2646.242          48.000
E05  24835274.883 8 130510250.414 8     -2251.434          51.000    24835276.664 8 100001366.710 8     -1725.112          51.000
E24  22167453.008 8 116490742.867 8     -1181.441          51.000    22167466.117 8  89259232.953 8      -905.257          51.000
E25                                                                  24242128.938 6  97612986.186 6       913.351          38.000
> 2020 05 13 07 12  0.0000000  0 16        .000000000000
G12  21263937.672 8 111742763.756 8      2398.289          51.000    21263936.961 8  87072265.048 8      1868.800          51.000
G13  23505906.172 7 123524358.271 7     -3649.605          45.000    23505897.656 4  96252746.963 4     -2843.845          28.000
G15  22043815.523 8 115841014.341 8     -3008.773          51.000    22043816.281 8  90265729.517 8     -2344.499          51.000
G17  22775871.047 6 119688017.081 6     -1552.680          36.000
G19  21565252.312 6 113326174.982 6       246.227          36.000    21565247.742 5  88306084.725 5       191.874          32.000
G24  20242211.961 7 106373520.286 7       656.145          42.000    20242214.719 7  82888480.013 7       511.281          42.000
G25  23751308.289 6 124813981.987 6      3397.918          39.000    23751311.320 6  97257654.575 6      2647.728          39.000
R08  20618554.266 7 110411405.375 7     -2481.520          47.000    20618556.867 7  85875552.083 7     -1930.071          45.000
R09  20892520.750 5 111564871.580 5     -2299.039          31.000
R10  19638698.734 5 104685335.918 5      -205.816          34.000
R11  22019899.383 5 117667642.693 5      2674.945          34.000
C21  23969124.914 7 124813590.579 7     -1844.121          42.000
C29  24021195.398 8 125084690.361 8      2638.902          48.000
E05  24848148.539 8 130577902.753 8     -2259.590          51.000    24848152.445 8 100053204.214 8     -1731.389          51.000
E24  22174206.008 8 116526229.752 8     -1185.219          51.000    22174218.992 8  89286424.198 8      -908.188          51.000
E25  24235330.211 6 127357514.776 6      1186.762          37.000    24235335.609 6  97585635.780 6       909.244          36.000
> 2020 05 13 07 12 30.0000000  0 15        .000000000000
G12  21250286.078 8 111671026.849 8      2385.406          50.000    21250285.273 8  87016366.183 8      1858.758          50.000
G13  23526763.320 7 123633959.349 7     -3655.805          46.000    23526758.047 5  96338150.322 5     -2848.685          33.000
G15  22061028.453 8 115931467.883 8     -3020.109          51.000    22061029.219 8  90336212.787 8     -2353.332          51.000
G17  22784784.641 5 119734858.802 5     -1569.078          35.000
G19  21563915.578 5 113319153.218 5       223.230          34.000    21563917.312 5  88300613.063 5       173.946          32.000
G24  20238505.461 7 106354043.875 7       643.555          43.000    20238508.219 7  82873303.575 7       501.471          43.000
G25  23731930.758 5 124712157.502 5      3391.941          30.000    23731935.031 4  97178310.825 4      2643.074          29.000
R08  20632523.195 7 110486210.420 7     -2504.070          46.000    20632525.984 7  85933733.781 7     -1947.607          44.000
R09  20905457.430 5 111633974.589 5     -2305.629          30.000
R10  19639889.797 5 104691700.191 5      -217.293          35.000
C21  23979790.492 7 124869130.327 7     -1857.438          45.000
C29  24006023.359 8 125005685.033 8      2629.410          50.000
E05  24861080.484 8 130645858.560 8     -2269.578          51.000    24861086.047 8 100105274.230 8     -1738.985          51.000
E24  22180991.562 8 116561887.885 8     -1190.793          51.000    22181004.531 8  89313746.644 8      -912.408          51.000
E25  24228579.805 6 127322027.098 6      1180.195          39.000    24228580.391 5  97558443.903 5       904.449          34.000
> 2020 05 13 07 13  0.0000000  0 13        .000000000000
G12  21236699.805 8 111599633.092 8      2373.293          51.000    21236699.297 8  86960734.660 8      1849.319          51.000
G13  23547646.531 7 123743697.378 7     -3660.871          46.000    23547644.352 6  96423660.440 6     -2852.627          37.000
G15  22078296.125 8 116022209.093 8     -3030.289          51.000    22078296.742 8  90406920.181 8     -2361.267          51.000
G24  20234861.789 7 106334896.594 7       631.938          45.000    20234864.359 7  82858383.616 7       492.419          45.000
G25  23712582.992 5 124610466.600 5      3386.820          34.000    23712583.477 5  97099073.293 5      2639.087          33.000
R08  20646608.445 7 110561639.110 7     -2525.527          47.000    20646610.766 7  85992400.497 7     -1964.299          43.000
R09  20918423.961 5 111703210.358 5     -2311.324          34.000
R10  19641139.688 5 104698356.869 5      -226.965          33.000
C21  23990524.242 7 124925020.999 7     -1869.617          46.000
C29  23990897.219 8 124926917.403 8      2620.828          51.000
E05  24874060.797 8 130714066.719 8     -2278.609          51.000    24874067.008 8 100157537.609 8     -1745.921          51.000
E24  22187800.125 8 116597666.873 8     -1195.328          51.000    22187813.117 8  89341161.700 8      -915.895          51.000
E25  24221856.203 6 127286696.499 6      1174.180          37.000    24221855.398 6  97531372.433 6       899.666          36.000
> 2020 05 13 07 13 30.0000000  0 14        .000000000000
G12  21223190.695 8 111528642.304 8      2364.078          51.000    21223190.039 8  86905417.155 8      1842.139          51.000
G13  23568566.617 7 123853629.523 7     -3663.012          46.000    23568565.703 6  96509321.838 6     -2854.295          37.000
G15  22095629.430 8 116113294.982 8     -3037.430          51.000    22095629.570 8  90477896.166 8     -2366.828          51.000
G17  22802885.305 6 119829970.818 6     -1598.055          38.000
G19  21561622.844 5 113307086.930 5       184.078          34.000    21561616.086 5  88291211.972 5       143.438          32.000
G24  20231292.469 7 106316138.794 7       623.227          46.000    20231294.867 7  82843767.148 7       485.628          46.000
G25  23693271.281 6 124508985.260 6      3383.680          41.000    23693271.953 6  97019997.008 6      2636.637          40.000
R08  20660821.648 8 110637748.418 8     -2543.707          48.000    20660822.336 7  86051596.567 7     -1978.442          42.000
R10  19642454.750 4 104705365.586 4      -234.297          29.000
C21  24001336.312 7 124981319.309 7     -1879.035          45.000
C29  23975828.039 8 124848448.482 8      2615.090          50.000
E05  24887100.125 8 130782584.989 8     -2284.605          51.000    24887106.117 8 100210038.603 8     -1750.581          51.000
E24  22194642.797 8 116633625.139 8     -1197.004          51.000    22194655.828 8  89368714.121 8      -917.227          51.000
E25  24215172.828 6 127251581.969 6      1171.074          38.000    24215172.445 6  97504466.373 6       897.933          37.000
> 2020 05 13 07 14  0.0000000  0 14        .000000000000
G12  21209749.008 8 111458004.944 8      2345.922          51.000    21209747.719 8  86850375.066 8      1827.994          51.000
G13  23589513.547 7 123963703.163 7     -3674.527          45.000    23589513.016 6  96595093.478 6     -2863.268          38.000
G15  22113018.164 8 116204672.600 8     -3053.570          51.000    22113017.789 8  90549099.485 8     -2379.405          51.000
G17  22812073.273 6 119878248.403 6     -1619.727          37.000    22812084.734 5  93411664.254 5     -1262.115          30.000
G19  21560652.930 6 113302003.795 6       155.766          36.000    21560643.117 5  88287241.082 5       121.382          33.000
G24  20227787.844 7 106297721.260 7       605.512          46.000    20227790.344 7  82829415.823 7       471.827          46.000
G25  23673989.094 7 124407656.360 7      3372.586          44.000    23673989.555 6  96941039.538 6      2627.995          39.000
R08  20675151.352 8 110714482.805 8     -2570.965          48.000    20675151.469 7  86111278.843 7     -1999.639          42.000
R10  19643825.047 5 104712674.191 5      -251.211          33.000
C21  24012216.266 7 125037973.057 7     -1897.262          44.000
C29  23960806.742 8 124770230.600 8      2600.301          49.000
E05  24900188.492 8 130851361.392 8     -2299.648          51.000    24900193.250 8 100262737.356 8     -1762.029          51.000
E24  22201509.891 8 116669711.452 8     -1207.863          51.000    22201522.867 8  89396364.659 8      -925.506          51.000
E25  24208522.273 6 127216632.648 6      1159.293          41.000    24208520.227 6  97477686.901 6       888.696          36.000
> 2020 05 13 07 14 30.0000000  0 15        .000000000000
G12  21196389.727 8 111387800.154 8      2334.230          51.000    21196387.930 8  86795670.067 8      1818.881          51.000
G13  23610501.641 7 124073993.908 7     -3678.633          44.000    23610501.336 6  96681034.300 6     -2866.467          37.000
G15  22130476.609 8 116296417.665 8     -3062.930          51.000    22130475.961 8  90620589.124 8     -2386.698          51.000
G17  22821364.070 6 119927065.545 6     -1635.480          36.000    22821383.852 5  93449740.559 5     -1274.406          33.000
G19  21559817.906 5 113297631.495 5       135.145          32.000    21559809.453 5  88283834.053 5       105.314          31.000
G24  20224362.875 7 106279722.745 7       594.195          45.000    20224365.469 7  82815390.990 7       463.006          45.000
G25  23654751.008 7 124306559.331 7      3367.195          44.000    23654752.344 6  96862262.696 6      2623.792          41.000
R08  20689611.852 8 110791918.834 8     -2591.500          48.000    20689612.625 7  86171506.829 7     -2015.611          43.000
R09  20957548.016 5 111912127.837 5     -2330.965          34.000    20957575.719 4  87042857.612 4     -1812.976          28.000
R10  19645266.727 6 104720361.175 6      -261.191          36.000
C21  24023178.609 7 125095057.697 7     -1908.758          44.000
C29  23945849.148 8 124692343.562 8      2591.961          49.000
E05  24913340.383 8 130920472.542 8     -2307.961          51.000    24913342.531 8 100315692.586 8     -1768.360          49.000
E24  22208416.039 8 116706003.109 8     -1211.812          51.000    22208429.008 8  89424172.532 8      -928.514          51.000
E25  24201918.156 6 127181926.336 6      1154.027          40.000    24201914.578 6  97451093.715 6       884.488          38.000
> 2020 05 13 07 15  0.0000000  0 16        .000000000000
G12  21183099.375 8 111317958.005 8      2322.215          51.000    21183097.586 8  86741247.625 8      1809.518          51.000
G13  23631517.273 7 124184429.210 7     -3683.207          43.000    23631516.750 5  96767087.748 5     -2870.031          34.000
G15  22147990.977 8 116388457.209 8     -3072.754          51.000    22147990.273 8  90692308.218 8     -2394.357          51.000
G17  22830744.180 6 119976349.592 6     -1650.398          36.000    22830729.398 5  93488026.170 5     -1286.019          35.000
G19  21559105.664 5 113293899.922 5       114.020          35.000    21559100.844 5  88280926.334 5        88.852          33.000
G24  20221004.320 7 106262073.152 7       582.617          46.000    20221006.633 7  82801638.056 7       453.990          46.000
G25  23635543.602 6 124205624.628 6      3361.926          40.000    23635546.406 6  96783612.324 6      2619.682          41.000
R08  20704189.688 8 110869981.038 8     -2612.250          48.000    20704190.766 7  86232221.874 7     -2031.753          42.000
R09  20970663.875 5 111982139.379 5     -2336.031          34.000    20970695.695 4  87097310.879 4     -1816.919          25.000
R10  19646766.875 6 104728355.158 6      -271.094          36.000
C21  24034209.797 7 125152501.140 7     -1920.488          45.000
C22  26160661.586 4 136225456.110 4     -3285.484          28.000
C29  23930942.180 8 124614719.725 8      2583.223          49.000
E05  24926541.898 8 130989846.287 8     -2316.688          51.000    24926540.992 8 100368849.017 8     -1775.058          48.000
E24  22215347.641 8 116742428.698 8     -1216.219          51.000    22215360.641 8  89452083.045 8      -931.896          51.000
E25  24195346.094 6 127147392.154 6      1148.426          40.000    24195342.844 6  97424632.499 6       880.052          39.000
> 2020 05 13 07 15 30.0000000  0 13        .000000000000
G12  21169876.570 8 111248472.321 8      2307.156          51.000    21169875.367 8  86687102.934 8      1797.784          51.000
G13  23652558.297 6 124294999.941 6     -3691.496          41.000    23652557.156 5  96853246.786 5     -2876.490          31.000
G15  22165559.656 8 116480781.506 8     -3085.418          51.000    22165558.820 8  90764249.180 8     -2404.225          51.000
G19  21558514.508 5 113290802.132 5        89.602          34.000    21558513.250 4  88278512.516 4        69.822          28.000
G24  20217710.922 7 106244765.446 7       568.082          47.000    20217712.586 7  82788151.551 7       442.661          47.000
G25  23616365.562 6 124104846.475 6      3353.637          38.000    23616369.211 6  96705083.851 6      2613.220          38.000
R08  20718882.523 8 110948658.044 8     -2636.055          49.000    20718883.281 7  86293415.079 7     -2050.265          42.000
R10  19648322.930 5 104736647.605 5      -284.531          34.000
C21  24045308.078 7 125210294.427 7     -1935.453          45.000
C29  23916084.859 8 124537354.553 8      2571.250          48.000
E05  24939791.250 8 131059474.149 8     -2328.199          51.000    24939788.750 8 100422200.166 8     -1783.948          48.000
E24  22222303.211 8 116778980.495 8     -1223.570          51.000    22222316.281 8  89480090.252 8      -937.496          51.000
E25  24188805.430 6 127113022.944 6      1139.816          38.000    24188802.859 6  97398297.683 6       873.432          39.000
> 2020 05 13 07 16  0.0000000  0 15        .000000000000
G12  21156745.367 8 111179467.698 8      2296.336          51.000    21156743.875 8  86633333.100 8      1789.353          51.000
G13  23673647.430 6 124405827.185 6     -3694.465          40.000    23673647.172 4  96939626.722 4     -2878.795          26.000
G15  22183205.672 8 116573511.446 8     -3093.430          51.000    22183204.445 8  90836506.232 8     -2410.465          51.000
G19  21558067.938 5 113288461.904 5        69.215          32.000    21558067.945 4  88276688.894 4        53.934          29.000
G24  20214506.391 7 106227924.815 7       557.762          47.000    20214507.633 7  82775028.999 7       434.620          47.000
G25  23597241.250 6 124004349.451 6      3349.438          41.000    23597244.766 6  96626774.504 6      2609.951          41.000
R08  20733712.258 8 111028072.505 8     -2655.055          48.000    20733713.188 7  86355181.892 7     -2065.046          43.000
R09  20996993.227 5 112122749.882 5     -2349.027          32.000    20997018.273 4  87206676.157 4     -1827.027          29.000
R10  19649958.539 5 104745363.674 5      -293.133          35.000
R11  21900849.586 4 117031498.513 4      2627.652          28.000
C21  24056496.719 7 125268557.772 7     -1945.703          45.000
C29  23901300.789 7 124460372.717 7      2563.898          46.000
E05  24953111.781 8 131129478.096 8     -2335.441          50.000    24953109.805 8 100475839.509 8     -1789.524          49.000
E24  22229306.133 8 116815781.167 8     -1226.566          51.000    22229319.234 8  89508288.167 8      -939.852          51.000
E25  24182318.633 5 127078942.020 5      1135.703          35.000    24182318.125 6  97372183.647 6       870.229          40.000
> 2020 05 13 07 16 30.0000000  0 13        .000000000000
G12  21143675.320 8 111110783.340 8      2284.699          51.000    21143672.617 8  86579812.861 8      1780.285          51.000
G13  23694753.773 6 124516747.515 6     -3698.520          40.000
G15  22200897.711 8 116666483.313 8     -3102.535          51.000    22200896.016 8  90908951.805 8     -2417.563          51.000
G24  20211360.102 8 106211390.567 8       546.477          48.000    20211361.422 8  82762145.173 8       425.829          48.000
G25  23578140.227 7 123903973.342 7      3344.438          43.000    23578143.359 7  96548559.390 7      2606.055          43.000
R08  20748648.250 8 111108056.371 8     -2674.996          49.000    20748649.484 7  86417391.504 7     -2080.553          44.000
R09  21010213.109 5 112193328.498 5     -2354.031          33.000    21010215.430 4  87261496.387 4     -1830.916          26.000
R10  19651643.648 5 104754338.754 5      -303.242          32.000
C21  24067744.656 7 125327129.205 7     -1956.984          45.000
C29  23886559.812 7 124383616.743 7      2555.305          45.000
E05  24966472.953 8 131199695.241 8     -2343.609          51.000    24966472.625 8 100529642.225 8     -1795.768          50.000
E24  22236325.555 8 116852668.619 8     -1230.426          51.000    22236338.633 8  89536552.563 8      -942.788          51.000
E25  24175856.383 5 127044987.537 5      1129.793          35.000    24175857.883 6  97346166.556 6       866.149          40.000
> 2020 05 13 07 17  0.0000000  0 15        .000000000000
G12  21130677.891 8 111042481.504 8      2271.148          51.000    21130675.148 8  86526590.690 8      1769.726          51.000
G13  23715889.195 6 124627820.041 6     -3704.387          39.000    23715893.391 5  97112631.612 5     -2886.538          32.000
G15  22218646.859 8 116759756.082 8     -3113.285          51.000    22218645.102 8  90981631.845 8     -2425.940          51.000
G17  22869187.594 5 120178392.225 5     -1714.301          34.000
G19  21557533.148 5 113285588.742 5        26.102          35.000
G24  20208283.641 8 106195224.310 8       533.500          48.000    20208285.445 8  82749548.066 8       415.714          48.000
