     3.02           OBSERVATION DATA    M (MIXED)           RINEX VERSION / TYPE
SAVERINEX           SC600               20200506 215931 LCL PGM / RUN BY / DATE
       G = GPS       R = GLONASS       C = COMPASS          COMMENT
       S = SBAS      J = QZSS          E = GALILEO          COMMENT
BEAN                                                        MARKER NAME
1                                                           MARKER NUMBER
GEODETIC                                                    MARKER TYPE
Unige DICCA         GTER                                    OBSERVER / AGENCY
SC60291900056       SC600               2.12(191226)        REC # / TYPE / VERS
                    HEMA45          NONE                    ANT # / TYPE
  4509407.8091   693652.4678  4442337.6214                  APPROX POSITION XYZ
        0.0000        0.0000        0.0000                  ANTENNA: DELTA H/E/N
G    8 C1C L1C D1C S1C C2Y L2Y D2Y S2Y                      SYS / # / OBS TYPES
R    8 C1C L1C D1C S1C C2P L2P D2P S2P                      SYS / # / OBS TYPES
C    8 C1I L1I D1I S1I C7I L7I D7I S7I                      SYS / # / OBS TYPES
E    8 C1C L1C D1C S1C C7Q L7Q D7Q S7Q                      SYS / # / OBS TYPES
DBHZ                                                        COMMENT
     30.000                                                 INTERVAL
  2020    05    06    19    00    0.0000000     GPS         TIME OF FIRST OBS
  2020    05    06    19    59   30.0000000     GPS         TIME OF LAST OBS
     0                                                      RCV CLOCK OFFS APPL
G L1C  0.00000                                              SYS / PHASE SHIFT
G L2Y  0.00000                                              SYS / PHASE SHIFT
R L1C  0.00000                                              SYS / PHASE SHIFT
R L2P  0.25000                                              SYS / PHASE SHIFT
C L1I  0.00000                                              SYS / PHASE SHIFT
C L7I  0.00000                                              SYS / PHASE SHIFT
E L1C  0.50000                                              SYS / PHASE SHIFT
E L7Q -0.25000                                              SYS / PHASE SHIFT
 14 R01  1 R02 -4 R03  5 R04  6 R05  1 R10 -5 R13 -2 R14 -7 GLONASS SLOT / FRQ #
    R15  0 R16 -1 R17  4 R18 -3 R19  3 R23  3               GLONASS SLOT / FRQ #
 C1C   71.950 C2C   71.950 C2P   71.950                     GLONASS COD/PHS/BIS
    18                                                      LEAP SECONDS
*** Above antenna height is from mark to ANTENNA BOTTOM.    COMMENT
    17     4        0.0000        ANT MEASURE TYPE/HEIGT    COMMENT
    0.0000    0.0000    0.0458    0.0405    0.0000          COMMENT
                    BASE STATION                            COMMENT
                                                            END OF HEADER
> 2020 05 06 19 00  0.0000000  0 18        .000000000000
G03  23053053.672 6 121144598.786 6      3202.902          41.000    23053054.477 7  94398403.754 7      2495.768          42.000
G08  20913151.219 8 109899343.801 8     -1857.805          51.000    20913152.930 8  85635848.719 8     -1447.643          51.000
G10  23781841.906 5 124974395.124 5     -3172.645          35.000    23781849.312 6  97382693.113 6     -2472.188          36.000
G11  19893833.484 8 104542826.374 8       465.898          49.000    19893832.664 8  81461914.519 8       363.038          49.000
G14  22297129.172 6 117172231.485 6      1535.910          41.000    22297128.195 6  91303034.214 6      1196.813          37.000
G22  21387380.703 8 112391534.752 8      1864.223          50.000    21387377.555 8  87577763.183 8      1452.641          49.000
G27  23004250.102 8 120888126.346 8     -3400.488          48.000    23004248.688 8  94198540.953 8     -2649.731          48.000
G32  22010322.547 6 115665076.790 6        92.922          37.000    22010325.938 6  90128607.352 6        72.410          37.000
R03  20062836.367 8 107397964.830 8     -1981.738          51.000    20062838.094 8  83531783.272 8     -1541.352          48.000
R04  19746719.148 8 105742822.477 8      2244.734          49.000    19746722.383 7  82244464.742 7      1745.908          47.000
R18  20464864.812 8 109242851.096 8     -2115.594          48.000    20464869.422 7  84966641.002 7     -1645.462          46.000
C05                                                                  39649720.445 6 159652993.662 6       -21.316          38.000
C11  23622902.117 7 123010625.702 7     -2455.496          45.000    23622903.734 8  95119621.610 8     -1898.649          51.000
C14  21571127.820 8 112326573.608 8       319.680          48.000    21571127.703 8  86858057.845 8       247.194          51.000
E03  26629644.773 6 139939721.213 6     -2092.641          37.000
E07  25691445.430 8 135009437.879 8      2804.598          48.000    25691451.703 8 103448803.560 8      2148.956          49.000
E08  22221935.953 8 116777130.635 8       482.383          50.000    22221938.273 8  89478605.842 8       369.621          51.000
E13  23344024.469 8 122673677.584 8      -440.676          50.000    23344026.672 8  93996736.961 8      -337.637          51.000
> 2020 05 06 19 00 30.0000000  0 18        .000000000000
G03  23034791.383 6 121048630.994 6      3194.879          40.000    23034792.906 6  94323623.701 6      2489.516          40.000
G08  20923802.203 8 109955313.526 8     -1873.641          51.000    20923802.945 8  85679461.458 8     -1459.983          51.000
G10  23799967.719 5 125069646.896 5     -3176.000          32.000    23799974.969 5  97456915.287 5     -2474.811          31.000
G11  19891219.742 8 104529091.272 8       449.578          49.000    19891219.000 8  81451211.842 8       350.321          50.000
G14  22288402.891 7 117126375.802 7      1520.516          42.000    22288402.430 6  91267302.575 6      1184.817          38.000
G22  21376773.648 8 112335792.667 8      1851.730          51.000    21376770.406 8  87534327.808 8      1442.907          49.000
G27  23023685.500 8 120990257.288 8     -3408.285          49.000    23023684.648 8  94278123.454 8     -2655.807          49.000
G32  22009848.039 6 115662581.405 6        73.320          38.000    22009852.758 6  90126662.880 6        57.136          38.000
R03  20074002.867 8 107457741.108 8     -2003.539          51.000    20074004.719 8  83578275.935 8     -1558.308          49.000
R04  19734206.742 7 105675819.669 7      2221.859          47.000    19734209.969 7  82192351.470 7      1728.113          47.000
R18  20476795.500 8 109306538.003 8     -2130.461          49.000    20476800.242 7  85016175.250 7     -1657.025          47.000
C05                                                                  39649878.922 6 159653632.408 6       -21.232          38.000
C11  23637073.164 7 123084418.398 7     -2464.488          44.000    23637075.328 8  95176682.819 8     -1905.557          50.000
C14  21569330.594 8 112317213.447 8       304.156          49.000    21569329.781 8  86850820.010 8       235.256          51.000
E03  26641616.336 6 140002633.884 6     -2101.973          37.000
E07  25675452.156 8 134925394.179 8      2798.156          49.000    25675456.977 8 103384406.520 8      2144.018          49.000
E08  22219222.133 8 116762869.826 8       468.129          51.000    22219224.430 8  89467678.726 8       358.735          51.000
E13  23346560.727 8 122687005.555 8      -447.918          51.000    23346562.930 8  94006949.298 8      -343.246          51.000
> 2020 05 06 19 01  0.0000000  0 17        .000000000000
G03  23016606.125 6 120953067.879 6      3188.531          41.000    23016607.984 6  94249158.972 6      2484.570          41.000
G08  20934574.812 8 110011923.355 8     -1887.699          51.000    20934575.117 8  85723572.991 8     -1470.934          51.000
G11  19888731.164 8 104516013.808 8       434.879          50.000    19888730.391 8  81441021.613 8       338.867          50.000
G14  22279797.570 6 117081154.911 6      1506.492          41.000    22279797.188 6  91232065.534 6      1173.893          38.000
G22  21366269.523 8 112280591.598 8      1840.996          51.000    21366266.375 8  87491313.996 8      1434.542          50.000
G27  23043196.102 8 121092784.564 8     -3414.176          48.000    23043196.469 8  94358014.830 8     -2660.397          48.000
G32  22009516.016 6 115660832.661 6        55.855          37.000    22009521.938 6  90125300.320 6        43.527          37.000
R03  20085322.773 8 107518336.825 8     -2023.406          51.000    20085324.672 8  83625405.943 8     -1573.760          49.000
R04  19721853.242 8 105609669.753 8      2200.902          49.000    19721857.172 7  82140901.555 7      1711.813          47.000
R18  20488840.875 8 109370835.635 8     -2143.387          49.000    20488845.547 8  85066184.498 8     -1667.082          48.000
C05                                                                  39650068.945 6 159654396.459 6       -19.887          38.000
C11  23651326.438 7 123158640.176 7     -2471.352          46.000    23651328.953 8  95234075.769 8     -1911.012          50.000
C14  21567653.656 8 112308479.619 8       290.562          50.000    21567652.188 8  86844066.500 8       224.690          51.000
E03  26653672.641 6 140065992.320 6     -2109.500          36.000
E07  25659527.172 8 134841707.102 8      2793.543          50.000    25659530.977 8 103320282.729 8      2140.558          50.000
E08  22216621.031 8 116749199.739 8       455.754          51.000    22216622.984 8  89457204.254 8       349.271          51.000
E13  23349169.609 8 122700714.462 8      -453.344          51.000    23349171.656 8  94017453.516 8      -347.346          51.000
> 2020 05 06 19 01 30.0000000  0 18        .000000000000
G03  22998408.844 6 120857441.555 6      3179.668          41.000    22998410.281 6  94174644.987 6      2477.663          41.000
G08  20945379.578 8 110068703.176 8     -1904.312          51.000    20945380.102 8  85767816.996 8     -1483.880          51.000
G10  23836273.336 4 125260461.216 4     -3181.992          29.000
G11  19886278.625 8 104503125.710 8       417.605          49.000    19886277.875 8  81430978.937 8       325.407          49.000
G14  22271223.555 6 117036101.180 6      1490.598          39.000    22271223.781 5  91196958.729 5      1161.505          35.000
G22  21355778.641 8 112225462.699 8      1827.641          51.000    21355775.703 8  87448356.413 8      1424.136          49.000
G27  23062692.281 8 121195237.072 8     -3422.742          48.000    23062693.531 8  94437847.945 8     -2667.072          48.000
G32  22009237.062 6 115659361.757 6        35.566          38.000    22009239.703 6  90124154.103 6        27.711          38.000
R03  20096705.750 8 107579270.895 8     -2045.746          51.000    20096707.609 8  83672799.104 8     -1591.136          49.000
R04  19709570.586 8 105543896.631 8      2177.094          51.000    19709574.570 8  82089744.693 8      1693.295          48.000
R18  20500911.383 8 109435267.231 8     -2158.914          50.000    20500915.875 7  85116297.940 7     -1679.155          47.000
C05                                                                  39650201.062 6 159654928.285 6       -20.498          38.000
C11  23665573.547 8 123232825.354 8     -2481.098          48.000    23665575.039 8  95291440.458 8     -1918.479          49.000
C14  21566007.797 8 112299906.904 8       274.359          51.000    21566005.750 8  86837437.574 8       212.101          51.000
E03  26665723.859 5 140129324.779 5     -2119.254          34.000
E07  25643581.359 8 134757909.096 8      2786.277          51.000    25643585.023 8 103256073.928 8      2134.946          50.000
E08  22214043.148 8 116735651.319 8       440.793          51.000    22214044.781 8  89446823.014 8       337.756          51.000
E13  23351761.922 8 122714335.596 8      -461.348          51.000    23351763.508 8  94027890.498 8      -353.497          51.000
> 2020 05 06 19 02  0.0000000  0 17        .000000000000
G03  22980291.398 6 120762236.254 6      3173.539          41.000    22980292.828 6  94100459.106 6      2472.891          40.000
G08  20956308.117 8 110126134.694 8     -1918.133          51.000    20956309.141 8  85812568.818 8     -1494.649          51.000
G11  19883954.188 8 104490910.742 8       403.086          49.000    19883953.414 8  81421460.784 8       314.093          49.000
G14  22262773.109 6 116991699.758 6      1476.258          37.000    22262774.773 6  91162360.263 6      1150.334          37.000
G22  21345393.148 8 112170889.836 8      1816.832          50.000    21345390.695 8  87405832.108 8      1415.713          48.000
G27  23082265.844 7 121298095.605 7     -3428.340          47.000    23082267.227 7  94517997.439 7     -2671.434          47.000
G32  22009102.492 6 115658651.560 6        18.039          37.000    22009105.023 6  90123600.779 6        14.062          37.000
R03  20108243.414 8 107641032.268 8     -2065.215          51.000    20108245.414 8  83720835.732 8     -1606.278          49.000
R04  19697450.945 8 105478994.409 8      2156.039          51.000    19697454.406 7  82039265.216 7      1676.922          47.000
R18  20513098.477 8 109500322.793 8     -2171.844          49.000    20513102.781 7  85166896.693 7     -1689.215          46.000
C05                                                                  39650367.039 6 159655596.967 6       -19.232          38.000
C11  23679905.570 8 123307451.636 8     -2488.027          49.000    23679905.648 8  95349146.219 8     -1923.771          48.000
C14  21564484.500 8 112291973.398 8       260.828          51.000    21564482.125 8  86831302.920 8       201.713          51.000
E03  26677861.656 5 140193109.547 5     -2126.582          32.000
E07  25627706.719 8 134674484.635 8      2781.574          50.000    25627710.484 8 103192151.313 8      2131.399          51.000
E08  22211580.203 8 116722707.545 8       428.480          51.000    22211581.672 8  89436905.090 8       328.286          51.000
E13  23354429.422 8 122728352.320 8      -466.695          51.000    23354430.711 8  94038630.578 8      -357.610          51.000
> 2020 05 06 19 02 30.0000000  0 17        .000000000000
G03  22962225.648 7 120667301.914 7      3162.309          42.000    22962227.773 7  94026484.367 7      2464.137          42.000
G08  20967331.305 8 110184064.722 8     -1936.961          50.000    20967333.023 8  85857709.058 8     -1509.320          50.000
G11  19881729.227 8 104479218.422 8       383.398          49.000    19881728.523 8  81412349.881 8       298.752          49.000
G14  22254418.453 6 116947800.588 6      1457.262          39.000    22254420.320 6  91128153.179 6      1135.532          36.000
G22  21335084.852 8 112116721.818 8      1801.160          50.000    21335082.453 8  87363623.301 8      1403.504          49.000
G27  23101887.125 7 121401206.755 7     -3438.969          45.000    23101888.688 7  94598343.738 7     -2679.719          45.000
G32  22009083.867 6 115658551.124 6        -4.574          40.000    22009085.984 6  90123522.471 6        -3.570          40.000
R03  20119906.016 8 107703463.315 8     -2089.805          51.000    20119908.078 8  83769393.215 8     -1625.404          49.000
R04  19685465.594 8 105414810.794 8      2129.828          49.000    19685468.047 7  81989344.655 7      1656.533          45.000
R18  20525373.570 8 109565847.926 8     -2189.535          50.000    20525377.812 7  85217860.688 7     -1702.972          46.000
C05                                                                  39650538.188 6 159656286.331 6       -21.588          38.000
C11  23694293.000 8 123382368.198 8     -2499.777          48.000    23694292.352 8  95407076.392 8     -1932.902          49.000
C14  21563054.961 8 112284528.630 8       242.340          51.000    21563052.430 8  86825546.178 8       187.405          51.000
E07  25611874.664 8 134591283.871 8      2771.977          50.000    25611878.234 8 103128400.115 8      2123.949          51.000
E08  22209203.617 8 116710217.086 8       411.102          51.000    22209204.875 8  89427334.503 8       315.018          51.000
E13  23357143.367 8 122742613.644 8      -477.176          51.000    23357144.703 8  94049558.069 8      -365.577          51.000
E15  26362140.664 5 138533982.110 5     -2231.660          32.000
> 2020 05 06 19 03  0.0000000  0 16        .000000000000
G03  22944192.625 7 120572537.621 7      3154.562          43.000    22944195.367 7  93952642.079 7      2458.101          42.000
G08  20978430.000 8 110242390.274 8     -1952.238          51.000    20978432.320 8  85903157.507 8     -1521.225          51.000
G11  19879584.398 8 104467947.720 8       367.312          49.000    19879583.914 8  81403567.500 8       286.218          49.000
G14  22246141.172 6 116904303.361 6      1441.637          41.000    22246142.227 5  91094259.300 5      1123.353          34.000
G22  21324834.727 8 112062856.652 8      1789.070          51.000    21324832.242 8  87321650.486 8      1394.084          49.000
G27  23121536.289 7 121504466.224 7     -3445.816          44.000    23121538.297 7  94678805.634 7     -2685.052          44.000
R03  20131673.922 8 107766456.657 8     -2110.523          49.000    20131676.008 8  83818388.032 8     -1641.518          49.000
R04  19673594.477 8 105351243.503 8      2107.207          49.000    19673596.117 7  81939903.475 7      1638.939          44.000
R18  20537717.250 8 109631738.526 8     -2203.832          50.000    20537721.398 7  85269108.922 7     -1714.092          45.000
C05                                                                  39650695.023 6 159656918.122 6       -21.322          38.000
C11  23708716.367 8 123457473.141 8     -2508.121          48.000    23708715.727 8  95465152.234 8     -1939.209          49.000
C14  21561699.750 8 112277470.923 8       227.441          51.000    21561697.250 8  86820088.745 8       175.914          51.000
E07  25596065.961 8 134508206.189 8      2765.801          50.000    25596068.969 8 103064743.217 8      2119.295          50.000
E08  22206893.938 8 116698077.777 8       397.445          51.000    22206894.867 8  89418032.982 8       304.512          51.000
E13  23359884.461 8 122757017.817 8      -483.906          51.000    23359885.906 8  94060595.019 8      -370.776          51.000
E15  26374892.625 6 138600995.862 6     -2235.516          36.000
> 2020 05 06 19 03 30.0000000  0 18        .000000000000
G03  22926197.797 7 120477974.835 7      3145.562          45.000    22926201.102 7  93878956.838 7      2451.088          43.000
G08  20989609.594 8 110301140.174 8     -1968.371          50.000    20989612.578 8  85948936.659 8     -1533.796          50.000
G10  23909148.406 5 125643422.015 5     -3197.438          30.000
G11  19877525.812 8 104457129.755 8       350.059          49.000    19877525.289 8  81395137.911 8       272.776          49.000
G14  22237947.000 6 116861240.198 6      1425.309          40.000    22237946.453 6  91060703.608 6      1110.636          36.000
G22  21314648.172 8 112009324.799 8      1775.926          51.000    21314645.953 8  87279937.380 8      1383.841          50.000
G27  23141218.641 7 121607902.262 7     -3453.570          42.000    23141221.344 7  94759405.116 7     -2691.094          42.000
G32  22009349.414 6 115659936.947 6       -43.379          38.000    22009341.336 6  90124569.888 6       -33.808          37.000
R03  20143551.438 8 107830039.624 8     -2132.234          50.000    20143553.750 8  83867841.464 8     -1658.408          49.000
R04  19661843.836 8 105288325.130 8      2083.516          48.000    19661845.672 7  81890967.032 7      1620.515          43.000
R18  20550135.000 8 109698024.436 8     -2219.070          51.000    20550138.203 7  85320664.643 7     -1725.941          44.000
C05                                                                  39650843.297 6 159657515.421 6       -21.603          37.000
C11  23723181.359 7 123532795.241 7     -2517.184          47.000    23723180.859 8  95523396.081 8     -1946.543          50.000
C14  21560424.383 8 112270829.726 8       211.609          51.000    21560422.125 8  86814953.400 8       163.591          51.000
E07  25580286.477 8 134425283.340 8      2758.594          49.000    25580289.117 8 103001204.957 8      2113.755          49.000
E08  22204656.570 8 116686319.894 8       382.645          51.000    22204657.398 8  89409023.721 8       293.171          51.000
E13  23362658.555 8 122771595.447 8      -491.715          51.000    23362660.141 8  94071764.877 8      -376.807          51.000
E15  26387656.625 5 138668074.137 5     -2240.293          35.000
> 2020 05 06 19 04  0.0000000  0 18        .000000000000
G03  22908273.758 7 120383782.643 7      3134.820          47.000    22908277.117 7  93805560.348 7      2442.717          43.000
G08  21000901.500 8 110360480.723 8     -1986.520          50.000    21000905.359 8  85995176.055 8     -1547.937          50.000
G10  23927420.594 5 125739443.404 5     -3202.949          35.000
G11  19875585.516 8 104446933.308 8       330.828          49.000    19875584.938 8  81387192.626 8       257.788          49.000
G14  22229867.344 6 116818780.191 6      1406.578          39.000    22229866.578 6  91027617.985 6      1096.038          38.000
G22  21304557.062 8 111956294.758 8      1760.625          51.000    21304555.086 8  87238615.274 8      1371.916          50.000
G27  23160966.273 6 121711680.507 6     -3463.762          41.000    23160969.828 6  94840271.260 6     -2699.035          41.000
G32  22009650.664 5 115661587.734 5       -65.516          34.000    22009655.852 5  90125856.106 5       -51.051          34.000
R03  20155570.836 8 107894380.094 8     -2155.812          49.000    20155572.812 8  83917884.053 8     -1676.743          49.000
R04  19650246.750 8 105226228.396 8      2057.555          49.000    19650248.617 7  81842669.637 7      1600.320          43.000
R18  20562658.547 8 109764876.024 8     -2236.281          50.000    20562661.781 7  85372660.256 7     -1739.333          44.000
C05                                                                  39651014.984 6 159658206.751 6       -23.566          37.000
C11  23737719.328 7 123608500.171 7     -2528.516          45.000    23737719.695 8  95581935.951 8     -1955.188          49.000
C14  21559260.883 8 112264770.865 8       193.629          51.000    21559258.641 8  86810268.328 8       149.678          51.000
E07  25564568.102 8 134342684.683 8      2749.078          48.000    25564570.695 8 102937915.094 8      2106.523          48.000
E08  22202523.531 8 116675111.185 8       365.816          51.000    22202524.375 8  89400435.248 8       280.289          51.000
E13  23365497.703 8 122786514.755 8      -501.727          51.000    23365499.500 8  94083196.544 8      -384.452          51.000
E15  26400466.797 5 138735389.443 5     -2247.270          34.000
> 2020 05 06 19 04 30.0000000  0 17        .000000000000
G03  22890387.336 7 120289787.889 7      3128.258          47.000    22890390.648 7  93732317.737 7      2437.603          44.000
G08  21012272.539 8 110420236.177 8     -2000.426          51.000    21012276.875 8  86041738.743 8     -1558.773          51.000
G10  23945708.328 5 125835547.878 5     -3204.801          33.000    23945709.844 5  98053678.543 5     -2497.247          31.000
G11  19873730.445 8 104437184.874 8       315.762          49.000    19873729.914 8  81379596.431 8       246.048          49.000
G14  22221869.625 6 116776750.936 6      1392.051          39.000    22221869.250 5  90994867.962 5      1084.718          35.000
G22  21294528.625 8 111903592.264 8      1749.531          51.000    21294526.336 8  87197548.408 8      1363.271          50.000
G27  23180745.984 6 121815624.490 6     -3469.012          41.000    23180750.016 6  94921266.580 6     -2703.123          41.000
G32  22010062.172 5 115663657.189 5       -83.402          30.000    22010071.352 5  90127556.941 5       -64.983          31.000
R03  20167697.742 8 107959296.896 8     -2175.348          50.000    20167699.867 8  83968374.895 8     -1691.940          49.000
R04  19638771.477 8 105164777.712 8      2035.734          49.000    19638772.578 7  81794874.656 7      1583.349          43.000
R18  20575254.688 8 109832115.349 8     -2249.598          50.000    20575257.711 7  85424957.485 7     -1749.690          44.000
C05                                                                  39651176.820 6 159658858.441 6       -22.283          38.000
C11  23752296.906 7 123684414.285 7     -2535.824          43.000    23752298.289 8  95640637.579 8     -1960.706          49.000
C14  21558175.672 8 112259121.072 8       179.871          50.000    21558173.750 8  86805899.555 8       139.067          51.000
E07  25548878.141 7 134260237.297 7      2743.996          47.000    25548880.383 7 102874741.158 7      2102.539          47.000
E08  22200461.812 8 116664277.306 8       353.160          51.000    22200462.547 8  89392133.984 8       270.645          51.000
E13  23368368.680 8 122801601.756 8      -507.410          51.000    23368370.570 8  94094756.695 8      -388.729          51.000
> 2020 05 06 19 05  0.0000000  0 16        .000000000000
G03  22872550.664 7 120196054.009 7      3125.516          47.000    22872554.117 7  93659278.410 7      2435.470          45.000
G08  21023734.414 8 110480467.434 8     -2010.234          51.000    21023738.430 8  86088672.173 8     -1566.416          51.000
G11  19871972.570 8 104427947.427 8       304.902          48.000    19871972.148 8  81372398.417 8       237.586          49.000
G14  22213965.477 5 116735216.334 5      1381.688          35.000    22213965.227 5  90962503.317 5      1076.649          34.000
G22  21284574.508 8 111851279.987 8      1742.762          51.000    21284571.656 8  87156785.614 8      1357.996          49.000
G27  23200568.328 6 121919794.278 6     -3470.809          41.000    23200573.227 6  95002437.861 6     -2704.526          40.000
G32  22010596.477 6 115666463.342 6       -97.074          37.000    22010597.672 6  90129711.189 6       -75.642          37.000
R03  20179944.055 7 108024850.015 7     -2190.094          47.000    20179945.961 8  84019360.665 8     -1703.406          49.000
R04  19627429.336 8 105104037.840 8      2018.328          48.000    19627430.086 7  81747632.522 7      1569.811          45.000
R18  20587935.055 8 109899805.032 8     -2258.332          49.000    20587938.516 7  85477604.971 7     -1756.480          44.000
C05                                                                  39651340.570 6 159659518.014 6       -17.924          38.000
C11  23766926.664 7 123760598.250 7     -2538.691          46.000    23766928.641 8  95699547.832 8     -1962.875          49.000
C14  21557180.609 8 112253941.290 8       170.312          50.000    21557179.344 8  86801894.248 8       131.675          51.000
E07  25533229.445 8 134178004.826 8      2742.910          48.000    25533230.984 7 102811731.920 7      2101.734          47.000
E08  22198483.156 8 116653880.314 8       344.754          51.000    22198483.984 8  89384167.482 8       264.183          51.000
E13  23371283.516 8 122816918.966 8      -508.914          51.000    23371285.164 8  94106493.266 8      -389.947          51.000
> 2020 05 06 19 05 30.0000000  0 16        .000000000000
G03  22854747.258 7 120102495.849 7      3112.516          47.000    22854751.070 7  93586376.009 7      2425.337          46.000
G08  21035270.094 8 110541086.521 8     -2030.359          51.000    21035273.523 8  86135907.814 8     -1582.098          51.000
G11  19870295.703 8 104419135.531 8       283.414          48.000    19870295.492 8  81365531.994 8       220.839          48.000
G14  22206139.172 6 116694091.342 6      1361.105          37.000    22206140.281 5  90930457.813 5      1060.602          34.000
G22  21274677.695 8 111799271.722 8      1725.301          51.000    21274674.750 8  87116259.712 8      1344.390          49.000
G27  23220417.375 7 122024101.400 7     -3482.320          44.000    23220422.141 7  95083716.154 7     -2713.493          45.000
G32  22011225.141 5 115669746.163 5      -121.512          33.000    22011220.477 5  90132269.130 5       -94.694          32.000
R03  20192291.328 8 108090948.206 8     -2215.477          48.000    20192293.602 8  84070770.380 8     -1723.148          48.000
R04  19616203.789 8 105043922.534 8      1990.086          48.000    19616205.055 7  81700876.199 7      1547.845          47.000
R18  20600682.969 8 109967856.650 8     -2277.707          48.000    20600687.289 7  85530533.971 7     -1771.553          45.000
C05                                                                  39651489.867 6 159660119.305 6       -21.633          38.000
C11  23781592.438 7 123836965.713 7     -2551.758          46.000    23781594.047 8  95758599.979 8     -1973.154          49.000
C14  21556259.484 8 112249145.496 8       150.246          49.000    21556258.500 8  86798185.848 8       116.240          51.000
E07  25517605.906 8 134095902.433 8      2731.359          48.000    25517607.094 7 102748822.337 7      2092.941          47.000
E08  22196571.188 8 116643833.828 8       325.797          51.000    22196572.281 8  89376469.557 8       249.681          51.000
E13  23374225.594 8 122832380.468 8      -521.008          51.000    23374227.172 8  94118340.385 8      -399.172          51.000
> 2020 05 06 19 06  0.0000000  0 17        .000000000000
G03  22837001.250 8 120009239.215 8      3104.672          48.000    22837004.836 7  93513708.534 7      2419.225          44.000
G08  21046902.953 8 110602217.176 8     -2045.109          51.000    21046905.812 8  86183542.070 8     -1593.592          51.000
G11  19868723.680 8 104410874.764 8       267.203          48.000    19868723.625 8  81359095.026 8       208.210          48.000
G14  22198415.672 6 116653502.231 6      1344.887          40.000    22198416.922 6  90898829.976 6      1047.967          38.000
G22  21264862.242 8 111747692.459 8      1713.250          51.000    21264859.352 8  87076068.084 8      1335.000          49.000
G27  23240316.195 7 122128668.346 7     -3488.797          44.000    23240319.727 7  95165196.865 7     -2718.543          45.000
G32  22011971.008 6 115673684.484 6      -139.734          36.000    22011960.891 5  90135319.530 5      -108.890          33.000
R03  20204764.109 7 108157714.846 7     -2235.582          46.000    20204766.203 8  84122699.990 8     -1738.786          48.000
R04  19605118.680 8 104984560.245 8      1967.285          49.000    19605120.930 8  81654705.536 8      1530.111          49.000
R18  20613522.883 8 110036396.358 8     -2291.730          49.000    20613527.680 7  85583842.602 7     -1782.457          46.000
C05                                                                  39651648.367 6 159660757.638 6       -20.769          38.000
C11  23796316.992 7 123913639.082 7     -2559.871          46.000    23796318.500 8  95817888.644 8     -1979.322          50.000
C14  21555435.656 8 112244856.486 8       135.520          50.000    21555434.891 8  86794869.311 8       104.967          51.000
E07  25502030.992 8 134014056.185 8      2725.020          48.000    25502032.531 8 102686109.007 8      2088.098          48.000
E08  22194749.781 8 116634262.319 8       312.297          51.000    22194750.820 8  89369135.556 8       239.307          51.000
E13  23377218.922 8 122848111.122 8      -527.672          51.000    23377220.672 8  94130393.749 8      -404.338          51.000
E15  26451889.484 5 139005616.553 5     -2259.793          31.000
> 2020 05 06 19 06 30.0000000  0 17        .000000000000
G03  22819289.547 8 119916163.225 8      3096.578          48.000    22819292.156 7  93441181.843 7      2412.921          42.000
G08  21058609.477 8 110663735.454 8     -2060.012          50.000    21058612.086 8  86231478.389 8     -1605.204          50.000
G10  24018974.836 5 126220547.705 5     -3214.758          33.000    24018976.133 5  98353695.518 5     -2505.012          34.000
G11  19867233.477 8 104403043.968 8       250.742          48.000    19867233.367 8  81352993.088 8       195.380          48.000
G14  22190771.734 6 116613328.437 6      1329.258          41.000    22190771.500 6  90867525.723 6      1035.782          38.000
G22  21255105.180 8 111696420.258 8      1700.953          51.000    21255102.461 8  87036115.762 8      1325.421          48.000
G27  23260240.992 7 122233370.920 7     -3495.285          45.000    23260242.367 7  95246783.221 7     -2723.602          45.000
G32  22012813.742 5 115678108.649 5      -158.902          35.000    22012803.117 4  90138746.006 4      -123.823          29.000
R03  20217337.203 7 108225022.210 7     -2255.723          45.000    20217339.930 8  84175050.190 8     -1754.448          48.000
R04  19594151.086 8 104925828.410 8      1944.117          49.000    19594153.820 8  81609025.250 8      1512.094          48.000
R18  20626431.078 8 110105299.461 8     -2305.891          50.000    20626435.961 7  85637433.856 7     -1793.474          46.000
C05                                                                  39651792.922 6 159661339.492 6       -20.609          38.000
C11  23811076.625 7 123990496.618 7     -2568.020          47.000    23811078.422 8  95877319.711 8     -1985.710          50.000
C14  21554685.828 8 112240952.784 8       120.625          49.000    21554685.312 8  86791850.733 8        93.369          51.000
E07  25486481.828 8 133932345.541 8      2718.344          48.000    25486484.297 8 102623499.568 8      2082.986          50.000
E08  22192995.656 8 116625043.686 8       298.453          51.000    22192996.516 8  89362071.955 8       228.661          51.000
E13  23380240.438 8 122863989.301 8      -534.727          51.000    23380242.523 8  94142560.144 8      -409.746          51.000
> 2020 05 06 19 07  0.0000000  0 17        .000000000000
G03  22801643.828 8 119823434.349 8      3086.754          48.000    22801645.086 7  93368925.650 7      2405.266          42.000
G08  21070421.117 8 110725805.259 8     -2076.613          51.000    21070423.602 8  86279844.481 8     -1618.140          51.000
G10  24037341.602 6 126317066.098 6     -3218.734          36.000    24037343.781 5  98428904.631 5     -2508.108          35.000
G11  19865856.719 8 104395809.175 8       232.871          49.000    19865856.398 8  81347355.573 8       181.458          49.000
G14  22183238.422 6 116573736.889 6      1311.645          40.000    22183237.500 6  90836675.220 6      1022.058          37.000
G22  21245437.758 8 111645620.705 8      1687.082          51.000    21245435.430 8  86996531.706 8      1314.612          48.000
G27  23280222.695 7 122338372.240 7     -3503.312          45.000    23280222.375 7  95328602.375 7     -2729.854          46.000
G32  22013783.914 5 115683207.273 5      -179.223          35.000    22013786.023 5  90142777.169 5      -139.654          35.000
R03  20230042.531 7 108293035.268 7     -2277.285          44.000    20230045.383 7  84227949.253 7     -1771.222          47.000
R04  19583332.789 8 104867896.963 8      1919.340          51.000    19583335.586 8  81563967.471 8      1492.820          48.000
R18  20639438.914 8 110174733.350 8     -2321.602          48.000    20639443.266 7  85691438.028 7     -1805.687          46.000
C05                                                                  39651954.789 6 159661991.411 6       -21.567          38.000
C11  23825903.086 7 124067701.186 7     -2577.594          47.000    23825905.336 8  95937019.132 8     -1993.192          51.000
C14  21554041.336 8 112237597.537 8       104.262          49.000    21554040.867 8  86789256.257 8        80.758          51.000
E07  25470990.445 8 133850937.174 8      2710.242          50.000    25470993.719 8 102561121.745 8      2076.646          50.000
E08  22191340.062 8 116616343.077 8       283.043          51.000    22191340.992 8  89355405.284 8       216.913          51.000
E13  23383321.656 8 122880180.661 8      -543.285          51.000    23383324.000 8  94154966.517 8      -416.277          51.000
> 2020 05 06 19 07 30.0000000  0 18        .000000000000
G03  22784045.641 8 119730955.214 8      3077.992          49.000    22784045.750 7  93296864.042 7      2398.435          42.000
G08  21082318.617 8 110788326.374 8     -2092.145          51.000    21082321.336 8  86328562.234 8     -1630.242          51.000
G10  24055723.352 5 126413661.222 5     -3221.496          35.000    24055725.695 5  98504173.539 5     -2510.254          34.000
G11  19864574.914 8 104389072.946 8       215.594          49.000    19864574.375 8  81342106.547 8       167.992          48.000
G14  22175796.938 6 116534630.478 6      1294.852          40.000    22175796.328 6  90806202.756 6      1008.975          36.000
G22  21235841.742 8 111595195.579 8      1673.930          51.000    21235839.805 8  86957239.394 8      1304.361          48.000
G27  23300241.727 7 122443571.612 7     -3510.516          45.000    23300241.953 7  95410575.874 7     -2735.467          45.000
G32  22014864.000 5 115688890.933 5      -198.938          30.000    22014860.781 4  90147199.062 4      -155.010          27.000
R03  20242860.328 7 108361650.147 7     -2297.832          45.000    20242862.711 7  84281316.396 7     -1787.203          46.000
R04  19572645.938 8 104810667.115 8      1895.367          51.000    19572648.344 8  81519455.369 8      1474.174          48.000
R18  20652526.688 8 110244597.073 8     -2336.508          48.000    20652531.164 7  85745776.465 7     -1817.281          45.000
C05                                                                  39652115.391 6 159662637.773 6       -22.255          38.000
C11  23840777.477 8 124145154.142 8     -2586.383          48.000    23840779.992 8  95996910.651 8     -2000.121          51.000
C14  21553483.531 8 112234692.495 8        88.754          50.000    21553482.773 8  86787009.922 8        68.549          51.000
E07  25455538.422 8 133769733.998 8      2702.719          51.000    25455542.219 8 102498901.169 8      2070.866          50.000
E08  22189764.195 8 116608061.767 8       268.348          51.000    22189765.227 8  89349059.893 8       205.650          51.000
E13  23386443.703 8 122896586.928 8      -551.109          51.000    23386446.125 8  94167537.570 8      -422.294          51.000
E15  26490687.688 5 139209503.634 5     -2272.867          34.000    26490688.102 6 106667021.938 6     -1741.257          36.000
> 2020 05 06 19 08  0.0000000  0 18        .000000000000
G03  22766497.289 8 119638738.676 8      3069.355          48.000    22766496.719 7  93225007.054 7      2391.709          42.000
G08  21094304.016 8 110851309.167 8     -2107.051          51.000    21094306.914 8  86377639.736 8     -1641.858          51.000
G10  24074121.453 5 126510342.946 5     -3224.277          35.000    24074124.250 5  98579509.918 5     -2512.424          35.000
G11  19863390.266 8 104382847.168 8       198.934          49.000    19863389.703 8  81337255.288 8       155.013          49.000
G14  22168449.883 6 116496022.168 6      1278.855          38.000    22168449.461 6  90776118.429 6       996.514          37.000
G22  21226319.641 8 111545156.684 8      1661.531          51.000    21226317.844 8  86918248.054 8      1294.700          48.000
G27  23320299.953 7 122548978.450 7     -3516.945          45.000    23320301.523 7  95492711.095 7     -2740.474          45.000
G32  22016055.742 6 115695153.149 6      -218.539          38.000    22016050.938 6  90152078.638 6      -170.293          37.000
R03  20255792.547 7 108430875.147 7     -2317.688          44.000    20255794.297 7  84335158.091 7     -1802.643          45.000
R04  19562092.492 8 104754151.926 8      1871.871          51.000    19562094.438 7  81475499.151 7      1455.903          47.000
R18  20665696.945 7 110314901.523 7     -2350.926          46.000    20665701.320 7  85800457.712 7     -1828.501          45.000
C05                                                                  39652276.555 6 159663287.378 6       -21.736          38.000
C11  23855701.570 7 124222866.093 7     -2594.766          47.000    23855704.211 8  96057002.439 8     -2006.317          51.000
C14  21553014.359 8 112232248.476 8        73.844          50.000    21553013.070 8  86785120.077 8        57.098          51.000
E07  25440128.023 8 133688749.113 8      2695.855          51.000    25440132.180 8 102436847.853 8      2065.664          51.000
E08  22188270.125 8 116600211.255 8       254.504          51.000    22188271.273 8  89343044.594 8       195.021          51.000
E13  23389608.742 8 122913220.190 8      -558.145          51.000    23389611.164 8  94180282.543 8      -427.687          51.000
E15  26503666.734 5 139277708.398 5     -2275.520          33.000    26503670.773 6 106719298.830 6     -1744.149          37.000
> 2020 05 06 19 08 30.0000000  0 18        .000000000000
G03  22748999.305 7 119546788.085 7      3061.059          47.000    22748998.883 6  93153357.329 6      2385.244          41.000
G08  21106377.477 8 110914754.465 8     -2122.066          51.000    21106380.156 8  86427077.632 8     -1653.558          51.000
G10  24092536.445 5 126607111.748 5     -3226.336          35.000    24092538.930 5  98654914.119 5     -2514.031          33.000
G11  19862303.422 8 104377135.147 8       182.336          50.000    19862302.742 8  81332804.352 8       142.080          49.000
G14  22161198.305 6 116457916.143 6      1262.371          38.000    22161198.164 5  90746425.452 5       983.666          35.000
G22  21216871.664 8 111495506.504 8      1649.020          51.000    21216869.680 8  86879559.631 8      1284.953          48.000
G27  23340398.109 7 122654593.001 7     -3523.547          47.000    23340399.914 7  95575008.159 7     -2745.621          47.000
G32  22017359.711 5 115702005.040 5      -238.258          31.000    22017356.570 5  90157417.780 5      -185.649          30.000
R03  20268838.008 7 108500708.910 7     -2337.188          44.000    20268840.062 7  84389473.238 7     -1817.812          44.000
R04  19551673.414 8 104698355.438 8      1848.398          51.000    19551674.453 7  81432101.899 7      1437.643          46.000
R18  20678950.031 8 110385648.409 8     -2365.070          49.000    20678954.258 7  85855483.006 7     -1839.499          45.000
C05                                                                  39652439.188 6 159663941.964 6       -21.455          38.000
C11  23870675.180 7 124300838.222 7     -2602.836          45.000    23870678.219 8  96117295.453 8     -2012.672          51.000
C14  21552633.938 8 112230267.115 8        58.820          50.000    21552632.148 8  86783587.994 8        45.541          51.000
E07  25424759.859 8 133607986.220 8      2688.945          51.000    25424764.297 8 102374964.639 8      2060.373          51.000
E08  22186858.492 8 116592793.685 8       240.574          51.000    22186859.672 8  89337361.022 8       184.363          51.000
E13  23392817.672 8 122930082.999 8      -565.336          51.000    23392819.719 8  94193203.402 8      -433.233          51.000
E15                                                                  26516676.367 5 106771672.098 5     -1747.043          34.000
> 2020 05 06 19 09  0.0000000  0 18        .000000000000
G03  22731572.148 7 119455209.665 7      3048.184          47.000    22731572.945 7  93081997.578 7      2375.211          43.000
G08  21118558.594 8 110978765.693 8     -2141.297          51.000    21118560.961 8  86476956.499 8     -1668.543          51.000
G10  24110986.773 5 126704070.924 5     -3233.121          34.000    24110989.664 5  98730466.642 5     -2519.318          34.000
G11  19861334.438 8 104372042.589 8       161.203          50.000    19861333.781 8  81328836.121 8       125.613          50.000
G14  22154061.812 5 116420418.797 5      1241.945          34.000    22154062.750 5  90717206.695 5       967.750          34.000
G22  21207517.555 8 111446350.250 8      1632.051          51.000    21207514.945 8  86841256.097 8      1271.728          48.000
G27  23360555.633 8 122760518.064 8     -3534.246          49.000    23360557.219 8  95657547.151 8     -2753.961          49.000
G32  22018794.008 5 115709551.112 5      -261.688          33.000    22018795.289 5  90163280.967 5      -203.906          34.000
R03  20282016.922 7 108571255.153 7     -2361.637          44.000    20282018.586 7  84444342.564 7     -1836.829          43.000
R04  19541408.211 8 104643386.081 8      1820.305          51.000    19541409.078 7  81389347.979 7      1415.793          46.000
R18  20692306.430 8 110456943.882 8     -2383.859          50.000    20692310.016 7  85910935.036 7     -1854.113          45.000
C05                                                                  39652623.000 6 159664681.831 6       -24.645          38.000
C11  23885718.359 7 124379173.840 7     -2615.461          45.000    23885721.836 8  96177869.518 8     -2022.383          51.000
C14  21552362.273 8 112228851.785 8        39.605          50.000    21552360.047 8  86782493.605 8        30.613          51.000
E07  25409453.977 8 133527551.824 8      2677.484          51.000    25409458.898 8 102313333.125 8      2051.576          51.000
E08  22185549.188 8 116585913.892 8       222.238          51.000    22185550.516 8  89332089.523 8       170.272          51.000
E13  23396090.562 8 122947280.690 8      -577.008          51.000    23396091.773 8  94206380.872 8      -442.141          51.000
E15                                                                  26529726.742 5 106824222.006 5     -1753.029          35.000
> 2020 05 06 19 09 30.0000000  0 18        .000000000000
G03  22714173.797 7 119363782.340 7      3045.293          46.000    22714176.633 7  93010755.571 7      2372.956          44.000
G08  21130804.602 8 111043118.870 8     -2150.594          51.000    21130806.531 8  86527101.800 8     -1675.787          51.000
G10  24129430.336 5 126800996.361 5     -3230.363          33.000    24129434.133 5  98805992.894 5     -2517.166          33.000
G11  19860441.305 8 104367348.318 8       150.102          51.000    19860440.539 8  81325178.224 8       116.962          50.000
G14  22146999.203 6 116383309.217 6      1230.688          38.000    22147001.383 5  90688290.189 5       958.977          33.000
G22  21198215.273 8 111397465.775 8      1625.117          51.000    21198212.484 8  86803164.323 8      1266.325          48.000
G27  23380729.461 8 122866529.215 8     -3534.762          50.000    23380730.695 8  95740153.201 8     -2754.360          50.000
G32  22020330.797 6 115717615.154 6      -274.750          36.000    22020316.422 6  90169514.662 6      -214.091          36.000
R03  20295285.930 7 108642283.774 7     -2375.379          44.000    20295287.680 7  84499587.047 7     -1847.517          42.000
R04  19531255.055 8 104589018.759 8      1802.461          50.000    19531256.375 7  81347062.319 7      1401.917          45.000
R18  20705722.945 8 110528561.593 8     -2392.340          50.000    20705726.477 7  85966637.688 7     -1860.709          46.000
C05                                                                  39652785.523 6 159665336.700 6       -20.582          38.000
C11  23900789.359 7 124457651.660 7     -2618.230          46.000    23900792.391 8  96238553.558 8     -2024.679          50.000
C14  21552156.742 8 112227781.583 8        30.168          50.000    21552154.305 8  86781666.102 8        23.207          51.000
E07  25394168.258 8 133447225.091 8      2675.867          51.000    25394173.578 8 102251784.108 8      2050.241          51.000
E08  22184299.555 8 116579349.464 8       213.719          51.000    22184301.367 8  89327059.667 8       163.729          51.000
E13  23399384.891 8 122964591.413 8      -578.852          51.000    23399385.641 8  94219644.936 8      -443.536          51.000
E15                                                                  26542778.617 5 106876770.102 5     -1751.892          31.000
> 2020 05 06 19 10  0.0000000  0 17        .000000000000
G03  22696807.133 7 119272521.187 7      3041.766          45.000    22696811.828 7  92939643.010 7      2370.207          45.000
G08  21143117.906 8 111107826.292 8     -2160.316          51.000    21143119.141 8  86577523.138 8     -1683.363          51.000
G10  24147870.172 5 126897900.218 5     -3226.961          33.000    24147874.688 5  98881502.357 5     -2514.518          33.000
G11  19859626.781 8 104363066.971 8       138.469          51.000    19859625.820 8  81321842.097 8       107.898          51.000
G14  22140014.672 7 116346602.689 7      1219.371          42.000    22140016.938 6  90659687.692 6       950.159          37.000
G22  21188967.648 8 111348867.502 8      1617.688          51.000    21188965.039 8  86765295.549 8      1260.536          49.000
G27  23400921.625 8 122972638.284 8     -3536.027          49.000    23400922.633 8  95822835.554 8     -2755.346          49.000
R03  20308646.773 7 108713805.497 7     -2389.641          44.000    20308649.148 6  84555215.093 6     -1858.609          41.000
R04  19521217.266 8 104535269.226 8      1783.977          51.000    19521218.930 7  81305257.151 7      1387.540          45.000
R18  20719201.688 8 110600514.867 8     -2401.449          48.000    20719206.188 7  86022601.319 7     -1867.791          46.000
R19  19408042.531 6 103819931.742 6       879.348          36.000    19408041.945 6  80748845.943 6       683.934          40.000
C05                                                                  39652929.555 6 159665917.136 6       -16.121          38.000
C11  23915890.461 7 124536284.623 7     -2621.223          46.000    23915892.508 8  96299357.547 8     -2026.878          49.000
C14  21552019.898 8 112227069.708 8        20.293          49.000    21552017.391 8  86781115.659 8        15.668          51.000
E07  25378905.633 8 133367021.429 8      2673.953          51.000    25378911.086 8 102190329.379 8      2048.816          51.000
E08  22183112.758 8 116573114.167 8       204.945          50.000    22183114.664 8  89322281.974 8       157.039          51.000
E13  23402703.305 8 122982029.468 8      -580.824          51.000    23402703.969 8  94233006.543 8      -445.065          51.000
> 2020 05 06 19 10 30.0000000  0 17        .000000000000
G03  22679505.070 7 119181597.647 7      3025.004          46.000    22679510.789 7  92868793.503 7      2357.149          46.000
G08  21155530.586 8 111173057.122 8     -2183.320          51.000    21155531.383 8  86628352.324 8     -1701.289          51.000
G11  19858923.359 8 104359369.386 8       113.340          51.000    19858922.195 8  81318960.840 8        88.314          51.000
G14  22133140.195 7 116310471.051 7      1194.449          42.000    22133141.820 5  90631533.247 5       930.743          35.000
G22  21179806.875 8 111300725.848 8      1596.848          51.000    21179804.148 8  86727782.585 8      1244.297          48.000
G27  23421164.047 8 123079013.344 8     -3550.473          49.000    23421165.492 8  95905725.194 8     -2766.602          48.000
R03  20322131.430 7 108785990.242 7     -2417.352          43.000    20322132.477 6  84611358.753 6     -1880.165          37.000
R04  19511327.953 8 104482312.151 8      1751.805          51.000    19511329.320 7  81264068.355 7      1362.515          46.000
R18  20732775.648 8 110672975.818 8     -2424.004          48.000    20732780.484 7  86078959.857 7     -1885.336          45.000
R19  19403193.055 6 103793992.303 6       854.562          37.000    19403193.898 6  80728670.836 6       664.660          41.000
C05                                                                  39653087.555 6 159666553.547 6       -22.530          38.000
C11  23931053.375 7 124615240.400 7     -2637.562          46.000    23931054.289 8  96360411.141 8     -2039.470          48.000
C14  21551984.078 8 112226884.146 8        -2.801          48.000    21551981.719 8  86780972.174 8        -2.284          51.000
E03  26891919.609 5 141317996.384 5     -2279.777          33.000
E07  25363698.703 8 133287112.549 8      2658.453          50.000    25363704.242 8 102129100.528 8      2036.865          50.000
E08  22182021.055 8 116567378.050 8       182.582          50.000    22182022.969 8  89317886.790 8       139.883          51.000
E13  23406078.414 8 122999765.526 8      -596.562          51.000    23406079.008 8  94246596.506 8      -457.100          51.000
> 2020 05 06 19 11  0.0000000  0 19        .000000000000
G03  22662258.938 8 119090966.758 8      3002.203          48.000    22662264.406 7  92798172.080 7      2339.379          44.000
G08  21168033.570 8 111238763.489 8     -2211.883          49.000    21168034.516 8  86679552.076 8     -1723.545          49.000
G10  24184824.812 5 127092111.190 5     -3253.570          33.000    24184831.555 5  99032827.836 5     -2535.253          32.000
G11  19858322.312 8 104356210.278 8        82.465          51.000    19858321.055 8  81316499.188 8        64.258          51.000
G14  22126366.164 7 116274869.451 7      1164.047          44.000    22126366.945 5  90603791.802 5       907.056          35.000
G22  21170724.023 8 111252994.848 8      1570.395          51.000    21170720.852 8  86690589.618 8      1223.687          48.000
G27  23441447.336 7 123185606.206 7     -3570.656          46.000    23441449.812 7  95988784.551 7     -2782.333          46.000
G32  22025534.125 6 115744978.709 6      -349.676          37.000    22025538.828 6  90190886.748 6      -272.478          36.000
R03  20335730.961 7 108858787.582 7     -2451.031          42.000    20335730.430 6  84667978.876 6     -1906.358          37.000
R04  19501578.180 8 104430102.005 8      1713.746          51.000    19501579.461 7  81223460.500 7      1332.914          46.000
R18  20746435.969 7 110745896.696 7     -2452.328          47.000    20746441.414 7  86135676.057 7     -1907.369          45.000
R19  19398441.766 6 103768576.037 6       823.863          37.000    19398442.664 6  80708902.613 6       640.783          41.000
C05                                                                  39653250.641 6 159667210.607 6       -32.837          38.000
C11  23946268.625 7 124694472.460 7     -2659.348          46.000    23946269.117 8  96421678.376 8     -2056.485          49.000
C14  21552039.828 7 112227178.512 7       -31.578          47.000    21552038.359 8  86781199.814 8       -24.454          51.000
E03  26904955.688 5 141386495.487 5     -2301.695          34.000    26904956.234 5 108335111.994 5     -1763.667          33.000
E07  25348539.375 8 133207453.809 8      2637.160          50.000    25348545.086 8 102068063.343 8      2020.747          51.000
E08  22181015.602 8 116562094.858 8       154.676          50.000    22181017.695 8  89313838.654 8       118.500          51.000
E13  23409501.570 8 123017753.833 8      -617.691          51.000    23409502.117 8  94260379.754 8      -473.296          51.000
> 2020 05 06 19 11 30.0000000  0 18        .000000000000
G03  22645064.031 8 119000604.716 8      3010.629          48.000    22645067.641 7  92727760.128 7      2345.945          43.000
G08  21180622.023 8 111304918.792 8     -2209.699          49.000    21180623.188 8  86731101.645 8     -1721.844          49.000
G11  19857819.078 8 104353565.325 8        82.543          51.000    19857817.734 8  81314438.175 8        64.319          51.000
G14  22119688.203 6 116239774.507 6      1164.277          40.000    22119688.797 5  90576445.123 5       907.232          35.000
G22  21161714.477 8 111205649.809 8      1574.734          51.000    21161711.281 8  86653697.420 8      1227.066          49.000
G27  23461766.516 7 123292389.684 7     -3559.438          44.000    23461770.156 7  96071992.464 7     -2773.588          44.000
G32  22027506.414 5 115755331.195 5      -352.043          33.000    22027507.508 5  90198953.581 5      -274.316          34.000
R03  20349438.844 7 108932168.301 7     -2452.672          42.000    20349440.555 6  84725052.831 6     -1907.628          37.000
R04  19491963.031 8 104378614.399 8      1707.199          51.000    19491964.781 8  81183414.627 8      1327.822          48.000
R18  20760178.031 8 110819251.534 8     -2449.359          49.000    20760183.586 7  86192729.803 7     -1905.057          46.000
R19  19393784.188 6 103743659.701 6       825.035          38.000    19393784.781 6  80689523.238 6       641.694          41.000
C05                                                                  39653414.062 6 159667869.007 6       -19.573          38.000
C11  23961532.016 7 124773955.087 7     -2650.758          47.000    23961532.273 8  96483139.342 8     -2049.680          48.000
C14  21552183.031 8 112227927.384 8       -29.594          48.000    21552182.188 8  86781778.893 8       -22.863          51.000
E03  26918038.398 5 141455246.597 5     -2292.508          35.000    26918038.477 5 108387785.660 5     -1756.914          33.000
E07  25333423.312 8 133128021.643 8      2647.031          49.000    25333429.094 8 102007199.799 8      2028.152          50.000
E08  22180091.891 8 116557239.357 8       157.691          51.000    22180093.828 8  89310118.219 8       120.870          51.000
E13  23412967.961 8 123035969.767 8      -607.988          51.000    23412968.391 8  94274337.420 8      -465.882          51.000
> 2020 05 06 19 12  0.0000000  0 18        .000000000000
G03  22627925.336 8 118910539.746 8      2997.262          48.000    22627927.133 7  92657579.726 7      2335.532          43.000
G08  21193301.305 8 111371548.990 8     -2228.828          51.000    21193302.688 8  86783021.228 8     -1736.752          51.000
G11  19857419.000 8 104351462.575 8        61.137          51.000    19857417.492 8  81312799.672 8        47.639          51.000
G14  22113111.359 6 116205214.705 6      1143.215          41.000    22113112.016 5  90549515.528 5       890.820          34.000
G22  21152783.602 8 111158717.821 8      1557.543          51.000    21152780.664 8  86617127.060 8      1213.670          49.000
G27  23482126.703 7 123399388.773 7     -3570.207          42.000    23482131.203 7  96155368.411 7     -2781.980          42.000
G32  22029592.531 6 115766292.075 6      -375.535          37.000    22029589.938 6  90207496.186 6      -292.622          37.000
R03  20363260.398 7 109006156.782 7     -2476.301          42.000    20363261.547 5  84782599.404 5     -1926.015          32.000
R04  19482488.297 8 104327878.630 8      1678.723          51.000    19482490.828 8  81143953.490 8      1305.676          48.000
R18  20774006.742 8 110893067.325 8     -2468.137          50.000    20774012.203 7  86250142.047 7     -1919.665          46.000
R19  19389225.234 6 103719273.071 6       804.219          38.000    19389225.922 7  80670555.861 7       625.503          42.000
C05                                                                  39653582.930 6 159668549.577 6       -23.252          38.000
C11  23976848.820 7 124853714.074 7     -2663.121          47.000    23976848.477 7  96544814.021 7     -2059.415          47.000
C14  21552418.602 7 112229156.923 7       -48.898          47.000    21552418.297 8  86782729.655 8       -37.884          51.000
E03  26931173.602 6 141524271.142 6     -2305.133          36.000
E07  25318355.836 8 133048844.673 8      2634.934          48.000    25318361.516 8 101946531.782 8      2018.957          49.000
E08  22179254.727 8 116552838.442 8       139.152          51.000    22179256.391 8  89306746.111 8       106.608          51.000
