     3.02           OBSERVATION DATA    M (MIXED)           RINEX VERSION / TYPE
SAVERINEX           SC600               20200514 165931 LCL PGM / RUN BY / DATE
       G = GPS       R = GLONASS       C = COMPASS          COMMENT
       S = SBAS      J = QZSS          E = GALILEO          COMMENT
BEAN                                                        MARKER NAME
1                                                           MARKER NUMBER
GEODETIC                                                    MARKER TYPE
Unige DICCA         GTER                                    OBSERVER / AGENCY
SC60291900056       SC600               2.12(191226)        REC # / TYPE / VERS
                    HEMA45          NONE                    ANT # / TYPE
  4509407.8091   693652.4678  4442337.6214                  APPROX POSITION XYZ
        0.0000        0.0000        0.0000                  ANTENNA: DELTA H/E/N
G    8 C1C L1C D1C S1C C2Y L2Y D2Y S2Y                      SYS / # / OBS TYPES
R    8 C1C L1C D1C S1C C2P L2P D2P S2P                      SYS / # / OBS TYPES
C    8 C1I L1I D1I S1I C7I L7I D7I S7I                      SYS / # / OBS TYPES
E    8 C1C L1C D1C S1C C7Q L7Q D7Q S7Q                      SYS / # / OBS TYPES
DBHZ                                                        COMMENT
     30.000                                                 INTERVAL
  2020    05    14    14    00    0.0000000     GPS         TIME OF FIRST OBS
  2020    05    14    14    59   30.0000000     GPS         TIME OF LAST OBS
     0                                                      RCV CLOCK OFFS APPL
G L1C  0.00000                                              SYS / PHASE SHIFT
G L2Y  0.00000                                              SYS / PHASE SHIFT
R L1C  0.00000                                              SYS / PHASE SHIFT
R L2P  0.25000                                              SYS / PHASE SHIFT
C L1I  0.00000                                              SYS / PHASE SHIFT
C L7I  0.00000                                              SYS / PHASE SHIFT
E L1C  0.50000                                              SYS / PHASE SHIFT
E L7Q -0.25000                                              SYS / PHASE SHIFT
 13 R01  1 R02 -4 R07  5 R08  6 R10 -5 R11  0 R12 -1 R13 -2 GLONASS SLOT / FRQ #
    R14 -7 R15  0 R17  4 R18 -3 R23  3                      GLONASS SLOT / FRQ #
 C1C   71.950 C2C   71.950 C2P   71.950                     GLONASS COD/PHS/BIS
    18                                                      LEAP SECONDS
*** Above antenna height is from mark to ANTENNA BOTTOM.    COMMENT
    17     4        0.0000        ANT MEASURE TYPE/HEIGT    COMMENT
    0.0000    0.0000    0.0458    0.0405    0.0000          COMMENT
                    BASE STATION                            COMMENT
                                                            END OF HEADER
> 2020 05 14 14 00  0.0000000  0 16        .000000000000
G18  20662046.617 8 108579849.247 8     -1430.328          50.000    20662046.742 8  84607691.072 8     -1114.541          50.000
G20  22117442.836 8 116227962.822 8      2533.156          50.000    22117441.109 7  90567274.487 7      1973.891          45.000
G21  21005283.953 8 110383539.787 8     -1286.426          51.000    21005282.242 8  86013164.384 8     -1002.410          49.000
G26  20310704.812 8 106733473.091 8      -496.461          51.000    20310707.133 8  83168946.421 8      -386.853          51.000
G29  23695702.125 5 124521732.139 5     -2845.492          32.000    23695707.812 5  97029954.670 5     -2217.267          30.000
R14  20445293.812 8 108984913.120 8     -3139.266          51.000    20445298.578 8  84766034.673 8     -2441.651          49.000
R17  19953247.203 5 106773807.272 5      1328.480          30.000
R18  23514074.227 6 125519757.504 6      3237.824          39.000    23514078.086 4  97626469.563 4      2518.305          25.000
R24  20113322.719 6 107555021.383 6     -1991.387          36.000    20113329.398 4  83653903.386 4     -1548.856          25.000
C05  39619573.180 5 206309514.218 5         4.832          34.000
C12  23675748.781 4 123285836.333 4      2112.000          28.000    23675743.578 4  95332406.073 4      1632.607          29.000
C13  39790987.695 5 207202113.220 5     -1068.223          30.000
C26  23567009.242 8 122719592.286 8     -2820.781          51.000
E11  22944696.219 8 120575209.914 8      1139.223          51.000    22944693.969 8  92388777.548 8       872.902          50.000
E12  22236419.453 8 116853185.914 8     -1460.887          51.000    22236419.195 8  89536862.854 8     -1119.381          51.000
E24  22543239.578 8 118465519.944 8     -1964.180          51.000    22543253.555 8  90772322.403 8     -1504.967          51.000
> 2020 05 14 14 00 30.0000000  0 17        .000000000000
G18  20670247.531 8 108622945.457 8     -1438.340          50.000    20670247.688 8  84641272.526 8     -1120.784          50.000
G20  22103009.891 8 116152116.915 8      2527.758          50.000    22103008.500 7  90508173.838 7      1969.681          45.000
G21  21012653.844 8 110422268.996 8     -1291.109          51.000    21012652.070 8  86043343.000 8     -1006.059          49.000
G26  20313581.445 8 106748591.589 8      -507.082          51.000    20313584.273 8  83180727.049 8      -395.129          51.000
G29  23711950.125 5 124607143.177 5     -2841.645          31.000
R14  20463009.000 8 109079340.759 8     -3151.340          51.000    20463012.945 7  84839478.376 7     -2451.045          47.000
R18  23495885.305 4 125422672.893 4      3238.488          29.000    23495891.031 4  97550957.385 4      2518.827          26.000
R23  22807575.266 5 122005120.136 5     -3378.262          30.000
R24  20124513.109 6 107614866.446 6     -1993.934          38.000
C05  39619538.047 5 206309331.150 5        10.980          35.000
C12                                                                  23663606.070 5  95283482.938 5      1633.147          33.000
C13  39797130.297 5 207234098.131 5     -1060.281          30.000
C22  26288949.906 6 136893462.632 6      3053.148          39.000
C26  23583278.805 8 122804308.651 8     -2822.574          51.000
E11  22938211.508 8 120541131.925 8      1137.297          51.000    22938209.883 8  92362665.854 8       871.405          51.000
E12  22244770.625 8 116897071.939 8     -1460.320          51.000    22244770.414 8  89570489.802 8     -1118.968          51.000
E24  22554476.625 8 118524570.624 8     -1968.117          51.000    22554490.633 8  90817569.020 8     -1508.044          51.000
> 2020 05 14 14 01  0.0000000  0 16        .000000000000
G18  20678520.508 8 108666420.463 8     -1462.734          50.000    20678520.562 8  84675149.158 8     -1139.793          49.000
G20  22088634.273 8 116076573.374 8      2505.801          50.000    22088633.305 7  90449308.789 7      1952.572          45.000
G21  21020076.586 8 110461275.654 8     -1312.090          51.000    21020074.727 8  86073737.802 8     -1022.408          49.000
G26  20316546.164 8 106764172.359 8      -534.371          51.000    20316549.016 8  83192867.913 8      -416.390          51.000
G29  23728204.031 5 124692545.322 5     -2854.500          31.000    23728200.500 5  97163020.431 5     -2224.289          31.000
R14  20480818.453 8 109174270.941 8     -3180.027          51.000    20480820.992 7  84913312.926 7     -2473.352          45.000
R17  19938467.047 5 106694786.524 5      1299.188          34.000
R24  20135745.773 6 107674933.656 6     -2013.547          41.000
C05  39619490.250 5 206309081.723 5         2.254          34.000
C12  23651461.812 4 123159383.854 4      2096.371          29.000    23651476.992 5  95234631.754 5      1621.530          33.000
C13  39803258.539 5 207266003.765 5     -1069.309          30.000
C22  26271379.469 6 136801971.899 6      3043.645          38.000
C26  23599584.523 8 122889213.919 8     -2840.477          51.000
E11  22931763.930 8 120507248.909 8      1118.875          51.000    22931762.781 8  92336703.554 8       857.377          51.000
E12  22253145.102 8 116941080.534 8     -1476.137          51.000    22253144.977 8  89604210.670 8     -1131.075          51.000
E24  22565763.188 8 118583880.784 8     -1988.516          51.000    22565776.844 8  90863014.457 8     -1523.668          51.000
> 2020 05 14 14 01 30.0000000  0 17        .000000000000
G18  20686900.352 8 108710456.685 8     -1459.180          50.000    20686900.328 8  84709463.079 8     -1137.023          49.000
G20  22074351.602 8 116001519.125 8      2511.523          50.000    22074350.953 7  90390824.983 7      1957.031          43.000
G21  21027586.875 8 110500742.338 8     -1305.375          51.000    21027585.156 8  86104491.072 8     -1017.175          49.000
G26  20319633.984 8 106780399.762 8      -533.828          51.000    20319636.641 8  83205512.636 8      -415.973          51.000
R08  22968472.719 5 122995081.513 5        90.543          32.000    22968466.461 4  95662851.135 4        70.416          27.000
R14  20498756.242 8 109269887.332 8     -3180.461          51.000    20498757.211 7  84987681.139 7     -2473.695          43.000
R17  19931208.039 5 106655945.245 5      1304.098          32.000
R23  22845542.680 5 122208211.146 5     -3370.738          30.000
R24  20147056.203 6 107735408.520 6     -2004.410          39.000    20147060.500 5  83794177.395 5     -1558.986          30.000
C05  39619464.766 5 206308949.619 5        19.891          34.000
C12  23639389.164 5 123096484.423 5      2109.336          30.000    23639398.281 5  95185993.695 5      1630.952          31.000
C13  39809405.828 5 207298013.285 5     -1051.406          30.000
C22  26253831.719 6 136710596.165 6      3061.684          38.000
C26  23615960.625 8 122974488.433 8     -2830.883          51.000
E11  22925388.617 8 120473744.981 8      1128.262          51.000    22925387.508 8  92311031.745 8       864.479          51.000
E12  22261577.750 8 116985394.862 8     -1464.336          51.000    22261577.609 8  89638165.799 8     -1122.000          51.000
E24  22577133.961 8 118643633.765 8     -1981.227          51.000    22577146.891 8  90908799.213 8     -1518.074          51.000
> 2020 05 14 14 02  0.0000000  0 15        .000000000000
G18  20695322.312 8 108754714.537 8     -1486.695          49.000    20695322.266 8  84743949.733 8     -1158.464          48.000
G20  22060098.391 8 115926619.135 8      2486.312          51.000    22060097.914 7  90332461.368 7      1937.386          44.000
G21  21035120.078 8 110540329.488 8     -1329.359          50.000    21035118.281 8  86135338.216 8     -1035.864          49.000
G26  20322780.625 8 106796936.240 8      -564.055          51.000    20322783.141 8  83218398.200 8      -439.523          51.000
R08  22968082.883 5 122993005.749 5        53.520          30.000    22968079.094 4  95661235.477 4        41.620          25.000
R14  20516757.055 8 109365843.684 8     -3212.043          50.000    20516757.258 7  85062313.758 7     -2498.259          43.000
R24  20158377.859 6 107795945.128 6     -2026.625          37.000    20158384.383 5  83841261.488 5     -1576.261          32.000
C05  39619397.070 5 206308597.219 5         7.641          34.000
C12                                                                  23627310.570 6  95137310.407 6      1617.749          36.000
C13  39815508.711 5 207329791.748 5     -1062.859          31.000
C22  26236243.336 6 136619003.300 6      3048.848          41.000
C26  23632342.617 8 123059795.303 8     -2851.637          51.000
E11  22919020.922 8 120440282.180 8      1106.867          51.000    22919019.773 8  92285391.427 8       848.146          51.000
E12  22270004.141 8 117029676.106 8     -1483.191          51.000    22270003.969 8  89672095.585 8     -1136.444          51.000
E24  22588524.664 8 118703490.956 8     -2004.719          51.000    22588536.883 8  90954663.822 8     -1536.059          51.000
> 2020 05 14 14 02 30.0000000  0 14        .000000000000
G18  20703859.086 8 108799575.790 8     -1502.551          49.000    20703858.906 8  84778906.547 8     -1170.819          48.000
G20  22045948.227 8 115852259.516 8      2472.559          51.000    22045947.805 7  90274518.850 7      1926.672          44.000
G21  21042748.953 8 110580419.455 8     -1341.805          51.000    21042746.984 8  86166577.158 8     -1045.562          48.000
G26  20326059.195 8 106814165.456 8      -582.957          51.000    20326061.609 8  83231823.549 8      -454.252          51.000
R14  20534892.938 8 109462525.462 8     -3231.801          48.000    20534894.336 7  85137510.694 7     -2513.623          43.000
R23  22883484.070 5 122411175.790 5     -3385.742          30.000
R24  20169781.930 6 107856932.170 6     -2037.238          39.000    20169786.258 5  83888695.911 5     -1584.519          32.000
C12                                                                  23615283.102 5  95088875.930 5      1612.384          32.000
C13  39821640.117 5 207361719.025 5     -1064.090          30.000
C22  26218686.547 7 136527575.882 7      3047.699          43.000
C26  23648803.367 8 123145512.411 8     -2861.098          50.000
E11  22912733.703 8 120407243.959 8      1097.000          51.000    22912732.781 8  92260076.442 8       840.609          51.000
E12  22278497.156 8 117074306.786 8     -1490.570          51.000    22278496.922 8  89706293.125 8     -1142.077          51.000
E24  22600008.055 8 118763835.042 8     -2016.594          51.000    22600019.922 8  91000901.502 8     -1545.152          51.000
> 2020 05 14 14 03  0.0000000  0 13        .000000000000
G18  20712476.500 8 108844860.396 8     -1523.910          48.000    20712476.258 8  84814193.247 8     -1187.462          48.000
G20  22031867.508 8 115778264.383 8      2452.953          51.000    22031866.633 7  90216860.357 7      1911.392          43.000
G21  21050439.289 8 110620832.333 8     -1359.805          51.000    21050437.320 8  86198067.704 8     -1059.588          49.000
G26  20329435.891 8 106831909.314 8      -607.547          51.000    20329437.805 8  83245649.936 8      -473.413          51.000
R14  20553130.266 8 109559748.330 8     -3257.270          48.000    20553133.250 7  85213128.490 7     -2533.432          44.000
R24  20181237.188 6 107918186.377 6     -2053.930          41.000    20181239.758 5  83936338.032 5     -1597.501          34.000
C05  39619321.305 5 206308202.578 5         -.281          35.000
C22  26201127.727 7 136436139.852 7      3040.566          43.000
C26  23665308.781 8 123231460.985 8     -2876.215          50.000
E11  22906493.328 8 120374451.935 8      1081.523          51.000    22906492.664 8  92234950.100 8       828.625          51.000
E12  22287022.547 8 117119107.652 8     -1503.711          51.000    22287022.391 8  89740621.070 8     -1152.209          51.000
E24  22611550.000 8 118824486.937 8     -2034.391          51.000    22611561.820 8  91047375.039 8     -1558.828          51.000
E36  27384308.492 6 143905527.378 6      2556.547          40.000    27384311.430 6 110265272.098 6      1958.901          41.000
> 2020 05 14 14 03 30.0000000  0 14        .000000000000
G18  20721255.336 8 108890993.919 8     -1530.059          48.000    20721255.336 7  84850141.467 7     -1192.253          47.000
G20  22017938.203 8 115705064.035 8      2448.531          51.000    22017936.773 7  90159821.181 7      1907.949          43.000
G21  21058272.062 8 110661993.581 8     -1362.645          50.000    21058270.078 8  86230141.414 8     -1061.801          49.000
G26  20332991.922 8 106850595.297 8      -616.656          51.000    20332993.266 8  83260210.462 8      -480.511          51.000
R08  22967923.992 5 122992156.068 5       -22.602          31.000    22967925.062 4  95660590.080 4       -17.576          26.000
R14  20571551.211 8 109657942.553 8     -3267.145          50.000    20571554.719 7  85289501.785 7     -2541.109          46.000
R24  20192824.297 6 107980140.665 6     -2054.508          38.000    20192825.117 5  83984524.668 5     -1597.951          35.000
C05  39619360.492 5 206308406.289 5         8.305          34.000
C22  26183648.461 7 136345121.220 7      3048.723          43.000
C26  23681939.492 8 123318062.303 8     -2876.023          48.000
E11  22900381.180 8 120342333.364 8      1081.430          51.000    22900380.555 8  92210339.774 8       828.592          51.000
E12  22295661.445 8 117164505.013 8     -1501.348          51.000    22295661.328 8  89775406.067 8     -1150.365          51.000
E24  22623231.547 8 118885873.177 8     -2036.570          51.000    22623243.656 8  91094411.236 8     -1560.480          51.000
E36  27369759.977 6 143829081.705 6      2561.422          40.000    27369764.266 7 110206696.950 7      1962.558          42.000
> 2020 05 14 14 04  0.0000000  0 16        .000000000000
G18  20730031.172 8 108937110.845 8     -1543.387          49.000    20730031.125 7  84886076.730 7     -1202.639          47.000
G20  22003996.273 8 115631797.689 8      2436.816          51.000    22003994.602 7  90102730.601 7      1898.821          43.000
G21  21066082.531 8 110703038.007 8     -1372.664          51.000    21066080.344 8  86262124.084 8     -1069.611          48.000
G26  20336562.883 8 106869359.817 8      -633.395          51.000    20336564.328 8  83274832.148 8      -493.557          51.000
G29  23826161.773 5 125207328.127 5     -2863.129          30.000    23826166.781 5  97564168.447 5     -2231.010          30.000
R08  22968120.336 5 122993218.357 5       -46.656          34.000    22968123.641 4  95661416.828 4       -36.288          26.000
R14  20589989.953 8 109756228.551 8     -3284.293          51.000    20589993.625 7  85365946.410 7     -2554.453          47.000
R18  23369509.406 5 124748064.210 5      3195.215          31.000    23369524.125 5  97026292.233 5      2485.167          32.000
R24  20204375.750 6 108041914.184 6     -2062.629          38.000    20204378.031 6  84032570.823 6     -1604.267          38.000
C05  39619314.008 5 206308164.202 5         9.336          34.000
C22  26166084.914 7 136253666.683 7      3049.172          43.000
C26  23698529.844 7 123404458.272 7     -2882.855          46.000
E11  22894232.844 8 120310024.364 8      1073.770          51.000    22894231.859 8  92185583.555 8       822.726          51.000
E12  22304249.297 8 117209634.126 8     -1506.344          51.000    22304249.055 8  89809985.519 8     -1154.205          51.000
E24  22634888.203 8 118947129.137 8     -2046.234          51.000    22634900.344 8  91141347.579 8     -1567.849          51.000
E36  27355146.562 6 143752294.591 6      2558.586          40.000    27355152.289 7 110147860.146 7      1960.496          43.000
> 2020 05 14 14 04 30.0000000  0 14        .000000000000
G18  20738905.391 8 108983744.866 8     -1565.414          48.000    20738904.953 8  84922414.911 8     -1219.803          48.000
G20  21990144.031 8 115559003.624 8      2416.238          51.000    21990142.289 7  90046007.997 7      1882.786          44.000
G21  21073972.336 8 110744499.342 8     -1391.266          50.000    21073969.852 8  86294431.607 8     -1084.103          48.000
G26  20340250.641 8 106888738.482 8      -658.539          51.000    20340252.133 8  83289932.406 8      -513.147          51.000
R08  22968468.211 5 122995091.331 5       -78.957          33.000    22968470.727 4  95662866.022 4       -61.408          27.000
R14  20608547.195 8 109855145.701 8     -3310.117          51.000    20608550.492 7  85442881.926 7     -2574.539          47.000
R24  20215994.977 6 108104050.306 6     -2079.715          41.000    20215998.469 6  84080898.908 6     -1617.556          38.000
C05  39619283.664 5 206308005.996 5         1.953          34.000
C22  26148539.477 7 136162309.467 7      3041.242          43.000
C26  23715181.312 7 123491177.394 7     -2898.367          44.000
E11  22888150.156 8 120278060.413 8      1057.570          51.000    22888148.664 8  92161091.708 8       810.331          50.000
E12  22312887.859 8 117255029.501 8     -1519.852          51.000    22312887.398 8  89844768.993 8     -1164.595          51.000
E24  22646621.836 8 119008789.457 8     -2064.391          51.000    22646633.227 8  91188593.748 8     -1581.797          50.000
E36  27340570.688 6 143675702.089 6      2547.477          41.000    27340577.070 7 110089172.439 7      1952.052          43.000
> 2020 05 14 14 05  0.0000000  0 13        .000000000000
G18  20747868.109 8 109030843.861 8     -1573.734          48.000    20747867.578 7  84959115.438 7     -1226.287          47.000
G20  21976372.406 8 115486634.029 8      2409.094          50.000    21976370.930 7  89989616.133 7      1877.216          45.000
G21  21081931.617 8 110786325.778 8     -1396.453          49.000    21081929.156 8  86327023.653 8     -1088.145          49.000
G26  20344045.703 8 106908681.087 8      -670.391          51.000    20344047.188 8  83305472.096 8      -522.382          51.000
R14  20627212.727 8 109954639.584 8     -3322.062          51.000    20627215.508 7  85520266.023 7     -2583.826          47.000
R18  23333729.391 4 124557031.535 4      3181.219          28.000
R24  20227672.969 7 108166495.911 7     -2082.707          42.000    20227675.477 6  84129467.679 6     -1619.883          38.000
C22  26131003.398 7 136071002.261 7      3046.445          43.000
C26  23731885.977 7 123578167.685 7     -2900.340          45.000
E11  22882123.406 8 120246391.032 8      1054.742          50.000    22882121.719 8  92136825.557 8       808.119          51.000
E12  22321567.328 8 117300639.868 8     -1520.051          51.000    22321566.750 8  89879717.190 8     -1164.726          51.000
E24  22658422.711 8 119070802.953 8     -2069.098          51.000    22658433.172 8  91236110.531 8     -1585.445          50.000
E36  27326022.891 6 143599254.392 6      2549.805          41.000    27326029.289 7 110030595.714 7      1953.740          43.000
> 2020 05 14 14 05 30.0000000  0 16        .000000000000
G18  20756833.172 8 109077955.554 8     -1566.066          49.000    20756832.961 7  84995825.854 7     -1220.311          47.000
G20  21962596.094 8 115414241.225 8      2417.926          49.000    21962595.320 7  89933206.168 7      1884.098          45.000
G21  21089874.312 8 110828065.190 8     -1385.477          50.000    21089871.984 8  86359547.880 8     -1079.592          48.000
G26  20347862.352 8 106928737.205 8      -665.945          51.000    20347863.781 8  83321100.250 8      -518.918          51.000
R08  22969530.656 6 123000798.999 6      -100.387          37.000    22969532.297 4  95667284.911 4       -78.082          26.000
R14  20645900.039 8 110054249.670 8     -3317.723          51.000    20645901.828 7  85597740.488 7     -2580.454          46.000
R23  22997416.852 5 123020665.621 5     -3362.512          32.000
R24  20239322.508 6 108228790.746 6     -2069.469          41.000    20239324.531 6  84177919.179 6     -1609.587          38.000
C05  39619156.906 5 206307345.937 5        29.242          34.000
C22  26113391.922 7 135979301.350 7      3067.645          44.000
C24  23217283.875 5 120898503.080 5      -405.059          32.000
C26  23748557.828 7 123664980.570 7     -2886.316          46.000
E11  22876067.094 8 120214565.567 8      1067.883          51.000    22876065.461 8  92112439.813 8       818.278          51.000
E12  22330201.664 8 117346013.712 8     -1504.082          51.000    22330201.227 8  89914484.154 8     -1152.449          51.000
E24  22670204.742 8 119132718.281 8     -2057.715          51.000    22670214.875 8  91283552.121 8     -1576.730          51.000
E36  27311417.125 7 143522501.545 7      2567.926          43.000    27311423.203 7 109971785.170 7      1967.727          43.000
> 2020 05 14 14 06  0.0000000  0 15        .000000000000
G18  20765995.422 8 109126103.834 8     -1635.965          48.000    20765995.117 7  85033343.990 7     -1274.778          47.000
G20  21949010.828 7 115342853.521 7      2348.973          47.000    21949011.352 7  89877579.405 7      1830.368          46.000
G21  21097995.273 8 110870741.562 8     -1451.812          49.000    21097992.828 8  86392802.202 8     -1131.282          48.000
G26  20351895.758 8 106949932.608 8      -739.230          51.000    20351897.414 8  83337616.152 8      -576.024          51.000
R14  20664803.062 8 110155012.810 8     -3391.910          49.000    20664804.406 7  85676111.769 7     -2638.155          46.000
R23  23016451.781 5 123122492.008 5     -3418.504          32.000
R24  20251137.820 6 108291976.558 6     -2134.750          40.000    20251140.125 6  84227063.691 6     -1660.361          37.000
C05  39619170.102 5 206307415.297 5       -25.910          35.000
C22  26095901.211 7 135888225.593 7      3011.664          45.000
C24  23219844.656 5 120911837.453 5      -475.984          34.000
C26  23765390.523 7 123752630.216 7     -2949.105          46.000
E11  22870176.398 8 120183609.610 8      1003.539          51.000    22870174.891 8  92088720.329 8       768.937          51.000
E12  22338985.953 8 117392175.719 8     -1565.562          51.000    22338985.695 8  89949855.044 8     -1199.614          51.000
E24  22682162.750 8 119195560.218 8     -2123.859          51.000    22682173.375 8  91331703.740 8     -1627.388          51.000
E36  27296948.578 7 143446469.780 7      2508.648          45.000    27296953.977 7 109913527.183 7      1922.196          43.000
> 2020 05 14 14 06 30.0000000  0 18        .000000000000
G18  20775219.906 8 109174579.470 8     -1613.922          48.000    20775219.555 7  85071117.219 7     -1257.601          47.000
G20  21935482.289 7 115271766.342 7      2372.016          45.000    21935484.141 7  89822186.814 7      1848.324          45.000
G21  21106159.594 8 110913645.847 8     -1426.609          49.000    21106157.227 8  86426234.105 8     -1111.644          49.000
G26  20356011.227 8 106971559.965 8      -720.652          51.000    20356013.141 8  83354468.631 8      -561.547          51.000
G31  24549158.531 5 129006756.264 5     -3360.441          33.000
R14  20683786.250 8 110256207.849 8     -3372.711          49.000    20683788.664 7  85754818.998 7     -2623.220          47.000
R17  19862652.539 5 106289084.857 5      1161.867          30.000
R18  23280260.414 5 124271620.005 5      3166.457          34.000    23280260.891 4  96655695.520 4      2462.806          27.000
R24  20262985.523 7 108355331.958 7     -2107.035          42.000    20262988.242 6  84276340.096 6     -1638.805          37.000
C05  39619164.734 5 206307387.273 5         9.602          35.000
C12                                                                  23520257.117 5  94706321.656 5      1582.160          32.000
C22  26078397.172 7 135797076.614 7      3046.797          45.000
C24  23222483.570 5 120925581.900 5      -457.609          35.000
C26  23782248.914 7 123840413.503 7     -2920.961          45.000
E11  22864316.562 8 120152815.641 8      1030.973          51.000    22864315.336 8  92065124.957 8       789.987          51.000
E12  22347785.531 8 117438417.586 8     -1535.332          51.000    22347785.273 8  89985287.116 8     -1176.438          51.000
E24  22694162.195 8 119258620.510 8     -2098.258          51.000    22694173.812 8  91380022.677 8     -1607.762          51.000
E36  27282482.852 7 143370452.282 7      2541.051          45.000    27282487.602 7 109855280.129 7      1946.973          43.000
> 2020 05 14 14 07  0.0000000  0 19        .000000000000
G10  24101520.609 5 126654349.580 5      3468.051          35.000    24101519.531 4  98691711.516 4      2702.386          28.000
G18  20784495.555 8 109223323.511 8     -1633.188          48.000    20784495.586 8  85109099.567 8     -1272.614          48.000
G20  21922000.750 7 115200924.715 7      2353.023          45.000    21922003.586 7  89766985.544 7      1833.525          45.000
G21  21114356.016 8 110956719.197 8     -1442.504          48.000    21114354.133 8  86459797.756 8     -1124.029          48.000
G26  20360197.867 8 106993562.093 8      -743.465          51.000    20360199.977 8  83371613.138 8      -579.323          51.000
R08  22972335.680 5 123015810.861 5      -201.703          33.000    22972341.562 4  95678981.680 4      -156.880          27.000
R14  20702839.203 8 110357773.142 8     -3395.543          51.000    20702842.891 7  85833814.235 7     -2640.978          47.000
R17  19856205.094 4 106254552.790 4      1143.484          27.000    19856214.609 4  82642474.517 4       889.380          26.000
R18  23262508.469 6 124176847.139 6      3154.707          37.000    23262507.445 4  96581983.362 4      2453.661          29.000
R24  20274854.445 6 108418797.013 6     -2121.309          40.000    20274856.961 6  84325701.750 6     -1649.907          36.000
C05  39619130.031 5 206307206.206 5         5.309          34.000
C12                                                                  23508505.773 5  94659010.085 5      1573.993          34.000
C22  26060868.891 7 135705800.390 7      3040.719          44.000
C24  23225189.469 5 120939679.203 5      -479.371          35.000
C26  23799122.078 7 123928271.530 7     -2933.633          46.000
E11  22858476.734 8 120122126.350 8      1017.242          51.000    22858475.773 8  92041609.785 8       779.481          51.000
E12  22356589.250 8 117484681.125 8     -1546.285          51.000    22356588.977 8  90020735.794 8     -1184.816          50.000
E24  22706192.164 8 119321841.106 8     -2113.887          51.000    22706204.750 8  91428464.442 8     -1619.722          51.000
E36  27268009.297 7 143294392.402 7      2532.148          46.000    27268013.742 7 109797000.569 7      1940.167          44.000
> 2020 05 14 14 07 30.0000000  0 18        .000000000000
G10  24081713.008 6 126550260.367 6      3465.457          36.000    24081711.594 4  98610603.107 4      2700.359          29.000
G18  20793844.617 8 109272453.092 8     -1647.711          48.000    20793844.766 8  85147382.365 8     -1283.931          48.000
G20  21908589.570 8 115130450.489 8      2339.336          48.000    21908592.555 7  89712070.563 7      1822.859          45.000
G21  21122606.953 8 111000079.195 8     -1453.688          49.000    21122605.398 8  86493584.763 8     -1132.744          49.000
G26  20364478.555 8 107016058.017 8      -761.719          51.000    20364481.047 8  83389142.422 8      -593.547          51.000
R08  22973520.914 5 123022131.038 5      -227.484          34.000
R14  20721984.383 8 110459826.146 8     -3413.539          51.000    20721988.773 8  85913188.787 8     -2654.975          48.000
R18  23244788.133 5 124082220.210 5      3147.891          35.000    23244781.609 4  96508384.800 4      2448.372          29.000
R24  20286764.523 5 108482490.819 5     -2130.727          35.000    20286767.523 6  84375241.345 6     -1657.232          36.000
C05  39619088.523 5 206306990.387 5         4.270          35.000
C12                                                                  23496777.930 5  94611796.257 5      1569.290          35.000
C22  26043338.516 6 135614517.484 6      3039.293          41.000
C24  23227985.117 5 120954246.944 5      -497.520          30.000
C26  23816032.234 7 124016320.164 7     -2941.727          47.000
E11  22852679.461 8 120091660.582 8      1008.152          51.000    22852678.594 8  92018265.895 8       772.477          51.000
E12  22365419.500 8 117531084.384 8     -1552.715          51.000    22365419.258 8  90056291.530 8     -1189.722          51.000
E24  22718275.406 8 119385340.117 8     -2124.797          51.000    22718288.227 8  91477119.517 8     -1628.067          51.000
E36  27253550.594 7 143218409.639 7      2527.875          47.000    27253555.227 7 109738780.087 7      1936.886          45.000
> 2020 05 14 14 08  0.0000000  0 20        .000000000000
G10  24061933.484 6 126446324.811 6      3465.562          39.000    24061932.945 5  98529614.461 5      2700.435          34.000
G18  20803288.039 8 109322077.839 8     -1658.562          48.000    20803287.930 8  85186050.979 8     -1292.386          48.000
G20  21895270.922 8 115060457.978 8      2328.734          51.000    21895273.336 7  89657530.953 7      1814.601          44.000
G21  21130933.477 8 111043835.556 8     -1461.434          49.000    21130931.922 8  86527680.605 8     -1138.779          49.000
G26  20368874.516 8 107039159.205 8      -776.359          51.000    20368877.250 8  83407143.321 8      -604.955          51.000
R08  22974861.828 4 123029327.208 4      -249.625          27.000
R14  20741241.719 8 110562476.090 8     -3427.734          51.000    20741245.969 8  85993027.634 8     -2666.016          49.000
R17  19843525.008 5 106186686.592 5      1119.152          31.000    19843521.844 4  82589644.265 4       870.455          29.000
R18  23227113.250 5 123987891.588 5      3145.027          34.000    23227100.789 5  96434997.675 5      2446.138          30.000
R23  23092419.695 5 123528865.800 5     -3383.145          30.000
R24  20298737.938 6 108546525.254 6     -2136.254          39.000    20298742.320 6  84425045.940 6     -1661.534          38.000
C05  39619061.570 5 206306850.174 5         7.180          34.000
C12                                                                  23485096.594 4  94564765.611 4      1568.242          27.000
C22  26025826.828 6 135523340.913 6      3041.453          38.000
C24  23230893.219 5 120969395.150 5      -511.664          30.000
C26  23832999.406 7 124104667.596 7     -2946.078          47.000
E11  22846945.906 8 120061529.702 8      1002.473          51.000    22846944.727 8  91995178.611 8       768.155          51.000
E12  22374297.289 8 117577737.834 8     -1555.461          51.000    22374297.039 8  90092038.981 8     -1191.895          51.000
E24  22730433.055 8 119449228.082 8     -2132.348          51.000    22730445.391 8  91526072.621 8     -1633.832          51.000
E36  27239127.789 7 143142615.981 7      2527.043          47.000    27239133.008 7 109680704.521 7      1936.369          46.000
> 2020 05 14 14 08 30.0000000  0 18        .000000000000
G10  24042171.758 6 126342478.613 6      3459.484          40.000    24042172.734 5  98448695.526 5      2695.726          30.000
G18  20812812.484 7 109372128.701 7     -1676.547          47.000    20812812.438 7  85225051.657 7     -1306.397          47.000
G20  21882032.047 8 114990882.502 8      2311.199          51.000    21882032.789 7  89603316.306 7      1800.934          43.000
G21  21139322.344 8 111087919.448 8     -1475.992          48.000    21139320.945 8  86562031.694 8     -1150.124          48.000
G26  20373372.797 8 107062798.391 8      -798.016          51.000    20373375.359 8  83425563.460 8      -621.830          51.000
R14  20760597.297 8 110665651.034 8     -3448.926          51.000    20760601.562 8  86073274.815 8     -2682.498          49.000
R17  19837292.031 5 106153351.715 5      1102.293          30.000
R18  23209468.000 6 123893730.254 6      3135.043          36.000    23209459.789 5  96361760.194 5      2438.373          30.000
R23  23111413.406 5 123630454.084 5     -3387.180          32.000
R24  20310763.039 6 108610830.109 6     -2148.645          37.000    20310768.141 6  84475060.784 6     -1671.168          39.000
C05  39619036.383 5 206306719.215 5         3.047          34.000
C22  26008323.492 6 135432206.752 6      3035.812          38.000
C24  23233908.273 5 120985057.060 5      -531.992          31.000
C26  23850010.375 7 124193245.041 7     -2957.316          47.000
E11  22841263.180 8 120031666.305 8       990.062          51.000    22841261.781 8  91972296.284 8       758.604          51.000
E12  22383209.836 8 117624573.281 8     -1565.211          51.000    22383209.352 8  90127925.870 8     -1199.294          51.000
E24  22742651.938 8 119513436.826 8     -2146.613          51.000    22742663.609 8  91575271.507 8     -1644.793          51.000
E36  27224728.008 7 143066944.732 7      2519.289          47.000    27224734.016 7 109622722.741 7      1930.391          47.000
> 2020 05 14 14 09  0.0000000  0 18        .000000000000
G10  24022420.070 6 126238684.300 6      3457.988          39.000
G18  20822409.867 7 109422563.283 7     -1688.637          47.000    20822409.938 7  85264351.351 7     -1315.821          47.000
G20  21868865.477 8 114921685.945 8      2299.207          51.000    21868863.883 7  89549396.964 7      1791.590          42.000
G21  21147765.609 8 111132288.803 8     -1484.781          49.000    21147764.250 8  86596605.209 8     -1156.972          49.000
G26  20377965.695 8 107086935.057 8      -813.949          51.000    20377968.086 8  83444371.247 8      -634.246          51.000
R14  20780042.062 8 110769306.364 8     -3464.219          49.000    20780046.625 8  86153895.623 8     -2694.392          48.000
R17  19831141.008 5 106120433.791 5      1091.426          30.000    19831140.547 4  82538125.683 4       848.884          29.000
R18  23191850.023 5 123799708.317 5      3130.629          34.000    23191849.383 5  96288632.025 5      2434.937          32.000
R23  23130397.047 5 123732000.682 5     -3384.809          30.000
R24  20322831.922 6 108675362.428 6     -2156.379          39.000    20322836.766 6  84525252.552 6     -1677.184          39.000
C05  39619005.422 5 206306557.505 5         4.906          35.000
C22  25990823.289 6 135341077.382 6      3036.582          41.000
C24  23236996.609 5 121001192.032 5      -546.742          32.000
C26  23867056.781 7 124282010.183 7     -2963.105          44.000
E11  22835623.352 8 120002029.776 8       983.336          51.000    22835622.344 8  91949587.782 8       753.462          51.000
E12  22392149.156 8 117671549.265 8     -1569.156          51.000    22392148.328 8  90163920.459 8     -1202.364          51.000
E24  22754924.023 8 119577924.979 8     -2155.234          51.000    22754935.555 8  91624684.470 8     -1651.410          51.000
E36  27210343.641 7 142991355.922 7      2517.203          46.000    27210350.344 8 109564804.124 8      1928.754          48.000
> 2020 05 14 14 09 30.0000000  0 17        .000000000000
G10  24002690.031 6 126135004.321 6      3454.508          38.000    24002687.133 5  98286992.321 5      2691.833          35.000
G18  20832091.359 7 109473439.339 7     -1702.504          47.000    20832091.078 7  85303995.023 7     -1326.626          47.000
G20  21855782.875 8 114852930.698 8      2285.113          51.000    21855778.875 6  89495821.511 6      1780.611          41.000
G21  21156274.195 8 111177001.501 8     -1495.449          49.000    21156272.812 8  86631446.254 8     -1165.285          49.000
G26  20382664.672 8 107111628.638 8      -831.816          51.000    20382666.961 8  83463612.981 8      -648.169          51.000
R14  20799587.289 8 110873498.794 8     -3481.363          49.000    20799591.953 7  86234934.164 7     -2707.727          47.000
R18  23174274.461 5 123705899.090 5      3123.930          34.000    23174277.555 5  96215669.406 5      2429.726          33.000
R23  23149382.742 4 123833565.139 4     -3384.395          28.000
R24  20334955.969 5 108740180.957 5     -2165.195          32.000    20334958.398 6  84575666.916 6     -1684.038          39.000
C05  39618979.766 5 206306424.087 5         4.438          34.000
C22  25973336.758 6 135250014.383 6      3034.855          41.000
C24  23240192.719 5 121017858.562 5      -563.625          31.000
C26  23884149.703 7 124371019.793 7     -2970.332          44.000
E11  22830037.766 8 119972679.484 8       974.383          50.000    22830037.312 8  91927098.607 8       746.548          51.000
E12  22401126.312 8 117718724.360 8     -1575.180          51.000    22401125.297 8  90200067.598 8     -1206.947          51.000
E24  22767260.359 8 119642751.078 8     -2165.895          51.000    22767272.430 8  91674356.383 8     -1659.605          51.000
E36  27195986.266 7 142915909.599 7      2513.164          46.000    27195993.578 8 109506994.664 8      1925.584          48.000
> 2020 05 14 14 10  0.0000000  0 16        .000000000000
G10  23982983.711 6 126031448.397 6      3451.598          37.000    23982984.906 6  98206299.603 6      2689.569          36.000
G18  20841857.633 8 109524761.724 8     -1716.586          48.000    20841857.180 7  85343986.506 7     -1337.599          47.000
G20  21842785.641 8 114784626.127 8      2270.918          51.000    21842780.547 7  89442597.244 7      1769.546          42.000
G21  21164849.055 8 111222062.522 8     -1506.199          48.000    21164847.758 8  86666558.746 8     -1173.659          48.000
G26  20387471.047 8 107136885.834 8      -849.668          51.000    20387472.898 8  83483293.899 8      -662.079          51.000
G29  24023746.484 4 126245621.735 4     -2901.945          29.000
R14  20819235.141 8 110978231.739 8     -3498.406          51.000    20819238.680 7  86316393.052 7     -2720.986          47.000
R24  20347130.539 5 108805290.738 5     -2173.555          35.000    20347133.766 6  84626308.005 6     -1690.543          37.000
C05  39618960.812 5 206306324.884 5         4.098          34.000
C22  25955864.359 6 135159027.180 6      3033.145          39.000
C24  23243493.305 5 121035062.958 5      -581.230          32.000
C26  23901290.641 7 124460278.421 7     -2977.832          44.000
E11  22824508.055 8 119943622.040 8       965.480          51.000    22824507.656 8  91904833.822 8       739.790          51.000
E12  22410142.406 8 117766104.352 8     -1581.066          51.000    22410141.586 8  90236371.752 8     -1211.487          51.000
E24  22779662.055 8 119707920.959 8     -2176.418          51.000    22779674.766 8  91724291.719 8     -1667.645          51.000
E36  27181657.664 7 142840612.998 7      2509.008          46.000    27181665.242 8 109449299.913 8      1922.531          48.000
> 2020 05 14 14 10 30.0000000  0 17        .000000000000
G10  23963285.055 6 125927934.431 6      3450.965          38.000    23963290.656 6  98125639.536 6      2689.070          38.000
G18  20851692.328 8 109576443.525 8     -1727.582          48.000    20851691.945 8  85384258.027 8     -1346.168          48.000
G20  21829857.836 8 114716689.554 8      2259.512          50.000    21829852.695 7  89389659.711 7      1760.658          43.000
G21  21173473.656 8 111267385.065 8     -1514.059          49.000    21173472.516 8  86701875.030 8     -1179.786          49.000
G26  20392368.398 8 107162621.406 8      -864.754          51.000    20392369.445 8  83503347.595 8      -673.834          51.000
R08  22983652.109 5 123076412.071 5      -375.277          31.000
R14  20838968.266 8 111083414.767 8     -3512.492          51.000    20838970.562 8  86398202.005 8     -2731.938          48.000
R24  20359344.375 6 108870603.691 6     -2179.484          39.000    20359346.258 5  84677106.920 5     -1695.161          35.000
C05  39618932.328 5 206306176.650 5         6.434          34.000
C12  23427161.406 4 121991346.950 4      1999.434          29.000
C22  25938389.680 6 135068034.055 6      3034.070          40.000
C24  23246881.633 5 121052720.416 5      -594.969          32.000
C26  23918462.922 7 124549699.495 7     -2982.277          44.000
E11  22819018.328 8 119914772.131 8       959.285          51.000    22819017.344 8  91882728.048 8       735.097          50.000
E12  22419181.008 8 117813603.183 8     -1584.242          51.000    22419180.648 8  90272766.952 8     -1213.858          51.000
E24  22792112.469 8 119773348.550 8     -2184.145          51.000    22792125.766 8  91774424.530 8     -1673.574          51.000
E36  27167341.758 7 142765381.525 7      2507.672          46.000    27167349.305 8 109391655.107 8      1921.469          48.000
> 2020 05 14 14 11  0.0000000  0 17        .000000000000
G10  23943602.617 6 125824505.108 6      3447.238          37.000    23943610.320 6  98045045.336 6      2686.163          37.000
G18  20861602.625 7 109628522.431 7     -1741.266          47.000    20861602.188 7  85424838.984 7     -1356.830          47.000
G20  21817007.391 8 114649163.354 8      2245.223          49.000    21817002.672 7  89337041.913 7      1749.524          44.000
G21  21182155.320 8 111313007.453 8     -1524.469          49.000    21182154.219 8  86737424.929 8     -1187.901          49.000
G26  20397364.297 8 107188874.875 8      -882.441          51.000    20397365.125 8  83523804.824 8      -687.620          51.000
R08  22985858.859 5 123088148.712 5      -400.320          34.000
R14  20858792.570 8 111189084.698 8     -3529.090          51.000    20858794.398 8  86480389.660 8     -2744.851          48.000
R17  19807282.867 5 105992727.041 5      1040.852          33.000    19807273.484 4  82438784.539 4       809.545          26.000
R24  20371604.156 6 108936158.395 6     -2187.941          37.000    20371604.547 5  84728093.830 5     -1701.735          35.000
C05  39618902.148 5 206306019.748 5         6.840          35.000
C22  25920922.039 7 134977076.873 7      3032.691          42.000
C24  23250365.891 5 121070869.678 5      -611.871          32.000
C26  23935673.422 7 124639320.056 7     -2989.266          43.000
E11  22813575.719 8 119886169.225 8       950.617          51.000    22813574.266 8  91860811.559 8       728.335          51.000
E12  22428249.711 8 117861259.532 8     -1589.922          51.000    22428249.586 8  90309282.860 8     -1218.243          51.000
E24  22804618.602 8 119839072.516 8     -2194.402          50.000    22804632.805 8  91824784.443 8     -1681.449          51.000
E36  27153045.906 7 142690255.304 7      2503.762          46.000    27153053.273 7 109334090.934 7      1918.413          47.000
> 2020 05 14 14 11 30.0000000  0 17        .000000000000
G10  23923939.906 5 125721182.810 5      3441.277          30.000    23923948.914 5  97964534.583 5      2681.518          33.000
G18  20871591.789 7 109681016.224 7     -1757.922          47.000    20871591.141 7  85465743.229 7     -1369.809          46.000
G20  21804238.867 8 114582069.481 8      2228.031          48.000    21804235.578 7  89284761.019 7      1736.128          44.000
G21  21190897.414 8 111358947.600 8     -1537.898          49.000    21190896.391 8  86773222.447 8     -1198.365          49.000
G26  20402462.578 8 107215665.680 8      -903.277          51.000    20402463.859 8  83544680.748 8      -703.852          51.000
G31  24741280.953 5 130016315.469 5     -3365.148          32.000
R14  20878710.242 8 111295257.438 8     -3548.863          50.000    20878712.312 8  86562968.434 8     -2760.227          48.000
R17  19801490.594 4 105961774.670 4      1023.773          28.000
R24  20383910.969 6 109001972.865 6     -2199.586          37.000    20383913.047 5  84779282.879 5     -1710.786          35.000
C05  39618873.945 5 206305872.895 5         3.000          34.000
C22  25903466.375 7 134886177.771 7      3027.715          46.000
C24  23253949.750 5 121089529.829 5      -631.934          33.000
C26  23952925.516 6 124729157.336 6     -2999.664          40.000
E11  22808183.539 8 119857832.772 8       938.684          51.000    22808182.164 8  91839099.242 8       719.269          51.000
E12  22437351.984 8 117909092.033 8     -1598.590          51.000    22437351.820 8  90345933.733 8     -1224.923          51.000
E24  22817184.141 8 119905111.485 8     -2207.758          49.000    22817199.625 8  91875385.736 8     -1691.715          51.000
E36  27138773.828 7 142615254.471 7      2496.797          45.000    27138780.812 7 109276622.850 7      1912.906          46.000
> 2020 05 14 14 12  0.0000000  0 18        .000000000000
G10  23904295.219 4 125617918.805 4      3439.023          29.000
G18  20881656.094 8 109733904.767 8     -1770.465          48.000    20881655.516 7  85506955.069 7     -1379.583          45.000
G20  21791550.258 8 114515392.341 8      2214.691          50.000    21791547.789 7  89232804.816 7      1725.737          45.000
G21  21199696.297 8 111405185.353 8     -1547.129          50.000    21199695.234 8  86809251.857 8     -1205.555          50.000
G26  20407659.703 8 107242975.470 8      -920.020          51.000    20407661.117 8  83565961.088 8      -716.898          51.000
G31  24760484.031 5 130117210.834 5     -3363.711          34.000
R14  20898716.852 7 111401910.798 7     -3564.105          47.000    20898720.625 8  86645921.055 8     -2772.082          48.000
R15  19870524.688 6 106182064.198 6       352.148          36.000    19870545.977 4  82586124.543 4       273.887          27.000
R17  19795768.234 5 105931146.898 5      1012.422          31.000    19795771.547 5  82390911.074 5       787.439          30.000
R24  20396261.523 5 109068026.993 5     -2206.828          34.000    20396267.211 6  84830658.277 6     -1716.425          36.000
C05  39618844.148 5 206305718.042 5         4.473          34.000
C22  25886019.305 8 134795321.294 8      3026.719          48.000
C24  23257628.289 6 121108682.173 6      -647.504          36.000
C26  23970215.602 6 124819191.071 6     -3005.250          40.000
E11  22802838.617 8 119829744.397 8       931.031          51.000    22802837.414 8  91817577.006 8       713.370          51.000
E12  22446484.172 8 117957081.558 8     -1603.246          51.000    22446483.773 8  90382704.914 8     -1228.467          51.000
E24  22829806.477 8 119971446.249 8     -2217.035          51.000    22829822.727 8  91926213.684 8     -1698.725          51.000
E36  27124522.055 7 142540361.329 7      2493.672          44.000    27124528.539 7 109219237.263 7      1910.828          46.000
> 2020 05 14 14 12 30.0000000  0 16        .000000000000
G18  20891806.992 8 109787248.570 8     -1791.762          48.000    20891806.578 7  85548521.645 7     -1396.181          45.000
G20  21778953.508 8 114449197.172 8      2192.469          51.000    21778951.914 7  89181224.222 7      1708.420          46.000
G21  21208563.430 8 111451781.632 8     -1565.090          50.000    21208562.328 8  86845560.642 8     -1219.551          49.000
G26  20412967.477 8 107270866.389 8      -945.266          51.000    20412968.844 8  83587694.280 8      -736.571          51.000
R14  20918825.453 8 111509104.445 8     -3588.160          48.000    20918830.391 7  86729293.914 7     -2790.791          47.000
R15  19868630.336 5 106171928.437 5       317.098          34.000
R17  19790135.938 5 105901002.974 5       991.117          32.000    19790135.898 4  82367465.739 4       770.872          27.000
R24  20408668.820 5 109134382.480 5     -2223.082          33.000    20408676.180 5  84882268.194 5     -1729.061          34.000
C05  39618824.828 5 206305617.108 5        -3.566          35.000
C22  25868592.656 8 134704571.804 8      3017.223          49.000
C24  23261413.719 6 121128387.957 6      -672.270          36.000
C26  23987554.898 6 124909480.946 6     -3019.859          40.000
E11  22797552.781 8 119801966.265 8       914.566          51.000    22797551.500 8  91796292.465 8       700.802          51.000
E12  22455657.898 8 118005289.449 8     -1616.512          51.000    22455657.289 8  90419643.418 8     -1238.662          51.000
E24  22842497.805 8 120038138.205 8     -2235.023          51.000    22842513.805 8  91977315.318 8     -1712.541          51.000
E36  27110302.594 7 142465638.646 7      2482.051          42.000    27110308.516 7 109161982.320 7      1901.774          45.000
> 2020 05 14 14 13  0.0000000  0 16        .000000000000
G10  23865094.859 5 125411929.769 5      3435.539          35.000
G18  20902037.977 8 109841013.441 8     -1793.055          48.000    20902037.594 7  85590416.349 7     -1397.185          44.000
G20  21766442.969 8 114383453.473 8      2190.043          51.000    21766441.992 7  89129995.408 7      1706.530          46.000
G21  21217492.344 8 111498702.751 8     -1563.262          51.000    21217491.148 8  86882122.551 8     -1218.126          50.000
G26  20418379.555 8 107299306.040 8      -951.027          51.000    20418381.367 8  83609855.041 8      -741.060          51.000
R14  20939030.062 8 111616801.773 8     -3592.113          50.000    20939034.414 7  86813058.476 7     -2793.869          46.000
R17  19784580.156 5 105871270.264 5       990.836          35.000    19784580.359 4  82344340.303 4       770.650          28.000
R24  20421127.781 6 109201004.999 6     -2218.980          36.000    20421134.805 5  84934085.609 5     -1725.877          34.000
C05  39618809.789 5 206305538.387 5         8.148          34.000
C22  25851180.797 8 134613900.040 8      3027.172          49.000
C24  23265300.070 5 121148614.607 5      -676.195          33.000
C26  24004936.445 6 124999992.686 6     -3014.559          37.000
E11  22792319.492 8 119774465.886 8       918.078          50.000    22792318.070 8  91775220.752 8       703.471          51.000
E12  22464866.828 8 118053682.548 8     -1610.023          51.000    22464866.148 8  90456723.832 8     -1233.687          51.000
E24  22855251.289 8 120105154.155 8     -2233.137          51.000    22855266.367 8  92028665.189 8     -1711.132          51.000
E36  27096109.602 7 142391054.679 7      2490.004          43.000    27096114.836 7 109104833.661 7      1907.865          45.000
> 2020 05 14 14 13 30.0000000  0 17        .000000000000
G10  23845509.094 6 125309007.049 6      3427.906          39.000    23845514.594 6  97643389.400 6      2671.099          39.000
G18  20912328.117 8 109895088.977 8     -1810.148          48.000    20912328.055 7  85632553.117 7     -1410.505          44.000
G20  21753998.227 8 114318055.514 8      2171.574          51.000    21753997.703 7  89079035.999 7      1692.139          46.000
G21  21226462.102 8 111545838.384 8     -1577.316          51.000    21226460.703 8  86918851.602 8     -1229.078          51.000
G26  20423875.438 8 107328185.599 8      -972.477          51.000    20423877.492 8  83632358.587 8      -757.774          51.000
R14  20959308.062 8 111724889.070 8     -3612.008          51.000    20959311.375 7  86897126.313 7     -2809.339          46.000
R17  19779082.125 5 105841837.932 5       973.098          32.000    19779081.672 3  82321446.604 3       756.860          23.000
R18  23034944.078 4 122962095.150 4      3073.145          28.000
R24  20433616.586 6 109267782.185 6     -2231.109          37.000    20433622.023 5  84986023.404 5     -1735.310          34.000
C05  39618778.375 5 206305375.327 5         4.727          34.000
C12  23358667.969 4 121634676.670 4      1964.832          27.000    23358670.969 6  94055654.595 6      1519.617          37.000
C22  25833763.297 7 134523201.074 7      3021.227          47.000
C26  24022337.445 5 125090616.452 5     -3024.305          33.000
E11  22787118.117 8 119747134.552 8       905.660          50.000    22787116.781 8  91754278.579 8       693.974          51.000
E12  22474090.125 8 118102151.374 8     -1619.383          51.000    22474089.477 8  90493862.268 8     -1240.802          51.000
E24  22868045.656 8 120172384.500 8     -2247.039          51.000    22868059.516 8  92080179.324 8     -1721.760          51.000
E36  27081922.812 7 142316501.358 7      2482.016          45.000    27081927.148 7 109047708.486 7      1901.753          45.000
> 2020 05 14 14 14  0.0000000  0 17        .000000000000
G10  23825947.312 6 125206220.751 6      3424.301          38.000    23825953.727 6  97563296.241 6      2668.289          38.000
G18  20922698.258 7 109949584.332 7     -1823.316          47.000    20922698.094 7  85675017.025 7     -1420.766          43.000
G20  21741640.656 8 114253117.334 8      2157.184          50.000    21741640.484 7  89028434.884 7      1680.925          46.000
G21  21235493.383 8 111593297.708 8     -1587.094          50.000    21235491.938 8  86955832.891 8     -1236.696          50.000
G26  20429476.148 8 107357615.932 8      -990.008          51.000    20429478.211 8  83655291.316 8      -771.435          51.000
R14  20979679.539 8 111833475.188 8     -3627.594          51.000    20979682.031 7  86981582.126 7     -2821.465          46.000
R15  19863848.992 5 106146355.351 5       242.219          32.000    19863862.531 4  82558338.510 4       188.386          24.000
R17  19773657.352 5 105812841.584 5       960.281          32.000
R18  23017694.516 4 122870015.887 4      3068.184          29.000    23017689.672 6  95565546.873 6      2386.365          36.000
R24  20446155.688 5 109334825.524 5     -2239.602          34.000    20446159.141 5  85038168.166 5     -1741.909          34.000
C12  23347361.703 4 121575827.267 4      1959.250          27.000    23347364.352 6  94010126.138 6      1515.349          38.000
C22  25816361.203 7 134432587.589 7      3019.086          42.000
C26  24039779.289 5 125181460.025 5     -3031.645          32.000
E11  22781970.203 8 119720083.197 8       897.375          51.000    22781968.852 8  91733550.933 8       687.563          51.000
E12  22483348.773 8 118150806.041 8     -1624.672          51.000    22483348.055 8  90531143.113 8     -1244.896          51.000
E24  22880901.664 8 120239939.305 8     -2257.055          51.000    22880914.508 8  92131942.061 8     -1729.455          51.000
E36  27067763.328 7 142242090.245 7      2478.273          47.000    27067766.852 7 108990692.276 7      1898.823          45.000
> 2020 05 14 14 14 30.0000000  0 19        .000000000000
G10  23806410.906 6 125103565.130 6      3421.832          37.000    23806417.938 6  97483304.927 6      2666.366          37.000
G18  20933146.242 7 110004488.850 7     -1835.117          47.000    20933145.992 7  85717799.787 7     -1429.961          44.000
G20  21729368.922 7 114188632.288 7      2143.789          47.000    21729369.094 7  88978186.835 7      1670.485          45.000
G21  21244584.156 8 111641070.042 8     -1595.711          51.000    21244582.781 8  86993058.090 8     -1243.411          50.000
G26  20435179.773 8 107387588.042 8     -1006.238          51.000    20435181.750 8  83678646.209 8      -784.082          51.000
R08  23005093.531 5 123191225.336 5      -576.840          32.000
R14  21000141.734 8 111942547.505 8     -3641.836          51.000    21000143.766 7  87066416.110 7     -2832.539          46.000
R15  19862565.070 5 106139503.548 5       216.645          34.000
R17  19768310.859 5 105784226.177 5       948.691          30.000    19768312.188 4  82276635.419 4       737.874          26.000
R24  20458741.211 5 109402124.326 5     -2245.926          31.000    20458745.102 5  85090511.691 5     -1746.825          33.000
C05  39618727.945 5 206305112.332 5         6.121          34.000
C12  23336095.680 4 121517190.687 4      1955.035          27.000    23336092.102 5  93964735.939 5      1512.358          35.000
C22  25798973.117 6 134342053.588 6      3018.207          37.000
C24  23277490.180 5 121211977.484 5      -728.590          32.000
C26  24057267.828 6 125272512.805 6     -3036.828          38.000
E11  22776874.258 8 119693302.823 8       890.281          51.000    22776872.352 8  91713030.926 8       682.149          50.000
E12  22492640.953 8 118199636.875 8     -1628.656          51.000    22492640.086 8  90568558.941 8     -1247.952          51.000
E24  22893817.289 8 120307808.797 8     -2265.582          51.000    22893829.734 8  92183945.906 8     -1735.945          51.000
E36  27053629.141 7 142167813.057 7      2475.609          47.000    27053632.516 7 108933778.678 7      1896.937          46.000
> 2020 05 14 14 15  0.0000000  0 16        .000000000000
G10  23786901.047 6 125001048.530 6      3412.578          36.000    23786909.031 6  97403421.903 6      2659.152          38.000
G18  20943672.734 7 110059805.881 7     -1853.305          47.000    20943673.016 7  85760903.984 7     -1444.134          44.000
G20  21717184.555 7 114124608.336 7      2123.867          45.000    21717185.508 7  88928298.063 7      1654.964          45.000
