     3.02           OBSERVATION DATA    M (MIXED)           RINEX VERSION / TYPE
SAVERINEX           SC600               20200510 055930 LCL PGM / RUN BY / DATE
       G = GPS       R = GLONASS       C = COMPASS          COMMENT
       S = SBAS      J = QZSS          E = GALILEO          COMMENT
BEAN                                                        MARKER NAME
1                                                           MARKER NUMBER
GEODETIC                                                    MARKER TYPE
Unige DICCA         GTER                                    OBSERVER / AGENCY
SC60291900056       SC600               2.12(191226)        REC # / TYPE / VERS
                    HEMA45          NONE                    ANT # / TYPE
  4509407.8091   693652.4678  4442337.6214                  APPROX POSITION XYZ
        0.0000        0.0000        0.0000                  ANTENNA: DELTA H/E/N
G    8 C1C L1C D1C S1C C2Y L2Y D2Y S2Y                      SYS / # / OBS TYPES
R    8 C1C L1C D1C S1C C2P L2P D2P S2P                      SYS / # / OBS TYPES
C    8 C1I L1I D1I S1I C7I L7I D7I S7I                      SYS / # / OBS TYPES
E    8 C1C L1C D1C S1C C7Q L7Q D7Q S7Q                      SYS / # / OBS TYPES
DBHZ                                                        COMMENT
     30.000                                                 INTERVAL
  2020    05    10    03    00    0.0000000     GPS         TIME OF FIRST OBS
  2020    05    10    03    59   30.0000000     GPS         TIME OF LAST OBS
     0                                                      RCV CLOCK OFFS APPL
G L1C  0.00000                                              SYS / PHASE SHIFT
G L2Y  0.00000                                              SYS / PHASE SHIFT
R L1C  0.00000                                              SYS / PHASE SHIFT
R L2P  0.25000                                              SYS / PHASE SHIFT
C L1I  0.00000                                              SYS / PHASE SHIFT
C L7I  0.00000                                              SYS / PHASE SHIFT
E L1C  0.50000                                              SYS / PHASE SHIFT
E L7Q -0.25000                                              SYS / PHASE SHIFT
 13 R01  1 R02 -4 R03  5 R07  5 R08  6 R10 -5 R11  0 R12 -1 GLONASS SLOT / FRQ #
    R13 -2 R14 -7 R17  4 R22 -3 R23  3                      GLONASS SLOT / FRQ #
 C1C   71.950 C2C   71.950 C2P   71.950                     GLONASS COD/PHS/BIS
    18                                                      LEAP SECONDS
*** Above antenna height is from mark to ANTENNA BOTTOM.    COMMENT
    17     4        0.0000        ANT MEASURE TYPE/HEIGT    COMMENT
    0.0000    0.0000    0.0458    0.0405    0.0000          COMMENT
                    BASE STATION                            COMMENT
                                                            END OF HEADER
> 2020 05 10 03 00  0.0000000  0 14        .000000000000
G05  20562490.070 8 108056618.719 8       180.160          49.000    20562488.648 8  84199928.632 8       140.385          49.000
G07  21774605.406 8 114426317.902 8     -2030.102          48.000    21774603.867 8  89163334.591 8     -1581.894          48.000
G28  22582136.430 7 118670006.396 7      2912.695          44.000    22582134.367 6  92470131.683 6      2269.633          38.000
G30  20369281.359 8 107041317.721 8      -260.461          51.000    20369281.977 8  83408833.455 8      -202.957          51.000
R02  20245198.172 8 108032256.051 8     -2174.992          51.000    20245201.508 8  84025070.733 8     -1691.661          50.000
R12  20398732.781 6 108966432.723 6     -2631.711          41.000    20398738.508 4  84751636.591 4     -2046.886          25.000
R13  19477431.977 6 104008411.831 6      1692.926          40.000    19477434.969 7  80895410.532 7      1316.720          43.000
C05  39796310.844 6 207229833.220 6        -1.055          36.000    39796309.078 6 160243238.463 6         -.595          41.000
C14  21499316.094 8 111952584.601 8       194.430          48.000    21499314.273 8  86568846.516 8       150.436          51.000
C21  25754938.891 7 134112711.619 7     -3111.836          46.000
C24  22571452.250 8 117535500.550 8      1918.281          51.000
C26  21843362.203 8 113744155.985 8     -1093.820          51.000
E01  24164432.203 8 126984959.152 8      1091.855          51.000    24164433.984 8  97300188.263 8       836.626          51.000
E04  23444049.133 8 123199295.310 8       171.062          51.000    23444048.516 8  94399445.647 8       131.128          51.000
> 2020 05 10 03 00 30.0000000  0 15        .000000000000
G05  20561502.867 8 108051431.457 8       164.754          50.000    20561501.344 8  84195886.616 8       128.380          50.000
G07  21786206.586 7 114487281.948 7     -2035.289          47.000    21786204.602 7  89210839.047 7     -1585.936          47.000
G13  22027286.477 5 115754140.955 5      2412.645          34.000
G28  22565522.195 7 118582691.555 7      2907.301          46.000    22565519.797 6  92402094.126 6      2265.429          41.000
G30  20370797.438 8 107049284.057 8      -271.441          51.000    20370797.891 8  83415040.986 8      -211.513          51.000
R02  20257456.547 8 108097668.495 8     -2186.762          51.000    20257459.922 8  84075947.054 8     -1700.815          49.000
R12  20413551.023 7 109045587.744 7     -2646.246          42.000    20413563.945 4  84813201.696 4     -2058.188          27.000
R13  19467975.375 6 103957912.664 6      1673.062          39.000    19467978.102 7  80856133.412 7      1301.274          43.000
C05  39796302.734 6 207229791.414 6         2.898          36.000    39796301.039 6 160243206.174 6         2.220          41.000
C14  21498221.219 8 111946883.007 8       184.902          48.000    21498219.367 8  86564437.706 8       142.933          51.000
C21  25772865.680 7 134206057.873 7     -3112.059          44.000
C24  22560424.898 8 117478071.245 8      1909.512          51.000
C26  21849688.812 8 113777099.720 8     -1103.320          51.000
E01  24158225.461 8 126952342.481 8      1081.816          51.000    24158227.086 8  97275196.286 8       828.906          51.000
E04  23443079.984 8 123194203.614 8       167.551          51.000    23443079.680 8  94395544.217 8       128.401          51.000
> 2020 05 10 03 01  0.0000000  0 14        .000000000000
G05  20560649.734 8 108046947.840 8       135.113          51.000    20560648.125 8  84192392.888 8       105.283          50.000
G07  21797882.016 7 114548636.509 7     -2054.266          47.000    21797879.516 7  89258647.802 7     -1600.726          47.000
G28  22548985.023 7 118495781.692 7      2887.723          47.000    22548982.102 6  92334372.139 6      2250.170          41.000
G30  20372421.984 8 107057820.659 8      -296.621          51.000    20372422.773 8  83421692.902 8      -231.133          51.000
R02  20269826.844 8 108163678.298 8     -2212.910          51.000    20269829.875 8  84127288.014 8     -1721.152          49.000
R12  20428496.031 6 109125422.005 6     -2674.902          39.000
R13  19458677.641 6 103908261.951 6      1638.281          40.000    19458680.211 7  80817516.216 7      1274.219          43.000
C05  39796317.648 6 207229868.478 6        -6.902          36.000    39796316.062 6 160243266.545 6        -5.485          41.000
C14  21497226.469 7 111941704.049 7       161.359          47.000    21497224.984 8  86560432.993 8       124.773          51.000
C21  25790839.891 7 134299652.668 7     -3126.668          43.000
C24  22549493.617 8 117421144.486 8      1886.594          51.000
C26  21856116.602 8 113810570.689 8     -1127.062          51.000
E01  24152121.359 8 126920264.820 8      1057.648          51.000    24152122.516 8  97250617.298 8       810.445          51.000
E04  23442176.977 8 123189458.535 8       149.863          51.000    23442176.898 8  94391908.378 8       114.848          51.000
> 2020 05 10 03 01 30.0000000  0 15        .000000000000
G05  20559900.711 8 108043011.733 8       122.625          50.000    20559898.992 8  84189325.794 8        95.552          50.000
G07  21809601.578 7 114610223.026 7     -2056.125          46.000    21809598.773 7  89306637.279 7     -1602.175          46.000
G28  22532495.164 8 118409122.347 8      2884.961          48.000    22532491.578 7  92266845.375 7      2248.022          43.000
G30  20374124.945 8 107066769.441 8      -304.703          51.000    20374125.750 8  83428665.984 8      -237.431          51.000
R02  20282278.836 8 108230125.228 8     -2221.656          51.000    20282281.805 8  84178968.988 8     -1727.955          49.000
R12  20443537.984 6 109205772.256 6     -2686.273          40.000
R13  19449509.336 6 103859301.755 6      1621.023          40.000    19449511.672 7  80779436.049 7      1260.796          43.000
C05  39796325.742 6 207229910.625 6         -.281          36.000    39796324.164 6 160243299.125 6         -.260          41.000
C14  21496302.219 7 111936892.836 7       154.750          47.000    21496301.367 8  86556712.631 8       119.699          51.000
C21  25808830.977 6 134393339.094 6     -3123.914          41.000
C24  22538628.125 8 117364565.419 8      1880.637          51.000
C26  21862615.234 8 113844411.708 8     -1133.727          51.000
E01  24146090.180 8 126888569.577 8      1050.645          51.000    24146091.125 8  97226331.340 8       805.075          51.000
E04  23441310.297 8 123184903.548 8       149.207          51.000    23441310.461 8  94388418.201 8       114.298          51.000
E21  25694629.656 5 135026190.703 5     -1748.039          33.000
> 2020 05 10 03 02  0.0000000  0 15        .000000000000
G05  20559255.461 8 108039621.006 8       105.184          50.000    20559253.641 8  84186683.669 8        81.961          50.000
G07  21821364.562 7 114672037.433 7     -2062.980          46.000    21821361.945 7  89354804.330 7     -1607.517          46.000
G28  22516052.312 7 118322714.088 7      2877.258          47.000    22516049.195 7  92199514.252 7      2242.019          43.000
G30  20375905.641 8 107076127.060 8      -317.453          51.000    20375906.445 8  83435957.644 8      -247.366          51.000
R02  20294812.352 8 108297006.568 8     -2235.312          51.000    20294815.586 8  84230987.806 8     -1738.576          49.000
R12  20458675.180 6 109286632.227 6     -2702.590          37.000
R13  19440469.719 6 103811030.093 6      1598.781          40.000    19440471.992 7  80741891.415 7      1243.497          44.000
R14  22843758.383 5 121770087.064 5      4277.195          35.000
C05                                                                  39796324.867 7 160243302.129 7         1.281          42.000
C14  21495448.633 8 111932447.812 8       143.242          48.000    21495447.852 8  86553275.470 8       110.694          51.000
C21  25826838.562 7 134487113.757 7     -3126.055          42.000
C24  22527828.016 8 117308332.512 8      1869.895          51.000
C26  21869184.352 8 113878619.047 8     -1145.090          51.000
E01  24140131.266 8 126857254.898 8      1038.648          51.000    24140132.156 8  97202336.997 8       795.895          51.000
E04  23440479.516 8 123180536.906 8       143.551          51.000    23440479.898 8  94385072.342 8       110.032          51.000
> 2020 05 10 03 02 30.0000000  0 16        .000000000000
G05  20558715.914 8 108036786.023 8        82.586          50.000    20558714.250 8  84184474.585 8        64.353          50.000
G07  21833172.336 7 114734088.256 7     -2075.082          43.000    21833170.445 7  89403155.628 7     -1616.944          43.000
G28  22499658.844 7 118236569.372 7      2864.375          46.000    22499656.898 7  92132388.488 7      2231.981          45.000
G30  20377765.859 8 107085902.401 8      -335.410          51.000    20377766.742 8  83443574.798 8      -261.359          51.000
R02  20307429.289 8 108364331.513 8     -2254.207          51.000    20307431.922 8  84283351.648 8     -1753.272          48.000
R12  20473909.578 5 109368008.311 5     -2724.105          34.000    20473908.727 4  85063960.135 4     -2118.749          26.000
R13  19431561.258 6 103763458.843 6      1571.453          40.000    19431563.656 7  80704891.560 7      1222.244          44.000
R14  22819713.641 5 121641913.881 5      4267.105          34.000
C05                                                                  39796320.203 7 160243283.027 7        -1.084          42.000
C14  21494667.570 8 111928379.501 8       126.699          49.000    21494666.680 8  86550129.584 8        97.972          51.000
C21  25844865.586 7 134580985.165 7     -3133.102          43.000
C24  22517095.750 8 117252456.273 8      1854.039          48.000
C26  21875825.320 8 113913200.957 8     -1161.543          51.000
E01  24134246.625 8 126826331.028 8      1021.648          51.000    24134247.219 8  97178642.109 8       782.807          51.000
E04  23439686.453 8 123176368.991 8       133.047          51.000    23439687.109 8  94381878.758 8       101.912          51.000
E19  26414216.773 5 138807646.709 5     -2111.516          34.000
> 2020 05 10 03 03  0.0000000  0 16        .000000000000
G05  20558295.891 8 108034579.447 8        61.758          51.000    20558294.570 8  84182755.171 8        48.123          51.000
G07  21845038.453 7 114796446.077 7     -2084.945          43.000    21845037.102 7  89451746.164 7     -1624.633          43.000
G28  22483330.031 8 118150763.701 8      2853.055          48.000    22483328.977 7  92065526.907 7      2223.159          44.000
G30  20379719.180 8 107096166.935 8      -351.766          51.000    20379720.203 8  83451573.139 8      -274.103          51.000
R02  20320143.117 8 108432172.734 8     -2271.379          51.000    20320144.844 8  84336117.024 8     -1766.628          48.000
R12  20489252.398 6 109449970.166 6     -2743.246          38.000    20489256.117 4  85127708.326 4     -2133.636          26.000
R13  19422797.625 6 103716662.005 6      1545.406          41.000    19422799.984 7  80668494.025 7      1201.983          44.000
R14  22795719.289 5 121514004.944 5      4257.809          33.000
C05  39796325.438 6 207229909.269 6        -2.527          37.000    39796323.789 6 160243297.318 6        -2.114          41.000
C21  25862925.328 7 134675024.119 7     -3138.820          44.000
C24  22506446.156 8 117197009.368 8      1839.789          48.000
C26  21882551.578 8 113948227.803 8     -1176.312          51.000
E01  24128450.305 8 126795871.018 8      1006.285          51.000    24128450.359 8  97155302.629 8       771.050          51.000
E04  23438944.961 8 123172472.952 8       124.012          51.000    23438946.039 8  94378893.482 8        95.064          51.000
E19  26426283.148 5 138871059.102 5     -2118.148          34.000
E21  25724853.000 6 135184960.197 6     -1784.348          37.000
> 2020 05 10 03 03 30.0000000  0 16        .000000000000
G05  20557986.117 8 108032951.820 8        44.688          51.000    20557985.125 8  84181486.890 8        34.821          51.000
G07  21856953.023 7 114859058.557 7     -2091.398          43.000    21856951.734 7  89500535.126 7     -1629.658          43.000
G28  22467056.945 8 118065249.096 8      2845.559          48.000    22467056.508 7  91998892.141 7      2217.318          44.000
G30  20381755.742 8 107106869.233 8      -363.918          51.000    20381756.789 8  83459912.602 8      -283.572          51.000
R02  20332943.508 8 108500478.386 8     -2284.500          51.000    20332945.141 8  84389243.632 8     -1776.833          49.000
R12  20504696.250 6 109532463.167 6     -2758.504          39.000    20504700.680 4  85191869.468 4     -2145.506          29.000
R13  19414170.078 6 103670589.861 6      1523.668          41.000    19414172.070 7  80632660.139 7      1185.075          44.000
R14  22771763.492 5 121386311.754 5      4252.992          31.000    22771763.766 4  94411575.003 4      3307.886          27.000
C05  39796327.758 6 207229921.019 6         -.078          36.000    39796326.047 7 160243306.406 7         -.251          42.000
C21  25881007.336 7 134769179.415 7     -3140.449          44.000
C24  22495871.039 8 117141942.517 8      1829.301          51.000
C26  21889353.688 8 113983648.139 8     -1187.156          51.000
E01  24122732.703 8 126765824.811 8       994.637          51.000    24122732.750 8  97132280.229 8       762.103          51.000
E04  23438245.500 8 123168798.874 8       118.789          51.000    23438247.250 8  94376078.281 8        91.047          51.000
E19  26438376.641 6 138934615.723 6     -2121.328          37.000
E21  25735060.641 5 135238590.939 5     -1793.398          35.000
> 2020 05 10 03 04  0.0000000  0 16        .000000000000
G05  20557788.367 8 108031913.250 8        25.031          51.000    20557787.562 8  84180677.617 8        19.505          51.000
G07  21868917.766 7 114921933.830 7     -2100.059          44.000    21868916.195 7  89549528.845 7     -1636.409          44.000
G28  22450841.367 7 117980038.139 7      2835.551          47.000    22450842.055 7  91932493.998 7      2209.520          45.000
G30  20383877.328 8 107118017.965 8      -378.777          51.000    20383878.086 8  83468599.911 8      -295.151          51.000
R02  20345832.383 8 108569257.972 8     -2300.238          51.000    20345834.758 8  84442738.860 8     -1789.074          49.000
R12  20520239.266 5 109615493.066 5     -2776.484          34.000    20520246.188 4  85256448.434 4     -2159.479          29.000
R13  19405680.055 6 103625252.457 6      1499.289          41.000    19405682.219 7  80597397.730 7      1166.114          45.000
R14  22747849.898 5 121258847.588 5      4245.168          31.000    22747853.016 4  94312436.201 4      3301.797          29.000
C05  39796330.555 6 207229935.532 6          .043          37.000    39796328.812 6 160243317.624 6         -.233          41.000
C21  25899112.586 7 134863459.391 7     -3144.227          43.000
C24  22485372.141 8 117087266.076 8      1816.316          51.000
C26  21896232.898 8 114019470.069 8     -1200.445          51.000
E01  24117095.648 8 126736202.541 8       980.574          51.000    24117096.039 8  97109582.670 8       751.349          51.000
E04  23437590.250 8 123165357.033 8       111.105          51.000    23437592.547 8  94373441.019 8        85.094          51.000
E19  26450500.508 6 138998326.323 6     -2126.273          36.000
E21  25745330.328 5 135292624.363 5     -1804.199          32.000
> 2020 05 10 03 04 30.0000000  0 15        .000000000000
G05  20557701.297 8 108031455.867 8         4.344          51.000    20557700.539 8  84180321.209 8         3.385          51.000
G07  21880930.781 7 114985062.363 7     -2109.875          44.000    21880929.133 7  89598719.896 7     -1644.058          43.000
G28  22434682.953 8 117895125.696 8      2824.145          48.000    22434684.375 7  91866328.456 7      2200.632          43.000
G30  20386082.070 8 107129604.084 8      -394.793          51.000    20386082.969 8  83477628.060 8      -307.631          51.000
R02  20358808.414 8 108638502.497 8     -2317.184          51.000    20358811.391 8  84496595.714 8     -1802.254          49.000
R03  19467105.352 5 104208933.509 5      1344.902          35.000    19467111.508 5  81051417.743 5      1046.035          32.000
R12  20535881.148 6 109699048.147 6     -2795.117          37.000    20535877.055 4  85321418.551 4     -2173.980          24.000
R13  19397326.523 6 103580643.739 6      1473.383          41.000    19397328.461 7  80562702.070 7      1145.964          44.000
R14  22723978.641 5 121131607.178 5      4236.398          32.000    22723983.977 5  94213471.515 5      3294.983          31.000
C05  39796332.344 6 207229944.881 6        -1.098          36.000    39796330.523 7 160243324.868 7        -1.099          42.000
C21  25917239.031 6 134957855.067 6     -3149.582          40.000
C24  22474947.156 8 117032972.890 8      1802.156          51.000
C26  21903187.375 8 114055684.212 8     -1214.891          51.000
E01  24111538.008 8 126706996.698 8       965.340          51.000    24111538.539 8  97087204.168 8       739.676          51.000
E04  23436977.891 8 123162140.041 8       102.250          51.000    23436980.477 8  94370976.043 8        78.368          51.000
> 2020 05 10 03 05  0.0000000  0 15        .000000000000
G05  20557729.133 8 108031601.548 8       -14.180          51.000    20557728.422 8  84180434.722 8       -11.049          51.000
G07  21892995.859 7 115048464.335 7     -2117.176          43.000    21892994.234 7  89648123.996 7     -1649.747          43.000
G28  22418586.391 8 117810536.367 8      2815.117          49.000    22418587.766 6  91800414.715 6      2193.601          40.000
G30  20388374.039 8 107141648.631 8      -408.352          51.000    20388375.188 8  83487013.429 8      -318.196          51.000
R02  20371875.961 8 108708233.577 8     -2331.582          51.000    20371878.828 8  84550831.009 8     -1813.453          48.000
R03  19459606.867 5 104168810.363 5      1330.367          31.000    19459614.422 5  81020210.790 5      1034.727          32.000
R12  20551625.750 5 109783146.916 5     -2812.051          31.000    20551626.289 4  85386834.614 4     -2187.151          28.000
R13  19389113.586 6 103536786.482 6      1450.199          41.000    19389115.500 7  80528590.859 7      1127.933          45.000
R14  22700153.906 5 121004615.634 5      4229.648          31.000    22700162.758 5  94114700.336 5      3289.733          32.000
C05  39796337.289 6 207229970.859 6          .219          36.000    39796335.500 6 160243344.963 6         -.278          41.000
C21  25935391.656 6 135052386.962 6     -3152.492          40.000
C24  22464599.828 8 116979085.522 8      1790.207          51.000
C26  21910221.289 8 114092310.822 8     -1226.969          51.000
E01  24106063.547 8 126678229.664 8       952.379          51.000    24106064.641 8  97065161.897 8       729.748          51.000
E04  23436412.758 8 123159170.496 8        95.664          51.000    23436415.367 8  94368700.680 8        73.268          51.000
> 2020 05 10 03 05 30.0000000  0 14        .000000000000
G05  20557864.688 8 108032312.774 8       -33.504          51.000    20557863.812 8  84180988.916 8       -26.107          51.000
G07  21905105.266 6 115112099.225 6     -2125.293          41.000    21905103.781 6  89697709.614 6     -1656.072          41.000
G28  22402544.414 8 117726234.347 8      2804.961          48.000    22402544.742 6  91734724.925 6      2185.687          37.000
G30  20390745.617 8 107154111.681 8      -422.629          51.000    20390746.547 8  83496724.889 8      -329.321          51.000
R02  20385027.398 8 108778411.204 8     -2346.934          51.000    20385030.203 8  84605413.593 8     -1825.393          48.000
R03  19452201.016 5 104129157.401 5      1313.707          34.000    19452207.805 5  80989369.588 5      1021.772          32.000
R13  19381033.766 6 103493642.679 6      1425.918          41.000    19381036.391 7  80495034.600 7      1109.047          45.000
R14  22676369.570 5 120877836.903 5      4221.922          31.000    22676379.805 5  94016094.661 5      3283.717          33.000
C05  39796338.023 6 207229974.889 6          .121          36.000    39796336.258 6 160243348.060 6         -.097          41.000
C21  25953563.102 6 135147015.488 6     -3155.973          38.000
C24  22454322.422 8 116925566.245 8      1777.559          51.000
C26  21917326.781 8 114129309.978 8     -1239.785          51.000
E01  24100665.062 8 126649863.016 8       938.594          51.000    24100667.086 8  97043426.409 8       719.203          51.000
E04  23435887.492 8 123156410.130 8        88.305          51.000    23435889.930 8  94366585.584 8        67.662          51.000
> 2020 05 10 03 06  0.0000000  0 15        .000000000000
G05  20558104.664 8 108033572.992 8       -56.992          51.000    20558103.406 8  84181970.908 8       -44.409          51.000
G07  21917255.281 7 115175948.794 7     -2137.543          42.000    21917253.977 7  89747462.549 7     -1665.615          42.000
G28  22386554.242 7 117642205.583 7      2790.734          45.000    22386552.859 6  91669248.050 6      2174.601          39.000
G30  20393193.484 8 107166975.495 8      -441.285          51.000    20393194.344 8  83506748.638 8      -343.859          51.000
R02  20398259.078 8 108849017.659 8     -2366.602          51.000    20398261.773 8  84660329.707 8     -1840.690          48.000
R03  19444878.422 5 104089959.684 5      1293.191          33.000    19444884.844 5  80958882.489 5      1005.812          33.000
R12  20583396.445 6 109952743.024 6     -2849.793          37.000    20583398.711 4  85518834.618 4     -2216.509          28.000
R13  19373084.656 6 103451196.070 6      1397.035          41.000    19373087.422 7  80462020.565 7      1086.583          45.000
R14  22652623.234 5 120751256.744 5      4210.176          35.000    22652633.250 4  93917643.487 4      3274.581          29.000
C05  39796331.383 6 207229940.528 6        -4.316          36.000    39796329.625 6 160243321.466 6        -3.078          41.000
C21  25971749.461 6 135241722.960 6     -3163.855          37.000
C24  22444111.648 8 116872399.198 8      1760.566          51.000
C26  21924500.156 8 114166663.585 8     -1256.762          51.000
E01  24095339.820 8 126621880.499 8       920.535          51.000    24095342.367 8  97021985.242 8       705.348          51.000
E04  23435399.086 8 123153842.860 8        76.594          51.000    23435401.008 8  94364618.455 8        58.680          51.000
> 2020 05 10 03 06 30.0000000  0 14        .000000000000
G05  20558470.406 8 108035494.859 8       -72.688          51.000    20558468.953 8  84183468.462 8       -56.640          51.000
G07  21929467.352 7 115240124.121 7     -2142.207          44.000    21929465.984 7  89797469.265 7     -1669.252          43.000
G28  22370637.148 6 117558565.143 6      2783.977          40.000    22370635.836 6  91604073.711 6      2169.332          40.000
G30  20395738.859 8 107180351.675 8      -451.980          51.000    20395739.836 8  83517171.641 8      -352.193          51.000
R02  20411592.234 8 108920166.003 8     -2378.219          51.000    20411595.156 8  84715667.300 8     -1849.729          49.000
R03  19437663.273 5 104051334.668 5      1280.184          34.000    19437669.445 5  80928840.702 5       995.692          34.000
R13  19365287.570 6 103409561.540 6      1376.793          41.000    19365290.812 7  80429638.178 7      1070.839          45.000
R14  22628935.773 5 120624992.869 5      4204.949          31.000    22628944.758 4  93819438.248 4      3270.516          28.000
C05  39796338.742 6 207229979.196 6         -.039          36.000    39796337.094 7 160243351.404 7         -.372          42.000
C21  25989973.484 6 135336619.846 6     -3164.059          38.000
C24  22433990.180 8 116819696.650 8      1751.375          51.000
C26  21931763.023 8 114204481.771 8     -1265.879          51.000
E01  24090109.133 8 126594395.037 8       910.281          51.000    24090112.039 8  97000924.950 8       697.539          51.000
E04  23434968.984 8 123151581.889 8        72.688          51.000    23434970.305 8  94362886.028 8        55.675          51.000
> 2020 05 10 03 07  0.0000000  0 15        .000000000000
G05  20558936.977 8 108037946.605 8       -91.566          51.000    20558935.383 8  84185378.901 8       -71.350          51.000
G07  21941716.070 7 115304491.280 7     -2149.727          43.000    21941714.117 7  89847625.467 7     -1675.112          43.000
G28  22354768.820 6 117475183.715 6      2773.848          38.000    22354769.031 6  91539101.113 6      2161.437          36.000
G30  20398356.453 8 107194106.948 8      -465.777          51.000    20398357.281 8  83527890.044 8      -362.943          51.000
R02  20425001.672 8 108991721.652 8     -2392.977          51.000    20425004.570 8  84771321.711 8     -1861.201          49.000
R03  19430530.641 5 104013149.948 5      1264.520          35.000    19430534.266 5  80899141.471 5       983.515          33.000
R12  20615550.594 5 110124578.868 5     -2879.176          34.000    20615544.922 4  85652430.218 4     -2239.368          27.000
R13  19357617.938 7 103368605.922 7      1352.559          42.000    19357621.055 7  80397783.801 7      1051.987          44.000
R14  22605283.406 5 120498913.827 5      4198.660          33.000    22605290.656 4  93721376.848 4      3265.631          29.000
C05  39796334.977 6 207229959.064 6          .691          36.000    39796333.484 6 160243336.593 6          .435          41.000
C21  26008209.422 7 135431573.910 7     -3167.051          42.000
C24  22423933.445 8 116767328.351 8      1738.996          51.000
C26  21939089.289 8 114242632.044 8     -1278.094          51.000
E01  24084948.266 8 126567274.912 8       896.891          51.000    24084951.086 8  96980144.578 8       687.225          51.000
E04  23434572.148 8 123149495.648 8        65.598          51.000    23434572.906 8  94361287.478 8        50.221          51.000
> 2020 05 10 03 07 30.0000000  0 15        .000000000000
G05  20559516.969 8 108040993.931 8      -112.137          51.000    20559515.078 8  84187753.454 8       -87.379          51.000
G07  21954013.508 7 115369114.121 7     -2158.930          44.000    21954011.070 7  89897980.910 7     -1682.283          44.000
G28  22338965.117 7 117392129.671 7      2762.324          43.000    22338965.117 7  91474383.649 7      2152.460          42.000
G30  20401058.328 8 107208305.831 8      -481.266          51.000    20401059.195 8  83538954.116 8      -375.012          51.000
R02  20438499.992 8 109063750.483 8     -2409.496          51.000    20438502.766 8  84827344.146 8     -1874.053          49.000
R03  19423494.844 6 103975474.802 6      1246.520          39.000    19423494.945 5  80869838.584 5       969.515          33.000
R13  19350087.891 6 103328396.354 6      1327.109          41.000    19350090.883 7  80366509.688 7      1032.196          44.000
R14  22581678.742 5 120373079.191 5      4189.211          31.000    22581679.688 4  93623493.361 4      3258.275          28.000
C05  39796332.719 6 207229946.981 6         -.023          36.000    39796331.234 7 160243327.258 7         -.335          42.000
C21  26026469.586 7 135526648.918 7     -3171.766          44.000
C24  22413953.688 8 116715359.974 8      1724.961          51.000
C26  21946491.602 8 114281177.831 8     -1292.062          51.000
E01  24079869.547 8 126540586.001 8       881.828          51.000    24079872.242 8  96959694.629 8       675.680          51.000
E04  23434220.969 8 123147650.278 8        56.906          51.000    23434221.461 8  94359873.490 8        43.580          51.000
E19  26536150.555 5 139448411.977 5     -2161.227          32.000    26536150.117 5 106850077.817 5     -1656.190          35.000
> 2020 05 10 03 08  0.0000000  0 15        .000000000000
G05  20560207.594 8 108044623.341 8      -131.871          51.000    20560205.844 8  84190581.572 8      -102.757          51.000
G07  21966356.734 7 115433977.288 7     -2167.316          44.000    21966353.516 7  89948523.614 7     -1688.815          43.000
G28  22323221.594 7 117309391.575 7      2751.246          47.000    22323221.578 7  91409912.434 7      2143.828          47.000
G30  20403841.766 8 107222933.412 8      -496.066          51.000    20403842.734 8  83550352.243 8      -386.545          51.000
R02  20452084.195 8 109136237.359 8     -2425.172          51.000    20452086.641 8  84883722.823 8     -1886.245          49.000
R03  19416551.031 6 103938297.284 6      1229.559          39.000    19416550.938 6  80840922.763 6       956.323          36.000
R13  19342695.477 6 103288920.110 6      1302.328          41.000    19342698.109 7  80335805.961 7      1012.922          43.000
R14  22558123.195 5 120247498.107 5      4180.078          31.000    22558120.047 4  93525813.358 4      3251.178          25.000
C05  39796329.086 6 207229928.242 6         -.434          37.000    39796327.594 6 160243312.762 6         -.347          41.000
C21  26044750.070 7 135621830.032 7     -3175.781          45.000
C24  22404048.195 8 116663778.465 8      1711.656          51.000
C26  21953967.055 8 114320103.897 8     -1305.082          51.000
E01  24074870.453 8 126514314.798 8       867.473          51.000    24074873.031 8  96939564.770 8       664.717          51.000
E04  23433912.859 8 123146032.533 8        48.910          51.000    23433913.375 8  94358633.909 8        37.510          51.000
E19  26548496.320 5 139513285.672 5     -2165.922          32.000    26548494.211 5 106899784.882 5     -1660.309          31.000
> 2020 05 10 03 08 30.0000000  0 14        .000000000000
G05  20561007.539 8 108048827.911 8      -149.844          51.000    20561006.039 8  84193857.844 8      -116.761          51.000
G07  21978743.844 6 115499071.626 6     -2173.781          41.000    21978740.234 6  89999246.466 6     -1693.856          40.000
G28  22307537.250 8 117226964.884 8      2742.164          51.000    22307536.969 7  91345683.837 7      2136.751          47.000
G30  20406705.188 8 107237981.142 8      -508.691          51.000    20406706.062 8  83562077.743 8      -396.383          51.000
R02  20465752.750 8 109209174.024 8     -2438.848          51.000    20465755.367 8  84940451.342 8     -1896.882          50.000
R03  19409698.070 6 103901612.343 6      1214.621          41.000    19409699.250 6  80812390.029 6       944.705          37.000
R13  19335438.773 6 103250169.907 6      1279.637          40.000    19335440.719 7  80305666.931 7       995.270          42.000
R14  22534614.180 5 120122155.872 5      4173.828          35.000    22534609.117 4  93428335.077 4      3246.314          24.000
C05  39796322.922 6 207229896.427 6         1.078          36.000    39796321.250 6 160243287.370 6         1.003          41.000
C21  26063048.867 7 135717108.647 7     -3177.789          45.000
C24  22394215.734 8 116612577.149 8      1700.242          51.000
C26  21961513.453 8 114359401.324 8     -1316.168          51.000
E01  24069949.773 8 126488454.250 8       855.066          51.000    24069951.648 8  96919749.557 8       655.196          51.000
E04  23433646.719 8 123144635.561 8        42.785          51.000    23433647.398 8  94357563.500 8        32.742          51.000
> 2020 05 10 03 09  0.0000000  0 15        .000000000000
G05  20561921.422 8 108053630.644 8      -170.223          51.000    20561920.148 8  84197600.213 8      -132.641          51.000
G07  21991178.891 7 115564418.759 7     -2182.488          42.000    21991175.664 6  90050166.334 6     -1700.637          41.000
G13  21798591.359 5 114552363.633 5      2303.312          30.000
G28  22291917.156 8 117144875.731 8      2730.461          51.000    22291916.328 8  91281718.254 8      2127.632          48.000
G30  20409652.789 8 107253471.244 8      -523.918          51.000    20409653.656 8  83574147.959 8      -408.248          51.000
R02  20479509.414 8 109282583.511 8     -2455.012          51.000    20479512.469 8  84997547.612 8     -1909.451          49.000
R03  19402941.664 6 103865446.272 6      1196.781          40.000    19402943.703 6  80784260.846 6       930.830          37.000
R13  19328322.734 6 103212170.672 6      1253.691          39.000    19328324.273 7  80276111.958 7       975.096          42.000
R14  22511152.539 5 119997079.327 5      4164.695          35.000
C05  39796318.289 6 207229872.564 6          .539          36.000    39796316.609 6 160243268.940 6          .245          41.000
C21  26081369.945 7 135812506.679 7     -3182.086          45.000
C24  22384460.688 8 116561779.768 8      1686.336          51.000
C26  21969135.422 8 114399091.648 8     -1329.734          51.000
E01  24065111.641 8 126463027.949 8       840.043          51.000    24065112.594 8  96900267.069 8       643.678          51.000
E04  23433427.352 8 123143483.243 8        34.039          51.000    23433428.133 8  94356680.545 8        26.058          51.000
> 2020 05 10 03 09 30.0000000  0 16        .000000000000
G05  20562940.102 8 108058982.967 8      -188.867          51.000    20562938.648 8  84201770.869 8      -147.166          51.000
G07  22003652.359 6 115629967.967 6     -2189.969          40.000    22003649.289 6  90101243.587 6     -1706.472          41.000
G13  21785455.961 5 114483326.628 5      2296.988          33.000
G28  22276352.297 8 117063077.748 8      2720.367          51.000    22276350.969 7  91217979.561 7      2119.767          47.000
G30  20412675.070 8 107269353.449 8      -537.301          51.000    20412676.023 8  83586523.709 8      -418.676          51.000
R02  20493345.266 8 109356415.040 8     -2469.406          51.000    20493348.383 8  85054972.143 8     -1920.649          49.000
R03  19396274.289 7 103829751.271 7      1180.820          43.000    19396275.672 6  80756498.074 6       918.419          38.000
R12  20697591.328 5 110562816.444 5     -2961.766          30.000
R13  19321337.211 6 103174871.821 6      1230.410          38.000    19321339.508 7  80247101.775 7       956.986          43.000
R14  22487730.305 5 119872221.559 5      4156.516          35.000
C05  39796306.070 6 207229807.979 6         1.590          36.000    39796304.383 7 160243219.773 7         1.015          42.000
C21  26099703.648 7 135907974.195 7     -3184.551          45.000
C24  22374773.914 8 116511338.245 8      1674.066          51.000
C26  21976823.531 8 114439124.652 8     -1341.422          51.000
E01  24060346.430 8 126437987.050 8       826.891          51.000    24060347.117 8  96881079.909 8       633.630          51.000
E04  23433245.523 8 123142527.045 8        27.254          51.000    23433246.289 8  94355947.868 8        20.868          51.000
> 2020 05 10 03 10  0.0000000  0 14        .000000000000
G05  20564093.172 8 108065041.989 8      -205.316          51.000    20564091.664 8  84206492.189 8      -159.987          51.000
G07  22016193.719 6 115695874.695 6     -2194.223          39.000    22016190.562 6  90152599.441 6     -1709.784          39.000
G28  22260872.742 8 116981730.527 8      2712.523          51.000    22260871.031 7  91154592.125 7      2113.655          46.000
G30  20415801.664 8 107285783.836 8      -548.336          51.000    20415802.742 8  83599326.608 8      -427.275          51.000
R02  20507290.062 8 109430826.752 8     -2481.480          51.000    20507292.969 8  85112847.909 8     -1930.040          48.000
R03  19389724.602 7 103794689.691 7      1166.859          42.000    19389726.219 6  80729227.958 6       907.557          39.000
R12  20714289.406 6 110651948.175 6     -2974.480          36.000    20714292.344 4  86062690.349 4     -2313.485          27.000
R13  19314513.328 6 103138435.157 6      1209.062          37.000    19314515.539 7  80218762.118 7       940.379          42.000
C05  39796316.180 6 207229861.405 6         4.840          36.000    39796314.414 7 160243260.293 7         3.706          42.000
C21  26118079.984 7 136003665.699 7     -3185.004          44.000
C24  22365185.508 8 116461408.905 8      1664.195          51.000
C26  21984606.750 8 114479654.491 8     -1350.844          50.000
E01  24055684.484 8 126413489.029 8       816.012          51.000    24055685.109 8  96862308.736 8       625.265          51.000
E04  23433131.141 8 123141924.640 8        22.699          51.000    23433131.750 8  94355486.283 8        17.390          51.000
> 2020 05 10 03 10 30.0000000  0 14        .000000000000
G05  20565339.875 8 108071593.587 8      -228.016          51.000    20565338.617 8  84211597.314 8      -177.678          51.000
G07  22028761.883 5 115761924.646 5     -2205.039          35.000    22028759.016 5  90204065.402 5     -1718.209          35.000
G28  22245437.797 8 116900621.967 8      2698.172          48.000    22245435.836 7  91091390.688 7      2102.472          45.000
G30  20418991.508 8 107302546.442 8      -565.652          51.000    20418992.555 8  83612388.377 8      -440.768          51.000
R02  20521302.055 8 109505600.359 8     -2499.902          51.000    20521304.953 7  85171005.140 7     -1944.368          47.000
R03  19383252.586 7 103760045.146 7      1146.535          42.000    19383253.469 6  80702282.215 6       891.753          39.000
R12  20731059.086 6 110741580.579 6     -2993.562          36.000    20731050.195 5  86132322.401 5     -2328.323          33.000
R13  19307809.727 6 103102642.361 6      1181.203          37.000    19307812.859 7  80190923.301 7       918.717          43.000
C05  39796307.586 6 207229815.923 6         2.230          36.000    39796305.875 7 160243225.923 7         1.392          42.000
C21  26136457.820 7 136099367.227 7     -3191.508          42.000
C24  22355654.742 8 116411779.519 8      1647.867          51.000
C26  21992444.031 8 114520466.744 8     -1366.504          50.000
E01  24051085.078 8 126389319.353 8       798.797          51.000    24051085.148 8  96843789.153 8       612.050          50.000
E04  23433043.297 8 123141461.861 8        11.812          51.000    23433043.859 8  94355131.688 8         9.021          51.000
> 2020 05 10 03 11  0.0000000  0 14        .000000000000
G05  20566704.438 8 108078764.708 8      -247.098          51.000    20566703.180 8  84217185.191 8      -192.544          51.000
G07  22041381.055 6 115828239.160 6     -2212.797          37.000    22041378.961 6  90255739.093 6     -1724.254          38.000
G28  22230072.695 7 116819881.752 7      2687.520          47.000    22230070.578 7  91028476.276 7      2094.174          42.000
G30  20422268.523 8 107319767.355 8      -579.438          51.000    20422269.578 8  83625807.286 8      -451.510          51.000
R02  20535406.086 8 109580863.696 8     -2514.645          51.000    20535408.883 7  85229543.285 7     -1955.835          47.000
R03  19376882.516 7 103725949.516 7      1129.699          42.000    19376883.852 6  80675763.373 6       878.655          39.000
R12  20747923.711 6 110831619.118 6     -3008.785          36.000    20747916.953 5  86202370.030 5     -2340.169          33.000
R13  19301251.562 6 103067623.057 6      1157.086          39.000    19301255.531 7  80163686.092 7       899.956          44.000
C05  39796304.727 6 207229801.656 6         2.277          36.000    39796302.891 7 160243214.099 7         1.776          42.000
C21  26154860.750 6 136195203.520 6     -3194.242          40.000
C24  22346205.992 8 116362576.778 8      1635.137          51.000
C26  22000360.117 8 114561685.925 8     -1378.520          50.000
E01  24046572.438 8 126365605.534 8       785.125          51.000    24046571.719 8  96825618.848 8       601.580          51.000
E04  23433006.297 8 123141266.542 8         4.293          51.000    23433006.789 8  94354982.022 8         3.265          51.000
> 2020 05 10 03 11 30.0000000  0 13        .000000000000
G05  20568187.336 8 108086557.662 8      -268.930          51.000    20568186.148 8  84223257.622 8      -209.556          51.000
G07  22054051.344 6 115894821.493 6     -2222.531          39.000    22054050.086 6  90307621.397 6     -1731.846          38.000
G28  22214778.828 7 116739515.294 7      2673.699          46.000    22214775.852 6  90965853.150 6      2083.405          39.000
G30  20425633.086 8 107337448.050 8      -595.809          51.000    20425634.109 8  83639584.451 8      -464.266          51.000
R02  20549602.320 8 109656618.438 8     -2532.203          51.000    20549605.250 7  85288463.650 7     -1969.491          47.000
R03  19370615.656 6 103692408.006 6      1110.027          41.000    19370617.367 6  80649675.536 6       863.355          39.000
R13  19294839.164 6 103033381.040 6      1129.637          39.000    19294843.094 7  80137053.396 7       878.606          43.000
C05  39796307.891 6 207229818.074 6         -.340          37.000    39796306.062 6 160243226.798 6         -.133          41.000
C21  26173287.961 6 136291175.962 6     -3199.785          38.000
C24  22336839.836 8 116313803.824 8      1619.715          51.000
C26  22008353.992 8 114603312.979 8     -1393.137          49.000
E01  24042147.000 8 126342350.383 8       768.547          51.000    24042146.320 8  96807799.997 8       588.887          51.000
E04  23433020.719 8 123141341.824 8        -5.996          51.000    23433021.047 8  94355039.703 8        -4.606          51.000
> 2020 05 10 03 12  0.0000000  0 13        .000000000000
G05  20569774.914 8 108094900.988 8      -287.305          51.000    20569773.930 8  84229758.909 8      -223.874          51.000
G07  22066758.727 6 115961598.076 6     -2229.395          39.000    22066757.484 6  90359655.087 6     -1737.187          39.000
G28  22199542.508 7 116659453.433 7      2663.500          43.000    22199538.734 6  90903467.330 6      2075.461          38.000
G30  20429071.125 8 107355515.478 8      -608.852          51.000    20429072.148 8  83653662.966 8      -474.430          51.000
R02  20563877.242 8 109732790.799 8     -2546.055          51.000    20563880.398 8  85347708.817 8     -1980.262          48.000
R03  19364439.695 7 103659349.148 7      1093.863          43.000    19364441.305 6  80623963.083 6       850.783          40.000
R13  19288558.734 6 102999843.093 6      1106.191          40.000    19288562.906 7  80110968.361 7       860.371          44.000
C05  39796303.461 6 207229794.839 6         1.594          36.000    39796301.641 7 160243208.846 7         1.181          42.000
C21  26191728.477 6 136387212.143 6     -3202.504          39.000
C24  22327542.508 8 116265389.981 8      1607.809          51.000
C26  22016412.398 8 114645275.101 8     -1404.293          51.000
E01  24037795.320 8 126319482.208 8       755.809          51.000    24037795.188 8  96790277.667 8       579.108          51.000
E04  23433072.945 8 123141616.364 8       -12.465          51.000    23433073.117 8  94355250.061 8        -9.587          51.000
> 2020 05 10 03 12 30.0000000  0 15        .000000000000
G05  20571469.102 8 108103804.742 8      -306.699          51.000    20571468.086 8  84236696.898 8      -238.986          51.000
G07  22079505.000 6 116028577.480 6     -2236.598          36.000    22079503.414 6  90411846.815 6     -1742.800          37.000
G28  22184365.516 6 116579709.191 6      2652.289          41.000    22184363.578 6  90841328.910 6      2066.716          41.000
G30  20432584.555 8 107373978.855 8      -622.527          51.000    20432585.625 8  83668050.019 8      -485.086          51.000
R02  20578232.336 8 109809390.586 8     -2560.930          51.000    20578235.516 8  85407286.424 8     -1991.834          48.000
R03  19358356.820 7 103626786.286 7      1076.586          43.000    19358358.508 6  80598636.419 6       837.345          41.000
R13  19282412.594 6 102967020.427 6      1081.754          40.000    19282416.352 7  80085439.639 7       841.364          43.000
R14  22348293.383 5 119128984.330 5      4102.789          32.000    22348295.750 4  92655882.104 4      3191.058          26.000
C05  39796293.289 6 207229742.403 6         1.852          36.000    39796291.562 6 160243168.285 6         1.275          41.000
C21  26210185.641 6 136483321.138 6     -3205.277          41.000
C24  22318316.078 8 116217346.184 8      1594.859          51.000
C26  22024537.258 8 114687581.098 8     -1416.406          50.000
E01  24033519.453 8 126297011.743 8       741.977          51.000    24033519.578 8  96773060.044 8       568.501          51.000
E04  23433165.156 8 123142101.151 8       -20.094          51.000    23433165.148 8  94355621.517 8       -15.382          51.000
E21  25929264.875 6 136259208.840 6     -1982.844          36.000
> 2020 05 10 03 13  0.0000000  0 14        .000000000000
G05  20573267.648 8 108113256.909 8      -331.848          51.000    20573266.508 8  84244062.216 8      -258.580          51.000
G07  22092286.883 5 116095750.153 5     -2250.184          31.000    22092284.836 5  90464185.436 5     -1753.384          31.000
G28  22169248.734 7 116500272.129 7      2635.215          45.000    22169248.102 7  90779429.851 7      2053.414          44.000
G30  20436170.812 8 107392824.044 8      -642.109          51.000    20436171.836 8  83682734.576 8      -500.345          51.000
R02  20592664.445 8 109886403.173 8     -2581.766          51.000    20592667.875 8  85467185.080 8     -2008.040          48.000
R03  19352364.711 7 103594708.393 7      1053.270          45.000    19352366.172 6  80573686.937 6       819.210          41.000
R13  19276398.195 6 102934900.764 6      1051.305          40.000    19276400.922 7  80060457.683 7       817.681          43.000
R14  22325222.727 5 119005994.360 5      4087.934          35.000    22325230.391 5  92560222.757 5      3179.507          31.000
C05  39796275.203 6 207229647.732 6        -3.469          36.000    39796273.367 6 160243095.087 6        -2.984          41.000
C24  22309158.352 8 116169660.068 8      1575.980          51.000
C26  22032724.625 8 114730216.380 8     -1434.184          49.000
E01  24029316.609 8 126274926.150 8       722.145          51.000    24029317.055 8  96756137.315 8       553.370          51.000
E04  23433295.148 8 123142783.792 8       -33.590          51.000    23433294.891 8  94356144.586 8       -25.807          51.000
E21  25940603.977 5 136318808.973 5     -1998.418          35.000
> 2020 05 10 03 13 30.0000000  0 15        .000000000000
G05  20575174.992 8 108123279.419 8      -350.910          51.000    20575173.758 8  84251871.960 8      -273.436          51.000
G07  22105108.656 6 116163141.131 6     -2256.758          36.000    22105103.898 6  90516714.898 6     -1758.510          36.000
G09  24392876.453 5 128185430.616 5     -3047.980          31.000
G13  21681767.492 5 113938468.219 5      2239.180          33.000
G28  22154196.492 7 116421167.283 7      2623.945          47.000    22154196.055 7  90717789.691 7      2044.633          45.000
G30  20439833.695 8 107412072.243 8      -655.695          51.000    20439834.656 8  83697733.201 8      -510.931          51.000
R02  20607178.070 8 109963850.433 8     -2596.414          51.000    20607181.203 8  85527421.832 8     -2019.433          48.000
R03  19346467.445 7 103563140.357 7      1036.184          45.000    19346468.531 6  80549134.016 6       805.921          41.000
R13  19270519.625 6 102903506.171 6      1026.676          41.000    19270521.820 7  80036039.676 7       798.526          44.000
R14  22302202.086 5 118883267.320 5      4078.449          33.000    22302208.852 5  92464768.419 5      3172.127          32.000
C05                                                                  39796251.422 6 160243006.445 6        -2.407          41.000
C24  22300073.672 8 116122354.380 8      1563.238          51.000
C26  22040979.375 8 114773201.574 8     -1445.914          49.000
E01  24025191.398 8 126253248.023 8       708.367          51.000    24025192.383 8  96739526.810 8       542.784          51.000
E04  23433467.250 8 123143687.248 8       -41.211          51.000    23433466.844 8  94356836.848 8       -31.595          51.000
> 2020 05 10 03 14  0.0000000  0 16        .000000000000
G05  20577230.102 8 108134077.839 8      -365.766          51.000    20577228.844 8  84260286.302 8      -285.012          51.000
G07  22118008.875 6 116230931.399 6     -2259.297          37.000    22118003.703 6  90569538.465 6     -1760.491          37.000
G13  21668996.367 5 113871356.912 5      2236.641          33.000
G28  22139247.062 7 116342602.760 7      2617.016          47.000    22139246.492 7  90656570.590 7      2039.233          45.000
G30  20443612.219 8 107431927.968 8      -664.906          51.000    20443613.148 8  83713205.203 8      -518.109          51.000
R02  20621812.375 8 110041940.347 8     -2606.461          51.000    20621815.023 8  85588158.444 8     -2027.247          49.000
R03  19340705.312 7 103532294.326 7      1023.379          46.000    19340705.922 6  80525142.664 6       795.961          41.000
R12  20850934.180 5 111381944.386 5     -3101.973          31.000
R13  19264816.023 6 102873046.587 6      1006.887          39.000    19264817.703 7  80012348.878 7       783.134          43.000
R14  22279269.281 5 118761014.404 5      4074.465          33.000    22279273.344 5  92369682.858 5      3169.031          32.000
C05  39796266.289 6 207229601.230 6         1.723          36.000    39796264.703 6 160243059.901 6         1.151          41.000
C24  22291101.258 8 116075633.412 8      1554.664          51.000
C26  22049340.508 8 114816738.884 8     -1453.297          49.000
E01  24021183.008 8 126232183.224 8       698.996          51.000    24021184.570 8  96723386.239 8       535.591          51.000
E04  23433720.594 8 123145017.724 8       -44.465          51.000    23433720.125 8  94357856.314 8       -34.079          51.000
E31  26017266.227 7 136721652.197 7      2950.672          45.000    26017268.625 7 104760757.511 7      2260.946          45.000
> 2020 05 10 03 14 30.0000000  0 18        .000000000000
G05  20579360.781 8 108145273.746 8      -383.992          51.000    20579359.500 8  84269010.369 8      -299.215          51.000
G07  22130915.250 5 116298754.777 5     -2265.727          35.000    22130909.453 5  90622387.821 5     -1765.501          35.000
G09  24427670.688 5 128368291.986 5     -3048.941          34.000
G13  21656235.805 6 113804276.698 6      2231.480          36.000
G28  22124328.727 7 116264202.870 7      2606.336          47.000    22124327.789 7  90595479.781 7      2030.911          46.000
G30  20447434.016 8 107452011.641 8      -677.465          51.000    20447435.008 8  83728854.816 8      -527.892          51.000
R02  20636495.031 8 110120288.168 8     -2620.105          51.000    20636497.391 8  85649095.625 8     -2037.860          49.000
R03  19335006.125 7 103501786.926 7      1007.043          46.000    19335006.898 7  80501414.705 7       783.256          42.000
R12  20868386.234 6 111475141.813 6     -3116.613          37.000    20868358.305 4  86702823.480 4     -2424.036          27.000
R13  19259214.945 6 102843138.050 6       983.461          40.000    19259216.516 7  79989086.678 7       764.914          43.000
R14  22256353.070 5 118638855.226 5      4066.148          34.000    22256356.281 4  92274670.162 4      3162.563          29.000
C05  39796242.906 6 207229479.149 6         3.414          36.000    39796241.258 6 160242965.505 6         2.238          41.000
C24  22282169.391 8 116029122.793 8      1542.727          51.000
C26  22057734.852 8 114860451.750 8     -1464.152          48.000
E01  24017219.117 8 126211353.520 8       686.152          51.000    24017221.188 8  96707425.823 8       525.750          51.000
E04  23433983.195 8 123146397.450 8       -51.043          51.000    23433982.844 8  94358913.515 8       -39.081          51.000
E19  26711535.398 5 140370066.868 5     -2227.016          32.000
E31  26000425.047 7 136633145.925 7      2946.117          47.000    26000426.672 7 104692941.011 7      2257.492          47.000
> 2020 05 10 03 15  0.0000000  0 15        .000000000000
G05  20581616.164 8 108157125.380 8      -402.766          51.000    20581614.719 8  84278245.393 8      -313.843          51.000
G07  22143876.555 5 116366868.056 5     -2272.090          33.000    22143872.172 5  90675463.133 5     -1770.463          33.000
G28  22109491.164 7 116186228.649 7      2595.281          47.000    22109489.867 7  90534720.677 7      2022.300          46.000
G30  20451347.898 8 107472580.535 8      -690.488          51.000    20451349.188 8  83744882.535 8      -538.043          51.000
R02  20651274.914 8 110199154.162 8     -2634.266          51.000    20651277.195 8  85710435.821 8     -2048.873          49.000
R03  19329419.805 7 103471883.625 7       989.953          46.000    19329421.172 7  80478156.575 7       769.964          43.000
R12  20885934.562 6 111568894.274 6     -3130.391          37.000    20885907.641 4  86775712.871 4     -2434.754          25.000
R13  19253766.133 6 102814043.158 6       959.621          40.000    19253767.836 7  79966457.330 7       746.372          43.000
R14  22233502.086 5 118517054.640 5      4057.387          33.000
C05  39796231.898 6 207229422.004 6         4.098          36.000    39796230.281 6 160242921.295 6         3.008          41.000
C24  22273327.023 8 115983079.169 8      1530.203          51.000
C26  22066212.148 8 114904594.684 8     -1475.359          48.000
E01  24013349.367 8 126191017.560 8       672.965          51.000    24013351.430 8  96691843.721 8       515.592          51.000
E04  23434304.258 8 123148085.474 8       -58.098          51.000    23434304.188 8  94360206.945 8       -44.582          51.000
E31  25983630.062 8 136544884.836 8      2941.309          48.000    25983631.117 7 104625312.390 7      2253.580          47.000
> 2020 05 10 03 15 30.0000000  0 16        .000000000000
G05  20583975.039 8 108169520.954 8      -426.086          51.000    20583973.367 8  84287904.290 8      -332.015          51.000
G07  22156871.289 6 116435158.188 6     -2282.777          38.000    22156869.203 6  90728676.270 6     -1778.784          37.000
G28  22094713.688 8 116108571.385 8      2579.391          49.000    22094711.812 7  90474208.552 7      2009.918          45.000
G30  20455332.789 8 107493521.944 8      -708.258          51.000    20455334.406 8  83761200.504 8      -551.889          51.000
R02  20666130.492 8 110278425.052 8     -2653.047          51.000    20666132.289 8  85772090.953 8     -2063.481          48.000
R03  19323925.742 7 103442473.318 7       968.172          47.000    19323927.148 7  80455281.878 7       753.023          43.000
R12  20903562.305 5 111663046.732 5     -3148.680          35.000
R13  19248448.688 6 102785648.721 6       930.914          41.000    19248450.117 7  79944372.777 7       724.044          42.000
R14  22210696.594 5 118395502.492 5      4044.152          33.000    22210703.680 4  92085425.163 4      3145.449          28.000
C05  39796212.164 6 207229319.193 6          .434          36.000    39796210.570 6 160242841.799 6          .142          41.000
C24  22264553.273 8 115937392.449 8      1513.113          51.000
C26  22074750.617 7 114949055.557 7     -1491.180          47.000
E01  24009552.492 8 126171063.992 8       654.879          51.000    24009554.383 8  96676554.622 8       501.778          51.000
E04  23434662.727 8 123149970.828 8       -70.066          51.000    23434662.992 8  94361651.573 8       -53.624          51.000
E21  25998194.617 5 136621434.686 5     -2044.512          33.000
E31  25966860.469 8 136456758.933 8      2931.395          48.000    25966860.914 8 104557787.345 8      2246.205          48.000
> 2020 05 10 03 16  0.0000000  0 16        .000000000000
G05  20586483.055 8 108182701.084 8      -445.176          51.000    20586481.555 8  84298174.516 8      -346.890          51.000
G07  22169945.422 6 116503864.159 6     -2289.945          41.000    22169944.664 5  90782213.360 5     -1784.373          34.000
G28  22080042.750 8 116031473.813 8      2567.848          51.000    22080040.555 7  90414132.559 7      2000.920          46.000
G30  20459434.055 8 107515075.015 8      -721.277          51.000    20459435.906 8  83777995.099 8      -562.034          51.000
R02  20681107.141 8 110358343.255 8     -2667.219          51.000    20681108.867 8  85834249.528 8     -2074.507          48.000
R03  19318570.023 8 103413802.715 8       950.754          48.000    19318571.156 7  80432982.544 7       739.475          44.000
R12  20921315.383 5 111757862.158 5     -3162.844          35.000    20921287.953 4  86922706.122 4     -2459.990          27.000
