     3.02           OBSERVATION DATA    M (MIXED)           RINEX VERSION / TYPE
SAVERINEX           SC600               20200508 015932 LCL PGM / RUN BY / DATE
       G = GPS       R = GLONASS       C = COMPASS          COMMENT
       S = SBAS      J = QZSS          E = GALILEO          COMMENT
BEAN                                                        MARKER NAME
1                                                           MARKER NUMBER
GEODETIC                                                    MARKER TYPE
Unige DICCA         GTER                                    OBSERVER / AGENCY
SC60291900056       SC600               2.12(191226)        REC # / TYPE / VERS
                    HEMA45          NONE                    ANT # / TYPE
  4509407.8091   693652.4678  4442337.6214                  APPROX POSITION XYZ
        0.0000        0.0000        0.0000                  ANTENNA: DELTA H/E/N
G    8 C1C L1C D1C S1C C2Y L2Y D2Y S2Y                      SYS / # / OBS TYPES
R    8 C1C L1C D1C S1C C2P L2P D2P S2P                      SYS / # / OBS TYPES
C    8 C1I L1I D1I S1I C7I L7I D7I S7I                      SYS / # / OBS TYPES
E    8 C1C L1C D1C S1C C7Q L7Q D7Q S7Q                      SYS / # / OBS TYPES
DBHZ                                                        COMMENT
     30.000                                                 INTERVAL
  2020    05    07    23    00    0.0000000     GPS         TIME OF FIRST OBS
  2020    05    07    23    59   30.0000000     GPS         TIME OF LAST OBS
     0                                                      RCV CLOCK OFFS APPL
G L1C  0.00000                                              SYS / PHASE SHIFT
G L2Y  0.00000                                              SYS / PHASE SHIFT
R L1C  0.00000                                              SYS / PHASE SHIFT
R L2P  0.25000                                              SYS / PHASE SHIFT
C L1I  0.00000                                              SYS / PHASE SHIFT
C L7I  0.00000                                              SYS / PHASE SHIFT
E L1C  0.50000                                              SYS / PHASE SHIFT
E L7Q -0.25000                                              SYS / PHASE SHIFT
 13 R05  1 R06 -4 R07  5 R08  6 R09 -2 R10 -5 R14 -7 R15  0 GLONASS SLOT / FRQ #
    R16 -1 R19  3 R20  2 R21  4 R22 -3                      GLONASS SLOT / FRQ #
 C1C   71.950 C2C   71.950 C2P   71.950                     GLONASS COD/PHS/BIS
    18                                                      LEAP SECONDS
*** Above antenna height is from mark to ANTENNA BOTTOM.    COMMENT
    17     4        0.0000        ANT MEASURE TYPE/HEIGT    COMMENT
    0.0000    0.0000    0.0458    0.0405    0.0000          COMMENT
                    BASE STATION                            COMMENT
                                                            END OF HEADER
> 2020 05 07 23 00  0.0000000  0 16        .000000000000
G01  24391608.266 6 128178740.052 6     -3743.934          36.000    24391612.227 6  99879548.942 6     -2917.348          36.000
G03  21497451.805 5 112969891.267 5     -1954.902          35.000    21497452.203 5  88028470.628 5     -1523.301          35.000
G04  20290323.594 8 106626436.591 8      -474.566          51.000    20290323.961 8  83085511.105 8      -369.792          51.000
G09  20950137.492 8 110093806.981 8      1841.023          51.000    20950137.969 8  85787361.259 8      1434.564          51.000
G17  23186085.547 7 121843693.048 7     -2432.383          47.000    23186083.922 7  94943108.952 7     -1895.363          45.000
G19  22662867.336 6 119094162.425 6     -1857.023          41.000    22662865.695 4  92800644.544 4     -1447.028          25.000
R06  20465200.406 5 109206223.008 5     -2157.129          31.000
R08  22834009.133 5 122275097.934 5      2941.031          34.000
R21  21880668.680 6 117087856.443 6     -4226.266          40.000    21880664.922 5  91068325.526 5     -3287.095          32.000
R22  19925980.125 6 106366291.501 6      -635.766          40.000    19925980.375 6  82729287.412 6      -494.487          38.000
C14  22312372.219 6 116186388.068 6     -1444.344          40.000    22312371.516 7  89842713.804 7     -1116.837          42.000
C28  23252973.078 8 121084358.860 8     -2059.664          49.000
E03  23706480.266 8 124578413.565 8     -1029.531          51.000    23706482.758 8  95456237.210 8      -788.841          51.000
E05  27356537.625 5 143759576.520 5     -2502.445          33.000    27356540.820 5 110153445.003 5     -1917.383          33.000
E08  22351734.727 8 117459149.874 8      1399.121          48.000    22351733.289 7  90001254.469 7      1072.018          47.000
E15  23975290.055 8 125991005.814 8     -1958.336          51.000    23975292.891 8  96538554.988 8     -1500.516          51.000
> 2020 05 07 23 00 30.0000000  0 18        .000000000000
G01  24412986.680 6 128291084.785 6     -3747.254          36.000    24412990.242 5  99967090.296 5     -2919.938          35.000
G03  21508632.086 6 113028632.965 6     -1962.715          36.000    21508630.008 6  88074243.484 6     -1529.388          36.000
G04  20293072.031 8 106640879.856 8      -489.809          51.000    20293072.250 8  83096765.591 8      -381.669          51.000
G09  20939660.773 8 110038754.237 8      1827.621          50.000    20939661.531 8  85744463.049 8      1424.123          51.000
G17  23199996.672 7 121916797.856 7     -2442.609          46.000    23199994.859 7  95000073.755 7     -1903.332          46.000
G19  22673513.258 6 119150105.803 6     -1873.949          41.000    22673510.383 5  92844236.770 5     -1460.220          30.000
G22  23566804.906 5 123844396.833 5     -2640.051          34.000
R06  20477343.516 5 109271014.995 5     -2164.109          33.000
R08  22817545.336 5 122186938.331 5      2934.793          31.000    22817556.977 4  95034298.229 4      2282.611          27.000
R21  21904389.852 6 117214779.905 6     -4236.613          38.000    21904382.953 4  91167043.778 4     -3295.144          29.000
R22  19929626.883 6 106385760.858 6      -663.527          41.000    19929629.031 6  82744430.205 6      -516.080          38.000
C14  22320705.531 6 116229783.374 6     -1450.152          39.000    22320705.180 6  89876269.798 6     -1121.283          41.000
C24  24749788.984 5 128878651.550 5      2344.062          32.000
C28  23264871.609 8 121146318.151 8     -2072.344          50.000
E03  23712372.117 8 124609374.486 8     -1035.824          51.000    23712374.375 8  95479960.517 8      -793.692          51.000
E05                                                                  27370821.984 5 110210949.537 5     -1916.871          32.000
E08  22343763.703 7 117417261.414 7      1392.168          47.000    22343761.242 7  89969158.114 7      1066.627          45.000
E15  23986498.000 8 126049904.636 8     -1969.578          51.000    23986500.156 8  96583685.249 8     -1509.151          51.000
> 2020 05 07 23 01  0.0000000  0 17        .000000000000
G01  24434387.016 6 128403545.351 6     -3750.609          37.000    24434390.273 6 100054721.972 6     -2922.553          37.000
G03  21519856.875 5 113087629.619 5     -1971.223          34.000    21519856.977 5  88120214.842 5     -1536.018          33.000
G04  20295910.922 8 106655798.560 8      -505.031          51.000    20295911.219 8  83108390.563 8      -393.531          51.000
G09  20929264.516 8 109984122.811 8      1814.160          51.000    20929265.688 8  85701893.135 8      1413.631          51.000
G17  23213969.242 7 121990224.903 7     -2452.867          47.000    23213967.109 7  95057289.613 7     -1911.325          45.000
G19  22684257.805 7 119206569.686 7     -1890.535          42.000    22684255.758 4  92888234.514 4     -1473.147          28.000
R06  20489529.789 5 109336039.499 5     -2171.148          35.000
R08  22801122.641 4 122098972.790 4      2929.328          28.000
R21  21928173.391 5 117342030.075 5     -4247.016          35.000    21928163.711 4  91266016.092 4     -3303.234          29.000
R22  19933431.438 6 106406075.457 6      -691.297          37.000    19933435.266 6  82760230.428 6      -537.675          36.000
C14  22329074.859 6 116273365.737 6     -1456.066          38.000    22329074.430 6  89909970.418 6     -1125.790          40.000
C24  24736307.508 5 128808462.484 5      2335.195          32.000
C28  23276847.000 8 121208674.363 8     -2085.055          51.000
E03  23718303.102 8 124640541.165 8     -1042.305          51.000    23718305.094 8  95503841.485 8      -798.637          51.000
E05  27385101.797 5 143909681.556 5     -2502.379          34.000    27385106.820 5 110268476.178 5     -1917.282          31.000
E08  22335834.906 7 117375598.117 7      1385.141          45.000    22335831.680 7  89937234.307 7      1061.348          44.000
E15  23997773.500 8 126109158.794 8     -1980.969          51.000    23997775.062 8  96629087.776 8     -1517.918          51.000
> 2020 05 07 23 01 30.0000000  0 18        .000000000000
G01  24455809.984 6 128516124.507 6     -3754.988          37.000    24455813.242 6 100142445.989 6     -2925.965          36.000
G03  21531131.469 6 113146885.337 6     -1979.969          38.000    21531132.711 6  88166388.095 6     -1542.833          39.000
G04  20298841.070 8 106671196.430 8      -521.824          51.000    20298841.289 8  83120388.900 8      -406.616          51.000
G09  20918949.844 8 109929918.157 8      1799.156          51.000    20918951.273 8  85659655.754 8      1401.940          51.000
G17  23228003.523 7 122063975.454 7     -2464.316          47.000    23228001.492 7  95114757.528 7     -1920.250          45.000
G19  22695101.578 6 119263555.263 6     -1908.855          40.000    22695100.133 5  92932638.779 5     -1487.426          30.000
R06  20501760.594 5 109401300.578 5     -2180.781          31.000
R08  22784729.055 5 122011183.134 5      2922.699          33.000
R15  23142733.930 5 123667718.105 5     -1550.059          30.000
R21  21952017.609 6 117469607.554 6     -4258.797          37.000    21952005.406 4  91365242.999 4     -3312.401          29.000
R22  19937395.953 6 106427239.528 6      -720.395          41.000    19937399.734 6  82776691.386 6      -560.304          36.000
C14  22337480.828 6 116317139.551 6     -1463.105          38.000    22337479.750 6  89943819.088 6     -1131.070          39.000
C24  24722887.805 5 128738573.264 5      2324.031          33.000
C28  23288899.023 8 121271430.212 8     -2099.051          50.000
E03  23724273.961 8 124671917.543 8     -1049.867          51.000    23724275.703 8  95527883.127 8      -804.453          51.000
E05  27399389.758 5 143984764.871 5     -2504.070          33.000
E08  22327949.594 7 117334164.626 7      1376.895          44.000    22327947.109 7  89905486.622 7      1054.960          44.000
E15  24009117.281 8 126168771.994 8     -1993.648          51.000    24009118.195 8  96674765.403 8     -1527.595          51.000
> 2020 05 07 23 02  0.0000000  0 19        .000000000000
G01  24477248.289 6 128628784.461 6     -3757.660          38.000    24477251.508 6 100230232.955 6     -2928.047          39.000
G03  21542449.828 6 113206363.845 6     -1987.102          36.000    21542451.156 6  88212735.015 6     -1548.391          36.000
G04  20301855.320 8 106687036.277 8      -536.047          51.000    20301855.328 8  83132731.639 8      -417.699          51.000
G09  20908709.805 8 109876104.903 8      1786.477          51.000    20908710.844 8  85617723.352 8      1392.057          51.000
G17  23242092.008 7 122138011.150 7     -2473.488          46.000    23242090.703 7  95172447.643 7     -1927.397          46.000
G19  22706036.633 6 119321024.769 6     -1924.160          36.000    22706035.688 5  92977420.263 5     -1499.343          31.000
G22  23612135.367 5 124082613.721 5     -2653.836          31.000
R06  20514027.672 5 109466760.221 5     -2185.953          32.000
R07  19819557.391 5 106095647.785 5       758.914          33.000
R08  22768364.773 5 121923549.438 5      2918.227          31.000
R15  23151490.727 5 123714528.602 5     -1572.660          33.000
R21  21975913.000 6 117597471.335 6     -4267.695          40.000    21975901.156 5  91464692.544 5     -3319.319          31.000
R22  19941512.016 5 106449215.777 5      -746.965          35.000    19941515.906 6  82793784.047 6      -580.976          37.000
C14  22345917.070 6 116361068.518 6     -1467.750          38.000    22345915.633 7  89977787.795 7     -1134.873          42.000
C24  24709519.703 5 128668950.648 5      2315.641          32.000
C28  23301019.789 8 121334548.104 8     -2110.645          49.000
E03  23730277.641 8 124703466.843 8     -1055.230          51.000    23730279.203 8  95552057.270 8      -808.553          51.000
E08  22320101.539 7 117292925.022 7      1370.746          45.000    22320100.789 7  89873887.439 7      1050.390          44.000
E15  24020522.055 8 126228707.141 8     -2003.891          51.000    24020522.695 8  96720689.738 8     -1535.446          51.000
> 2020 05 07 23 02 30.0000000  0 17        .000000000000
G01  24498717.961 6 128741606.647 6     -3764.195          39.000    24498720.891 6 100318146.309 6     -2933.139          38.000
G03  21553826.250 5 113266120.868 5     -1998.426          35.000    21553828.367 5  88259320.678 5     -1557.224          35.000
G04  20304969.188 8 106703400.409 8      -555.145          51.000    20304969.258 8  83145482.921 8      -432.580          51.000
G09  20898560.281 8 109822767.114 8      1769.062          51.000    20898560.508 8  85576161.420 8      1378.490          51.000
G17  23256249.891 7 122212412.635 7     -2487.238          43.000    23256249.844 7  95230422.860 7     -1938.108          43.000
G19  22717078.359 5 119379058.674 5     -1944.680          35.000
R06  20526347.125 5 109532501.945 5     -2196.707          33.000
R07  19815351.469 4 106073148.023 4       743.449          29.000    19815344.805 4  82501316.806 4       578.241          26.000
R08  22752042.836 5 121836154.139 5      2908.180          35.000    22752063.398 3  94761519.901 3      2261.914          23.000
R21  21999874.789 6 117725702.337 6     -4281.234          41.000    21999864.508 5  91564427.669 5     -3329.849          30.000
R22  19945796.664 6 106472088.246 6      -778.215          38.000    19945801.086 6  82811573.699 6      -605.278          39.000
C14  22354398.891 6 116405235.053 6     -1477.461          38.000    22354397.844 7  90011940.058 7     -1142.137          42.000
C24  24696217.750 5 128599679.799 5      2301.914          31.000
C28  23313225.312 8 121398108.668 8     -2126.875          49.000
E03  23736329.953 8 124735271.650 8     -1065.332          51.000    23736331.266 8  95576427.187 8      -816.281          51.000
E08  22312306.422 7 117251962.633 7      1360.039          45.000    22312307.203 7  89842500.645 7      1042.012          45.000
E15  24032003.594 8 126289046.582 8     -2018.914          51.000    24032004.883 8  96766923.856 8     -1546.954          51.000
> 2020 05 07 23 03  0.0000000  0 16        .000000000000
G01  24520199.328 6 128854489.867 6     -3763.336          40.000    24520201.922 6 100406107.267 6     -2932.470          40.000
G03  21565242.344 6 113326111.065 6     -2002.844          40.000    21565243.000 6  88306066.162 6     -1560.654          40.000
G04  20308163.812 8 106720188.374 8      -566.262          51.000    20308163.836 8  83158564.454 8      -441.243          51.000
G09  20888482.445 8 109769806.158 8      1759.449          51.000    20888482.312 8  85534893.131 8      1370.999          51.000
G17  23270457.672 7 122287077.549 7     -2492.805          45.000    23270458.703 7  95288603.370 7     -1942.445          45.000
G19  22728209.180 6 119437555.027 6     -1957.234          38.000    22728217.734 4  93068254.186 4     -1525.115          26.000
R06  20538700.555 5 109598423.534 5     -2200.512          32.000
R08  22735748.219 6 121748896.545 6      2906.516          36.000    22735753.984 4  94693599.719 4      2260.623          25.000
R21  22023884.234 7 117854195.167 7     -4287.016          43.000    22023876.406 4  91664366.508 4     -3334.345          29.000
R22  19950230.898 6 106495755.133 6      -801.773          40.000    19950235.484 6  82829981.239 6      -623.602          38.000
C14  22362907.328 6 116449540.303 6     -1478.711          39.000    22362906.977 7  90046199.695 7     -1143.370          42.000
C24  24682962.469 5 128530664.568 5      2296.977          30.000
C28  23325497.273 8 121462011.669 8     -2135.379          50.000
E03  23742411.883 8 124767231.926 8     -1067.453          51.000    23742412.984 8  95600916.226 8      -817.931          51.000
E08  22304545.336 7 117211178.154 7      1356.922          45.000    22304546.977 7  89811250.178 7      1039.797          45.000
E15  24043543.180 8 126349690.027 8     -2026.043          51.000    24043545.258 8  96813390.911 8     -1552.414          51.000
> 2020 05 07 23 03 30.0000000  0 15        .000000000000
G01  24541696.383 6 128967455.524 6     -3767.062          41.000    24541698.836 6 100494132.499 6     -2935.373          41.000
G03  21576702.273 6 113386330.995 6     -2010.902          39.000    21576701.648 6  88352990.763 6     -1566.937          39.000
G04  20311443.297 8 106737422.373 8      -582.109          50.000    20311443.211 8  83171993.548 8      -453.592          50.000
G09  20878480.930 8 109717245.958 8      1745.223          51.000    20878480.906 8  85493937.133 8      1359.914          51.000
G17  23284719.961 8 122362026.710 8     -2503.246          48.000    23284721.023 7  95347005.340 7     -1950.581          42.000
G19  22739433.117 6 119496534.815 6     -1974.410          39.000    22739441.375 5  93114212.504 5     -1538.508          31.000
R08  22719472.266 5 121661793.727 5      2900.062          34.000    22719482.547 4  94625842.459 4      2255.604          27.000
R21  22047946.805 7 117982969.429 7     -4297.418          44.000    22047942.414 5  91764524.234 5     -3342.439          32.000
R22  19954818.383 6 106520239.396 6      -830.113          40.000    19954822.117 6  82849024.613 6      -645.644          36.000
C14  22371447.383 6 116494007.026 6     -1485.070          40.000    22371446.875 7  90080584.204 7     -1148.308          44.000
C24  24669760.852 5 128461930.614 5      2285.938          32.000
C28  23337839.523 8 121526278.214 8     -2148.504          49.000
E03  23748527.680 8 124799370.196 8     -1074.398          51.000    23748528.750 8  95625541.652 8      -823.243          51.000
E08  22296822.906 7 117170594.837 7      1349.301          45.000    22296824.312 7  89780153.874 7      1033.973          45.000
E15  24055145.109 8 126410659.711 8     -2037.980          51.000    24055147.508 8  96860107.936 8     -1561.534          51.000
> 2020 05 07 23 04  0.0000000  0 15        .000000000000
G01  24563211.289 6 129080515.629 6     -3769.812          40.000    24563214.023 6 100582231.291 6     -2937.519          40.000
G03  21588207.984 6 113446793.898 6     -2019.211          39.000    21588207.953 6  88400104.628 6     -1573.411          39.000
G04  20314810.109 8 106755115.131 8      -596.891          51.000    20314810.039 8  83185780.111 8      -465.110          51.000
G09  20868558.273 8 109665101.008 8      1731.828          51.000    20868558.758 8  85453304.723 8      1349.476          51.000
G17  23299038.547 7 122437271.138 7     -2512.578          47.000    23299038.766 6  95405637.350 6     -1957.856          40.000
G19  22750751.211 6 119556009.120 6     -1990.379          40.000    22750759.133 4  93160556.181 4     -1550.935          29.000
R07  19803096.523 5 106007525.232 5       711.582          31.000    19803090.977 5  82450274.056 5       553.453          30.000
R21  22072064.688 7 118112035.012 7     -4306.391          43.000    22072063.594 5  91864908.571 5     -3349.415          34.000
R22  19959560.953 6 106545553.966 6      -857.129          40.000    19959565.414 6  82868713.699 6      -666.656          36.000
C14  22380021.109 6 116538648.658 6     -1490.406          41.000    22380019.773 7  90115103.951 7     -1152.513          43.000
C24  24656617.953 5 128393494.086 5      2276.707          35.000
C28  23350253.750 8 121590920.082 8     -2160.375          50.000
E03  23754679.781 8 124831699.567 8     -1080.398          51.000    23754680.992 8  95650313.503 8      -827.787          51.000
E08  22289141.438 7 117130226.501 7      1342.609          45.000    22289142.289 7  89749222.325 7      1028.615          45.000
E15  24066812.078 8 126471968.421 8     -2048.742          51.000    24066814.180 8  96907084.724 8     -1569.836          51.000
> 2020 05 07 23 04 30.0000000  0 16        .000000000000
G01  24584743.453 6 129193667.356 6     -3773.141          39.000    24584746.352 6 100670401.462 6     -2940.110          39.000
G03  21599759.820 7 113507498.310 7     -2027.602          42.000    21599759.531 6  88447406.705 6     -1579.949          41.000
G04  20318263.836 8 106773264.556 8      -612.824          51.000    20318263.922 8  83199922.526 8      -477.525          51.000
G09  20858714.148 8 109613371.019 8      1717.258          51.000    20858715.195 8  85412995.642 8      1338.123          51.000
G17  23313412.516 7 122512806.902 7     -2522.910          46.000    23313410.906 6  95464496.349 6     -1965.907          39.000
G19  22762162.297 6 119615974.340 6     -2007.250          41.000    22762170.273 5  93207282.380 5     -1564.082          32.000
R06  20575995.461 4 109797448.969 4     -2222.824          29.000
R08  22687047.594 5 121488104.548 5      2888.180          30.000    22687050.086 5  94490759.015 5      2246.368          30.000
R21  22096236.672 7 118241386.843 7     -4316.516          42.000    22096237.984 5  91965515.547 5     -3357.290          34.000
R22  19964459.109 6 106571697.138 6      -885.430          40.000    19964462.438 5  82889047.275 5      -688.668          34.000
C14  22388627.945 6 116583463.877 6     -1496.785          40.000    22388625.898 7  90149757.913 7     -1157.412          44.000
C24  24643531.969 5 128325356.600 5      2266.504          33.000
C28  23362739.023 8 121655934.337 8     -2173.602          48.000
E03  23760867.930 8 124864218.322 8     -1087.262          51.000    23760869.195 8  95675230.471 8      -833.091          51.000
E08  22281500.266 7 117090072.331 7      1334.711          43.000    22281500.969 7  89718454.817 7      1022.728          45.000
E15  24078543.594 8 126533614.147 8     -2060.586          51.000    24078545.234 8  96954319.739 8     -1578.914          51.000
> 2020 05 07 23 05  0.0000000  0 16        .000000000000
G01  24606293.711 6 129306914.512 6     -3776.094          40.000    24606296.719 6 100758646.003 6     -2942.411          40.000
G03  21611358.734 7 113568449.463 7     -2035.766          42.000    21611360.586 7  88494901.122 7     -1586.311          42.000
G04  20321805.258 8 106791875.202 8      -627.844          51.000    20321805.445 8  83214424.322 8      -489.229          51.000
G09  20848949.969 8 109562062.297 8      1703.441          51.000    20848951.359 8  85373014.832 8      1327.357          51.000
G17  23327842.562 7 122588636.892 7     -2532.391          46.000    23327838.859 6  95523584.661 6     -1973.291          39.000
G19  22773667.219 7 119676433.377 7     -2023.449          42.000
R06  20588507.195 5 109864230.031 5     -2229.574          33.000
R08  22670880.438 4 121401542.748 4      2881.969          29.000    22670886.820 4  94423433.278 4      2241.531          29.000
R21  22120463.102 6 118371026.832 6     -4326.039          40.000    22120465.766 5  92066346.714 5     -3364.694          34.000
R22  19969512.117 5 106598673.625 5      -913.117          34.000    19969516.609 5  82910028.989 5      -710.202          34.000
C14  22397268.922 6 116628457.929 6     -1502.605          39.000    22397266.375 7  90184550.133 7     -1161.883          44.000
C24  24630503.594 5 128257526.184 5      2255.953          32.000
C28  23375295.461 7 121721324.619 7     -2185.797          47.000
E03  23767093.062 8 124896931.421 8     -1093.406          51.000    23767094.250 8  95700296.354 8      -837.802          51.000
E08  22273900.656 7 117050137.934 7      1327.637          42.000    22273901.680 7  89687855.658 7      1017.304          45.000
E15  24090340.180 8 126595601.501 8     -2071.676          51.000    24090341.500 8  97001816.517 8     -1587.415          51.000
> 2020 05 07 23 05 30.0000000  0 16        .000000000000
G01  24627860.344 6 129420248.540 6     -3778.781          39.000    24627863.930 6 100846958.229 6     -2944.508          39.000
G03  21623002.766 6 113629640.913 6     -2043.500          40.000    21623007.359 6  88542582.653 6     -1592.341          41.000
G04  20325432.961 8 106810939.226 8      -642.637          50.000    20325433.195 8  83229279.416 8      -500.756          50.000
G09  20839264.820 8 109511168.805 8      1689.906          51.000    20839266.523 8  85333357.600 8      1316.810          51.000
G17  23342326.938 7 122664752.124 7     -2541.387          46.000    23342322.359 6  95582895.225 6     -1980.301          39.000
G19  22785264.508 6 119737377.332 6     -2039.293          40.000    22785257.227 4  93301813.741 4     -1589.059          26.000
R06  20601060.844 6 109931210.226 6     -2235.738          36.000
R08  22654749.828 5 121315147.832 5      2876.910          30.000    22654745.703 4  94356219.745 4      2237.597          24.000
R21  22144741.352 6 118500943.703 6     -4334.699          40.000    22144745.719 5  92167393.202 5     -3371.433          33.000
R22  19974719.297 6 106626475.727 6      -940.332          38.000    19974724.617 5  82931652.854 5      -731.366          34.000
C14  22405942.031 6 116673623.923 6     -1508.344          37.000    22405939.969 7  90219475.306 7     -1166.042          45.000
C24  24617535.031 6 128189998.817 6      2245.887          36.000
C28  23387924.016 8 121787082.450 8     -2197.633          48.000
E03  23773353.773 8 124929831.458 8     -1099.457          51.000    23773354.914 8  95725505.476 8      -842.435          51.000
E08  22266342.445 7 117010416.570 7      1320.691          43.000    22266343.266 7  89657419.777 7      1012.132          45.000
E15  24102200.055 8 126657922.768 8     -2082.496          51.000    24102201.117 8  97049569.150 8     -1595.661          51.000
> 2020 05 07 23 06  0.0000000  0 16        .000000000000
G01  24649444.195 6 129533672.605 6     -3782.285          36.000    24649448.422 6 100935340.593 6     -2947.235          37.000
G03  21634693.688 6 113691076.911 6     -2051.891          41.000    21634699.664 6  88590455.060 6     -1598.864          37.000
G04  20329147.727 8 106830460.510 8      -658.383          50.000    20329147.945 8  83244490.812 8      -513.026          50.000
G09  20829659.914 8 109460696.150 8      1675.359          51.000    20829661.969 8  85294028.266 8      1305.475          51.000
G17  23356865.906 8 122741154.287 8     -2551.574          48.000    23356861.812 6  95642429.332 6     -1988.240          40.000
G19  22796954.344 6 119798808.391 6     -2055.715          39.000    22796947.000 4  93349682.063 4     -1601.850          29.000
R06  20613653.336 6 109998404.150 6     -2243.254          38.000
R08  22638656.367 5 121228977.859 5      2870.465          34.000    22638673.172 4  94289228.254 4      2232.581          26.000
R21  22169072.516 6 118631138.471 6     -4344.508          40.000    22169077.539 4  92268655.881 4     -3379.059          27.000
R22  19980082.562 6 106655107.658 6      -968.008          36.000    19980089.391 5  82953922.126 5      -752.901          34.000
C14  22414648.281 5 116718966.494 5     -1514.445          35.000    22414647.438 7  90254537.008 7     -1170.905          44.000
C24  24604627.414 5 128122781.595 5      2235.539          35.000
C28  23400624.195 8 121853210.831 8     -2210.484          49.000
E03  23779650.828 8 124962922.668 8     -1106.234          51.000    23779652.039 8  95750861.076 8      -847.622          51.000
E08  22258826.125 7 116970913.219 7      1313.199          42.000    22258826.102 7  89627150.993 7      1006.167          44.000
E15  24114123.766 8 126720581.840 8     -2094.316          51.000    24114124.656 8  97097580.647 8     -1604.688          51.000
> 2020 05 07 23 06 30.0000000  0 16        .000000000000
G01  24671043.766 5 129647177.596 5     -3785.707          34.000    24671047.422 5 101023785.917 5     -2949.914          33.000
G03  21646429.734 6 113752750.282 6     -2060.410          37.000    21646442.750 5  88638512.144 5     -1605.517          35.000
G04  20332947.789 8 106850430.613 8      -673.398          50.000    20332948.055 8  83260051.921 8      -524.726          50.000
G09  20820134.039 8 109410637.706 8      1661.281          51.000    20820136.367 8  85255021.674 8      1294.505          51.000
G17  23371457.578 8 122817833.583 8     -2560.941          48.000    23371454.602 6  95702179.357 6     -1995.542          41.000
G19  22808734.758 6 119860716.501 6     -2072.078          39.000    22808729.211 5  93397922.163 5     -1614.594          35.000
R06  20626283.859 6 110065803.299 6     -2250.336          37.000
R08  22622593.727 5 121142947.446 5      2864.297          32.000    22622606.492 5  94222315.622 5      2227.783          30.000
R21  22193452.656 6 118761599.642 6     -4353.699          38.000    22193459.125 4  92370125.767 4     -3386.211          26.000
R22  19985599.836 6 106684560.648 6      -995.859          40.000    19985606.094 5  82976829.952 5      -774.557          33.000
C14  22423387.500 6 116764478.077 6     -1520.477          36.000    22423387.141 7  90289729.439 7     -1175.572          44.000
C24  24591778.523 6 128055870.081 6      2225.020          38.000
C28  23413393.625 8 121919700.513 8     -2222.512          50.000
E03  23785982.766 8 124996197.083 8     -1112.555          51.000    23785983.977 8  95776357.058 8      -852.498          51.000
E08  22251349.047 6 116931620.667 6      1305.902          40.000    22251347.859 7  89597043.766 7      1000.498          42.000
E15  24126109.656 8 126783570.355 8     -2105.504          51.000    24126110.875 8  97145844.592 8     -1613.362          51.000
> 2020 05 07 23 07  0.0000000  0 17        .000000000000
G01  24692656.203 5 129760743.314 5     -3784.062          30.000
G03  21658207.438 6 113814642.158 6     -2064.539          38.000    21658217.961 6  88686797.971 6     -1608.735          39.000
G04  20336829.539 8 106870830.029 8      -684.930          50.000    20336829.938 8  83275947.584 8      -533.711          50.000
G09  20810683.758 8 109360975.745 8      1651.023          51.000    20810685.742 8  85216324.044 8      1286.512          51.000
G17  23386098.125 8 122894768.873 8     -2566.320          48.000    23386096.070 6  95762128.905 6     -1999.730          41.000
G19  22820602.078 6 119923080.673 6     -2084.043          38.000    22820598.234 5  93446517.580 5     -1623.930          33.000
R06  20638948.672 5 110133388.135 5     -2253.777          35.000
R08  22606557.852 5 121057073.198 5      2862.453          32.000    22606567.773 5  94155524.290 5      2226.349          33.000
R15  23246369.164 5 124221494.529 5     -1802.344          33.000
R21  22217877.680 5 118892304.606 5     -4358.559          34.000    22217883.867 4  92471785.163 4     -3389.990          25.000
R22  19991269.047 7 106714815.055 7     -1019.336          42.000    19991272.094 5  83000361.138 5      -792.820          34.000
C14  22432156.562 6 116810140.129 6     -1522.449          38.000    22432155.812 7  90325038.266 7     -1177.203          45.000
C24  24578985.867 6 127989248.462 6      2217.973          38.000
C28  23426227.891 8 121986531.384 8     -2231.098          50.000
E03  23792345.898 8 125029635.671 8     -1115.066          51.000    23792347.125 8  95801978.842 8      -854.458          51.000
E08  22243907.711 6 116892520.622 6      1302.441          41.000    22243904.758 6  89567084.062 6       997.846          41.000
E15  24138154.016 8 126846868.933 8     -2112.949          50.000    24138156.508 8  97194346.118 8     -1618.947          51.000
> 2020 05 07 23 07 30.0000000  0 17        .000000000000
G01  24714285.703 5 129874433.640 5     -3790.793          32.000
G03  21670031.656 6 113876775.893 6     -2076.055          37.000    21670037.016 6  88735213.862 6     -1617.708          37.000
G04  20340797.469 8 106891681.248 8      -703.418          51.000    20340797.859 8  83292195.281 8      -548.118          51.000
G09  20801313.570 8 109311734.428 8      1633.477          51.000    20801314.359 8  85177954.205 8      1272.839          51.000
G17  23400791.141 7 122971980.816 7     -2579.129          47.000    23400789.898 7  95822294.060 7     -2009.711          44.000
G19  22832560.570 6 119985921.968 6     -2103.582          36.000    22832558.531 5  93495484.844 5     -1639.158          33.000
R06  20651652.812 6 110201181.125 6     -2264.215          37.000
R08  22590557.906 6 120971379.606 6      2852.055          36.000    22590563.250 5  94088873.674 5      2218.268          30.000
R15  23256568.328 5 124276000.636 5     -1829.418          32.000
R21  22242349.094 5 119023272.821 5     -4370.715          32.000    22242347.516 4  92573697.442 4     -3399.439          27.000
R22  19997092.562 7 106745893.779 7     -1050.660          43.000    19997092.953 5  83024533.432 5      -817.183          35.000
C14  22440959.336 6 116855975.915 6     -1531.406          38.000    22440958.305 7  90360481.411 7     -1184.259          45.000
C24  24566253.938 6 127922942.676 6      2204.199          38.000
C28  23439131.414 8 122053724.828 8     -2246.789          49.000
E03  23798744.602 8 125063261.322 8     -1124.809          51.000    23798745.938 8  95827743.957 8      -861.809          51.000
E08  22236507.938 7 116853636.713 7      1291.695          43.000    22236503.867 7  89537289.902 7       989.621          42.000
E15  24150261.703 8 126910500.082 8     -2127.363          50.000    24150265.609 8  97243102.474 8     -1630.055          51.000
> 2020 05 07 23 08  0.0000000  0 17        .000000000000
G01  24735933.750 5 129988188.356 5     -3792.812          31.000
G03  21681907.117 5 113939177.297 5     -2083.277          35.000    21681908.938 5  88783838.299 5     -1623.333          35.000
G04  20344856.031 8 106913008.996 8      -717.559          50.000    20344856.352 8  83308814.316 8      -559.134          50.000
G09  20792028.469 8 109262940.351 8      1620.367          51.000    20792028.336 8  85139932.842 8      1262.624          51.000
G17  23415540.969 7 123049492.713 7     -2587.422          45.000    23415540.812 7  95882692.913 7     -2016.173          45.000
G19  22844613.727 5 120049263.456 5     -2118.309          32.000    22844612.914 5  93544841.852 5     -1650.633          32.000
R06  20664400.609 5 110269207.695 5     -2270.465          35.000
R08  22574595.961 5 120885893.302 5      2847.211          32.000    22574598.195 4  94022384.356 4      2214.507          24.000
R15  23266903.781 5 124331222.208 5     -1851.594          34.000    23266908.156 4  96702124.337 4     -1440.128          25.000
R21  22266875.734 6 119154526.997 6     -4378.848          37.000    22266878.594 5  92675784.038 5     -3405.773          32.000
R22  20003074.906 7 106777821.887 7     -1076.938          43.000    20003073.500 6  83049366.352 6      -837.621          36.000
C14  22449800.133 6 116902010.878 6     -1536.469          39.000    22449799.055 7  90396078.555 7     -1188.183          44.000
C24  24553587.359 5 127856980.790 5      2194.312          35.000
C28  23452108.773 8 122121304.567 8     -2257.797          49.000
E03  23805183.758 8 125097099.306 8     -1130.195          51.000    23805185.250 8  95853671.772 8      -865.985          51.000
E08  22229154.883 7 116814994.795 7      1285.320          44.000    22229151.133 7  89507681.162 7       984.841          43.000
E15  24162438.125 8 126974488.717 8     -2137.570          50.000    24162442.469 8  97292132.713 8     -1637.929          51.000
> 2020 05 07 23 08 30.0000000  0 15        .000000000000
G03  21693830.305 6 114001830.963 6     -2096.062          36.000    21693830.883 6  88832659.277 6     -1633.295          37.000
G04  20349002.258 8 106934797.035 8      -737.570          51.000    20349002.531 8  83325792.017 8      -574.730          51.000
G09  20782825.609 8 109214578.958 8      1601.172          51.000    20782825.797 8  85102248.636 8      1247.666          51.000
G17  23430344.242 7 123127286.546 7     -2601.508          42.000    23430345.375 7  95943311.458 7     -2027.152          42.000
G19  22856759.039 5 120113087.527 5     -2139.031          32.000    22856758.328 5  93594574.906 5     -1666.775          31.000
G22  23811375.570 5 125129622.695 5     -2719.172          32.000
R06  20677188.438 5 110337451.536 5     -2282.250          33.000
R21  22291453.680 6 119286047.484 6     -4392.316          39.000    22291456.734 5  92778077.731 5     -3416.249          34.000
R22  20009212.594 7 106810582.712 7     -1109.484          44.000    20009210.141 6  83074846.945 6      -862.932          37.000
C14  22458676.547 6 116948229.601 6     -1547.250          40.000    22458674.977 7  90431817.786 7     -1196.396          46.000
C24  24540984.461 6 127791350.321 6      2178.332          38.000
C28  23465157.484 8 122189253.634 8     -2274.754          50.000
E03  23811660.367 8 125131133.797 8     -1141.445          51.000    23811661.969 8  95879750.163 8      -874.581          51.000
E08  22221844.812 7 116776579.785 7      1273.211          43.000    22221842.812 7  89478246.316 7       975.502          45.000
E15  24174680.102 8 127038818.600 8     -2153.668          51.000    24174683.766 8  97341424.420 8     -1650.159          51.000
> 2020 05 07 23 09  0.0000000  0 16        .000000000000
G01  24779274.055 5 130215963.773 5     -3797.215          30.000    24779280.500 4 101466988.675 4     -2958.866          28.000
G03  21705807.789 6 114064771.087 6     -2099.191          37.000    21705808.023 6  88881703.484 6     -1635.734          36.000
G04  20353242.359 8 106957078.689 8      -746.980          50.000    20353242.664 8  83343154.342 8      -582.063          50.000
G09  20773711.641 8 109166685.358 8      1592.527          51.000    20773712.633 8  85064928.951 8      1240.930          51.000
G17  23445207.461 7 123205394.135 7     -2604.891          42.000    23445209.344 7  96004174.522 7     -2029.785          42.000
G19  22869002.719 6 120177426.148 6     -2149.156          36.000    22869001.023 5  93644708.893 5     -1674.661          34.000
R06  20690023.961 5 110405946.910 5     -2283.871          35.000
R07  19766571.094 5 105811981.997 5       593.875          32.000
R21  22316087.844 6 119417865.411 6     -4394.711          41.000    22316089.883 6  92880602.776 6     -3418.109          36.000
R22  20015512.500 7 106844210.199 7     -1131.348          45.000    20015509.961 6  83101001.637 6      -879.937          39.000
C14  22467594.633 6 116994666.121 6     -1547.492          38.000    22467592.922 7  90467725.437 7     -1196.834          45.000
C24  24528452.477 7 127726087.843 7      2173.176          42.000
C28  23478283.375 8 122257604.262 8     -2281.145          50.000
E03  23818180.742 8 125165398.612 8     -1142.121          51.000    23818182.375 8  95906005.032 8      -875.114          51.000
E08  22214584.836 7 116738426.303 7      1271.371          44.000    22214584.281 7  89449011.849 7       974.090          45.000
E15  24186993.523 8 127103523.159 8     -2159.184          51.000    24186996.172 8  97391003.205 8     -1654.433          51.000
> 2020 05 07 23 09 30.0000000  0 14        .000000000000
G03  21717814.992 6 114127869.609 6     -2107.664          40.000    21717814.375 6  88930871.083 6     -1642.339          41.000
G04  20357551.594 8 106979724.928 8      -762.586          49.000    20357552.148 8  83360800.772 8      -594.223          49.000
G09  20764662.500 8 109119132.282 8      1577.820          51.000    20764663.805 8  85027874.613 8      1229.470          51.000
G17  23460105.719 7 123283684.739 7     -2614.352          45.000    23460107.500 7  96065180.203 7     -2037.157          45.000
G19  22881319.414 6 120242148.293 6     -2165.336          36.000    22881317.594 5  93695141.659 5     -1687.278          31.000
R06  20702882.469 6 110474562.408 6     -2291.020          38.000
R21  22340752.469 6 119549846.430 6     -4403.883          41.000    22340753.523 6  92983254.676 6     -3425.242          36.000
R22  20021949.656 7 106878573.201 7     -1159.305          44.000    20021947.867 6  83127728.367 6      -901.684          41.000
C14  22476529.555 6 117041193.504 6     -1554.227          38.000    22476528.266 7  90503703.314 7     -1201.694          45.000
C24  24515967.133 6 127661069.243 6      2161.664          41.000
C28  23491461.461 8 122326227.725 8     -2293.504          50.000
E03  23824720.383 8 125199765.251 8     -1148.770          51.000    23824722.039 8  95932337.911 8      -880.253          51.000
E08  22207350.398 7 116700406.473 7      1263.688          44.000    22207350.438 7  89419879.791 7       968.112          44.000
E15  24199353.539 8 127168473.437 8     -2170.684          51.000    24199355.742 8  97440770.261 8     -1663.263          51.000
> 2020 05 07 23 10  0.0000000  0 15        .000000000000
G03  21729871.883 7 114191231.045 7     -2115.258          43.000    21729871.492 7  88980243.609 7     -1648.253          43.000
G04  20361950.070 8 107002839.522 8      -777.176          49.000    20361950.922 8  83378812.130 8      -605.592          49.000
G09  20755698.359 8 109072025.200 8      1563.836          51.000    20755699.625 8  84991167.816 8      1218.573          51.000
G17  23475058.414 7 123362260.721 7     -2622.723          46.000    23475059.227 7  96126408.241 7     -2043.680          44.000
G19  22893728.375 6 120307356.361 6     -2180.730          38.000    22893727.516 6  93745953.152 6     -1699.274          36.000
R06  20715783.203 6 110543403.509 6     -2297.887          38.000
R07  19760041.633 4 105777019.744 4       569.648          29.000    19760032.164 4  82270996.737 4       443.060          27.000
R21  22365466.523 6 119682093.285 6     -4411.742          39.000    22365466.539 6  93086113.369 6     -3431.355          36.000
R22  20028544.461 7 106913776.755 7     -1186.387          44.000    20028543.180 7  83155108.938 7      -922.742          42.000
C14  22485501.922 6 117087915.341 6     -1559.395          39.000    22485500.922 7  90539831.584 7     -1205.916          45.000
C24  24503548.047 6 127596400.886 6      2150.883          40.000
C28  23504711.688 8 122395226.001 8     -2305.121          51.000
E03  23831299.250 8 125234337.970 8     -1154.785          51.000    23831301.000 8  95958828.690 8      -884.811          51.000
E08  22200161.078 7 116662625.193 7      1256.609          44.000    22200160.414 7  89390930.536 7       962.695          42.000
E15  24211779.812 8 127233773.229 8     -2181.426          51.000    24211782.414 8  97490805.141 8     -1671.389          51.000
> 2020 05 07 23 10 30.0000000  0 16        .000000000000
G01  24844382.383 5 130558111.558 5     -3806.133          33.000    24844387.992 5 101733613.640 5     -2965.821          33.000
G03  21741975.672 7 114254838.220 7     -2123.828          42.000    21741975.320 7  89029807.601 7     -1654.931          43.000
G04  20366434.094 8 107026404.099 8      -792.570          48.000    20366435.227 8  83397174.136 8      -617.587          48.000
G09  20746816.148 8 109025347.561 8      1549.305          51.000    20746817.445 8  84954795.627 8      1207.247          51.000
G17  23490061.523 7 123441102.087 7     -2631.777          45.000    23490061.008 7  96187843.070 7     -2050.736          43.000
G19  22906226.297 6 120373030.558 6     -2196.578          37.000    22906225.227 5  93797127.898 5     -1711.619          34.000
R06  20728723.695 6 110612452.017 6     -2304.672          36.000
R08  22495284.242 4 120461224.339 4      2816.473          29.000
R21  22390225.945 6 119814584.673 6     -4420.043          36.000    22390225.578 5  93189162.181 5     -3437.814          35.000
R22  20035292.961 7 106949802.119 7     -1214.113          43.000    20035292.086 7  83183128.690 7      -944.310          42.000
C14  22494508.188 6 117134814.550 6     -1565.816          38.000    22494507.273 7  90576097.000 7     -1210.783          44.000
C24  24491193.195 6 127532068.281 6      2139.250          38.000
C28  23518030.820 8 122464580.126 8     -2317.176          51.000
E03  23837914.039 8 125269098.965 8     -1161.371          51.000    23837915.930 8  95985463.742 8      -889.915          51.000
E08  22193013.883 7 116625065.417 7      1248.742          44.000    22193012.148 7  89362150.995 7       956.634          42.000
E15  24224269.039 8 127299404.296 8     -2192.832          51.000    24224272.391 8  97541093.894 8     -1680.177          51.000
> 2020 05 07 23 11  0.0000000  0 15        .000000000000
G01  24866111.281 5 130672296.109 5     -3807.492          31.000    24866118.984 5 101822594.124 5     -2966.877          31.000
G03  21754122.938 6 114318674.990 6     -2131.973          41.000    21754121.656 7  89079550.485 7     -1661.280          42.000
G04  20371000.633 8 107050401.629 8      -807.258          49.000    20371001.719 8  83415873.506 8      -629.032          49.000
G09  20738012.664 8 108979084.086 8      1535.004          51.000    20738014.320 8  84918746.160 8      1196.107          51.000
G17  23505111.133 7 123520190.022 7     -2640.426          42.000    23505109.906 7  96249470.017 7     -2057.475          42.000
G19  22918809.508 6 120439152.358 6     -2211.562          41.000    22918807.914 4  93848651.326 4     -1723.292          25.000
R06  20741699.500 6 110681691.177 6     -2311.445          38.000
R21  22415027.844 5 119947300.082 5     -4427.422          34.000    22415025.953 5  93292385.261 5     -3443.550          32.000
R22  20042192.117 7 106986631.806 7     -1241.055          44.000    20042191.180 7  83211773.990 7      -965.265          42.000
C14  22503545.391 6 117181875.080 6     -1571.281          38.000    22503544.531 7  90612487.207 7     -1215.259          44.000
C24  24478899.516 5 127468058.148 5      2127.934          34.000
C28  23531415.172 8 122534272.390 8     -2328.773          51.000
E03  23844561.516 8 125304031.718 8     -1167.383          51.000    23844563.562 8  96012230.386 8      -894.464          51.000
E08  22185905.773 7 116587711.255 7      1241.652          42.000    22185903.766 7  89333528.998 7       951.396          42.000
E15  24236817.898 8 127365349.667 8     -2203.504          51.000    24236822.156 8  97591623.500 8     -1688.387          51.000
> 2020 05 07 23 11 30.0000000  0 16        .000000000000
G01  24887853.477 5 130786554.041 5     -3810.027          34.000    24887861.070 5 101911620.188 5     -2968.852          33.000
G03  21766314.656 6 114382746.178 6     -2139.488          40.000    21766310.469 6  89129475.976 6     -1667.137          38.000
G04  20375650.398 8 107074835.987 8      -821.766          50.000    20375651.469 8  83434913.245 8      -640.337          50.000
G09  20729288.938 8 108933240.329 8      1521.082          51.000    20729290.922 8  84883023.758 8      1185.259          51.000
G17  23520207.945 7 123599527.004 7     -2648.824          42.000    23520207.227 7  96311291.023 7     -2064.016          42.000
G19  22931478.438 6 120505723.935 6     -2226.387          41.000    22931473.742 5  93900525.270 5     -1734.850          31.000
R06  20754712.031 6 110751124.316 6     -2317.469          36.000
R08  22463798.562 5 120292607.602 5      2804.688          31.000
R21  22439871.391 4 120080240.779 4     -4434.680          27.000    22439866.969 4  93395783.561 4     -3449.198          29.000
R22  20049242.117 7 107024269.566 7     -1267.918          43.000    20049242.164 7  83241047.799 7      -986.158          43.000
C14  22512614.469 6 117229101.792 6     -1577.164          39.000    22512614.023 7  90649005.823 7     -1219.373          45.000
C24  24466670.492 5 127404377.842 5      2117.688          32.000
C28  23544865.008 8 122604305.726 8     -2340.164          51.000
E03  23851242.461 8 125339140.644 8     -1173.176          51.000    23851244.625 8  96039132.024 8      -898.945          51.000
E08  22178836.781 6 116550567.884 6      1234.555          40.000    22178836.227 7  89305068.485 7       946.098          42.000
E15  24249427.383 8 127431613.306 8     -2213.980          51.000    24249432.203 8  97642396.959 8     -1696.436          51.000
> 2020 05 07 23 12  0.0000000  0 14        .000000000000
G03  21778549.906 6 114447045.212 6     -2147.441          40.000    21778544.180 6  89179579.045 6     -1673.328          39.000
G04  20380381.805 8 107099699.628 8      -836.039          49.000    20380382.875 8  83454287.513 8      -651.456          48.000
G09  20720644.062 8 108887810.561 8      1507.363          51.000    20720645.852 8  84847623.940 8      1174.569          51.000
G17  23535350.805 6 123679103.675 6     -2656.414          41.000    23535351.078 6  96373298.837 6     -2069.930          41.000
G19  22944230.375 6 120572736.142 6     -2241.301          39.000    22944224.234 4  93952742.562 4     -1746.474          29.000
R06  20767759.352 5 110820744.876 5     -2324.211          35.000
R08  22448106.906 5 120208560.912 5      2798.848          33.000
R22  20056442.211 7 107062707.516 7     -1294.555          45.000    20056443.711 7  83270943.955 7     -1006.876          44.000
C14  22521714.711 6 117276488.101 6     -1582.152          41.000    22521714.195 7  90685647.949 7     -1223.635          45.000
C24  24454505.531 5 127341021.698 5      2106.480          31.000
C28  23558378.328 8 122674671.924 8     -2351.125          51.000
E03  23857955.594 8 125374418.772 8     -1178.895          51.000    23857957.805 8  96066163.311 8      -903.264          51.000
E08  22171806.477 6 116513628.967 6      1227.898          39.000    22171807.023 6  89276764.632 6       940.818          40.000
E15  24262096.086 8 127498187.818 8     -2224.453          51.000    24262101.070 8  97693408.610 8     -1704.415          51.000
> 2020 05 07 23 12 30.0000000  0 16        .000000000000
G01  24931374.938 5 131015258.948 5     -3813.180          32.000
G03  21790833.891 5 114511599.894 5     -2155.352          32.000    21790830.742 5  89229881.283 5     -1679.504          30.000
G04  20385199.883 8 107125019.430 8      -851.297          49.000    20385200.969 8  83474017.227 8      -663.348          49.000
G09  20712083.328 8 108842823.354 8      1492.590          51.000    20712084.500 8  84812568.984 8      1163.057          51.000
G17  23550544.445 7 123758945.458 7     -2665.547          45.000    23550545.695 7  96435513.252 7     -2077.050          45.000
G19  22957070.461 6 120640214.069 6     -2256.480          37.000    22957064.500 5  94005322.777 5     -1758.296          32.000
R06  20780845.734 5 110890579.751 5     -2331.391          32.000
R08  22432452.391 5 120124716.142 5      2792.062          34.000    22432451.539 4  93430356.928 4      2171.607          28.000
R22  20063797.648 7 107101972.526 7     -1322.250          44.000    20063799.812 7  83301483.394 7     -1028.420          44.000
C14  22530851.367 6 117324061.732 6     -1588.492          40.000    22530850.242 7  90722434.855 7     -1228.308          44.000
C24  24442405.297 5 127278024.087 5      2094.293          31.000
C26  24503260.414 6 127594907.780 6      -450.344          37.000
C28  23571960.688 8 122745396.697 8     -2363.121          51.000
E03  23864706.172 8 125409893.538 8     -1185.328          51.000    23864708.398 8  96093345.269 8      -908.238          51.000
E08  22164821.312 6 116476922.539 6      1220.090          38.000    22164821.328 6  89248638.923 6       934.662          40.000
E15  24274829.219 8 127565100.113 8     -2235.688          51.000    24274834.031 8  97744679.078 8     -1713.038          51.000
> 2020 05 07 23 13  0.0000000  0 16        .000000000000
G03  21803164.492 5 114576399.316 5     -2163.328          33.000    21803164.547 5  89280374.253 5     -1685.710          34.000
G04  20390102.562 8 107150783.343 8      -865.582          48.000    20390103.625 8  83494092.991 8      -674.480          49.000
G09  20703604.586 8 108798268.341 8      1478.504          51.000    20703605.367 8  84777850.808 8      1152.081          51.000
G17  23565786.047 7 123839038.634 7     -2673.324          47.000    23565788.070 7  96497923.531 7     -2083.110          47.000
G19  22969996.047 5 120708144.470 5     -2271.254          35.000    22969991.828 5  94058255.526 5     -1769.808          31.000
R06  20793970.164 5 110960617.266 5     -2337.000          33.000
R07  19742068.281 5 105680836.647 5       499.289          30.000
R15  23377210.086 5 124920721.431 5     -2076.160          31.000
R22  20071305.172 7 107142051.955 7     -1348.988          43.000    20071307.859 7  83332656.279 7     -1049.213          45.000
C14  22540021.016 6 117371811.667 6     -1593.949          40.000    22540019.523 7  90759358.120 7     -1232.528          43.000
C24  24430369.688 5 127215374.282 5      2083.387          35.000
C26  24505909.031 5 127608676.730 5      -467.059          34.000
C28  23585609.320 8 122816467.289 8     -2374.074          51.000
E03  23871491.945 8 125445553.452 8     -1191.086          51.000    23871494.336 8  96120669.085 8      -912.674          51.000
E08  22157878.234 6 116440437.752 6      1212.867          39.000    22157878.398 6  89220683.047 6       929.361          40.000
E15  24287624.508 8 127632338.176 8     -2246.047          51.000    24287628.898 8  97796199.160 8     -1720.937          51.000
> 2020 05 07 23 13 30.0000000  0 15        .000000000000
G04  20395083.172 8 107176956.429 8      -882.973          48.000    20395084.156 8  83514487.610 8      -688.028          48.000
G09  20695201.734 8 108754112.384 8      1461.477          51.000    20695202.508 8  84743443.583 8      1138.813          51.000
G17  23581068.539 8 123919346.908 8     -2684.270          48.000    23581070.828 7  96560501.426 7     -2091.639          46.000
G19  22983001.523 5 120776490.774 5     -2288.582          35.000    22982997.953 4  94111512.362 4     -1783.308          29.000
R06  20807126.375 5 111030822.074 5     -2347.016          35.000
R15  23388960.055 5 124983466.780 5     -2102.062          34.000
R21  22539660.859 5 120614254.775 5     -4466.629          30.000
R22  20078958.453 7 107182909.876 7     -1378.621          44.000    20078961.742 7  83364434.698 7     -1072.261          45.000
C14  22549218.281 7 117419704.276 7     -1602.684          42.000    22549216.680 7  90796391.725 7     -1239.167          45.000
C24  24418396.188 5 127153041.419 5      2069.012          32.000
C26  24508646.750 5 127622919.028 5      -485.977          33.000
C28  23599317.336 8 122887848.297 8     -2388.223          51.000
E03  23878306.391 8 125481364.176 8     -1199.898          51.000    23878309.047 8  96148108.461 8      -919.424          51.000
E08  22150971.242 7 116404141.006 7      1203.000          42.000    22150971.281 6  89192871.267 6       921.839          41.000
E15  24300475.430 8 127699867.224 8     -2259.520          51.000    24300479.133 8  97847942.191 8     -1731.278          51.000
> 2020 05 07 23 14  0.0000000  0 15        .000000000000
G04  20400153.992 8 107203603.485 8      -893.738          49.000    20400154.750 8  83535251.559 8      -696.419          48.000
G09  20686887.414 8 108710422.025 8      1450.910          51.000    20686888.266 8  84709399.155 8      1130.579          51.000
G17  23596404.008 8 123999933.405 8     -2688.281          48.000    23596405.898 7  96623296.121 7     -2094.762          45.000
G19  22996098.352 5 120845316.189 5     -2299.391          31.000    22996094.711 4  94165142.565 4     -1791.730          25.000
R06  20820326.367 5 111101260.543 5     -2349.152          35.000
R15  23400807.883 5 125046787.325 5     -2119.070          31.000
R21  22564720.008 5 120748308.528 5     -4469.777          33.000
R22  20086770.594 7 107224611.942 7     -1401.539          46.000    20086773.938 7  83396869.646 7     -1090.086          45.000
C14  22558455.750 6 117467804.769 6     -1604.207          41.000    22558454.133 7  90833586.065 7     -1240.713          45.000
C24  24406495.617 5 127091093.336 5      2061.207          32.000
C26  24511484.211 6 127637699.837 6      -499.418          37.000
C28  23613096.727 8 122959603.079 8     -2395.602          49.000
E03  23885162.039 8 125517391.121 8     -1202.070          51.000    23885164.773 8  96175713.513 8      -921.046          51.000
E08  22144113.094 6 116368098.401 6      1199.418          41.000    22144111.883 6  89165254.190 6       919.106          41.000
E15  24313393.992 8 127767752.124 8     -2266.359          51.000    24313397.031 8  97899957.878 8     -1736.555          51.000
> 2020 05 07 23 14 30.0000000  0 12        .000000000000
G04  20405293.547 8 107230611.175 8      -908.164          50.000    20405294.047 8  83556296.515 8      -707.660          50.000
G09  20678640.469 8 108667085.620 8      1436.746          51.000    20678641.484 8  84675630.526 8      1119.542          51.000
G17  23611770.531 8 124080683.142 8     -2696.168          49.000    23611771.383 7  96686217.990 7     -2100.910          44.000
G19  23009264.773 5 120914506.131 5     -2314.055          34.000    23009261.461 5  94219056.808 5     -1803.159          33.000
R06  20833548.539 5 111171817.784 5     -2355.996          34.000
R22  20094719.469 8 107267042.328 8     -1428.449          48.000    20094722.664 7  83429871.060 7     -1111.016          45.000
C14  22567711.914 7 117516001.900 7     -1610.094          43.000    22567710.227 7  90870855.118 7     -1244.948          46.000
C26  24514405.227 5 127652908.069 5      -516.086          34.000
C28  23626925.227 7 123031618.481 7     -2406.750          47.000
E03  23892037.477 8 125553521.558 8     -1207.977          51.000    23892039.984 8  96203397.864 8      -925.601          51.000
E08  22137281.602 6 116332197.731 6      1192.535          40.000    22137279.805 6  89137745.904 6       913.737          41.000
E15  24326358.531 8 127835879.592 8     -2276.852          51.000    24326360.805 8  97952159.407 8     -1744.601          51.000
> 2020 05 07 23 15  0.0000000  0 17        .000000000000
G03  21852922.867 4 114837884.543 4     -2194.531          28.000    21852925.297 4  89484082.535 4     -1710.021          27.000
G04  20410525.031 8 107258101.779 8      -921.980          50.000    20410525.547 8  83577717.777 8      -718.426          50.000
G09  20670484.750 8 108624227.167 8      1423.070          51.000    20670485.805 8  84642234.336 8      1108.886          51.000
G17  23627191.102 8 124161716.918 8     -2703.402          49.000    23627190.344 7  96749361.172 7     -2106.547          44.000
G19  23022523.398 6 120984180.699 6     -2327.945          39.000    23022521.820 5  94273348.677 5     -1813.980          31.000
R06  20846816.383 5 111242618.023 5     -2361.387          33.000
R08  22354670.258 5 119708216.089 5      2762.168          30.000
R09  23600363.273 7 126024617.472 7      4048.316          43.000    23600365.508 7  98019160.490 7      3148.687          43.000
R21  22614909.859 5 121016933.663 5     -4482.688          30.000
