     3.04           OBSERVATION DATA    M (MIXED)           RINEX VERSION / TYPE
Convert 2.6.2       NovAtel             20200515 152921 UTC PGM / RUN BY / DATE 
Rinex Version 3.04 Observation File                         COMMENT             
                                                            MARKER NAME         
                                                            MARKER NUMBER       
                                                            MARKER TYPE         
                                                            OBSERVER / AGENCY   
                    NovAtel GPSCard                         REC # / TYPE / VERS 
                                                            ANT # / TYPE        
        0.0000        0.0000        0.0000                  APPROX POSITION XYZ 
        0.0000        0.0000        0.0000                  ANTENNA: DELTA H/E/N
G    8 C1C L1C D1C S1C C2W L2W D2W S2W                      SYS / # / OBS TYPES 
R    8 C1C L1C D1C S1C C2P L2P D2P S2P                      SYS / # / OBS TYPES 
E    8 C1C L1C D1C S1C C7Q L7Q D7Q S7Q                      SYS / # / OBS TYPES 
C    4 C2I L2I D2I S2I                                      SYS / # / OBS TYPES 
DBHZ                                                        SIGNAL STRENGTH UNIT
    30.000                                                  INTERVAL            
  2020    05    08    08    00    0.0000000     GPS         TIME OF FIRST OBS   
  2020    05    08    08    59   30.0000000     GPS         TIME OF LAST OBS    
G L1C  0.00000  08 G24 G15 G19 G12 G25 G17 G13 G02          SYS / PHASE SHIFT   
G L2W  0.00000  07 G24 G15 G19 G12 G25 G17 G02              SYS / PHASE SHIFT   
R L1C  0.00000  08 R12 R03 R22 R23 R14 R24 R04 R13          SYS / PHASE SHIFT   
R L2P  0.25000  08 R12 R03 R23 R22 R24 R04 R14 R13          SYS / PHASE SHIFT   
E L1C  0.50000  04 E21 E27 E13 E19                          SYS / PHASE SHIFT   
E L7Q -0.25000  04 E21 E27 E13 E19                          SYS / PHASE SHIFT   
C L2I  0.00000  04 C19 C27 C28 C30                          SYS / PHASE SHIFT   
  8 R12 -1 R03  5 R22 -3 R23  3 R14 -7 R24  2 R04  6 R13 -2 GLONASS SLOT / FRQ #
 C1C  -71.950 C2C  -71.950 C2P  -71.950                     GLONASS COD/PHS/BIS 
     0     0     0     0GPS                                 LEAP SECONDS        
                                                            END OF HEADER       
> 2020 05 08 08 00  0.0000000  0 15      -0.000000000000
G24  20146261.383 8 105869321.505 8       -52.133          51.000    20146262.492 8  82495593.809 8       -40.623          51.000  
G15  23069871.734 6 121232973.315 6     -3488.055          41.000    23069875.086 6  94467251.142 6     -2717.966          41.000  
G19  21681053.625 6 113934704.163 6      -969.242          37.000    21681050.445 5  88780286.771 5      -755.260          35.000  
G12  20618665.680 8 108351820.100 8      1655.273          51.000    20618664.625 8  84429982.099 8      1289.824          51.000  
G25  22764689.227 7 119629245.178 7      3018.453          45.000    22764692.258 6  93217617.192 6      2352.042          41.000  
R12  22660131.352 5 121045983.278 5     -2912.020          34.000    22660129.867 4  94146858.99224     -2264.911          28.000  
R03  21479603.391 8 114981613.607 8     -3477.980          50.000    21479605.086 7  89430151.079 7     -2705.100          45.000  
R22  21646613.188 6 115550690.099 6     -1018.121          37.000                                                                  
R23  21567002.531 8 115368533.323 8      3382.727          48.000    21567010.055 5  89731101.941 5      2631.007          35.000  
E21  23947780.781 7 125846403.881 7       851.199          42.000    23947781.461 6  96427776.721 6       652.083          41.000  
E27  24131553.883 6 126812211.954 6     -1408.547          38.000    24131556.820 8  97167812.031 8     -1079.388          50.000  
E13  27548689.633 8 144769344.541 8      2968.812          48.000    27548694.156 7 110927174.794 7      2274.797          47.000  
C19  24186369.953 6 125944730.009 6     -1869.055          39.000  
C27  23760561.695 7 123727518.015 7      2662.949          47.000  
C28  23586496.953 6 122821075.452 6       -73.797          40.000  
> 2020 05 08 08 00 30.0000000  0 15      -0.000000000000
G24  20146583.375 8 105871014.217 8       -62.387          51.000    20146584.398 8  82496912.802 8       -48.613          51.000  
G15  23089786.969 6 121337635.390 6     -3491.191          41.000    23089791.570 6  94548806.054 6     -2720.407          41.000  
G17  23416884.594 4 123056558.76724     -2386.031          29.000                                                                  
G19  21686635.992 6 113964036.527 6      -987.902          36.000    21686633.422 5  88803143.158 5      -769.785          33.000  
G12  20609241.484 8 108302296.495 8      1644.543          50.000    20609240.703 8  84391392.264 8      1281.462          50.000  
G25  22747465.516 7 119538734.079 7      3013.793          43.000    22747468.438 6  93147089.109 6      2348.411          41.000  
R03  21499123.695 8 115086107.975 8     -3489.973          51.000    21499125.945 7  89511424.460 7     -2714.424          46.000  
R22  21652396.242 6 115581577.700 6     -1042.191          36.000                                                                  
R23  21548063.742 7 115267222.436 7      3369.641          46.000    21548071.297 6  89652304.578 6      2620.835          36.000  
E21  23942925.281 6 125820890.971 6       848.125          40.000    23942927.070 6  96408227.866 6       649.994          41.000  
E27  24139593.453 5 126854462.042 5     -1409.582          35.000    24139596.984 8  97200185.495 8     -1080.067          50.000  
E13  27531728.516 7 144680213.335 7      2971.602          47.000    27531732.938 7 110858879.446 7      2276.934          46.000  
C19  24197154.922 5 126000907.937 5     -1877.688          32.000  
C27  23745232.375 8 123647700.791 8      2656.535          48.000  
C28  23586956.219 5 122823472.125 5       -87.668          33.000  
> 2020 05 08 08 01  0.0000000  0 16      -0.000000000000
G24  20146978.664 8 105873092.150 8       -76.320          51.000    20146979.672 8  82498531.950 8       -59.473          51.000  
G15  23109735.281 6 121442465.491 6     -3497.570          40.000    23109739.695 6  94630491.877 6     -2725.377          40.000  
G19  21692335.789 6 113993988.720 6     -1009.535          41.000    21692335.141 5  88826482.606 5      -786.651          31.000  
G12  20599893.062 8 108253170.168 8      1630.297          51.000    20599892.625 8  84353112.023 8      1270.362          51.000  
G25  22730283.531 7 119448442.023 7      3005.348          42.000    22730284.859 6  93076731.689 6      2341.833          40.000  
R14  21053972.781 5 112229132.50625      2216.086          32.000                                                                  
R12  22692835.578 5 121220680.747 5     -2915.176          33.000    22692837.539 4  94282756.854 4     -2267.372          28.000  
R03  21518725.633 8 115191037.810 8     -3505.578          50.000    21518728.281 7  89593036.524 7     -2726.561          45.000  
R22  21658327.883 5 115613261.828 5     -1070.727          33.000    21658327.281 5  89921392.797 5      -832.794          31.000  
R23  21529212.398 7 115166381.832 7      3352.719          45.000    21529219.797 6  89573873.026 6      2607.671          36.000  
E21  23938099.797 6 125795540.482 6       841.691          40.000    23938103.781 7  96388803.484 7       644.756          42.000  
E27  24147652.711 6 126896816.321 6     -1414.309          37.000    24147656.594 8  97232638.841 8     -1083.650          49.000  
E13  27514766.289 8 144591075.509 8      2970.586          48.000    27514769.836 7 110790579.019 7      2276.219          46.000  
C19  24208006.781 5 126057434.049 5     -1890.402          33.000  
C27  23729955.711 8 123568153.242 8      2646.492          50.000  
C28  23587513.391 6 122826368.962 6      -105.527          39.000  
> 2020 05 08 08 01 30.0000000  0 15      -0.000000000000
G24  20147451.023 8 105875574.918 8       -88.785          51.000    20147452.055 8  82500466.565 8       -69.183          51.000  
G15  23129720.164 7 121547481.899 7     -3502.840          45.000    23129723.234 7  94712322.872 7     -2729.486          45.000  
G19  21698157.273 6 114024580.129 6     -1029.680          41.000    21698154.102 5  88850320.071 5      -802.342          30.000  
G12  20590624.453 8 108204461.908 8      1617.363          51.000    20590623.945 8  84315157.544 8      1260.283          51.000  
G25  22713146.922 6 119358390.288 6      2998.609          40.000    22713146.828 6  93006561.528 6      2336.579          39.000  
R14  21041514.227 5 112162736.865 5      2210.164          34.000                                                                  
R03  21538412.242 8 115296419.480 8     -3519.457          49.000    21538413.734 7  89675000.028 7     -2737.353          43.000  
R22  21664412.219 5 115645761.388 5     -1096.266          33.000    21664424.461 5  89946670.391 5      -852.648          31.000  
R23  21510453.625 7 115066036.618 7      3337.305          45.000    21510460.305 5  89495826.828 5      2595.682          33.000  
E21  23933309.867 6 125770372.513 6       836.578          41.000    23933314.656 7  96369518.903 7       641.051          42.000  
E27  24155736.016 6 126939294.623 6     -1417.449          38.000    24155739.922 8  97265187.207 8     -1085.975          48.000  
E13  27497807.195 7 144501953.472 7      2971.156          47.000    27497809.898 8 110722290.736 8      2276.632          48.000  
C19  24218931.883 5 126114326.579 5     -1902.008          33.000  
C27  23714735.617 8 123488897.940 8      2637.629          49.000  
C28  23588169.734 6 122829785.910 6      -121.645          37.000  
> 2020 05 08 08 02  0.0000000  0 16      -0.000000000000
G24  20147998.961 8 105878454.790 8      -102.352          51.000    20148000.156 8  82502710.617 8       -79.754          51.000  
G15  23149738.508 7 121652672.232 7     -3509.117          47.000    23149739.367 7  94794289.351 7     -2734.378          47.000  
G13  24777243.898 5 130205294.66825     -3871.406          32.000                                                                  
G19  21704098.141 6 114055799.831 6     -1051.414          39.000    21704092.438 5  88874647.083 5      -819.287          31.000  
G12  20581433.500 8 108156162.282 8      1603.297          51.000    20581432.328 8  84277521.471 8      1249.320          51.000  
G25  22696054.094 6 119268570.201 6      2990.656          38.000    22696054.117 6  92936571.836 6      2330.379          39.000  
R12  22725606.398 5 121395719.168 5     -2918.805          34.000    22725611.539 4  94418895.350 4     -2270.185          29.000  
R03  21558180.000 8 115402238.538 8     -3534.348          48.000    21558180.445 6  89757303.736 6     -2748.938          41.000  
R22  21670650.281 5 115679065.388 5     -1123.383          35.000    21670664.078 4  89972629.505 4      -873.748          27.000  
R23  21491786.531 7 114966182.048 7      3320.352          45.000    21491792.594 5  89418162.185 5      2582.493          32.000  
E21  23928553.836 6 125745377.084 6       830.402          41.000    23928557.930 7  96350366.539 7       636.280          42.000  
E27  24163840.945 6 126981886.709 6     -1421.504          39.000    24163845.102 8  97297822.746 8     -1089.178          48.000  
E13  27480849.711 7 144412839.558 7      2970.480          46.000    27480852.023 8 110654008.703 8      2276.069          48.000  
C19  24229925.742 5 126171573.643 5     -1914.062          34.000  
C27  23699570.047 8 123409927.598 8      2627.750          48.000  
C28  23588924.102 5 122833713.523 5      -138.977          35.000  
> 2020 05 08 08 02 30.0000000  0 15      -0.000000000000
G24  20148625.867 8 105881749.528 8      -116.273          51.000    20148627.211 8  82505277.933 8       -90.603          51.000  
G15  23169792.969 7 121758052.584 7     -3515.316          47.000    23169791.422 7  94876403.901 7     -2739.208          46.000  
G19  21710161.906 7 114087665.337 7     -1072.633          43.000    21710155.672 5  88899477.376 5      -835.821          30.000  
G12  20572323.570 8 108108290.526 8      1589.008          50.000    20572321.594 8  84240218.808 8      1238.188          50.000  
G25  22679009.820 6 119179001.372 6      2981.832          41.000    22679010.789 6  92866777.917 6      2323.506          40.000  
R14  21016720.953 5 112030585.318 5      2196.340          33.000                                                                  
R03  21578032.383 8 115508509.631 8     -3549.441          48.000    21578032.875 7  89839959.006 7     -2760.680          43.000  
R22  21677043.320 6 115713191.427 6     -1151.113          41.000    21677052.617 5  89999171.894 5      -895.310          30.000  
R23  21473216.102 7 114866841.390 7      3303.188          45.000    21473221.180 5  89340897.214 5      2569.146          32.000  
E21  23923833.969 6 125720572.628 6       824.230          40.000    23923837.148 6  96331360.565 6       631.329          41.000  
E27  24171971.914 6 127024610.819 6     -1425.891          36.000    24171975.422 8  97330559.397 8     -1092.569          48.000  
E13  27463897.695 7 144323754.590 7      2969.410          45.000    27463900.219 8 110585748.875 8      2275.261          48.000  
C19  24240991.867 6 126229191.679 6     -1926.301          36.000  
C27  23684463.578 8 123331263.163 8      2617.438          49.000  
C28  23589780.125 6 122838170.101 6      -156.898          37.000  
> 2020 05 08 08 03  0.0000000  0 15      -0.000000000000
G24  20149327.273 8 105885435.502 8      -129.219          51.000    20149328.555 8  82508150.110 8      -100.690          51.000  
G15  23189877.781 8 121863595.243 8     -3520.738          48.000    23189874.938 6  94958644.942 6     -2743.433          40.000  
G19  21716343.484 6 114120150.290 6     -1092.977          41.000    21716339.188 6  88924790.369 6      -851.664          37.000  
G12  20563290.281 8 108060821.321 8      1575.719          51.000    20563287.820 8  84203229.823 8      1227.833          50.000  
G25  22662009.250 7 119089659.591 7      2974.230          43.000    22662011.008 6  92797160.941 6      2317.583          40.000  
R14  21004379.781 6 111964806.660 6      2188.750          36.000                                                                  
R03  21597963.984 8 115615202.937 8     -3563.270          48.000    21597964.547 7  89922942.666 7     -2771.432          42.000  
R22  21683586.219 6 115748112.496 6     -1177.445          37.000    21683594.219 4  90026332.710 4      -915.791          29.000  
R23  21454737.852 7 114767993.496 7      3286.746          46.000    21454742.484 5  89264015.588 5      2556.362          33.000  
E21  23919145.188 6 125695933.815 6       818.805          41.000    23919147.305 6  96312481.496 6       627.426          39.000  
E27  24180123.578 5 127067441.285 5     -1429.648          35.000    24180126.000 7  97363377.499 7     -1095.125          47.000  
E13  27446946.828 7 144234675.499 7      2969.309          46.000    27446949.461 8 110517493.526 8      2275.243          49.000  
C19  24252124.031 6 126287153.628 6     -1937.348          36.000  
C27  23669412.289 8 123252882.117 8      2608.117          50.000  
C28  23590734.219 5 122843131.076 5      -173.473          35.000  
> 2020 05 08 08 03 30.0000000  0 15      -0.000000000000
G24  20150106.195 8 105889528.507 8      -143.117          51.000    20150107.422 8  82511339.455 8      -111.523          51.000  
G15  23209995.555 7 121969313.598 7     -3526.773          46.000    23209993.094 5  95041022.943 5     -2748.133          33.000  
G19  21722645.625 7 114153268.927 7     -1114.238          42.000    21722641.211 5  88950597.149 5      -868.238          33.000  
G12  20554336.867 8 108013770.940 8      1561.402          51.000    20554334.664 8  84166567.207 8      1216.677          51.000  
G25  22645054.938 7 119000561.624 7      2965.883          42.000    22645056.781 6  92727733.970 6      2311.078          39.000  
R14  20992081.539 6 111899239.896 6      2182.090          36.000                                                                  
R12  22774863.320 5 121658842.909 5     -2927.781          32.000    22774865.773 5  94623571.253 5     -2277.170          31.000  
R03  21617975.867 7 115722329.817 7     -3577.918          46.000    21617976.828 7  90006263.556 7     -2782.826          42.000  
R22  21690281.398 5 115783843.312 5     -1204.059          35.000                                                                  
R23  21436355.695 7 114669658.994 7      3269.254          47.000    21436360.461 5  89187533.281 5      2542.754          34.000  
E21  23914491.508 7 125671476.328 7       812.312          43.000    23914491.273 6  96293741.330 6       622.470          37.000  
E27  24188296.828 5 127110393.307 5     -1433.766          35.000    24188299.500 7  97396288.822 7     -1098.466          46.000  
E13  27430000.617 7 144145620.276 7      2968.164          45.000    27430003.086 8 110449256.482 8      2274.366          50.000  
C19  24263324.547 6 126345473.124 6     -1949.602          37.000  
C27  23654419.133 8 123174802.548 8      2597.680          50.000  
> 2020 05 08 08 04  0.0000000  0 16      -0.000000000000
G24  20150943.602 8 105893928.686 8      -155.270          51.000    20150944.844 8  82514768.150 8      -120.989          51.000  
G15  23230126.414 7 122075103.785 7     -3531.059          44.000    23230131.016 6  95123457.059 6     -2751.469          41.000  
G17  23514022.156 5 123567017.073 5     -2473.609          32.000    23514027.383 4  96286012.705 4     -1927.495          27.000  
G19  21729048.766 6 114186919.316 6     -1133.430          41.000    21729043.281 5  88976818.201 5      -883.192          30.000  
G12  20545444.039 8 107967038.695 8      1548.930          51.000    20545442.469 8  84130152.496 8      1206.959          51.000  
G25  22628127.664 6 118911607.447 6      2959.426          39.000    22628127.914 6  92658419.057 6      2306.050          38.000  
R12  22791291.930 4 121746608.120 4     -2928.129          29.000    22791294.250 5  94691832.960 5     -2277.434          30.000  
R03  21638049.047 7 115829783.062 7     -3590.730          47.000    21638050.586 7  90089838.288 7     -2792.791          42.000  
R22  21697106.938 5 115820279.194 5     -1230.211          35.000                                                                  
R23  21418050.969 7 114571739.942 7      3253.363          46.000    21418055.766 5  89111374.014 5      2530.391          33.000  
E21  23909853.000 7 125647098.865 7       807.949          42.000    23909851.211 6  96275062.508 6       618.944          37.000  
E27  24196473.289 6 127153365.488 6     -1436.004          37.000    24196476.359 7  97429215.589 7     -1100.480          45.000  
E13  27413040.141 7 144056490.012 7      2968.770          46.000    27413042.375 8 110380961.956 8      2274.836          50.000  
C19  24274574.453 6 126404048.032 6     -1960.438          40.000  
C27  23639465.102 8 123096926.728 8      2588.996          51.000  
C28  23592931.359 4 122854569.113 4      -207.777          29.000  
> 2020 05 08 08 04 30.0000000  0 15      -0.000000000000
G24  20151902.938 8 105898970.020 8      -171.004          51.000    20151904.336 8  82518696.460 8      -133.250          51.000  
G15  23250333.539 6 122181297.713 6     -3538.820          40.000    23250343.273 6  95206205.603 6     -2757.520          40.000  
G19  21735616.648 6 114221434.405 6     -1156.820          40.000    21735612.320 5  89003713.077 5      -901.425          32.000  
G12  20536675.656 8 107920959.483 8      1532.805          51.000    20536674.234 8  84094246.621 8      1194.394          51.000  
G25  22611291.133 6 118823132.433 6      2948.926          39.000    22611289.828 6  92589477.558 6      2297.868          38.000  
R14  20967611.422 5 111768795.125 5      2167.391          32.000                                                                  
R12  22807780.117 6 121834698.324 6     -2933.434          36.000    22807789.297 5  94760333.094 5     -2281.563          34.000  
R03  21658246.352 7 115937898.795 7     -3607.051          47.000    21658248.438 7  90173928.289 7     -2805.488          42.000  
R23  21399887.742 7 114474580.824 7      3233.707          42.000    21399893.117 5  89035805.785 5      2515.106          35.000  
E21  23905292.617 6 125623135.544 6       799.512          40.000    23905291.500 6  96256701.030 6       612.643          37.000  
E27  24204717.578 6 127196691.682 6     -1442.398          37.000    24204720.578 7  97462413.592 7     -1105.293          45.000  
E13  27396129.148 7 143967621.170 7      2965.566          46.000    27396131.266 8 110312867.703 8      2272.363          49.000  
C19  24285935.984 6 126463207.374 6     -1974.172          38.000  
C27  23624613.750 8 123019588.238 8      2576.617          51.000  
C28  23594213.844 5 122861220.554 5      -226.090          30.000  
> 2020 05 08 08 05  0.0000000  0 13      -0.000000000000
G24  20152916.109 8 105904294.456 8      -184.277          51.000    20152917.641 8  82522845.354 8      -143.593          51.000  
G15  23270548.148 6 122287534.006 6     -3543.977          37.000    23270560.484 5  95288987.163 5     -2761.538          35.000  
G19  21742280.508 6 114256453.709 6     -1178.406          36.000    21742276.695 5  89031000.863 5      -918.239          33.000  
G12  20527963.242 8 107875174.478 8      1519.176          51.000    20527961.789 8  84058569.992 8      1183.774          51.000  
G25  22594477.930 6 118734778.586 6      2940.996          38.000    22594474.742 4  92520630.465 4      2291.689          29.000  
R12  22824262.016 6 121922734.228 6     -2935.910          36.000    22824268.555 6  94828805.422 6     -2283.489          36.000  
R03  21678498.609 7 116046307.084 7     -3620.562          46.000    21678500.977 7  90258245.810 7     -2815.997          42.000  
R23  21381799.602 7 114377820.784 7      3216.535          46.000    21381805.359 5  88960547.994 5      2501.750          35.000  
E21  23900742.633 6 125599227.157 6       794.098          41.000    23900743.266 6  96238381.666 6       608.375          37.000  
E27  24212961.266 6 127240012.378 6     -1445.703          39.000    24212964.070 7  97495607.395 7     -1107.864          44.000  
E13  27379199.305 7 143878656.866 7      2965.086          45.000    27379201.602 7 110244700.278 7      2271.929          47.000  
C19  24297340.164 6 126522593.385 6     -1985.324          37.000  
C27  23609796.789 8 122942433.789 8      2566.664          49.000  
> 2020 05 08 08 05 30.0000000  0 15      -0.000000000000
G24  20154005.547 8 105910019.458 8      -197.516          51.000    20154007.117 8  82527306.384 8      -153.908          51.000  
G15  23290793.055 5 122393926.802 5     -3548.910          35.000    23290805.992 5  95371890.733 5     -2765.379          35.000  
G19  21749062.344 6 114292092.880 6     -1198.391          37.000    21749058.969 5  89058771.595 5      -933.811          32.000  
G12  20519328.703 8 107829800.860 8      1505.598          51.000    20519327.453 8  84023213.924 8      1173.193          51.000  
G25  22577710.578 6 118646663.760 6      2933.180          37.000    22577708.383 5  92451969.528 5      2285.592          33.000  
R12  22840754.648 5 122010841.023 5     -2938.250          31.000    22840760.781 5  94897332.854 5     -2285.309          35.000  
R03  21698826.484 7 116155122.020 7     -3633.859          44.000    21698829.492 6  90342879.635 6     -2826.336          41.000  
R22  21718571.492 4 115934768.469 4     -1311.305          28.000    21718579.430 4  90171563.45624     -1019.904          25.000  
R23  21363809.781 7 114281583.479 7      3199.070          47.000    21363814.914 6  88885696.763 6      2488.166          36.000  
E21  23896225.844 6 125575490.414 6       788.246          41.000    23896227.102 6  96220193.724 6       604.035          36.000  
E27  24221226.211 7 127283444.037 7     -1449.516          42.000    24221228.750 7  97528886.182 7     -1110.758          44.000  
E13  27362273.336 7 143789716.083 7      2964.078          45.000    27362276.203 7 110176550.881 7      2271.247          47.000  
C19  24308807.703 6 126582319.732 6     -1996.562          36.000  
C27  23595036.547 7 122865581.529 7      2556.652          47.000  
C28  23597010.000 5 122875822.38125      -260.227          30.000  
> 2020 05 08 08 06  0.0000000  0 14      -0.000000000000
G24  20155170.328 8 105916140.002 8      -212.352          51.000    20155171.773 8  82532075.631 8      -165.469          51.000  
G15  23311066.539 6 122500468.638 6     -3555.371          36.000    23311079.039 6  95454910.467 6     -2770.417          37.000  
G12  20510771.516 8 107784833.765 8      1490.445          51.000    20510770.539 8  83988174.629 8      1161.386          51.000  
G25  22560986.523 5 118558783.776 5      2923.742          35.000    22560987.852 5  92383491.655 5      2278.244          34.000  
R14  20931179.898 5 111574591.723 5      2145.844          30.000                                                                  
R12  22857259.148 5 122098988.420 5     -2942.020          34.000    22857266.375 5  94965911.426 5     -2288.238          32.000  
R03  21719227.109 6 116264334.818 6     -3648.746          41.000    21719230.938 6  90427822.906 6     -2837.914          38.000  
R23  21345916.961 7 114185867.955 7      3180.016          45.000    21345922.625 6  88811251.487 6      2473.352          36.000  
E21  23891740.383 6 125551920.091 6       781.453          39.000    23891742.258 6  96202133.326 6       598.689          36.000  
E27  24229511.219 7 127326981.203 7     -1454.531          43.000    24229513.633 7  97562245.805 7     -1114.443          43.000  
E13  27345351.031 7 143700796.034 7      2962.176          45.000    27345355.156 7 110108417.381 7      2269.697          47.000  
C19  24320339.781 6 126642379.363 6     -2008.992          37.000  
C27  23580333.328 7 122789028.937 7      2545.074          46.000  
C28  23598550.211 5 122883884.897 5      -278.488          34.000  
> 2020 05 08 08 06 30.0000000  0 15      -0.000000000000
G24  20156421.500 8 105922714.079 8      -226.152          51.000    20156422.711 8  82537198.279 8      -176.223          51.000  
G15  23331379.562 6 122607213.609 6     -3560.637          36.000    23331391.133 6  95538088.439 6     -2774.523          36.000  
G12  20502302.805 8 107740330.158 8      1476.258          51.000    20502301.891 8  83953496.501 8      1150.331          51.000  
G25  22544317.938 4 118471190.156 4      2915.586          29.000    22544322.117 5  92315241.596 5      2271.898          30.000  
R12  22873789.328 5 122187283.728 5     -2944.938          35.000    22873796.266 5  95034585.518 5     -2290.507          32.000  
R03  21739712.633 7 116373998.241 7     -3662.309          43.000    21739714.281 6  90513116.625 6     -2848.463          36.000  
R24  23553117.016 5 125948712.347 5      4384.531          35.000    23553126.453 4  97960150.401 4      3410.195          29.000  
R04  20939299.117 5 112128604.280 5      -263.438          34.000    20939298.312 4  87211130.459 4      -204.899          27.000  
R23  21328133.648 7 114090736.472 7      3161.770          47.000    21328138.789 5  88737260.317 5      2459.152          35.000  
E21  23887297.055 6 125528572.479 6       774.898          38.000    23887300.188 6  96184243.637 6       593.975          36.000  
E27  24237827.062 7 127370679.923 7     -1458.883          43.000    24237829.500 7  97595729.225 7     -1117.864          43.000  
E13  27328443.961 7 143611955.364 7      2960.445          46.000    27328449.430 7 110040344.692 7      2268.406          46.000  
C19  24331947.539 6 126702826.076 6     -2020.680          39.000  
C27  23565699.352 7 122712834.305 7      2534.371          44.000  
C28  23600200.734 5 122892509.445 5      -296.246          33.000  
> 2020 05 08 08 07  0.0000000  0 17      -0.000000000000
G24  20157748.656 8 105929687.429 8      -238.355          51.000    20157749.773 8  82542632.064 8      -185.732          51.000  
G15  23351721.211 6 122714105.575 6     -3565.105          39.000    23351731.367 6  95621380.885 6     -2778.002          39.000  
G19  21770128.000 5 114402794.83125     -1260.246          35.000                                                                  
G12  20493912.141 8 107696236.792 8      1463.719          51.000    20493911.141 8  83919138.035 8      1140.560          51.000  
G25  22527695.641 5 118383842.488 5      2908.207          31.000    22527700.820 5  92247178.416 5      2266.127          32.000  
R14  20907113.398 5 111446290.120 5      2131.949          35.000                                                                  
R12  22890331.555 5 122275647.158 5     -2945.758          34.000                                                                  
R03  21760272.727 7 116484053.187 7     -3674.207          45.000    21760271.016 6  90598714.879 6     -2857.717          37.000  
R24  23528521.945 6 125817180.871 6      4384.348          36.000    23528526.805 4  97857848.214 4      3410.052          27.000  
R04  20940844.945 5 112136892.638 5      -289.062          30.000    20940847.859 5  87217576.936 5      -224.833          30.000  
R23  21310449.852 7 113996138.821 7      3145.207          44.000    21310455.125 6  88663684.357 6      2446.273          37.000  
E21  23882887.133 6 125505393.834 6       770.434          40.000    23882888.539 5  96166483.413 5       590.413          35.000  
E27  24246163.406 7 127414486.145 7     -1461.105          44.000    24246166.031 6  97629294.963 6     -1119.561          40.000  
E13  27311542.891 7 143523142.539 7      2960.723          46.000    27311548.703 7 109972293.314 7      2268.574          45.000  
C19  24343618.719 6 126763604.603 6     -2030.797          39.000  
C27  23551125.789 7 122636946.904 7      2525.188          46.000  
C28  23601955.719 4 122901642.129 4      -311.945          29.000  
> 2020 05 08 08 07 30.0000000  0 14      -0.000000000000
G24  20159149.281 8 105937047.237 8      -253.344          51.000    20159150.469 8  82548366.977 8      -197.411          51.000  
G15  23372087.734 6 122821128.252 6     -3571.059          38.000    23372096.359 6  95704775.179 6     -2782.644          38.000  
G19  21777384.562 5 114440931.440 5     -1282.184          35.000                                                                  
G12  20485596.820 8 107652539.946 8      1448.402          51.000    20485595.742 8  83885088.554 8      1128.625          51.000  
G25  22511117.586 5 118296717.679 5      2899.031          35.000    22511121.688 6  92179291.978 6      2258.980          36.000  
R03  21780902.586 7 116594481.045 7     -3688.629          45.000    21780900.141 6  90684603.221 6     -2868.934          38.000  
R24  23503928.812 5 125685662.298 5      4382.621          33.000                                                                  
R23  21292863.625 7 113902065.438 7      3125.355          45.000    21292868.992 5  88590516.213 5      2430.833          35.000  
E21  23878507.359 7 125482370.094 7       763.297          42.000    23878503.992 5  96148845.852 5       585.154          33.000  
E27  24254517.289 7 127458385.467 7     -1466.301          44.000    24254520.062 7  97662932.192 7     -1123.688          43.000  
E13  27294645.703 7 143434345.896 7      2957.930          47.000    27294650.859 7 109904254.342 7      2266.479          46.000  
C19  24355351.156 6 126824699.086 6     -2043.180          39.000  
C27  23536609.281 7 122561355.367 7      2513.250          46.000  
C28  23603805.445 6 122911269.536 6      -330.289          36.000  
> 2020 05 08 08 08  0.0000000  0 13      -0.000000000000
G24  20160631.258 8 105944834.910 8      -265.852          51.000    20160632.648 8  82554435.282 8      -207.160          51.000  
G15  23392486.000 6 122928319.177 6     -3574.832          38.000    23392493.977 6  95788300.594 6     -2785.581          38.000  
G12  20477364.969 8 107609280.173 8      1435.504          51.000    20477363.430 8  83851379.666 8      1118.575          51.000  
G25  22494590.984 6 118209865.240 6      2891.281          39.000    22494594.484 6  92111614.769 6      2252.950          39.000  
R12  22923441.719 4 122452543.27624     -2952.195          28.000    22923457.984 4  95240913.01524     -2296.152          27.000  
R03  21801608.164 7 116705318.857 7     -3700.617          42.000    21801606.938 6  90770810.374 6     -2878.258          39.000  
R24  23479346.898 5 125554202.255 5      4381.832          32.000                                                                  
R23  21275383.938 7 113808561.774 7      3108.016          44.000    21275388.750 5  88517791.228 5      2417.352          34.000  
E21  23874164.562 6 125459541.648 6       758.336          41.000    23874158.328 5  96131353.951 5       581.075          34.000  
E27  24262896.445 7 127502418.194 7     -1469.164          43.000    24262899.594 7  97696671.561 7     -1125.721          42.000  
E13  27277759.977 7 143345608.174 7      2957.680          46.000    27277764.633 7 109836260.540 7      2266.344          46.000  
C19  24367151.750 6 126886147.623 6     -2053.355          39.000  
C27  23522158.320 8 122486102.232 8      2503.504          49.000  
> 2020 05 08 08 08 30.0000000  0 14      -0.000000000000
G24  20162155.961 8 105952847.476 8      -280.129          51.000    20162157.531 8  82560678.838 8      -218.282          51.000  
G15  23412877.008 6 123035473.153 6     -3580.383          37.000    23412884.484 6  95871797.294 6     -2789.904          37.000  
G12  20469177.875 8 107566255.294 8      1420.945          51.000    20469176.062 8  83817853.796 8      1107.230          51.000  
G25  22478077.023 6 118123079.294 6      2882.496          39.000    22478080.648 6  92043989.316 6      2246.098          38.000  
R03  21822350.680 7 116816355.674 7     -3713.984          42.000    21822351.250 6  90857172.296 6     -2888.658          39.000  
R24  23454737.398 6 125422598.368 6      4379.348          36.000                                                                  
R04  20946370.164 5 112166482.64525      -372.609          30.000                                                                  
R23  21257973.258 7 113715426.044 7      3088.996          46.000    21257977.422 5  88445352.357 5      2402.553          32.000  
E21  23869819.656 6 125436705.427 6       752.082          41.000    23869814.672 5  96113856.081 5       576.262          35.000  
E27  24271262.422 7 127546380.974 7     -1473.660          43.000    24271266.062 6  97730357.301 6     -1129.121          41.000  
E13  27260847.195 7 143256728.607 7      2955.676          45.000    27260851.219 7 109768158.097 7      2264.689          45.000  
C19  24378982.016 6 126947746.921 6     -2065.121          40.000  
C27  23507734.797 8 122410988.858 8      2492.141          51.000  
C28  23607793.477 5 122931995.351 5      -364.758          35.000  
> 2020 05 08 08 09  0.0000000  0 13      -0.000000000000
G24  20163818.547 8 105961585.094 8      -296.742          51.000    20163820.312 8  82567487.373 8      -231.228          51.000  
G15  23433356.156 6 123143087.604 6     -3588.355          36.000    23433362.508 5  95955652.783 5     -2796.119          35.000  
G12  20461130.180 8 107523964.873 8      1404.062          51.000    20461128.594 8  83784900.223 8      1094.075          51.000  
G25  22461669.594 5 118036870.286 5      2870.746          30.000    22461674.555 4  91976805.672 4      2236.940          27.000  
R12  22956630.445 5 122629812.766 5     -2959.926          31.000                                                                  
R03  21843225.055 7 116928095.449 7     -3729.562          42.000    21843226.625 6  90944081.038 6     -2900.768          39.000  
R24  23430194.844 5 125291363.205 5      4375.246          35.000    23430212.227 4  97448937.80824      3402.973          25.000  
R23  21240726.977 6 113623171.121 6      3067.027          41.000    21240730.852 5  88373598.577 5      2385.469          34.000  
E21  23865567.445 6 125414360.719 6       743.367          41.000    23865565.164 5  96096734.866 5       568.977          35.000  
E27  24279710.008 7 127590772.832 7     -1480.301          45.000    24279713.922 6  97764371.868 6     -1134.206          41.000  
E13  27244002.734 7 143168208.848 7      2951.195          45.000    27244005.508 7 109700331.363 7      2261.277          45.000  
C19  24390935.969 6 127009989.824 6     -2079.184          41.000  
C27  23493433.672 8 122336512.432 8      2478.438          51.000  
> 2020 05 08 08 09 30.0000000  0 15      -0.000000000000
G24  20165536.508 8 105970613.450 8      -304.949          51.000    20165538.242 8  82574522.470 8      -237.623          51.000  
G15  23453840.305 6 123250725.149 6     -3587.566          39.000    23453845.234 6  96039526.202 6     -2795.507          38.000  
G19  21807591.859 5 114599680.870 5     -1361.672          31.000                                                                  
G12  20453139.562 8 107481974.566 8      1395.562          51.000    20453138.312 8  83752180.509 8      1087.452          51.000  
G25  22445288.727 5 117950784.547 5      2868.293          31.000    22445292.516 5  91909725.942 5      2235.052          31.000  
R14  20847616.133 4 111129146.47724      2098.824          29.000                                                                  
R03  21864146.852 7 117040091.277 7     -3736.562          44.000    21864149.461 6  91031188.933 6     -2906.216          38.000  
R24  23405639.742 4 125160059.026 4      4378.414          29.000                                                                  
R23  21223563.109 7 113531358.962 7      3053.824          43.000    21223567.438 5  88302189.201 5      2375.197          32.000  
E21  23861325.781 6 125392072.910 6       742.914          40.000    23861323.156 5  96079664.160 5       569.330          33.000  
E27  24288156.281 7 127635158.894 7     -1478.531          45.000    24288160.188 6  97798381.999 6     -1132.940          40.000  
E13  27227144.180 7 143079616.684 7      2955.309          45.000    27227146.203 7 109632449.101 7      2264.267          47.000  
C19  24402930.719 6 127072443.487 6     -2084.305          41.000  
C27  23479172.422 8 122262244.813 8      2472.957          51.000  
C28  23612210.297 5 122954957.601 5      -396.027          32.000  
> 2020 05 08 08 10  0.0000000  0 16      -0.000000000000
G24  20167317.805 8 105979974.472 8      -311.125          51.000    20167319.422 8  82581816.791 8      -242.435          51.000  
G15  23474336.258 6 123358424.848 6     -3584.797          41.000    23474340.531 7  96123448.045 7     -2793.349          42.000  
G17  23688506.219 5 124483906.99925     -2607.242          31.000                                                                  
G12  20445214.109 8 107440326.146 8      1389.062          51.000    20445212.828 8  83719727.202 8      1082.387          51.000  
G25  22428940.266 6 117864874.653 6      2866.652          37.000    22428943.578 5  91842783.247 5      2233.762          35.000  
R14  20835820.703 5 111066275.63425      2099.141          32.000                                                                  
R03  21885123.938 7 117152381.146 7     -3741.223          44.000    21885127.445 6  91118525.468 6     -2909.844          37.000  
R24  23381084.430 4 125028732.215 4      4384.316          29.000                                                                  
R22  21790949.617 5 116321179.91925     -1539.508          33.000    21790952.711 4  90472011.08324     -1197.395          29.000  
R23  21206490.117 6 113440036.334 6      3042.281          40.000    21206494.750 4  88231160.462 4      2366.219          29.000  
E21  23857102.102 6 125369883.307 6       744.496          37.000    23857097.461 5  96062661.692 5       570.659          31.000  
E27  24296609.109 7 127679580.245 7     -1474.609          44.000    24296612.297 6  97832419.212 6     -1130.013          36.000  
E13  27210279.516 7 142990995.688 7      2961.297          42.000    27210282.992 8 109564544.779 8      2268.915          49.000  
C19  24414973.922 7 127135146.928 7     -2087.812          42.000  
C27  23464959.297 8 122188229.415 8      2469.344          51.000  
C28  23614543.336 5 122967116.088 5      -405.992          34.000  
> 2020 05 08 08 10 30.0000000  0 16      -0.000000000000
G24  20169187.562 8 105989799.926 8      -339.707          51.000    20169188.984 8  82589472.983 8      -264.707          51.000  
G15  23494868.047 7 123466314.567 7     -3603.863          42.000    23494871.594 6  96207517.970 6     -2808.206          41.000  
G19  21823383.469 6 114682704.75726     -1409.703          38.000                                                                  
G12  20437378.242 8 107399150.357 8      1360.172          50.000    20437377.102 8  83687642.177 8      1059.875          50.000  
G25  22412650.734 6 117779272.052 6      2843.914          40.000    22412653.484 6  91776079.952 6      2216.038          36.000  
R14  20824083.219 5 111003704.601 5      2076.418          33.000    20824080.961 4  86336200.82024      1614.986          24.000  
R03  21906179.695 7 117265093.495 7     -3768.707          43.000    21906183.906 5  91206190.569 5     -2931.220          35.000  
R24  23356546.727 6 124897519.940 6      4367.184          36.000                                                                  
R22  21799729.625 5 116368042.765 5     -1580.414          34.000    21799735.992 5  90508459.582 5     -1229.208          33.000  
R04  20955955.328 5 112217810.878 5      -486.535          32.000    20955947.039 4  87280480.829 4      -378.416          27.000  
R23  21189534.047 6 113349340.146 6      3007.980          41.000    21189538.453 5  88160618.944 5      2339.544          31.000  
E21  23852922.516 6 125347922.221 6       723.898          38.000    23852919.242 5  96045817.377 5       554.751          32.000  
E27  24305093.664 7 127724166.986 7     -1493.516          44.000    24305096.484 6  97866583.124 6     -1144.248          36.000  
E13  27193434.422 6 142902478.624 6      2944.465          40.000    27193440.375 8 109496720.096 8      2255.997          50.000  
C19  24427090.031 7 127198227.319 7     -2113.332          42.000  
C27  23450819.055 8 122114597.964 8      2443.578          50.000  
> 2020 05 08 08 11  0.0000000  0 15      -0.000000000000
G24  20171146.742 8 106000095.072 8      -346.062          51.000    20171148.117 8  82597495.172 8      -269.659          51.000  
G15  23515436.016 6 123574397.229 6     -3601.160          40.000    23515440.125 6  96291738.203 6     -2806.100          41.000  
G19  21831471.789 5 114725157.51825     -1422.547          32.000                                                                  
G12  20429633.703 8 107358452.984 8      1353.582          51.000    20429632.484 8  83655929.946 8      1054.743          51.000  
G25  22396421.305 7 117693983.157 7      2842.797          42.000    22396423.016 6  91709621.109 6      2215.164          36.000  
R03  21927314.109 7 117378229.281 7     -3773.254          42.000    21927319.617 6  91294184.978 6     -2934.757          36.000  
R24  23332031.047 6 124766431.751 6      4372.668          37.000                                                                  
R04  20958728.414 5 112232704.780 5      -506.016          35.000                                                                  
R23  21172698.641 7 113259280.453 7      2996.281          46.000    21172703.664 5  88090572.626 5      2330.445          34.000  
E21  23848788.773 6 125326194.936 6       725.219          41.000    23848787.523 5  96029169.272 5       555.508          35.000  
E27  24313611.047 7 127768924.167 7     -1489.844          44.000    24313615.555 6  97900877.684 6     -1141.680          36.000  
E13  27176609.836 6 142814073.134 6      2949.711          38.000    27176618.578 8 109428980.818 8      2260.274          48.000  
C19  24439278.672 7 127261687.824 7     -2116.773          43.000  
C27  23436752.891 8 122041358.121 8      2439.609          48.000  
C28  23619551.594 4 122993201.33524      -447.473          29.000  
> 2020 05 08 08 11 30.0000000  0 15      -0.000000000000
G24  20173169.648 8 106010724.928 8      -360.598          51.000    20173171.062 8  82605778.171 8      -280.985          51.000  
G15  23536014.398 6 123682535.703 6     -3606.027          40.000    23536019.414 6  96376001.899 6     -2809.892          39.000  
G12  20421954.945 8 107318099.222 8      1338.789          51.000    20421953.703 8  83624485.491 8      1043.213          51.000  
G25  22380226.422 7 117608873.922 7      2833.090          42.000    22380226.180 5  91643302.226 5      2207.603          35.000  
R12  23039809.078 5 123074138.98525     -2967.676          31.000                                                                  
R03  21948502.023 6 117491646.540 6     -3785.836          39.000    21948509.508 6  91382398.328 6     -2944.543          37.000  
R24  23307513.023 5 124635334.765 5      4369.344          35.000                                                                  
R04  20961644.859 5 112248337.085 5      -533.535          31.000                                                                  
R23  21155958.195 8 113169724.221 8      2976.254          48.000    21155963.000 5  88020917.845 5      2314.868          35.000  
E21  23844674.156 6 125304566.272 6       718.691          39.000    23844673.062 5  96012596.697 5       550.746          34.000  
E27  24322134.930 7 127813716.429 7     -1494.258          45.000    24322141.969 5  97935199.076 5     -1145.161          35.000  
E13  27159781.562 6 142725646.355 6      2947.270          40.000    27159791.594 8 109361225.210 8      2258.388          48.000  
C19  24451512.758 7 127325392.471 7     -2128.188          42.000  
C27  23422734.688 7 121968378.437 7      2427.715          44.000  
C28  23622196.781 5 123006937.611 5      -465.102          30.000  
> 2020 05 08 08 12  0.0000000  0 16      -0.000000000000
G24  20175279.094 8 106021809.725 8      -375.875          51.000    20175280.484 8  82614415.667 8      -292.890          51.000  
G15  23556625.359 6 123790846.205 6     -3612.117          40.000    23556630.742 5  96460399.650 5     -2814.638          35.000  
G19  21847969.227 5 114811853.620 5     -1465.117          32.000                                                                  
G12  20414364.000 8 107278207.735 8      1323.098          51.000    20414362.758 8  83593401.255 8      1030.985          51.000  
G25  22364088.578 6 117524064.300 6      2823.000          41.000    22364087.344 5  91577216.838 5      2199.741          35.000  
R14  20789142.648 5 110817444.25125      2060.199          33.000                                                                  
R12  23056493.312 4 123163263.49824     -2971.441          29.000                                                                  
R03  21969765.141 6 117605462.280 6     -3799.348          37.000    21969773.703 6  91470921.610 6     -2955.049          37.000  
R24  23283016.383 5 124504354.603 5      4365.270          34.000    23283017.305 4  96836732.82224      3395.210          25.000  
R23  21139335.078 7 113080796.900 7      2954.891          47.000    21139339.492 5  87951752.155 5      2298.249          33.000  
E21  23840600.102 5 125283155.107 5       711.289          35.000    23840596.766 5  95996205.759 5       545.185          32.000  
E27  24330688.000 7 127858662.424 7     -1499.562          46.000    24330697.664 6  97969638.235 6     -1148.986          36.000  
E13  27142974.055 7 142637319.616 7      2943.574          43.000    27142983.273 7 109293546.253 7      2255.542          47.000  
C19  24463815.078 7 127389456.975 7     -2140.031          42.000  
C27  23408791.211 7 121895779.166 7      2414.848          47.000  
C28  23624940.273 4 123021229.827 4      -486.527          26.000  
> 2020 05 08 08 12 30.0000000  0 13      -0.000000000000
G24  20177455.234 8 106033245.249 8      -388.383          51.000    20177456.844 8  82623326.457 8      -302.636          51.000  
G15  23577248.773 6 123899222.262 6     -3615.168          38.000    23577254.461 6  96544848.472 6     -2817.018          36.000  
G12  20406841.195 8 107238674.935 8      1310.355          51.000    20406839.602 8  83562596.463 8      1021.053          51.000  
G25  22347987.227 6 117439450.983 6      2815.609          36.000    22347986.906 5  91511284.445 5      2193.985          35.000  
R03  21991085.578 5 117719565.786 5     -3809.570          34.000    21991090.500 6  91559668.605 6     -2963.003          36.000  
R22  21836285.117 5 116563197.38325     -1677.430          30.000    21836303.656 5  90660333.69525     -1304.668          31.000  
R23  21122809.711 7 112992396.748 7      2936.363          44.000    21122814.727 5  87882996.559 5      2283.842          34.000  
E21                                                                  23836541.781 5  95979886.591 5       541.518          32.000  
E27  24339250.344 7 127903657.564 7     -1502.059          45.000    24339260.797 5  98004115.067 5     -1151.069          35.000  
E13  27126166.273 7 142548990.773 7      2942.875          43.000    27126173.508 7 109225865.719 7      2254.979          43.000  
C19  24476166.945 7 127453775.906 7     -2149.543          44.000  
C27  23394903.570 8 121823459.333 8      2404.637          50.000  
C28  23627749.922 4 123035887.892 4      -500.418          27.000  
> 2020 05 08 08 13  0.0000000  0 14      -0.000000000000
G24  20179712.391 8 106045106.863 8      -404.227          51.000    20179714.227 8  82632569.259 8      -314.982          51.000  
G15  23597898.422 6 124007735.955 6     -3621.262          36.000    23597903.539 4  96629404.454 4     -2821.772          27.000  
G12  20399401.133 8 107199575.662 8      1294.309          51.000    20399399.102 8  83532129.491 8      1008.552          51.000  
R12  23089881.930 5 123341621.864 5     -2977.773          30.000    23089887.523 4  95932392.271 4     -2316.046          29.000  
R03  22012476.469 6 117834028.602 6     -3823.059          39.000    22012473.148 5  91648695.079 5     -2973.494          33.000  
R24  23234049.750 6 124242527.096 6      4358.375          36.000                                                                  
R04  20971323.836 5 112300100.445 5      -617.770          32.000                                                                  
R23  21106396.219 6 112904604.252 6      2914.586          41.000    21106403.383 5  87814713.562 5      2266.904          32.000  
E21                                                                  23832524.336 5  95963711.323 5       535.559          34.000  
E27  24347836.109 7 127948776.131 7     -1507.570          45.000    24347844.812 5  98038686.495 5     -1155.526          33.000  
E13  27109373.078 7 142460736.730 7      2938.902          45.000    27109376.438 7 109158242.483 7      2251.843          42.000  
C19  24488581.133 7 127518421.005 7     -2161.992          43.000  
C27  23381085.180 8 121751495.243 8      2391.141          51.000  
C28  23630680.672 5 123051152.875 5      -520.070          31.000  
> 2020 05 08 08 13 30.0000000  0 13      -0.000000000000
G24  20182044.883 8 106057364.410 8      -421.145          51.000    20182046.797 8  82642120.578 8      -328.168          51.000  
G15  23618568.172 5 124116354.402 5     -3628.000          34.000    23618568.969 5  96714042.124 5     -2827.008          30.000  
G12  20392037.688 8 107160879.762 8      1277.188          51.000    20392035.977 8  83501976.872 8       995.214          51.000  
G25  22315946.586 4 117271089.93624      2794.141          28.000    22315935.023 4  91380063.87624      2177.250          27.000  
R03  22033921.977 6 117948815.227 6     -3837.664          40.000    22033916.008 5  91737973.526 5     -2984.850          32.000  
R24  23209589.133 6 124111719.690 6      4352.871          37.000    23209592.828 4  96531348.54924      3385.567          27.000  
R23  21090091.203 7 112817392.419 7      2891.430          44.000    21090099.148 5  87746882.195 5      2248.890          31.000  
E21  23828540.055 5 125219816.239 5       689.867          33.000    23828537.742 5  95947656.500 5       528.552          35.000  
E27  24356439.375 7 127993987.467 7     -1514.324          44.000    24356445.438 5  98073328.990 5     -1160.668          34.000  
E13  27092588.805 7 142372529.425 7      2933.508          46.000    27092590.227 7 109090655.078 7      2247.793          44.000  
C19  24501051.445 7 127583359.949 7     -2175.258          43.000  
C27  23367329.922 8 121679859.094 8      2376.508          51.000  
C28  23633714.625 6 123066918.584 6      -539.789          37.000  
> 2020 05 08 08 14  0.0000000  0 13      -0.000000000000
G24  20184473.938 8 106070129.222 8      -432.184          51.000    20184475.812 8  82652067.175 8      -336.767          51.000  
G15  23639277.977 5 124225185.833 5     -3629.895          34.000    23639278.609 5  96798845.776 5     -2828.487          31.000  
G17  23810054.023 5 125122676.48825     -2707.340          32.000                                                                  
G12  20384771.852 8 107122698.426 8      1265.879          51.000    20384770.641 8  83472225.208 8       986.399          51.000  
R03  22055445.906 6 118064034.443 6     -3845.996          41.000    22055440.008 5  91827588.464 5     -2991.331          31.000  
R24  23185163.508 5 123981098.225 5      4351.715          32.000    23185165.141 4  96429752.769 4      3384.668          26.000  
R23  21073918.875 7 112730878.707 7      2873.895          46.000    21073925.773 5  87679593.766 5      2235.252          34.000  
E21  23824603.812 5 125199137.223 5       687.359          33.000    23824602.227 6  95931807.012 6       526.454          36.000  
E27  24365081.234 7 128039402.166 7     -1515.355          45.000    24365086.500 6  98108127.286 6     -1161.186          36.000  
E13  27075834.195 7 142284481.942 7      2933.980          45.000    27075835.945 7 109023190.186 7      2248.158          45.000  
C19  24513598.203 7 127648700.563 7     -2182.953          42.000  
C27  23353659.172 8 121608663.203 8      2367.516          51.000  
C28  23636853.953 5 123083289.332 5      -554.281          30.000  
> 2020 05 08 08 14 30.0000000  0 14      -0.000000000000
G24  20186989.711 8 106083349.911 8      -454.535          51.000    20186991.484 8  82662368.997 8      -354.183          51.000  
G17  23825545.898 6 125204082.211 6     -2725.648          36.000                                                                  
G12  20377593.859 8 107084979.657 8      1243.344          50.000    20377592.539 8  83442833.952 8       968.840          51.000  
G25  22284120.852 5 117103835.646 5      2769.914          35.000    22284118.461 5  91249737.115 5      2158.375          33.000  
R03  22077039.016 6 118179628.740 6     -3865.961          39.000    22077033.875 4  91917495.198 4     -3006.853          25.000  
R24  23160766.914 5 123850632.841 5      4340.777          30.000    23160763.781 4  96328268.21824      3376.170          25.000  
R04  20982393.320 5 112359373.410 5      -708.410          34.000    20982388.570 3  87390610.11723      -550.974          23.000  
R23  21057868.039 7 112645014.170 7      2845.039          42.000    21057873.602 5  87612810.262 5      2212.812          34.000  
E21  23820709.617 5 125178671.128 5       672.469          35.000    23820706.898 6  95916122.918 6       515.137          37.000  
E27  24373752.031 7 128084967.850 7     -1527.547          45.000    24373756.727 6  98143041.236 6     -1170.635          36.000  
E13  27059100.664 7 142196544.584 7      2923.137          47.000    27059102.688 7 108955809.586 7      2239.762          47.000  
C19  24526211.945 7 127714388.983 7     -2201.660          42.000  
C27  23340063.109 8 121537858.248 8      2347.430          51.000  
C28  23640100.258 6 123100213.108 6      -579.367          36.000  
> 2020 05 08 08 15  0.0000000  0 16      -0.000000000000
G24  20189576.523 8 106096944.049 8      -456.832          51.000    20189577.938 8  82672961.814 8      -355.973          51.000  
G17  23841090.664 5 125285766.636 5     -2724.371          35.000                                                                  
G19  21900231.945 4 115086494.90424     -1584.000          27.000                                                                  
G12  20370488.156 8 107047640.793 8      1240.773          50.000    20370486.781 8  83413738.745 8       966.837          51.000  
G25  22268284.180 6 117020615.817 6      2772.844          38.000    22268287.578 6  91184890.621 6      2160.658          36.000  
R14  20720318.016 5 110450593.326 5      2017.793          31.000                                                                  
R03  22098684.836 6 118295509.000 6     -3864.848          38.000    22098685.500 4  92007686.415 4     -3005.990          27.000  
R24  23136378.031 5 123720211.986 5      4349.344          35.000                                                                  
R04  20986382.648 5 112380763.268 5      -722.809          33.000                                                                  
R23  21041923.211 7 112559718.814 7      2836.250          43.000    21041928.305 5  87546469.426 5      2205.973          34.000  
E21  23816839.219 5 125158334.885 5       678.238          35.000    23816837.039 6  95900540.537 6       519.716          38.000  
E27  24382435.820 7 128130601.200 7     -1519.867          45.000    24382438.508 5  98178007.016 5     -1164.523          34.000  
E13  27042372.516 7 142108636.536 7      2932.133          46.000    27042375.500 8 108888451.463 8      2246.775          49.000  
C19  24538876.719 7 127780340.795 7     -2200.121          43.000  
C27  23326525.945 8 121467364.315 8      2347.070          51.000  
C28  23643440.805 6 123117607.510 6      -585.234          38.000  
> 2020 05 08 08 15 30.0000000  0 16      -0.000000000000
G24  20192232.609 8 106110902.709 8      -471.277          51.000    20192233.953 8  82683838.681 8      -367.229          51.000  
G17  23856686.305 6 125367717.634 6     -2735.879          37.000    23856685.539 5  97689139.627 5     -2131.845          31.000  
G12  20363453.172 8 107010672.591 8      1226.188          51.000    20363452.133 8  83384932.374 8       955.471          51.000  
G25  22252486.578 6 116937608.857 6      2763.402          38.000    22252493.961 5  91120209.943 5      2153.301          32.000  
