     3.02           OBSERVATION DATA    M (MIXED)           RINEX VERSION / TYPE
SAVERINEX           SC600               20200518 165932 LCL PGM / RUN BY / DATE
       G = GPS       R = GLONASS       C = COMPASS          COMMENT
       S = SBAS      J = QZSS          E = GALILEO          COMMENT
BEAN                                                        MARKER NAME
1                                                           MARKER NUMBER
GEODETIC                                                    MARKER TYPE
Unige DICCA         GTER                                    OBSERVER / AGENCY
SC60291900056       SC600               2.12(191202)        REC # / TYPE / VERS
                    HEMA45          NONE                    ANT # / TYPE
  4509407.8091   693652.4678  4442337.6214                  APPROX POSITION XYZ
        0.0000        0.0000        0.0000                  ANTENNA: DELTA H/E/N
G    8 C1C L1C D1C S1C C2Y L2Y D2Y S2Y                      SYS / # / OBS TYPES
R    8 C1C L1C D1C S1C C2P L2P D2P S2P                      SYS / # / OBS TYPES
C    4 C1I L1I D1I S1I                                      SYS / # / OBS TYPES
E    8 C1C L1C D1C S1C C7Q L7Q D7Q S7Q                      SYS / # / OBS TYPES
DBHZ                                                        COMMENT
     30.000                                                 INTERVAL
  2020    05    18    14    00    0.0000000     GPS         TIME OF FIRST OBS
  2020    05    18    14    59   30.0000000     GPS         TIME OF LAST OBS
     0                                                      RCV CLOCK OFFS APPL
G L1C  0.00000                                              SYS / PHASE SHIFT
G L2Y  0.00000                                              SYS / PHASE SHIFT
R L1C  0.00000                                              SYS / PHASE SHIFT
R L2P  0.25000                                              SYS / PHASE SHIFT
C L1I  0.00000                                              SYS / PHASE SHIFT
E L1C  0.50000                                              SYS / PHASE SHIFT
E L7Q -0.25000                                              SYS / PHASE SHIFT
 13 R03  5 R04  6 R05  1 R06 -4 R09 -2 R10 -7 R11  0 R16 -1 GLONASS SLOT / FRQ #
    R18 -3 R19  3 R20  2 R21  4 R22 -3                      GLONASS SLOT / FRQ #
 C1C   71.950 C2C   71.950 C2P   71.950                     GLONASS COD/PHS/BIS
    18                                                      LEAP SECONDS
*** Above antenna height is from mark to ANTENNA BOTTOM.    COMMENT
    17     4        0.0000        ANT MEASURE TYPE/HEIGT    COMMENT
    0.0000    0.0000    0.0458    0.0405    0.0000          COMMENT
                    BASE STATION                            COMMENT
                                                            END OF HEADER
> 2020 05 18 14 00  0.0000000  0 14        .000000000000
G10  23733752.375 6 124721741.550 6      3404.289          37.000    23733762.719 6  97185788.298 6      2652.693          37.000
G18  20956008.281 7 110124667.280 7     -1883.359          46.000    20956008.469 7  85811408.731 7     -1467.556          44.000
G20  21682499.016 8 113942324.250 8      2083.090          51.000    21682498.711 7  88786274.304 7      1623.190          43.000
G21  21155629.625 8 111173609.953 8     -1495.906          49.000    21155628.289 8  86628785.962 8     -1165.641          50.000
G26  20458666.188 8 107511028.643 8     -1081.398          51.000    20458667.797 8  83774820.122 8      -842.648          51.000
R10  21283626.055 7 113453707.132 7     -3808.883          47.000
R21  19969794.664 5 106862461.889 5      1060.594          32.000    19969790.344 4  83115192.520 4       824.906          24.000
C23  26037002.195 4 135581492.683 4     -3428.590          28.000
C27  23466603.180 4 122196723.307 4      2079.266          29.000
C28  21754604.141 8 113281929.871 8      -309.625          51.000
E01  26170289.570 8 137525766.817 8     -2933.410          48.000    26170291.938 7 105376887.351 7     -2247.648          47.000
E12  23590123.898 7 123966949.187 7      2012.812          46.000    23590123.266 7  94987661.114 7      1542.249          44.000
E31  23784656.922 8 124989205.923 8      -685.031          51.000    23784659.703 8  95770951.007 8      -524.894          51.000
E33  23415984.312 8 123051859.968 8      -202.730          51.000    23415984.602 8  94286510.741 8      -155.327          51.000
> 2020 05 18 14 00 30.0000000  0 14        .000000000000
G10  23714322.898 6 124619637.673 6      3404.777          38.000    23714332.664 6  97106226.880 6      2653.076          39.000
G18  20966789.914 7 110181324.260 7     -1891.105          46.000    20966790.250 7  85855557.029 7     -1473.589          45.000
G20  21670642.562 8 113880014.378 8      2073.012          51.000    21670641.570 7  88737721.196 7      1615.337          44.000
G21  21164190.406 8 111218597.180 8     -1501.004          50.000    21164189.117 8  86663840.943 8     -1169.613          50.000
G26  20464881.289 8 107543691.103 8     -1093.965          51.000    20464883.281 8  83800271.374 8      -852.443          51.000
R04  22934428.250 5 122812747.296 5      -690.781          32.000    22934430.781 4  95521035.036 4      -537.277          26.000
R10  21305094.422 8 113568141.960 8     -3817.750          48.000
R21  19963876.727 5 106830809.705 5      1052.117          31.000    19963877.930 5  83090562.259 5       818.313          30.000
C27  23454631.383 4 122134365.722 4      2079.574          29.000
C28  21756403.102 8 113291297.471 8      -312.691          51.000
E01  26187042.914 7 137613813.697 7     -2934.223          46.000    26187046.531 7 105444351.803 7     -2248.339          43.000
E12  23578642.883 7 123906616.818 7      2011.484          45.000    23578642.477 7  94941432.441 7      1541.300          44.000
E31  23788599.539 8 125009923.225 8      -693.875          51.000    23788602.195 8  95786825.304 8      -531.697          51.000
E33  23417157.211 8 123058023.044 8      -205.973          51.000    23417157.391 8  94291233.083 8      -157.808          51.000
> 2020 05 18 14 01  0.0000000  0 16        .000000000000
G10  23694921.977 6 124517678.167 6      3396.969          40.000    23694930.141 6  97026777.955 6      2646.989          40.000
G18  20977646.797 7 110238377.123 7     -1907.434          45.000    20977646.828 7  85900013.803 7     -1486.312          44.000
G20  21658873.992 8 113818168.186 8      2054.555          51.000    21658872.969 7  88689529.400 7      1600.955          44.000
G21  21172811.344 8 111263900.273 8     -1514.586          50.000    21172810.062 8  86699142.045 8     -1180.197          50.000
G26  20471198.453 8 107576889.353 8     -1114.738          51.000    20471200.734 8  83826140.120 8      -868.627          51.000
R04  22938393.750 5 122833974.234 5      -719.609          33.000
R10  21326642.258 7 113683004.611 7     -3835.191          46.000
R11  19961362.164 5 106667446.253 5       302.477          30.000
R21  19958052.266 5 106799573.119 5      1035.816          30.000
C23  26076506.180 4 135787213.403 4     -3427.383          28.000
C27  23442692.703 5 122072233.589 5      2070.547          31.000
C28  21758250.617 8 113300917.548 8      -324.133          51.000
E01  26203831.852 7 137702047.025 7     -2943.461          46.000    26203834.109 6 105511959.019 6     -2255.436          40.000
E12  23567200.094 7 123846485.969 7      2001.711          46.000    23567200.375 7  94895358.195 7      1533.758          44.000
E31  23792623.742 8 125031069.347 8      -711.285          51.000    23792625.945 8  95803028.186 8      -544.990          51.000
E33  23418379.258 8 123064445.203 8      -217.617          51.000    23418379.516 8  94296153.952 8      -166.788          51.000
> 2020 05 18 14 01 30.0000000  0 15        .000000000000
G10  23675564.789 6 124415946.882 6      3388.898          40.000    23675571.125 6  96947506.852 6      2640.703          39.000
G18  20988594.039 7 110295904.768 7     -1923.902          46.000    20988593.523 7  85944840.524 7     -1499.148          44.000
G20  21647209.219 8 113756869.260 8      2035.703          51.000    21647208.398 7  88641764.049 7      1586.265          44.000
G21  21181507.305 8 111309597.998 8     -1528.391          49.000    21181506.078 8  86734750.665 8     -1190.954          49.000
G26  20477633.078 8 107610703.895 8     -1135.918          51.000    20477635.445 8  83852489.128 8      -885.131          51.000
R10  21348283.898 7 113798373.701 7     -3852.402          43.000
R21  19952279.602 5 106768753.926 5      1019.297          33.000    19952282.586 4  83042362.106 4       792.786          28.000
R22  23498101.883 6 125434454.316 6      3173.035          38.000    23498112.352 5  97560144.160 5      2467.916          32.000
C23  26096274.484 5 135890145.260 5     -3431.426          30.000
C27  23430797.977 4 122010317.533 4      2060.754          29.000
C28  21760161.781 8 113310869.905 8      -335.855          51.000
E01  26220672.312 7 137790546.328 7     -2952.918          47.000    26220672.203 7 105579770.059 7     -2262.775          42.000
E12  23555811.070 7 123786637.761 7      1991.625          45.000    23555811.453 7  94849500.467 7      1526.128          43.000
E31  23796744.766 8 125052725.158 8      -728.969          51.000    23796746.820 8  95819621.576 8      -558.590          51.000
E33  23419665.914 8 123071206.658 8      -229.566          51.000    23419666.266 8  94301334.803 8      -175.893          51.000
> 2020 05 18 14 02  0.0000000  0 15        .000000000000
G10  23656224.688 6 124314305.487 6      3386.605          38.000    23656229.352 6  96868305.813 6      2638.916          38.000
G18  20999604.383 7 110353764.043 7     -1933.996          46.000    20999604.141 7  85989925.677 7     -1507.010          45.000
G20  21635621.875 8 113695978.571 8      2023.137          50.000    21635621.484 7  88594316.799 7      1576.473          44.000
G21  21190251.219 8 111355547.912 8     -1535.555          49.000    21190250.195 8  86770555.795 8     -1196.536          49.000
G26  20484158.062 8 107644993.022 8     -1150.512          51.000    20484160.562 8  83879207.938 8      -896.503          51.000
R04  22946780.742 5 122878850.327 5      -771.375          32.000
R10  21369993.828 7 113914101.574 7     -3863.133          45.000
R21  19946590.852 5 106738308.103 5      1009.297          31.000    19946593.867 4  83018681.969 4       785.006          27.000
R22  23480274.258 6 125339297.034 6      3170.109          39.000    23480286.477 5  97486132.991 5      2465.641          33.000
C23  26116032.281 4 135993041.907 4     -3429.387          28.000
C28  21762109.695 8 113321014.276 8      -341.039          51.000
E01  26237536.758 7 137879169.001 7     -2955.863          47.000    26237537.086 7 105647675.651 7     -2264.834          46.000
E12  23544448.891 7 123726931.200 7      1988.137          45.000    23544449.016 7  94803751.308 7      1523.464          43.000
E31  23800935.859 8 125074749.361 8      -740.047          51.000    23800937.844 8  95836497.260 8      -566.989          51.000
E33  23420990.328 8 123078165.523 8      -234.934          51.000    23420990.539 8  94306666.925 8      -180.002          51.000
> 2020 05 18 14 02 30.0000000  0 15        .000000000000
G10  23636903.211 6 124212763.796 6      3382.547          36.000    23636906.930 6  96789182.562 6      2635.760          36.000
G18  21010678.695 8 110411959.748 8     -1946.145          48.000    21010678.734 7  86035272.980 7     -1516.479          44.000
G20  21624113.773 8 113635505.147 8      2008.145          49.000    21624113.672 7  88547194.684 7      1564.788          44.000
G21  21199044.086 8 111401754.908 8     -1545.230          49.000    21199043.258 8  86806561.246 8     -1204.076          49.000
G26  20490774.547 8 107679763.157 8     -1167.711          51.000    20490777.273 8  83906301.532 8      -909.905          50.000
R04  22951169.398 5 122902359.655 5      -796.469          30.000
R10  21391773.461 8 114030191.784 8     -3876.402          49.000
R11  19956967.125 5 106644005.981 5       219.152          35.000
R22  23462469.867 6 125244262.674 6      3165.090          38.000    23462482.422 5  97412217.424 5      2461.740          34.000
C27  23407081.023 5 121886815.146 5      2053.473          34.000
C28  21764095.859 8 113331357.127 8      -348.836          51.000
E01  26254425.648 7 137967920.492 7     -2961.344          47.000    26254427.906 8 105715679.989 8     -2269.094          48.000
E12  23533115.352 7 123667373.312 7      1981.965          46.000    23533114.688 7  94758116.055 7      1518.711          43.000
E31  23805198.320 8 125097148.736 8      -753.645          51.000    23805200.141 8  95853660.414 8      -577.507          51.000
E33  23422353.289 8 123085327.942 8      -242.918          51.000    23422353.383 8  94312155.019 8      -186.129          51.000
> 2020 05 18 14 03  0.0000000  0 15        .000000000000
G10  23617624.047 6 124111445.989 6      3374.633          36.000    23617627.578 6  96710233.823 6      2629.587          36.000
G18  21021839.828 8 110470611.117 8     -1961.496          48.000    21021839.570 7  86080975.319 7     -1528.439          45.000
G20  21612708.891 8 113575572.894 8      1989.785          50.000    21612708.719 7  88500494.240 7      1550.482          43.000
G21  21207908.680 8 111448338.650 8     -1558.008          49.000    21207907.859 8  86842860.262 8     -1214.032          49.000
G26  20497505.508 8 107715134.985 8     -1187.961          51.000    20497508.531 8  83933863.961 8      -925.687          51.000
R10  21413643.562 8 114146763.037 8     -3892.496          50.000
R11  19955828.812 5 106637924.298 5       188.547          35.000
R21  19935424.977 5 106678556.435 5       981.332          30.000
R22  23444713.414 6 125149475.131 6      3156.664          36.000    23444724.086 5  97338493.873 5      2455.186          32.000
C27  23395280.422 5 121825367.545 5      2045.164          30.000
C28  21766143.297 8 113342018.168 8      -359.449          51.000
E01  26271361.883 7 138056920.604 7     -2969.516          45.000    26271366.047 8 105783874.835 8     -2275.445          50.000
E12  23521833.680 7 123608085.440 7      1972.922          47.000    23521832.438 7  94712687.731 7      1511.662          44.000
E31  23809555.273 8 125120044.433 8      -770.309          51.000    23809556.844 8  95871203.862 8      -590.254          51.000
E33  23423777.906 8 123092814.363 8      -253.742          51.000    23423777.742 8  94317891.376 8      -194.471          51.000
> 2020 05 18 14 03 30.0000000  0 15        .000000000000
G10  23598362.172 5 124010271.707 5      3369.668          32.000    23598373.625 5  96631383.736 5      2625.715          31.000
G18  21033071.438 8 110529632.760 8     -1973.926          48.000    21033071.172 7  86126966.214 7     -1538.121          46.000
G20  21601391.578 8 113516100.303 8      1974.145          50.000    21601391.641 7  88454151.999 7      1538.294          45.000
G21  21216828.883 8 111495214.144 8     -1567.824          50.000    21216827.891 8  86879386.609 8     -1221.681          50.000
G26  20504335.148 8 107751024.594 8     -1205.367          51.000    20504338.094 8  83961829.860 8      -939.247          51.000
R10  21435586.742 8 114263726.626 8     -3905.656          50.000
R11  19954845.000 5 106632670.589 5       160.957          35.000    19954851.414 4  82936502.279 4       125.189          28.000
R21  19929954.664 5 106649279.544 5       968.844          33.000
R22  23426988.086 5 125054850.230 5      3150.492          33.000    23426995.133 5  97264896.756 5      2450.386          32.000
C23  26175317.359 4 136301745.014 4     -3431.020          29.000
C28  21768235.797 8 113352914.481 8      -367.578          51.000
E01  26288329.023 7 138146084.639 7     -2975.324          44.000    26288335.047 8 105852195.289 8     -2279.749          50.000
E12  23510587.875 8 123548984.494 8      1966.469          48.000    23510586.648 7  94667402.612 7      1506.817          45.000
E31  23813990.695 8 125143352.999 8      -784.273          51.000    23813991.977 8  95889063.661 8      -600.883          51.000
E33  23425248.344 8 123100540.789 8      -261.992          51.000    23425247.836 8  94323811.627 8      -200.744          51.000
> 2020 05 18 14 04  0.0000000  0 14        .000000000000
G10  23579144.688 5 123909240.635 5      3366.566          31.000    23579155.555 5  96552691.854 5      2623.302          32.000
G18  21044380.461 8 110589062.072 8     -1984.082          49.000    21044380.445 7  86173274.757 7     -1546.038          46.000
G20  21590169.742 8 113457129.119 8      1961.020          50.000    21590170.031 7  88408200.466 7      1528.067          46.000
G21  21225811.820 8 111542418.916 8     -1575.340          51.000    21225810.664 8  86916169.538 8     -1227.538          51.000
G26  20511270.812 8 107787470.831 8     -1220.531          51.000    20511273.250 8  83990229.523 8      -951.063          50.000
R04  22965218.898 5 122977691.975 5      -872.078          31.000
R10  21457609.578 8 114381118.624 8     -3916.488          49.000
R11  19954025.055 6 106628285.146 6       135.602          38.000    19954027.414 4  82933104.431 4       105.468          26.000
R21  19924568.820 4 106620394.670 4       958.832          26.000
C28  21770380.719 8 113364084.725 8      -373.273          51.000
E01  26305333.852 6 138235450.491 6     -2978.418          41.000    26305341.898 8 105920670.425 8     -2282.311          50.000
E12  23499384.992 8 123490110.014 8      1962.324          48.000    23499383.617 7  94622291.025 7      1503.617          45.000
E31  23818512.047 8 125167113.696 8      -795.871          51.000    23818513.281 8  95907269.901 8      -609.841          51.000
E33  23426771.555 8 123108545.851 8      -267.793          51.000    23426771.094 8  94329945.383 8      -205.222          51.000
> 2020 05 18 14 04 30.0000000  0 14        .000000000000
G10  23559937.984 5 123808302.579 5      3371.184          32.000    23559946.789 5  96474037.269 5      2626.902          31.000
G18  21055740.062 8 110648757.363 8     -1986.000          50.000    21055740.016 7  86219790.548 7     -1547.532          46.000
G20  21579017.148 8 113398521.720 8      1955.801          50.000    21579017.727 7  88362532.375 7      1524.001          46.000
G21  21234830.461 8 111589811.602 8     -1574.660          51.000    21234829.188 8  86953098.896 8     -1227.008          51.000
G26  20518285.492 8 107824333.463 8     -1227.488          50.000    20518287.852 8  84018953.634 8      -956.484          50.000
R10  21479685.000 8 114498793.604 8     -3918.742          48.000
R11  19953340.656 5 106624626.749 5       118.094          35.000    19953340.672 4  82930253.091 4        91.848          26.000
R22  23391624.078 5 124866077.100 5      3153.918          31.000
C27  23360070.031 5 121642019.795 5      2041.191          31.000
C28  21772551.695 8 113375390.137 8      -370.867          51.000
E01  26322349.789 6 138324877.054 6     -2973.492          40.000    26322359.734 8 105989192.107 8     -2278.444          49.000
E12  23488198.203 7 123431322.502 7      1966.480          46.000    23488196.922 7  94577246.062 7      1506.640          44.000
E31  23823092.672 8 125191186.706 8      -799.297          51.000    23823094.453 8  95925715.440 8      -612.460          51.000
E33  23428321.086 8 123116689.172 8      -265.438          51.000    23428320.844 8  94336185.075 8      -203.384          51.000
> 2020 05 18 14 05  0.0000000  0 13        .000000000000
G10  23540769.016 6 123707553.482 6      3350.691          37.000    23540774.344 6  96395531.520 6      2610.931          36.000
G18  21067176.188 8 110708855.096 8     -2014.508          49.000    21067176.109 7  86266619.932 7     -1569.746          46.000
G20  21567960.594 8 113340419.117 8      1923.645          49.000    21567961.242 7  88317257.610 7      1498.947          47.000
G21  21243910.891 8 111637529.105 8     -1600.535          51.000    21243909.422 8  86990281.348 8     -1247.170          51.000
G26  20525405.406 8 107861750.408 8     -1261.031          50.000    20525407.922 8  84048109.655 8      -982.622          50.000
R10  21501838.984 8 114616887.830 8     -3947.996          48.000
R11  19952819.391 6 106621836.598 6        73.848          40.000    19952817.562 4  82928068.969 4        57.440          26.000
R21  19913962.641 4 106563648.298 4       927.641          28.000
C28  21774775.094 8 113386967.598 8      -394.852          51.000
E01  26339405.320 7 138414501.533 7     -2995.316          43.000    26339415.039 7 106057865.401 7     -2295.154          47.000
E12  23477053.852 7 123372760.661 7      1943.773          45.000    23477052.812 7  94532374.006 7      1489.364          44.000
E31  23827758.961 8 125215710.401 8      -829.578          51.000    23827761.555 8  95944506.296 8      -635.630          51.000
E33  23429923.359 8 123125108.545 8      -289.789          51.000    23429923.234 8  94342636.278 8      -222.064          51.000
> 2020 05 18 14 05 30.0000000  0 13        .000000000000
G10  23521622.250 6 123606927.053 6      3358.211          38.000    23521625.531 6  96317121.354 6      2616.791          39.000
G18  21078674.930 8 110769282.459 8     -2013.926          48.000    21078675.125 7  86313706.191 7     -1569.293          47.000
G20  21556987.008 8 113282752.798 8      1920.613          49.000    21556987.906 8  88272322.830 8      1496.582          48.000
G21  21253039.383 8 111685499.396 8     -1597.418          51.000    21253037.695 8  87027660.805 8     -1244.738          51.000
G26  20532617.586 8 107899650.276 8     -1265.668          51.000    20532619.859 8  84077642.020 8      -986.235          51.000
R10  21524057.359 7 114735325.357 7     -3947.793          46.000
R11  19952447.047 5 106619843.136 5        58.926          32.000    19952444.742 4  82926523.553 4        45.834          24.000
C27  23336727.453 5 121520397.829 5      2026.480          33.000
C28  21777037.266 8 113398746.636 8      -390.301          51.000
E01  26356486.070 7 138504251.701 7     -2988.070          45.000    26356493.734 7 106126634.955 7     -2289.587          45.000
E12  23465938.938 7 123314353.844 7      1949.961          45.000    23465937.953 7  94487620.756 7      1494.255          44.000
E31  23832497.758 8 125240613.822 8      -830.770          51.000    23832500.688 8  95963588.121 8      -636.495          51.000
E33  23431564.430 8 123133732.463 8      -285.078          51.000    23431564.492 8  94349244.218 8      -218.463          51.000
> 2020 05 18 14 06  0.0000000  0 15        .000000000000
G18  21090239.008 8 110830052.546 8     -2033.699          49.000    21090239.453 7  86361059.512 7     -1584.701          46.000
G20  21546099.867 8 113225539.973 8      1897.223          49.000    21546100.828 8  88227741.431 8      1478.355          48.000
G21  21262218.258 8 111733735.274 8     -1614.449          51.000    21262216.664 8  87065247.204 8     -1258.012          51.000
G26  20539924.602 8 107938047.547 8     -1290.449          51.000    20539926.828 8  84107561.969 8     -1005.545          51.000
R04  22985914.258 5 123088446.228 5      -973.457          33.000
R10  21546341.422 7 114854117.900 7     -3967.949          43.000
R11  19952226.430 5 106618662.338 5        23.250          35.000    19952224.891 5  82925606.178 5        18.089          30.000
R22  23338789.055 5 124584011.050 5      3124.699          34.000    23338774.484 4  96898696.846 4      2430.322          26.000
C23  26274081.344 4 136816037.655 4     -3427.305          29.000
C27  23325094.203 5 121459844.487 5      2014.078          32.000
C28  21779340.914 8 113410741.837 8      -405.695          51.000
E01  26373593.336 7 138594141.238 7     -3000.875          46.000    26373598.328 7 106195511.265 7     -2299.249          43.000
E12  23454856.703 7 123256117.310 7      1936.211          45.000    23454855.625 7  94442998.020 7      1483.456          44.000
E31  23837311.617 8 125265911.901 8      -852.078          51.000    23837314.852 8  95982972.361 8      -652.909          51.000
E33  23433247.109 8 123142575.318 8      -300.648          51.000    23433247.320 8  94356019.919 8      -230.397          51.000
> 2020 05 18 14 06 30.0000000  0 16        .000000000000
G10  23483415.492 5 123406185.545 5      3338.508          30.000
G18  21101887.641 8 110891266.196 8     -2046.570          50.000    21101887.898 7  86408758.444 7     -1594.730          45.000
G20  21535318.930 8 113168885.579 8      1880.488          48.000    21535319.500 7  88183595.149 7      1465.316          47.000
G21  21271467.016 8 111782338.112 8     -1624.891          51.000    21271465.625 8  87103119.541 8     -1266.149          50.000
G26  20547345.516 8 107977044.526 8     -1308.547          51.000    20547347.984 8  84137949.198 8     -1019.647          51.000
R04  22991445.922 4 123118067.175 4      -999.750          29.000    22991452.031 4  95758585.982 4      -777.580          26.000
R10  21568710.039 7 114973365.412 7     -3981.301          42.000
R11  19952177.312 6 106618399.101 6        -5.172          36.000    19952179.359 4  82925401.468 4        -4.020          29.000
R21  19898588.227 5 106481398.311 5       894.293          30.000    19898593.055 4  82818861.543 4       695.561          25.000
C23  26293832.258 5 136918883.938 5     -3428.461          31.000
C27  23313505.195 5 121399537.630 5      2007.375          33.000
C28  21781705.602 8 113423054.859 8      -414.414          51.000
E01  26390746.016 7 138684271.624 7     -3007.098          46.000    26390748.609 7 106264572.120 7     -2304.014          42.000
E12  23443826.648 7 123198154.159 7      1928.918          45.000    23443826.008 7  94398584.693 7      1478.074          45.000
E31  23842220.078 8 125291707.398 8      -866.770          51.000    23842223.789 8  96002737.702 8      -664.130          51.000
E33  23434991.008 8 123151739.281 8      -309.465          51.000    23434991.125 8  94363041.665 8      -237.131          51.000
> 2020 05 18 14 07  0.0000000  0 16        .000000000000
G10  23464390.312 6 123306186.003 6      3336.945          39.000    23464396.336 6  96082754.868 6      2600.220          38.000
G18  21113618.352 8 110952911.565 8     -2054.621          50.000    21113618.391 7  86456793.790 7     -1601.003          46.000
G20  21524642.406 7 113112781.758 7      1868.285          47.000    21524642.602 7  88139877.900 7      1455.810          46.000
G21  21280783.586 8 111831297.004 8     -1630.457          51.000    21280781.977 8  87141269.319 8     -1270.486          50.000
G26  20554878.562 8 108016630.652 8     -1321.938          51.000    20554881.164 8  84168795.502 8     -1030.084          51.000
R04  22997123.633 5 123148489.305 5     -1021.008          31.000
R10  21591163.312 7 115093054.002 7     -3989.492          44.000
R11  19952297.570 5 106619043.504 5       -29.371          33.000    19952299.211 5  82925902.850 5       -22.838          30.000
R21  19893635.250 5 106454852.739 5       884.750          32.000    19893633.438 4  82798220.024 4       688.139          26.000
C23  26313592.688 4 137021782.469 4     -3423.719          29.000
C27  23301964.117 5 121339467.975 5      2005.941          33.000
C28  21784129.273 8 113435675.570 8      -418.453          51.000
E01  26407941.883 7 138774631.505 7     -3008.367          45.000    26407942.773 6 106333808.835 6     -2305.113          41.000
E12  23432846.852 7 123140454.657 7      1926.371          45.000    23432847.172 7  94354373.376 7      1476.051          45.000
E31  23847221.742 8 125317990.196 8      -876.723          51.000    23847225.609 8  96022876.450 8      -671.807          51.000
E33  23436793.922 8 123161213.784 8      -313.547          51.000    23436793.867 8  94370301.357 8      -240.277          51.000
> 2020 05 18 14 07 30.0000000  0 14        .000000000000
G10  23445370.102 7 123206225.095 7      3327.352          44.000    23445374.023 7  96004863.330 7      2592.741          44.000
G18  21125391.992 8 111014782.702 8     -2070.156          51.000    21125391.977 7  86505005.044 7     -1613.109          44.000
G20  21514032.273 8 113057026.827 8      1848.703          48.000    21514032.047 7  88096432.521 7      1440.548          45.000
G21  21290128.594 8 111880405.636 8     -1643.430          51.000    21290126.758 8  87179535.774 8     -1280.595          50.000
G26  20562484.961 8 108056601.250 8     -1342.699          51.000    20562487.766 8  84199941.412 8     -1046.262          51.000
R04  23002926.656 5 123179550.223 5     -1049.734          32.000    23002933.023 4  95806409.565 4      -816.454          28.000
R10  21613660.789 7 115212972.996 7     -4005.203          44.000
C23  26333322.891 5 137124529.029 5     -3426.445          31.000
C27  23290431.414 5 121279433.594 5      1997.137          31.000
C28  21786573.125 8 113448401.512 8      -429.867          51.000
E01  26425141.531 7 138865015.539 7     -3016.980          42.000    26425141.828 6 106403064.073 6     -2311.871          41.000
E12  23421878.688 7 123082814.998 7      1916.164          46.000    23421879.492 7  94310207.943 7      1468.310          45.000
E31  23852277.445 8 125344556.158 8      -894.250          51.000    23852281.203 8  96043232.173 8      -685.208          51.000
E33  23438616.984 8 123170794.142 8      -325.094          51.000    23438616.891 8  94377642.155 8      -249.140          51.000
> 2020 05 18 14 08  0.0000000  0 14        .000000000000
G10  23426393.117 7 123106494.780 7      3321.094          45.000    23426395.352 7  95927151.482 7      2587.868          46.000
G18  21137244.258 8 111077066.581 8     -2082.312          50.000    21137244.273 7  86553537.927 7     -1622.581          45.000
G20  21503525.336 8 113001811.941 8      1832.207          49.000    21503524.438 7  88053407.984 7      1427.694          44.000
G21  21299537.672 8 111929851.256 8     -1653.141          50.000    21299535.992 8  87218064.818 8     -1288.162          50.000
G26  20570200.211 8 108097144.734 8     -1360.227          51.000    20570203.156 8  84231533.721 8     -1059.917          51.000
R04  23008876.578 5 123211418.235 5     -1074.238          30.000    23008883.242 4  95831195.986 4      -835.507          29.000
R10  21636236.484 7 115333309.788 7     -4017.559          43.000
R11  19952963.664 5 106622638.348 5       -89.082          33.000    19952974.633 4  82928716.140 4       -69.286          29.000
C27  23278944.328 5 121219622.027 5      1990.480          31.000
C28  21789073.227 8 113461419.688 8      -438.152          51.000
E01  26442380.094 6 138955611.332 6     -3022.805          38.000    26442381.523 6 106472481.563 6     -2315.998          41.000
E12  23410957.945 7 123025424.353 7      1909.652          45.000    23410958.172 7  94266233.340 7      1463.240          44.000
E31  23857422.695 8 125371594.116 8      -908.359          51.000    23857426.414 8  96063949.568 8      -696.070          51.000
E33  23440496.047 8 123180668.688 8      -333.336          51.000    23440496.211 8  94385208.361 8      -255.395          51.000
> 2020 05 18 14 08 30.0000000  0 14        .000000000000
G10  23407439.164 8 123006887.703 8      3317.258          48.000    23407438.961 8  95849535.730 8      2584.882          48.000
G18  21149153.625 8 111139650.877 8     -2091.988          51.000    21149153.727 7  86602304.900 7     -1630.121          45.000
G20  21493100.867 8 112947029.136 8      1818.055          50.000    21493099.461 7  88010720.116 7      1416.669          45.000
G21  21308989.602 8 111979522.379 8     -1660.234          50.000    21308988.102 8  87256769.580 8     -1293.689          49.000
G26  20578003.344 8 108138150.091 8     -1375.316          51.000    20578006.156 8  84263485.928 8     -1071.675          51.000
R04  23014956.945 5 123243979.750 5     -1097.797          32.000    23014962.227 4  95856521.769 4      -853.836          27.000
R10  21658868.453 6 115453948.728 6     -4027.152          41.000
R11  19953527.961 6 106625608.236 6      -114.543          36.000    19953540.766 5  82931076.737 5       -89.095          31.000
R22  23251399.523 4 124117545.029 4      3098.453          29.000    23251397.594 4  96535868.343 4      2409.908          27.000
C28  21791608.344 8 113474620.447 8      -443.805          51.000
E01  26459636.078 5 139046307.057 5     -3026.434          35.000    26459640.758 6 106541975.707 6     -2318.462          41.000
E12  23400063.305 7 122968172.640 7      1905.340          44.000    23400062.469 7  94222365.172 7      1459.948          43.000
E31  23862636.703 8 125398993.589 8      -920.090          51.000    23862640.258 8  96084943.961 8      -705.010          51.000
E33  23442409.977 8 123190726.399 8      -339.031          51.000    23442410.297 8  94392914.928 8      -259.762          51.000
> 2020 05 18 14 09  0.0000000  0 13        .000000000000
G10  23388535.695 8 122907546.384 8      3305.379          49.000    23388533.461 8  95772127.048 8      2575.623          49.000
G18  21161146.414 8 111202673.078 8     -2109.551          51.000    21161146.508 7  86651413.097 7     -1643.806          46.000
G20  21482785.555 8 112892819.837 8      1795.871          50.000    21482784.016 7  87968479.148 7      1399.383          45.000
G21  21318510.672 8 112029556.724 8     -1675.355          50.000    21318509.195 8  87295757.367 8     -1305.472          50.000
G26  20585920.875 8 108179756.096 8     -1398.457          51.000    20585923.539 8  84295906.185 8     -1089.707          51.000
R10  21681582.336 6 115575027.268 6     -4044.664          38.000
R11  19954266.734 5 106629551.193 5      -148.832          34.000    19954274.086 5  82934143.538 5      -115.761          31.000
R22  23234022.609 5 124024786.627 5      3084.867          31.000    23234027.883 4  96463732.059 4      2399.341          29.000
C28  21794204.922 8 113488141.732 8      -457.590          51.000
E01  26476939.305 6 139137256.859 6     -3036.703          38.000    26476945.453 6 106611652.273 6     -2326.675          40.000
E12  23389221.008 7 122911199.539 7      1892.887          42.000    23389220.227 7  94178710.492 7      1450.406          44.000
E31  23867946.078 8 125426893.809 8      -939.863          51.000    23867949.406 8  96106322.052 8      -720.140          51.000
E33  23444385.227 8 123201106.088 8      -352.844          51.000    23444385.336 8  94400868.197 8      -270.394          51.000
> 2020 05 18 14 09 30.0000000  0 15        .000000000000
G10  23369648.414 8 122808291.237 8      3304.828          50.000    23369646.516 8  95694785.487 8      2575.194          50.000
G18  21173187.438 8 111265948.698 8     -2115.469          51.000    21173187.547 7  86700718.757 7     -1648.417          47.000
G20  21472544.953 8 112839003.547 8      1785.172          50.000    21472543.531 7  87926544.425 7      1391.043          47.000
G21  21328065.930 8 112079770.128 8     -1678.801          51.000    21328064.523 8  87334884.684 8     -1308.156          50.000
G26  20593917.648 8 108221779.503 8     -1409.898          51.000    20593920.367 8  84328651.687 8     -1098.622          51.000
R04  23027549.695 4 123311408.635 4     -1147.152          27.000
R10  21704342.180 6 115696356.297 6     -4050.516          37.000
R11  19955142.344 5 106634232.287 5      -170.730          33.000    19955148.516 5  82937784.253 5      -132.796          32.000
R22  23216666.258 4 123932150.396 4      3085.859          29.000    23216676.117 4  96391650.812 4      2400.110          28.000
C28  21796828.352 8 113501802.346 8      -459.773          51.000
E01  26494255.000 6 139228244.940 6     -3035.812          39.000    26494260.398 6 106681370.391 6     -2326.127          39.000
E12  23378396.758 6 122854322.628 6      1892.180          41.000    23378396.703 7  94135129.486 7      1449.900          43.000
E26  24869272.078 6 130688897.821 6     -2275.078          37.000
E31  23873315.945 8 125455112.017 8      -947.992          51.000    23873319.039 8  96127943.792 8      -726.381          51.000
E33  23446386.820 8 123211624.536 8      -355.047          51.000    23446386.914 8  94408927.784 8      -272.034          51.000
> 2020 05 18 14 10  0.0000000  0 13        .000000000000
G10  23350812.984 8 122709308.064 8      3302.426          49.000    23350812.008 8  95617655.815 8      2573.322          49.000
G18  21185310.992 8 111329658.431 8     -2123.281          50.000    21185310.992 7  86750362.717 7     -1654.505          47.000
G20  21462414.102 8 112785765.260 8      1772.570          50.000    21462412.766 7  87885060.067 7      1381.224          47.000
G21  21337689.805 8 112130343.478 8     -1684.262          51.000    21337688.508 8  87374292.488 8     -1312.412          50.000
G26  20602028.406 8 108264402.418 8     -1423.145          51.000    20602031.125 8  84361864.323 8     -1108.944          51.000
R10  21727184.453 6 115818117.218 6     -4058.234          40.000
R11  19956191.734 5 106639836.854 5      -194.570          33.000    19956194.336 5  82942143.357 5      -151.336          32.000
C28  21799513.211 8 113515783.154 8      -463.852          51.000
E01  26511616.008 6 139319468.640 6     -3037.117          40.000    26511620.352 6 106751269.035 6     -2326.959          38.000
E12  23367626.078 6 122797724.862 6      1889.520          40.000    23367626.555 7  94091762.396 7      1447.862          43.000
E26  24882277.539 5 130757252.656 5     -2273.523          32.000    24882265.805 5 100190616.957 5     -1741.808          32.000
E31  23878780.992 8 125483830.781 8      -958.031          51.000    23878783.680 8  96149949.081 8      -734.118          51.000
E33  23448449.344 8 123222463.845 8      -359.074          51.000    23448449.836 8  94417233.238 8      -275.111          51.000
> 2020 05 18 14 10 30.0000000  0 14        .000000000000
G10  23331999.016 7 122610437.940 7      3290.895          47.000    23331998.695 7  95540614.205 7      2564.336          47.000
G18  21197485.945 8 111393638.439 8     -2139.996          51.000    21197485.711 7  86800217.269 7     -1667.529          47.000
G20  21452362.727 8 112732945.439 8      1750.863          50.000    21452361.609 8  87843901.775 8      1364.309          48.000
G21  21347351.148 8 112181113.795 8     -1698.379          51.000    21347349.891 8  87413853.775 8     -1323.409          50.000
G26  20610222.602 8 108307462.125 8     -1445.406          51.000    20610224.953 8  84395417.329 8     -1126.291          51.000
R10  21750076.805 6 115940141.259 6     -4074.723          40.000
R11  19957383.180 5 106646229.134 5      -227.051          31.000    19957388.031 5  82947068.431 5      -176.595          34.000
R22  23182063.180 5 123747414.722 5      3072.559          35.000
C28  21802228.625 8 113529923.364 8      -476.746          51.000
E01  26528990.547 7 139410764.556 7     -3047.094          42.000    26528994.906 6 106821223.025 6     -2334.756          37.000
E12  23356878.133 6 122741244.526 6      1877.688          40.000    23356878.375 7  94048485.277 7      1438.912          43.000
E26                                                                  24895258.953 4 100242891.950 4     -1747.447          29.000
E31  23884310.055 8 125512887.969 8      -977.078          51.000    23884312.508 8  96172213.679 8      -748.700          51.000
E33  23450542.039 8 123233461.397 8      -372.031          51.000    23450542.625 8  94425659.940 8      -285.060          51.000
> 2020 05 18 14 11  0.0000000  0 13        .000000000000
G10  23313227.047 7 122511790.166 7      3285.762          43.000    23313226.977 7  95463745.831 7      2560.334          43.000
G18  21209732.242 8 111457993.040 8     -2150.215          51.000    21209731.992 7  86850363.701 7     -1675.492          47.000
G20  21442411.555 8 112680652.157 8      1735.508          50.000    21442410.812 8  87803153.771 8      1352.344          48.000
G21  21357069.680 8 112232185.093 8     -1706.172          51.000    21357068.297 8  87453649.590 8     -1329.485          50.000
G26  20618520.070 8 108351064.207 8     -1461.242          51.000    20618522.219 8  84429392.971 8     -1138.633          51.000
R10  21773037.945 6 116062532.988 6     -4084.699          40.000
R11  19958737.414 6 106653459.852 6      -254.676          37.000    19958738.859 5  82952692.291 5      -198.081          34.000
R22  23164817.484 5 123655318.840 5      3067.523          34.000
C28  21804994.930 8 113544328.070 8      -483.375          51.000
E01  26546398.445 7 139502237.594 7     -3050.984          42.000    26546404.312 6 106891312.786 6     -2337.791          36.000
E12  23346172.438 6 122684988.155 6      1872.512          38.000    23346172.547 7  94005379.761 7      1434.848          42.000
E31  23889923.477 8 125542389.604 8      -989.613          50.000    23889926.188 8  96194818.820 8      -758.263          51.000
E33  23452684.961 8 123244722.849 8      -378.582          51.000    23452685.281 8  94434288.846 8      -290.079          51.000
> 2020 05 18 14 11 30.0000000  0 14        .000000000000
G10  23294490.898 6 122413339.378 6      3278.445          41.000    23294492.305 6  95387030.889 6      2554.630          40.000
G18  21222044.094 8 111522691.826 8     -2162.125          51.000    21222043.977 7  86900778.339 7     -1684.770          47.000
G20  21432555.602 8 112628859.141 8      1718.227          50.000    21432554.977 8  87762795.607 8      1338.878          48.000
G21  21366839.938 8 112283527.780 8     -1715.754          51.000    21366838.422 8  87493656.877 8     -1336.951          50.000
G26  20626914.930 8 108395179.488 8     -1478.820          51.000    20626917.273 8  84463768.486 8     -1152.328          51.000
G27  21900667.781 6 115088794.910 6      2300.391          37.000    21900667.516 6  89679572.966 6      1792.512          36.000
R10  21796061.992 6 116185259.231 6     -4096.281          41.000
R11  19960247.414 5 106661529.275 5      -282.492          32.000    19960248.133 5  82958968.548 5      -219.719          33.000
R22  23147600.125 5 123563400.702 5      3061.516          31.000    23147585.789 4  96104857.058 4      2381.179          25.000
C28  21807806.578 8 113558968.853 8      -491.812          51.000
E01  26563834.133 7 139593857.931 7     -3056.203          42.000    26563843.281 6 106961515.398 6     -2341.727          37.000
E12  23335504.602 6 122628927.482 6      1865.680          40.000    23335503.938 7  93962424.170 7      1429.433          42.000
E31  23895615.938 8 125572307.039 8     -1004.082          49.000    23895619.273 8  96217742.556 8      -769.347          51.000
E33  23454872.578 8 123256219.116 8      -386.977          51.000    23454872.719 8  94443097.680 8      -296.568          51.000
> 2020 05 18 14 12  0.0000000  0 13        .000000000000
G10  23275793.578 7 122315104.816 7      3270.570          43.000    23275798.445 7  95310484.438 7      2548.499          43.000
G18  21234424.078 8 111587749.055 8     -2174.422          51.000    21234423.969 7  86951472.284 7     -1694.355          46.000
G20  21422798.445 8 112577584.539 8      1700.426          51.000    21422797.547 7  87722841.393 7      1325.010          47.000
G21  21376664.586 8 112335156.268 8     -1725.648          51.000    21376663.273 8  87533886.876 8     -1344.661          50.000
G26  20635410.547 8 108439823.436 8     -1496.848          51.000    20635413.023 8  84498555.953 8     -1166.375          51.000
G27  21887558.422 5 115019894.041 5      2293.027          32.000
R10  21819151.344 6 116308332.765 6     -4108.000          41.000
R22  23130418.562 5 123471677.679 5      3054.562          35.000
C28  21810666.344 8 113573861.524 8      -500.527          51.000
E01  26581300.555 7 139685640.443 7     -3061.801          42.000    26581312.117 6 107031842.266 6     -2346.259          36.000
E12  23324878.109 7 122573078.844 7      1858.215          42.000    23324875.906 7  93919631.092 7      1423.752          42.000
E31  23901390.648 8 125602656.291 8     -1018.730          50.000    23901394.734 8  96240997.157 8      -780.619          51.000
E33  23457107.898 8 123267965.765 8      -395.664          51.000    23457108.000 8  94452098.359 8      -303.174          51.000
> 2020 05 18 14 12 30.0000000  0 15        .000000000000
G10  23257125.156 7 122217006.929 7      3267.230          46.000    23257130.047 7  95234044.590 7      2545.897          46.000
G18  21246856.227 8 111653080.405 8     -2182.699          51.000    21246856.078 7  87002379.817 7     -1700.805          45.000
G20  21413124.688 8 112526748.200 8      1686.719          51.000    21413123.422 7  87683228.674 7      1314.326          47.000
G21  21386527.664 8 112386986.914 8     -1731.453          51.000    21386526.570 8  87574274.404 8     -1349.184          50.000
G26  20643990.961 8 108484912.831 8     -1510.824          51.000    20643993.242 8  84533690.548 8     -1177.266          51.000
R04  23068655.680 4 123531506.661 4     -1295.562          28.000    23068657.047 4  96080103.447 4     -1007.660          29.000
R10  21842288.789 6 116431665.516 6     -4115.984          39.000
R11  19963730.633 5 106680166.819 5      -336.789          33.000    19963733.094 5  82973463.362 5      -261.947          31.000
R22  23113257.969 5 123380066.448 5      3051.363          31.000
C27  23176988.688 5 120688662.754 5      1943.188          35.000
C28  21813558.648 8 113588924.194 8      -505.414          51.000
E01  26598781.586 6 139777501.388 6     -3063.656          40.000    26598793.586 5 107102229.206 5     -2347.489          35.000
E12  23314276.375 7 122517360.108 7      1854.812          42.000    23314273.055 7  93876937.525 7      1421.205          42.000
E31  23907232.266 8 125633354.645 8     -1029.562          51.000    23907236.641 8  96264519.265 8      -788.912          51.000
E33  23459374.953 8 123279879.754 8      -400.406          51.000    23459375.094 8  94461227.268 8      -306.808          51.000
> 2020 05 18 14 13  0.0000000  0 13        .000000000000
G10  23238512.500 8 122119195.400 8      3257.461          49.000    23238515.414 8  95157827.942 8      2538.284          49.000
G18  21259368.062 8 111718830.418 8     -2196.852          51.000    21259368.078 7  87053613.586 7     -1711.832          46.000
G20  21403562.367 8 112476498.528 8      1666.996          51.000    21403561.250 7  87644073.117 7      1298.961          47.000
G21  21396456.742 8 112439164.251 8     -1743.164          51.000    21396455.477 8  87614932.071 8     -1358.310          49.000
G26  20652683.375 8 108530593.479 8     -1530.703          51.000    20652685.656 8  84569285.856 8     -1192.756          50.000
R04  23075997.344 5 123570816.454 5     -1321.820          32.000    23075999.578 4  96110677.621 4     -1028.076          25.000
R10  21865499.812 5 116555402.549 5     -4129.441          35.000
R11  19965717.969 5 106690782.057 5      -367.430          35.000    19965721.430 5  82981719.678 5      -285.779          30.000
C28  21816511.586 8 113604301.815 8      -516.074          51.000
E01  26616305.391 6 139869585.891 6     -3071.305          40.000    26616316.070 5 107172787.426 5     -2353.254          34.000
E12  23303726.492 6 122461917.980 6      1845.172          40.000    23303723.219 7  93834455.913 7      1413.923          42.000
E31  23913168.414 8 125664548.428 8     -1046.188          51.000    23913172.953 8  96288420.983 8      -801.729          51.000
E33  23461701.609 8 123292106.988 8      -410.945          51.000    23461701.781 8  94470596.189 8      -314.910          51.000
> 2020 05 18 14 13 30.0000000  0 12        .000000000000
G10  23219938.844 8 122021586.724 8      3253.125          50.000    23219941.641 8  95081769.345 8      2534.906          50.000
G18  21271942.688 8 111784910.652 8     -2205.180          51.000    21271942.930 7  87105104.669 7     -1718.322          45.000
G20  21394095.547 8 112426751.131 8      1652.812          50.000    21394094.727 7  87605308.942 7      1287.906          47.000
G21  21406435.102 8 112491600.373 8     -1749.238          51.000    21406433.539 8  87655791.381 8     -1363.043          49.000
G26  20661471.414 8 108576778.033 8     -1544.750          50.000    20661474.086 8  84605273.815 8     -1203.701          49.000
R10  21888770.125 6 116679451.989 6     -4137.242          38.000
R11  19967862.617 5 106702229.135 5      -392.805          34.000    19967863.555 5  82990622.882 5      -305.527          31.000
C28  21819508.648 8 113619908.433 8      -521.152          51.000
E01  26633855.258 6 139961806.031 6     -3073.219          36.000    26633861.750 5 107243449.661 5     -2354.987          33.000
E12  23293212.188 6 122406666.217 6      1841.504          40.000    23293210.312 7  93792120.146 7      1410.999          42.000
E31  23919182.367 8 125696150.875 8     -1057.363          51.000    23919187.234 8  96312635.805 8      -810.211          51.000
E33  23464071.359 8 123304560.323 8      -415.984          51.000    23464071.602 8  94480138.342 8      -318.708          51.000
> 2020 05 18 14 14  0.0000000  0 13        .000000000000
G10  23201390.633 8 121924110.648 8      3245.637          51.000    23201394.398 8  95005814.033 8      2529.071          51.000
G18  21284565.883 8 111851245.912 8     -2216.840          51.000    21284566.023 7  87156794.460 7     -1727.408          44.000
G20  21384710.750 8 112377434.920 8      1635.359          51.000    21384710.273 7  87566880.751 7      1274.306          46.000
G21  21416448.461 8 112544220.531 8     -1758.512          51.000    21416446.891 8  87696794.112 8     -1370.266          49.000
G26  20670341.500 8 108623392.405 8     -1562.238          50.000    20670344.180 8  84641596.705 8     -1217.329          50.000
R10  21912086.250 6 116803735.639 6     -4147.965          40.000
R11  19970147.430 6 106714432.878 6      -420.590          36.000    19970148.805 5  83000114.715 5      -327.128          32.000
R22  23061983.867 5 123106452.085 5      3032.344          30.000    23061992.398 4  95749472.429 4      2358.490          28.000
C28  21822535.883 8 113635671.185 8      -529.410          51.000
E01                                                                  26651417.336 5 107314158.594 5     -2358.722          35.000
E12  23282720.430 6 122351531.616 6      1834.609          41.000    23282719.750 7  93749874.159 7      1405.740          42.000
E31  23925260.219 8 125728088.348 8     -1071.512          51.000    23925265.141 8  96337107.356 8      -821.019          51.000
E33  23466469.961 8 123317165.801 8      -424.078          51.000    23466470.430 8  94489797.077 8      -324.925          51.000
> 2020 05 18 14 14 30.0000000  0 11        .000000000000
G10  23182886.477 8 121826866.678 8      3236.715          51.000    23182890.820 8  94930039.551 8      2522.115          51.000
G18  21297255.555 8 111917930.603 8     -2229.445          51.000    21297255.523 7  87208756.539 7     -1737.230          45.000
G20  21375426.797 8 112328648.105 8      1616.609          51.000    21375426.875 7  87528865.063 7      1259.696          47.000
G21  21426514.898 8 112597119.776 8     -1768.723          51.000    21426513.469 8  87738014.294 8     -1378.225          49.000
G26  20679311.648 8 108670532.226 8     -1580.867          50.000    20679314.336 8  84678329.019 8     -1231.845          50.000
R10  21935464.617 6 116928347.176 6     -4159.852          41.000
C28  21825611.555 8 113651685.421 8      -538.762          51.000
E01                                                                  26669004.555 6 107384987.090 6     -2363.711          36.000
E12  23272269.375 6 122296610.868 6      1826.234          41.000    23272269.320 6  93707792.057 6      1399.340          41.000
E31  23931420.359 8 125760457.039 8     -1086.934          51.000    23931424.961 8  96361909.334 8      -832.917          51.000
E33  23468915.758 8 123330019.274 8      -433.406          51.000    23468916.453 8  94499645.842 8      -332.088          51.000
> 2020 05 18 14 15  0.0000000  0 14        .000000000000
G10  23164415.727 8 121729799.774 8      3235.043          51.000    23164420.297 8  94854403.030 8      2520.813          51.000
G16  20545261.250 6 107966085.301 6       731.008          37.000    20545261.242 5  84129396.982 5       569.641          34.000
G18  21310000.422 8 111984904.819 8     -2234.848          50.000    21310000.352 7  87260944.234 7     -1741.440          46.000
G20  21366232.844 8 112280334.689 8      1604.902          51.000    21366233.469 7  87491218.272 7      1250.573          47.000
G21  21436623.000 8 112650238.091 8     -1771.809          51.000    21436621.492 8  87779405.171 8     -1380.633          49.000
G26  20688370.766 8 108718138.590 8     -1592.180          51.000    20688373.461 8  84715424.874 8     -1240.659          51.000
R04  23106692.141 5 123735196.776 5     -1413.465          33.000
R10  21958892.906 6 117053224.392 6     -4164.559          40.000
R11  19975180.578 5 106741283.110 5      -472.551          35.000
C28  21828724.359 8 113667893.458 8      -541.117          51.000
E01                                                                  26686612.305 6 107455889.642 6     -2362.805          38.000
E12  23261847.055 6 122241846.188 6      1825.191          36.000    23261847.609 6  93665829.498 6      1398.637          41.000
E31  23937651.281 8 125793198.648 8     -1095.188          51.000    23937655.742 8  96386997.047 8      -839.188          51.000
E33  23471397.703 8 123343062.090 8      -435.520          51.000    23471398.484 8  94509639.682 8      -333.707          51.000
> 2020 05 18 14 15 30.0000000  0 13        .000000000000
G10  23146004.281 8 121633046.380 8      3220.973          50.000    23146009.102 8  94779010.804 8      2509.852          50.000
G16  20541174.367 6 107944612.942 6       706.301          37.000    20541174.109 5  84112665.239 5       550.364          32.000
G18  21322825.398 8 112052299.956 8     -2252.395          50.000    21322825.312 7  87313459.905 7     -1755.113          45.000
G20  21357154.945 8 112232630.129 8      1581.082          51.000    21357155.703 7  87454045.895 7      1232.015          47.000
G21  21446797.914 8 112703707.586 8     -1786.969          51.000    21446796.125 8  87821069.697 8     -1392.446          49.000
G26  20697544.117 8 108766343.957 8     -1615.645          51.000    20697546.789 8  84752987.477 8     -1258.947          51.000
R10  21982396.320 6 117178497.741 6     -4181.270          39.000
R11  19977946.625 6 106756068.268 6      -506.855          38.000
C28  21831899.484 8 113684427.131 8      -555.449          51.000
E01                                                                  26704265.344 6 107526967.317 6     -2371.302          40.000
E12  23251477.891 5 122187341.063 5      1811.672          32.000    23251479.969 6  93624088.770 6      1388.565          40.000
E31  23943978.430 8 125826446.159 8     -1115.543          51.000    23943982.688 8  96412472.379 8      -854.743          51.000
E33  23473940.953 8 123356426.921 8      -449.637          51.000    23473941.703 8  94519880.274 8      -344.575          51.000
> 2020 05 18 14 16  0.0000000  0 13        .000000000000
G10  23127625.938 8 121536467.499 8      3215.492          51.000    23127630.500 8  94703754.570 8      2505.581          51.000
G16  20537182.773 6 107923638.373 6       689.867          37.000    20537181.688 5  84096321.447 5       537.556          33.000
G18  21335702.992 8 112119972.124 8     -2261.141          49.000    21335702.742 7  87366191.457 7     -1761.928          45.000
G20  21348166.297 8 112185394.280 8      1566.047          51.000    21348167.016 7  87417238.748 7      1220.296          46.000
G21  21457012.258 8 112757384.779 8     -1793.422          51.000    21457010.539 8  87862896.065 8     -1397.472          49.000
G26  20706804.203 8 108815005.539 8     -1630.461          51.000    20706807.016 8  84790905.571 8     -1270.489          51.000
R10  22005947.492 6 117304019.924 6     -4188.414          36.000
R11  19980858.367 5 106771639.475 5      -532.324          34.000
C28  21835109.906 8 113701145.614 8      -561.168          51.000
E01                                                                  26721935.336 7 107598110.337 7     -2373.095          42.000
E12  23241137.633 5 122133001.605 5      1808.383          32.000    23241140.141 6  93582461.344 6      1385.006          39.000
E31  23950374.852 8 125860057.322 8     -1127.191          51.000    23950378.547 8  96438226.377 8      -863.704          51.000
E33  23476518.320 8 123369971.210 8      -455.258          51.000    23476519.047 8  94530258.366 8      -348.828          51.000
> 2020 05 18 14 16 30.0000000  0 13        .000000000000
G10  23109289.617 8 121440108.644 8      3207.879          51.000    23109293.156 8  94628669.806 8      2499.649          51.000
G16  20533293.961 6 107903205.541 6       671.527          36.000    20533291.891 5  84080399.754 5       523.265          34.000
G18  21348640.961 8 112187961.853 8     -2272.137          49.000    21348640.648 7  87419170.444 7     -1770.496          45.000
G20  21339275.141 8 112138671.437 8      1548.238          50.000    21339275.703 7  87380831.344 7      1206.422          46.000
G21  21467273.945 8 112811310.275 8     -1802.230          51.000    21467272.586 8  87904915.926 8     -1404.335          50.000
G26  20716159.062 8 108864164.836 8     -1647.426          51.000    20716161.805 8  84829211.499 8     -1283.708          51.000
R10  22029551.188 6 117429829.686 6     -4198.750          36.000
R11  19983924.766 6 106788039.369 6      -561.379          36.000
C28  21838363.914 8 113718090.738 8      -569.156          51.000
E01  26739618.367 5 140517641.837 5     -3101.371          34.000    26739629.312 7 107669350.178 7     -2376.663          42.000
E12  23230838.344 6 122078874.688 6      1800.820          36.000    23230836.297 6  93540979.806 6      1379.981          37.000
E31  23956848.328 8 125894074.270 8     -1141.219          51.000    23956851.156 8  96464291.309 8      -874.488          51.000
E33  23479137.781 8 123383736.783 8      -463.082          51.000    23479138.695 8  94540806.019 8      -354.817          51.000
> 2020 05 18 14 17  0.0000000  0 13        .000000000000
G10  23090994.719 8 121343967.321 8      3201.086          51.000    23090997.461 8  94553754.585 8      2494.356          51.000
G16  20529508.109 5 107883310.395 5       654.387          34.000    20529507.875 5  84064896.978 5       509.909          35.000
G18  21361637.906 7 112256261.649 7     -2281.859          47.000    21361637.914 7  87472391.084 7     -1778.072          46.000
G20  21330481.023 8 112092458.129 8      1531.812          50.000    21330481.297 7  87344820.978 7      1193.620          46.000
G21  21477581.617 8 112865477.428 8     -1809.656          51.000    21477580.422 8  87947124.085 8     -1410.122          50.000
G26  20725607.336 8 108913815.440 8     -1663.129          50.000    20725609.656 8  84867900.271 8     -1295.945          50.000
R10  22053204.906 6 117555917.414 6     -4207.688          37.000
R11  19987147.492 6 106805261.939 6      -587.738          37.000
C28  21841660.617 8 113735256.890 8      -575.934          51.000
E01  26757335.750 5 140610745.306 5     -3104.930          34.000    26757345.789 7 107740681.553 7     -2379.303          42.000
