     3.04           OBSERVATION DATA    M (MIXED)           RINEX VERSION / TYPE
Convert 2.6.2       NovAtel             20200515 161516 UTC PGM / RUN BY / DATE 
Rinex Version 3.04 Observation File                         COMMENT             
                                                            MARKER NAME         
                                                            MARKER NUMBER       
                                                            MARKER TYPE         
                                                            OBSERVER / AGENCY   
                    NovAtel GPSCard                         REC # / TYPE / VERS 
                                                            ANT # / TYPE        
        0.0000        0.0000        0.0000                  APPROX POSITION XYZ 
        0.0000        0.0000        0.0000                  ANTENNA: DELTA H/E/N
G    8 C1C L1C D1C S1C C2W L2W D2W S2W                      SYS / # / OBS TYPES 
R    8 C1C L1C D1C S1C C2P L2P D2P S2P                      SYS / # / OBS TYPES 
E    8 C1C L1C D1C S1C C7Q L7Q D7Q S7Q                      SYS / # / OBS TYPES 
C    4 C2I L2I D2I S2I                                      SYS / # / OBS TYPES 
DBHZ                                                        SIGNAL STRENGTH UNIT
    30.000                                                  INTERVAL            
  2020    05    14    08    00    0.0000000     GPS         TIME OF FIRST OBS   
  2020    05    14    08    59   30.0000000     GPS         TIME OF LAST OBS    
G L1C  0.00000  09 G12 G24 G17 G25 G19 G15 G02 G29 G32      SYS / PHASE SHIFT   
G L2W  0.00000  08 G12 G24 G17 G25 G15 G02 G29 G32          SYS / PHASE SHIFT   
R L1C  0.00000  06 R02 R21 R11 R22 R12 R01                  SYS / PHASE SHIFT   
R L2P  0.25000  05 R11 R22 R21 R02 R12                      SYS / PHASE SHIFT   
E L1C  0.50000  07 E04 E01 E31 E21 E13 E33 E26              SYS / PHASE SHIFT   
E L7Q -0.25000  07 E04 E01 E21 E31 E13 E33 E26              SYS / PHASE SHIFT   
C L2I  0.00000  04 C29 C22 C30 C27                          SYS / PHASE SHIFT   
  6 R02 -4 R21  4 R11  0 R22 -3 R12 -1 R01  1               GLONASS SLOT / FRQ #
 C1C  -71.950 C2C  -71.950 C2P  -71.950                     GLONASS COD/PHS/BIS 
     0     0     0     0GPS                                 LEAP SECONDS        
                                                            END OF HEADER       
> 2020 05 14 08 00  0.0000000  0 16      -0.000000000000
G12  20254158.852 8 106436346.534 8       978.453          51.000    20254157.984 8  82937400.995 8       762.428          51.000  
G24  20254877.805 8 106440096.143 8      -728.195          51.000    20254879.188 8  82940343.359 8      -567.425          51.000  
G17  24141530.281 6 126864576.542 6     -2910.059          38.000    24141527.328 6  98855496.428 6     -2267.582          38.000  
R02  20959576.656 4 111843890.530 4     -1059.293          27.000                                                                  
R21  20749261.430 6 111033046.986 6      1609.340          36.000                                                                  
R11  19920286.641 8 106447590.312 8     -1020.961          51.000    19920288.312 7  82792585.707 7      -794.081          45.000  
R22  22847911.922 5 121963311.854 5      4444.348          34.000    22847916.250 5  94860371.457 5      3456.712          32.000  
R12  20465539.984 5 109322856.55625      1815.633          32.000                                                                  
E04  25466727.742 8 133828545.694 8     -2435.348          50.000    25466730.297 8 102543942.615 8     -1866.109          51.000  
E01  23916931.047 8 125684297.850 8      -837.043          51.000    23916932.984 8  96303622.789 8      -641.308          51.000  
E21                                                                  27176722.281 5 109429398.337 5     -1723.434          32.000  
E31  24588836.594 5 129215204.223 5      1374.371          32.000    24588843.359 5  99009052.799 5      1053.357          34.000  
E13                                                                  26797189.164 6 107901159.094 6      -398.316          38.000  
C29  25353068.805 5 132020177.137 5      3452.375          30.000  
C22  25309399.461 6 131792850.285 6     -2604.105          41.000  
C30  22831996.695 8 118892215.217 8      1665.156          51.000  
> 2020 05 14 08 00 30.0000000  0 16      -0.000000000000
G12  20248621.391 8 106407246.804 8       961.875          50.000    20248620.188 8  82914725.863 8       749.513          50.000  
G24  20259083.305 8 106462195.782 8      -744.797          51.000    20259084.508 8  82957563.834 8      -580.361          51.000  
G17  24158178.734 6 126952061.241 6     -2921.445          38.000    24158175.328 6  98923666.257 6     -2276.455          39.000  
G25  21934751.578 5 115267893.783 5      2574.215          31.000    21934744.930 5  89819116.359 5      2005.882          30.000  
R21  20740320.133 6 110985205.442 6      1580.602          38.000                                                                  
R11  19926055.008 8 106478416.001 8     -1033.676          50.000    19926057.297 7  82816561.202 7      -803.970          47.000  
R22  22822960.328 5 121830114.004 5      4436.254          31.000    22822965.914 5  94756773.158 5      3450.423          33.000  
E04  25480663.953 8 133901778.627 8     -2446.430          49.000    25480665.961 8 102600056.131 8     -1874.583          51.000  
E01  23921732.258 8 125709527.652 8      -844.641          51.000    23921733.820 8  96322954.712 8      -647.199          51.000  
E21                                                                  27189572.383 5 109481140.668 5     -1725.907          30.000  
E31                                                                  24581018.641 5  98977548.679 5      1047.170          34.000  
E13                                                                  26800207.031 6 107913309.320 6      -411.722          37.000  
C29  25333193.062 4 131916588.176 4      3448.504          29.000  
C22  25324431.930 7 131871122.876 7     -2613.395          43.000  
C27  24072073.227 5 125349588.37925     -1317.023          30.000  
C30  22822454.727 8 118842529.205 8      1647.598          51.000  
> 2020 05 14 08 01  0.0000000  0 17      -0.000000000000
G12  20243164.148 8 106378568.759 8       950.535          51.000    20243162.664 8  82892379.342 8       740.677          51.000  
G24  20263369.023 8 106484716.454 8      -756.094          51.000    20263370.141 8  82975112.386 8      -589.164          51.000  
G17  24174878.219 6 127039816.875 6     -2927.926          38.000    24174874.992 6  98992047.230 6     -2281.504          37.000  
G19  22111663.961 6 116197544.542 6     -1982.379          38.000                                                                  
G25  21920081.219 5 115190777.185 5      2567.340          35.000    21920073.055 5  89759025.515 5      2000.528          35.000  
R02  20971777.023 6 111909043.585 6     -1109.902          36.000                                                                  
R21  20731526.125 6 110938144.879 6      1557.199          36.000    20731522.070 5  86285262.338 5      1211.155          31.000  
R11  19931880.453 8 106509545.934 8     -1041.051          51.000    19931883.289 8  82840773.343 8      -809.706          48.000  
R22  22798038.328 5 121697073.859 5      4434.238          32.000    22798043.148 5  94653297.534 5      3448.853          33.000  
E04  25494647.406 7 133975262.618 7     -2452.086          47.000    25494649.211 8 102656362.020 8     -1878.848          51.000  
E01  23926562.156 8 125734908.003 8      -846.941          51.000    23926563.258 8  96342401.972 8      -648.938          51.000  
E21                                                                  27202426.633 5 109532900.137 5     -1724.608          33.000  
E31                                                                  24573223.055 4  98946185.423 4      1045.568          29.000  
E13                                                                  26803309.367 6 107925800.324 6      -420.758          37.000  
C22  25339503.133 7 131949597.333 7     -2617.551          45.000  
C27  24079703.688 6 125389318.975 6     -1330.664          36.000  
C30  22812998.883 8 118793292.357 8      1635.363          50.000  
> 2020 05 14 08 01 30.0000000  0 14      -0.000000000000
G12  20237780.594 8 106350277.134 8       934.375          51.000    20237778.789 8  82870333.916 8       728.085          51.000  
G24  20267728.102 8 106507623.057 8      -772.176          51.000    20267729.320 8  82992961.655 8      -601.699          51.000  
G17  24191621.211 6 127127805.944 6     -2938.574          37.000    24191618.711 6  99060610.082 6     -2289.802          36.000  
G19  22123033.820 6 116257290.980 6     -2002.270          36.000                                                                  
G25  21905454.852 6 115113909.143 6      2555.895          37.000    21905449.211 6  89699128.374 6      1991.607          37.000  
R21  20722871.719 5 110891832.188 5      1529.250          32.000    20722863.258 5  86249241.310 5      1189.414          31.000  
R11  19937756.078 8 106540944.427 8     -1053.305          50.000    19937759.336 8  82865194.361 8      -819.240          48.000  
E04  25508671.156 7 134048960.847 7     -2462.348          47.000    25508673.375 8 102712832.094 8     -1886.711          51.000  
E01  23931413.875 8 125760403.455 8      -853.965          51.000    23931414.758 8  96361937.432 8      -654.298          51.000  
E21                                                                  27215276.914 5 109584649.798 5     -1726.655          35.000  
E13                                                                  26806489.383 5 107938604.944 5      -433.617          35.000  
C22  25354606.031 7 132028236.360 7     -2626.199          47.000  
C27  24087416.219 5 125429489.595 5     -1348.164          30.000  
C30  22803623.195 8 118744471.551 8      1618.238          50.000  
> 2020 05 14 08 02  0.0000000  0 14      -0.000000000000
G12  20232493.523 8 106322492.914 8       920.547          51.000    20232491.703 8  82848683.873 8       717.309          51.000  
G24  20272183.555 8 106531036.703 8      -786.012          51.000    20272184.914 8  83011206.020 8      -612.477          51.000  
G17  24208431.070 6 127216147.209 6     -2947.672          37.000    24208429.406 6  99129447.413 6     -2296.891          37.000  
G25  21890898.750 5 115037411.594 5      2546.797          34.000    21890895.430 5  89639519.808 5      1984.515          35.000  
R02  20984585.586 5 111977345.975 5     -1164.336          33.000                                                                  
R21  20714367.000 5 110846366.886 5      1502.613          32.000    20714373.875 5  86213850.630 5      1168.699          33.000  
R11  19943704.953 8 106572734.238 8     -1063.453          51.000    19943708.484 8  82889919.755 8      -827.130          49.000  
R22  22748284.406 6 121431485.265 6      4420.801          38.000    22748291.617 5  94446738.727 5      3438.401          32.000  
E04  25522758.688 8 134122992.660 8     -2470.426          48.000    25522761.141 8 102769557.765 8     -1892.931          50.000  
E01  23936310.359 8 125786134.692 8      -858.785          51.000    23936311.289 8  96381653.565 8      -658.022          51.000  
E21                                                                  27228147.961 6 109636480.189 6     -1726.870          37.000  
E13                                                                  26809770.703 5 107951815.621 5      -444.916          34.000  
C22  25369763.180 8 132107157.337 8     -2632.516          49.000  
C30  22794350.742 8 118696188.283 8      1603.355          49.000  
> 2020 05 14 08 02 30.0000000  0 11      -0.000000000000
G12  20227276.234 8 106295075.778 8       907.273          51.000    20227274.336 8  82827319.874 8       706.967          51.000  
G24  20276708.797 8 106554817.347 8      -799.262          51.000    20276710.414 8  83029736.371 8      -622.802          51.000  
G17  24225280.352 6 127304697.469 6     -2955.402          36.000    24225279.969 5  99198447.575 5     -2302.915          35.000  
R11  19949700.438 8 106604772.787 8     -1072.730          50.000    19949704.016 8  82914838.603 8      -834.346          49.000  
R22  22723457.719 6 121298941.977 6      4415.734          40.000    22723461.148 5  94343649.485 5      3434.461          32.000  
E04  25536883.156 8 134197216.189 8     -2477.945          50.000    25536884.969 8 102826430.288 8     -1898.672          50.000  
E01  23941224.977 8 125811961.180 8      -863.078          51.000    23941226.062 8  96401442.680 8      -661.308          51.000  
E21  27241008.398 6 143152467.487 6     -2253.727          36.000    27241013.000 6 109688283.845 6     -1726.784          37.000  
E13                                                                  26813125.875 5 107965324.612 5      -455.511          34.000  
C22  25384946.922 8 132186218.838 8     -2638.324          49.000  
C30  22785155.391 8 118648305.184 8      1588.855          50.000  
> 2020 05 14 08 03  0.0000000  0 16      -0.000000000000
G12  20222140.492 8 106268086.665 8       893.035          50.000    20222138.219 8  82806289.401 8       695.872          50.000  
G15  24209363.680 5 127221061.18025     -3704.277          31.000                                                                  
G24  20281315.492 8 106579026.405 8      -813.578          51.000    20281317.430 8  83048600.552 8      -633.957          51.000  
G17  24242180.625 5 127393515.512 5     -2964.516          34.000    24242181.930 5  99267656.370 5     -2310.013          35.000  
R02  20997967.031 5 112048730.326 5     -1215.328          32.000    20997967.961 4  87149067.04024      -945.252          27.000  
R21  20697818.992 5 110757768.822 5      1450.719          34.000    20697813.258 5  86144929.513 5      1128.331          34.000  
R11  19955754.164 8 106637122.127 8     -1083.008          50.000    19955757.820 8  82939999.157 8      -842.343          49.000  
R22  22698662.938 6 121166581.427 6      4409.684          40.000    22698664.797 5  94240702.439 5      3429.758          32.000  
E04  25551055.641 8 134271690.665 8     -2486.121          51.000    25551056.164 8 102883495.080 8     -1904.954          49.000  
E01  23946169.234 8 125837943.589 8      -868.125          51.000    23946170.516 8  96421351.272 8      -665.169          51.000  
E21  27253878.359 6 143220101.728 6     -2254.387          37.000    27253883.367 6 109740107.409 6     -1727.637          36.000  
E31  24542310.445 5 128970709.210 5      1344.371          35.000    24542305.219 5  98821702.363 5      1030.070          34.000  
E13                                                                  26816566.461 6 107979178.500 6      -467.187          36.000  
C29  25234002.570 5 131399997.44625      3439.879          30.000  
C22  25400167.797 7 132265478.826 7     -2644.906          47.000  
C30  22776048.992 8 118600884.277 8      1573.434          50.000  
> 2020 05 14 08 03 30.0000000  0 16      -0.000000000000
G12  20217087.047 8 106241530.946 8       878.285          50.000    20217084.414 8  82785596.627 8       684.378          50.000  
G15  24230517.297 6 127332226.349 6     -3706.375          36.000    24230514.836 5  99219902.212 5     -2888.094          35.000  
G24  20286004.836 8 106603669.935 8      -828.422          50.000    20286007.039 8  83067803.280 8      -645.524          50.000  
G17  24259132.508 5 127482605.039 5     -2974.770          33.000    24259135.078 5  99337076.755 5     -2318.003          32.000  
G25  21847523.008 5 114809514.901 5      2517.883          32.000    21847516.797 5  89461929.350 5      1961.987          31.000  
R11  19961867.109 8 106669787.884 8     -1093.836          50.000    19961870.789 8  82965405.837 8      -850.761          49.000  
R22  22673904.266 7 121034414.108 7      4402.438          42.000    22673904.102 5  94137905.765 5      3424.122          31.000  
R12  20395281.648 5 108947557.571 5      1759.293          33.000                                                                  
E04  25565276.461 8 134346420.220 8     -2494.980          51.000    25565275.977 8 102940755.331 8     -1911.835          49.000  
E01  23951144.250 8 125864087.450 8      -873.973          51.000    23951145.633 8  96441383.575 8      -669.647          51.000  
E21  27266754.414 5 143287767.627 5     -2255.820          35.000    27266758.891 6 109791955.271 6     -1728.615          36.000  
E31  24534654.547 5 128930478.283 5      1338.680          35.000    24534652.289 6  98790875.366 6      1025.790          36.000  
E13                                                                  26820093.078 5 107993381.284 5      -479.157          35.000  
C29  25214198.273 5 131296881.194 5      3436.523          34.000  
C22  25415426.156 7 132344940.537 7     -2651.703          46.000  
C30  22767032.875 8 118553932.871 8      1557.605          50.000  
> 2020 05 14 08 04  0.0000000  0 17      -0.000000000000
G12  20212109.117 8 106215371.746 8       864.547          51.000    20212106.500 8  82765212.827 8       673.673          51.000  
G15  24251675.266 5 127443414.702 5     -3707.602          35.000    24251674.828 5  99306542.394 5     -2889.047          35.000  
G24  20290769.758 8 106628710.402 8      -842.168          50.000    20290772.094 8  83087315.323 8      -656.235          50.000  
G17  24276128.852 5 127571917.93425     -2982.453          32.000    24276132.508 5  99406703.30925     -2323.990          33.000  
R02  21011916.578 5 112123197.310 5     -1267.227          31.000    21011916.305 4  87206977.638 4      -985.624          27.000  
R21  20681847.422 6 110672339.775 6      1397.082          36.000    20681845.570 4  86078483.431 4      1086.610          24.000  
R01  23376644.492 4 124961200.357 4     -4274.797          29.000                                                                  
R11  19968032.227 8 106702732.198 8     -1103.781          50.000    19968035.617 8  82991029.186 8      -858.497          49.000  
R22  22649176.242 6 120902406.850 6      4396.301          39.000    22649174.703 5  94035233.542 5      3419.352          31.000  
E04  25579537.992 8 134421365.945 8     -2502.551          50.000    25579537.531 8 102998181.219 8     -1917.615          49.000  
E01  23956142.844 8 125890355.255 8      -878.523          51.000    23956144.250 8  96461510.842 8      -673.158          51.000  
E21  27279630.469 6 143355428.008 6     -2255.902          37.000    27279632.852 5 109843798.880 5     -1728.475          35.000  
E31                                                                  24527021.094 5  98760140.269 5      1022.270          35.000  
E13                                                                  26823698.492 5 108007904.251 5      -490.363          34.000  
C29  25194398.117 5 131193808.382 5      3433.996          34.000  
C22  25430715.820 7 132424564.710 7     -2657.699          46.000  
C30  22758099.977 8 118507415.684 8      1542.449          51.000  
> 2020 05 14 08 04 30.0000000  0 15      -0.000000000000
G12  20207213.273 8 106189642.713 8       850.520          50.000    20207211.031 8  82745164.231 8       662.743          50.000  
G15  24272843.867 6 127554657.734 6     -3709.082          37.000    24272845.180 6  99393225.203 6     -2890.201          37.000  
G24  20295616.820 8 106654181.690 8      -856.191          51.000    20295619.141 8  83107163.093 8      -667.159          51.000  
G17  24293176.109 5 127661500.205 5     -2990.426          31.000    24293180.016 5  99476510.076 5     -2330.206          31.000  
R02  21019107.672 6 112161586.354 6     -1292.309          37.000                                                                  
R21  20674084.758 6 110630816.054 6      1370.746          38.000                                                                  
R11  19974255.883 8 106735989.616 8     -1113.766          51.000    19974259.141 8  83016896.043 8      -866.262          49.000  
R22  22624487.070 5 120770598.558 5      4390.293          31.000    22624482.883 5  93932716.126 5      3414.676          32.000  
E04  25593846.195 8 134496560.140 8     -2510.555          49.000    25593847.164 8 103055797.499 8     -1923.691          49.000  
E01  23961171.461 8 125916780.750 8      -883.461          51.000    23961172.805 8  96481758.929 8      -676.920          51.000  
E21  27292512.141 6 143423116.778 6     -2256.633          37.000    27292513.609 5 109895664.231 5     -1729.109          34.000  
E13                                                                  26827390.195 5 108022773.090 5      -501.240          33.000  
C29  25174612.000 5 131090814.959 5      3431.625          33.000  
C22  25446043.977 8 132504382.585 8     -2663.691          48.000  
C30  22749257.234 8 118461367.944 8      1527.145          51.000  
> 2020 05 14 08 05  0.0000000  0 15      -0.000000000000
G12  20202395.070 8 106164323.039 8       837.676          49.000    20202393.008 8  82725434.617 8       652.735          49.000  
G15  24294018.727 6 127665932.640 6     -3709.512          37.000    24294021.180 6  99479932.850 6     -2890.536          36.000  
G24  20300542.141 8 106680063.694 8      -869.090          51.000    20300544.484 8  83127330.885 8      -677.213          51.000  
G17  24310269.297 5 127751325.289 5     -2997.887          32.000    24310273.133 5  99546502.662 5     -2336.010          33.000  
G25  21804644.477 5 114584159.97925      2489.902          33.000                                                                  
R02  21026443.781 5 112200729.524 5     -1316.254          35.000                                                                  
R21  20666473.055 6 110590081.231 6      1345.164          40.000    20666482.672 4  86014539.183 4      1046.242          29.000  
R11  19980534.375 8 106769539.056 8     -1122.645          51.000    19980537.352 8  83042990.035 8      -873.168          49.000  
E04  25608197.297 8 134571980.388 8     -2517.242          49.000    25608200.000 8 103113587.013 8     -1928.782          50.000  
E01  23966226.023 8 125943342.925 8      -887.113          51.000    23966227.367 8  96502111.758 8      -679.713          51.000  
E21  27305394.617 5 143490813.061 5     -2256.367          33.000    27305397.734 5 109947535.340 5     -1728.774          34.000  
E13                                                                  26831164.852 5 108037971.719 5      -511.922          34.000  
C29  25154840.477 4 130987854.73424      3429.383          29.000  
C22  25461405.289 8 132584371.147 8     -2668.574          49.000  
C30  22740500.945 8 118415770.660 8      1512.910          51.000  
> 2020 05 14 08 05 30.0000000  0 16      -0.000000000000
G12  20197653.766 8 106139408.371 8       823.406          49.000    20197651.828 8  82706020.579 8       641.615          49.000  
G15  24315199.148 5 127777232.565 5     -3710.551          33.000    24315200.867 5  99566660.032 5     -2891.351          32.000  
G24  20305544.953 8 106706352.669 8      -883.461          51.000    20305547.227 8  83147815.784 8      -688.411          51.000  
G17  24327407.828 5 127841386.189 5     -3006.734          32.000    24327410.867 5  99616678.319 5     -2342.914          31.000  
G25  21790455.906 5 114509597.133 5      2481.066          31.000    21790448.586 5  89228254.657 5      1933.299          30.000  
R21  20659008.359 6 110550133.288 6      1318.445          39.000    20659015.977 4  85983468.615 4      1025.452          26.000  
R11  19986866.742 8 106803376.315 8     -1132.910          51.000    19986869.672 8  83069307.881 8      -881.153          49.000  
R22  22575194.500 5 120507545.376 5      4378.434          33.000    22575203.203 5  93728084.288 5      3405.452          34.000  
E04  25622590.773 8 134647620.807 8     -2525.281          49.000    25622594.398 8 103171545.218 8     -1934.891          50.000  
E01  23971305.664 8 125970037.330 8      -892.191          51.000    23971307.180 8  96522565.919 8      -683.634          51.000  
E21  27318275.914 5 143558518.607 5     -2257.039          32.000    27318281.836 5 109999408.991 5     -1729.418          34.000  
E31  24504283.523 6 128770871.802 6      1320.715          36.000    24504291.039 5  98668592.368 5      1011.669          32.000  
E13                                                                  26835021.062 6 108053496.509 6      -523.173          36.000  
C29  25135099.148 4 130885055.30124      3428.457          28.000  
C22  25476798.086 8 132664523.751 8     -2674.812          49.000  
C30  22731830.305 8 118370621.205 8      1497.254          51.000  
> 2020 05 14 08 06  0.0000000  0 14      -0.000000000000
G12  20192989.109 8 106114895.822 8       805.035          49.000    20192987.672 8  82686919.869 8       627.300          49.000  
G24  20310624.562 8 106733045.080 8      -901.703          51.000    20310626.398 8  83168615.055 8      -702.626          51.000  
R02  21041542.867 5 112281278.935 5     -1372.180          32.000    21041551.789 4  87329929.975 4     -1067.257          28.000  
R21  20651691.008 5 110510971.799 5      1287.113          35.000    20651693.852 5  85953009.596 5      1001.094          35.000  
R11  19993252.406 8 106837498.397 8     -1147.445          51.000    19993255.352 8  83095847.246 8      -892.461          49.000  
R22  22550611.250 6 120376288.156 6      4366.594          39.000    22550613.547 5  93625995.387 5      3396.240          34.000  
E04  25637025.703 8 134723476.944 8     -2537.359          49.000    25637029.562 8 103229668.714 8     -1944.170          51.000  
E01  23976409.953 8 125996860.945 8      -901.500          51.000    23976411.703 8  96543119.071 8      -690.727          51.000  
E21  27331157.000 5 143626198.668 5     -2261.938          32.000    27331165.469 5 110051276.026 5     -1733.138          33.000  
E31  24496756.195 5 128731321.091 5      1311.770          34.000                                                                  
E13                                                                  26838957.828 6 108069345.057 6      -537.642          37.000  
C29  25115350.188 4 130782219.11724      3420.488          29.000  
C22  25492221.031 8 132744835.186 8     -2684.871          48.000  
C30  22723245.305 8 118325918.386 8      1477.414          51.000  
> 2020 05 14 08 06 30.0000000  0 14      -0.000000000000
G12  20188412.727 8 106090848.254 8       799.051          48.000    20188412.180 8  82668181.520 8       622.637          48.000  
G24  20315793.109 8 106760204.751 8      -907.898          51.000    20315794.648 8  83189778.421 8      -707.454          51.000  
G19  22242458.961 5 116884912.99125     -2177.023          33.000                                                                  
G25  21762246.812 5 114361365.53325      2465.273          34.000                                                                  
R02  21049293.117 4 112322679.11324     -1388.965          27.000                                                                  
R21  20644533.172 5 110472662.998 5      1267.832          34.000    20644536.734 5  85923213.842 5       986.086          33.000  
R11  19999703.289 8 106871969.228 8     -1149.508          51.000    19999706.016 8  83122657.866 8      -894.062          49.000  
R22  22526072.445 6 120245284.466 6      4367.883          38.000    22526071.727 5  93524103.691 5      3397.249          34.000  
E04  25651513.711 8 134799610.050 8     -2537.051          50.000    25651517.539 8 103288004.436 8     -1943.993          51.000  
E01  23981550.820 8 126023876.443 8      -898.465          51.000    23981552.789 8  96563819.262 8      -688.461          51.000  
E21                                                                  27344062.852 5 110103200.596 5     -1727.245          32.000  
E13  26842978.633 5 141060807.992 5      -708.633          32.000    26842986.477 6 108085565.235 6      -542.766          37.000  
C22  25507685.273 7 132825365.352 7     -2682.566          46.000  
C30  22714758.047 8 118281726.028 8      1469.734          49.000  
> 2020 05 14 08 07  0.0000000  0 12      -0.000000000000
G12  20183906.555 8 106067168.974 8       779.914          48.000    20183906.281 8  82649730.145 8       607.725          48.000  
G24  20321032.250 8 106787735.199 8      -927.059          51.000    20321033.641 8  83211230.708 8      -722.384          51.000  
G25  21748216.695 6 114287651.059 6      2449.812          36.000    21748221.047 5  89055318.782 5      1908.942          35.000  
R21  20637516.438 5 110435111.017 5      1234.910          32.000    20637517.602 5  85894006.522 5       960.486          32.000  
R11  20006201.086 8 106906690.968 8     -1164.902          51.000    20006203.477 8  83149663.641 8      -906.035          48.000  
R22  22501563.297 5 120114441.074 5      4355.504          35.000    22501558.172 6  93422336.685 6      3387.618          37.000  
E04  25666036.141 8 134875922.051 8     -2549.879          51.000    25666039.609 8 103346477.232 8     -1953.781          51.000  
E01  23986709.812 8 126050987.230 8      -908.473          51.000    23986711.875 8  96584592.444 8      -696.046          51.000  
E21  27356940.992 6 143761699.419 6     -2260.305          37.000    27356951.133 5 110155104.855 5     -1731.914          32.000  
E13  26847082.805 5 141082359.965 5      -728.590          34.000    26847088.664 6 108102082.874 6      -557.783          37.000  
C22  25523172.578 7 132906016.307 7     -2693.480          45.000  
C30  22706351.016 8 118237950.149 8      1449.031          50.000  
> 2020 05 14 08 07 30.0000000  0 15      -0.000000000000
G02  24566026.242 6 129095326.295 6      2476.406          36.000    24566023.578 5 100593759.242 5      1929.668          30.000  
G12  20179496.859 8 106043995.279 8       765.340          48.000    20179496.070 8  82631672.720 8       596.372          48.000  
G24  20326368.148 8 106815774.128 8      -941.625          51.000    20326369.328 8  83233079.205 8      -733.734          51.000  
G25  21734256.461 5 114214315.071 5      2439.824          33.000    21734270.531 5  88998173.730 5      1901.159          32.000  
R02  21065252.352 5 112407817.97025     -1445.164          32.000                                                                  
R21  20630664.086 6 110398457.415 6      1208.160          38.000    20630669.242 5  85865498.323 5       939.677          32.000  
R11  20012771.852 8 106941803.351 8     -1175.422          51.000    20012774.125 8  83176973.244 8      -914.217          48.000  
R22  22477109.391 5 119983950.161 5      4347.863          34.000    22477103.891 6  93320806.690 6      3381.678          40.000  
R12  20317683.344 5 108532975.726 5      1692.754          31.000                                                                  
E04  25680618.492 8 134952548.728 8     -2558.016          51.000    25680621.680 8 103405191.148 8     -1960.078          51.000  
E01  23991913.023 8 126078330.537 8      -913.887          51.000    23991915.125 8  96605543.805 8      -700.281          51.000  
E21  27369849.898 6 143829534.270 6     -2261.605          36.000    27369856.516 5 110207074.092 5     -1732.228          33.000  
E13  26851286.203 5 141104442.135 5      -743.270          34.000    26851290.609 6 108119002.987 6      -569.800          37.000  
C22  25538709.055 7 132986921.830 7     -2699.645          45.000  
C30  22698051.078 8 118194728.450 8      1432.949          50.000  
> 2020 05 14 08 08  0.0000000  0 15      -0.000000000000
G02  24551903.719 5 129021126.828 5      2461.922          34.000                                                                  
G12  20175170.289 8 106021258.632 8       741.719          48.000    20175169.484 8  82613955.872 8       577.963          48.000  
G24  20331787.711 8 106844253.116 8      -965.469          51.000    20331788.617 8  83255270.604 8      -752.314          51.000  
G25  21720354.773 5 114141285.001 5      2420.207          31.000    21720375.953 5  88941273.952 5      1885.870          30.000  
R02  21073452.078 5 112451570.966 5     -1480.254          35.000    21073451.805 4  87462354.46824     -1151.309          27.000  
R21  20623969.156 6 110362635.290 6      1170.984          39.000    20623974.539 5  85837636.655 5       910.766          31.000  
R11  20019402.703 8 106977236.736 8     -1195.406          51.000    20019404.805 8  83204532.517 8      -929.761          48.000  
R22  22452698.648 6 119853651.332 6      4330.277          38.000    22452695.047 6  93219463.208 6      3367.997          41.000  
E04  25695247.039 8 135029419.985 8     -2575.258          51.000    25695250.320 8 103464092.465 8     -1973.236          51.000  
E01  23997147.477 8 126105837.761 8      -928.457          51.000    23997149.555 8  96626620.744 8      -711.401          51.000  
E21  27382766.938 5 143897405.021 5     -2272.219          35.000    27382772.102 5 110259078.999 5     -1740.591          32.000  
E13  26855575.547 5 141127000.809 5      -767.035          33.000    26855579.188 6 108136272.832 6      -588.067          38.000  
C22  25554281.328 7 133068011.716 7     -2714.812          45.000  
C27  24195974.688 5 125994723.217 5     -1560.059          33.000  
C30  22689844.453 8 118151994.641 8      1407.594          50.000  
> 2020 05 14 08 08 30.0000000  0 14      -0.000000000000
G02  24537777.797 5 128946921.29125      2466.906          32.000                                                                  
G12  20170874.094 7 105998681.603 7       737.945          47.000    20170873.633 8  82596363.397 8       575.026          48.000  
G24  20337238.070 8 106872894.393 8      -969.480          51.000    20337238.656 8  83277588.460 8      -755.440          51.000  
R02  21081747.859 5 112495809.808 5     -1494.832          33.000                                                                  
R21  20617377.664 6 110327363.916 6      1154.273          38.000    20617383.320 5  85810203.439 5       897.771          35.000  
R11  20026040.734 8 107012708.892 8     -1195.270          51.000    20026042.844 8  83232121.964 8      -929.654          48.000  
R22  22428279.703 6 119723315.166 6      4332.961          41.000    22428278.391 7  93118090.693 7      3370.084          42.000  
E04  25709868.320 8 135106256.619 8     -2572.562          51.000    25709872.148 8 103522967.261 8     -1971.203          51.000  
E01  24002360.289 8 126133231.173 8      -923.172          51.000    24002362.375 8  96647610.483 8      -707.366          51.000  
E21  27395636.773 5 143965034.315 5     -2262.395          34.000    27395643.867 5 110310904.744 5     -1733.222          32.000  
E13                                                                  26859901.859 6 108153679.414 6      -591.599          40.000  
C22  25569836.422 7 133149008.522 7     -2710.332          45.000  
C27  24204905.594 5 126041236.641 5     -1565.520          35.000  
C30  22681679.273 8 118109475.192 8      1401.785          51.000  
> 2020 05 14 08 09  0.0000000  0 17      -0.000000000000
G12  20166716.570 7 105976834.827 7       725.738          47.000    20166716.266 7  82579339.931 7       565.510          47.000  
G24  20342828.039 8 106902269.577 8      -981.637          51.000    20342828.367 8  83300478.204 8      -764.912          51.000  
G17  24448677.812 5 128478681.763 5     -3060.703          32.000                                                                  
G25  21692690.805 5 113995860.036 5      2412.395          33.000    21692707.742 5  88827982.610 5      1879.792          34.000  
R02  21090238.734 5 112541111.359 5     -1516.793          30.000                                                                  
R21  20610998.711 5 110293226.691 5      1129.238          35.000    20611003.859 5  85783652.294 5       878.297          32.000  
R11  20032794.664 8 107048800.635 8     -1203.469          51.000    20032797.094 8  83260193.293 8      -936.031          48.000  
R22  22403962.531 6 119593526.313 6      4327.215          41.000    22403963.453 6  93017143.856 6      3365.615          41.000  
R12  20289321.922 5 108381506.37125      1670.590          32.000    20289325.133 5  84296736.81325      1299.348          30.000  
E04  25724590.977 8 135183627.851 8     -2578.117          51.000    25724595.258 8 103582251.694 8     -1975.427          51.000  
E01  24007660.062 8 126161081.470 8      -926.164          51.000    24007662.180 8  96668950.294 8      -709.647          51.000  
E21  27408568.625 5 144032998.902 5     -2260.598          33.000    27408575.906 5 110362977.916 5     -1732.503          31.000  
E13                                                                  26864367.062 6 108171659.857 6      -601.410          41.000  
C29  24997258.594 4 130167262.603 4      3408.199          29.000  
C22  25585482.164 7 133230475.583 7     -2713.762          46.000  
C27  24213983.469 5 126088513.572 5     -1578.852          33.000  
C30  22673664.258 8 118067737.298 8      1387.934          51.000  
> 2020 05 14 08 09 30.0000000  0 18      -0.000000000000
G02  24509671.359 5 128799235.322 5      2457.836          32.000                                                                  
G12  20162619.367 8 105955304.054 8       711.012          48.000    20162618.641 8  82562562.681 8       554.032          48.000  
G24  20348478.766 8 106931964.671 8      -996.488          51.000    20348479.125 8  83323617.212 8      -776.485          51.000  
G17  24466183.750 5 128570676.157 5     -3070.086          35.000    24466176.359 5 100184906.067 5     -2392.275          34.000  
G19  22318984.648 5 117287002.907 5     -2285.957          32.000                                                                  
G25  21678954.109 5 113923667.586 5      2401.988          33.000    21678969.703 5  88771728.730 5      1871.674          34.000  
R02  21098846.148 5 112587053.614 5     -1543.047          34.000                                                                  
R21  20604753.680 5 110259804.380 5      1100.309          34.000    20604756.844 5  85757657.094 5       855.793          34.000  
R11  20039585.828 8 107085090.868 8     -1214.375          51.000    20039588.406 8  83288419.003 8      -944.514          48.000  
R22  22379669.812 7 119463869.153 7      4318.270          42.000    22379672.789 6  92916299.416 6      3358.655          41.000  
E04  25739336.625 8 135261118.173 8     -2586.324          51.000    25739340.570 8 103641627.364 8     -1981.751          51.000  
E01  24012968.008 8 126188974.660 8      -931.887          51.000    24012970.164 8  96690322.976 8      -714.055          51.000  
E21  27421485.117 5 144100875.150 5     -2262.113          35.000                                                                  
E13                                                                  26868896.031 6 108189896.648 6      -613.266          40.000  
C29  24977642.148 5 130065098.407 5      3404.305          34.000  
C22  25601139.031 7 133312000.415 7     -2719.898          46.000  
C27  24223128.984 5 126136142.525 5     -1594.625          34.000  
C30  22665720.531 8 118026372.288 8      1371.316          50.000  
> 2020 05 14 08 10  0.0000000  0 13      -0.000000000000
G02  24495624.148 5 128725424.579 5      2454.609          34.000                                                                  
G12  20158568.469 8 105934015.482 8       699.289          48.000    20158567.414 8  82545974.181 8       544.901          48.000  
G24  20354176.180 8 106961905.323 8     -1008.477          51.000    20354176.750 8  83346947.577 8      -785.826          51.000  
G17  24483699.609 5 128662721.922 5     -3074.930          35.000    24483697.438 5 100256642.873 5     -2396.059          32.000  
R11  20046400.312 8 107121504.558 8     -1222.250          51.000    20046402.930 8  83316740.754 8      -950.639          48.000  
R22  22355389.898 7 119334273.307 7      4312.543          43.000    22355394.570 7  92815502.694 7      3354.201          44.000  
E04  25754090.945 8 135338651.995 8     -2591.641          51.000    25754093.844 8 103701036.351 8     -1985.789          51.000  
E01  24018270.016 8 126216836.611 8      -934.613          51.000    24018272.250 8  96711671.720 8      -716.148          51.000  
E13                                                                  26873474.414 6 108208332.744 6      -622.655          37.000  
C29  24958007.180 5 129962855.028 5      3403.141          35.000  
C22  25616792.180 7 133393507.275 7     -2722.828          45.000  
C27  24232327.062 5 126184048.866 5     -1607.809          33.000  
C30  22657834.656 8 117985308.407 8      1357.469          50.000  
> 2020 05 14 08 10 30.0000000  0 14      -0.000000000000
G02  24481648.156 5 128651986.254 5      2446.988          35.000    24481644.719 4 100248236.110 4      1906.745          25.000  
G12  20154637.375 8 105913356.539 8       683.754          48.000    20154636.148 8  82529876.306 8       532.795          48.000  
G24  20359994.148 8 106992479.782 8     -1024.090          51.000    20359995.055 8  83370771.800 8      -797.992          51.000  
G17  24501298.578 5 128755204.483 5     -3084.355          35.000    24501296.969 5 100328707.163 5     -2403.401          35.000  
R21  20592693.273 5 110195288.527 5      1046.602          35.000                                                                  
R11  20053311.570 8 107158436.060 8     -1233.953          51.000    20053314.031 8  83345465.237 8      -959.745          48.000  
R22  22331197.047 7 119205137.406 7      4302.699          44.000    22331203.258 7  92715063.725 7      3346.548          45.000  
E04  25768927.047 8 135416615.273 8     -2600.336          51.000    25768928.969 8 103760774.398 8     -1992.472          51.000  
E01  24023639.805 8 126245054.797 8      -940.992          51.000    24023642.109 8  96733293.420 8      -721.020          51.000  
E13  26878171.125 5 141245746.021 5      -828.469          33.000    26878174.836 5 108227264.777 5      -635.115          32.000  
C29  24938430.273 5 129860918.960 5      3398.129          31.000  
C22  25632514.227 7 133475377.925 7     -2729.461          42.000  
C27  24241653.305 5 126232615.452 5     -1624.660          31.000  
C30  22650080.445 8 117944931.154 8      1340.004          49.000  
> 2020 05 14 08 11  0.0000000  0 14      -0.000000000000
G02  24467701.750 5 128578695.891 5      2440.422          34.000    24467698.273 4 100191126.716 4      1901.628          27.000  
G12  20150782.812 8 105893099.861 8       668.312          48.000    20150781.312 8  82514091.871 8       520.763          48.000  
G24  20365889.367 8 107023460.694 8     -1039.801          51.000    20365890.633 8  83394912.727 8      -810.238          51.000  
G17  24518936.852 5 128847894.112 5     -3092.805          34.000    24518936.484 5 100400932.808 5     -2409.981          35.000  
R21  20586915.359 6 110164354.065 6      1017.203          36.000                                                                  
R11  20060276.484 8 107195654.185 8     -1245.742          51.000    20060279.008 8  83374412.658 8      -968.914          48.000  
R22  22307049.195 7 119076235.163 7      4292.574          46.000    22307055.828 7  92614806.441 7      3338.669          46.000  
R12  20252161.539 6 108182996.02426      1635.957          36.000                                                                  
E04  25783800.930 8 135494779.073 8     -2609.078          49.000    25783802.461 8 103820666.090 8     -1999.054          51.000  
E01  24029034.086 8 126273401.818 8      -947.293          51.000    24029036.422 8  96755013.835 8      -725.830          51.000  
E13  26882954.461 5 141270874.607 5      -844.488          35.000    26882955.438 5 108246520.216 5      -646.962          32.000  
C29  24918874.219 5 129759098.234 5      3394.277          32.000  
C22  25648260.914 5 133557384.685 5     -2736.211          35.000  
C30  22642414.938 8 117905016.834 8      1322.492          48.000  
> 2020 05 14 08 11 30.0000000  0 16      -0.000000000000
G02  24453777.695 5 128505525.346 5      2437.836          31.000    24453775.992 4 100134124.791 4      1899.613          28.000  
G12  20146998.625 7 105873213.677 7       657.176          47.000    20146996.977 7  82498596.138 7       512.082          47.000  
G24  20371856.031 8 107054816.885 8     -1051.000          51.000    20371857.305 8  83419346.096 8      -818.961          51.000  
G17  24536608.320 5 128940757.201 5     -3098.254          34.000    24536607.844 5 100473293.596 5     -2414.221          34.000  
R02  21134642.484 5 112778048.31425     -1640.273          34.000    21134637.180 4  87716295.63024     -1275.768          26.000  
R21  20581281.203 6 110134198.108 6       992.621          41.000    20581278.969 4  85659928.366 4       772.036          26.000  
R11  20067289.062 8 107233127.084 8     -1252.875          51.000    20067291.812 7  83403558.221 7      -974.459          47.000  
R22  22282940.195 7 118947539.475 7      4286.809          45.000    22282946.859 7  92514709.807 7      3334.188          46.000  
R12  20242990.117 4 108134038.87224      1630.188          29.000                                                                  
E04  25798706.141 7 135573110.224 7     -2613.254          46.000    25798707.961 8 103880686.045 8     -2002.320          50.000  
E01  24034446.750 8 126301846.071 8      -949.242          51.000    24034449.164 8  96776808.750 8      -727.312          51.000  
E21  27473155.555 5 144372417.173 5     -2262.883          34.000                                                                  
E13  26887810.344 5 141296395.820 5      -856.344          32.000    26887813.023 5 108266071.768 5      -656.163          35.000  
C29  24899328.688 5 129657302.556 5      3392.879          33.000  
C22  25664029.914 6 133639493.986 6     -2738.285          38.000  
C30  22634832.344 8 117865535.625 8      1309.305          48.000  
> 2020 05 14 08 12  0.0000000  0 16      -0.000000000000
G02  24439882.078 5 128432504.743 5      2432.668          33.000                                                                  
G12  20143289.961 8 105853725.178 8       643.969          48.000    20143288.391 7  82483410.284 7       501.794          47.000  
G24  20377899.375 8 107086575.800 8     -1064.297          51.000    20377900.539 8  83444093.285 8      -829.323          51.000  
G17  24554317.867 5 129033810.24925     -3103.906          31.000    24554317.336 5 100545823.51925     -2418.629          31.000  
G25  21611076.484 4 113566948.814 4      2355.676          29.000    21611092.258 4  88493745.781 4      1835.586          28.000  
R02  21143930.047 5 112827624.142 5     -1664.148          31.000    21143928.609 4  87754857.453 4     -1294.332          29.000  
R21  20575797.477 6 110104850.015 6       965.832          40.000    20575798.086 5  85637102.086 5       751.209          33.000  
R11  20074354.477 8 107270882.371 8     -1262.094          51.000    20074356.992 7  83432923.438 7      -981.629          46.000  
R22  22258875.773 7 118819082.611 7      4279.008          46.000    22258882.344 7  92414798.892 7      3328.118          44.000  
E04  25813648.406 7 135651634.305 7     -2619.672          46.000    25813650.133 8 103940853.837 8     -2007.231          48.000  
E01  24039883.055 8 126330414.612 8      -953.363          51.000    24039885.445 8  96798698.907 8      -730.521          51.000  
E21  27486078.211 5 144440333.206 5     -2263.109          34.000                                                                  
E13                                                                  26892748.836 6 108285939.840 6      -666.615          37.000  
C29  24879798.672 5 129555591.985 5      3389.758          32.000  
C22  25679824.828 7 133721730.568 7     -2742.008          42.000  
C30  22627338.977 8 117826515.914 8      1293.996          50.000  
> 2020 05 14 08 12 30.0000000  0 17      -0.000000000000
G02  24426021.141 5 128359664.542 5      2426.004          34.000    24426020.328 5 100020469.093 5      1890.393          34.000  
G12  20139662.266 8 105834661.683 8       629.824          48.000    20139660.398 8  82468555.600 8       490.769          48.000  
G24  20384024.617 8 107118764.696 8     -1078.727          51.000    20384026.008 8  83469175.521 8      -840.569          51.000  
G17  24572069.672 5 129127097.65925     -3111.328          30.000    24572065.617 5 100618499.39825     -2424.412          30.000  
R02  21153360.391 5 112877929.59825     -1687.871          31.000    21153357.531 5  87793945.12725     -1312.795          32.000  
R21  20570469.641 6 110076339.658 6       937.910          41.000    20570469.164 5  85614927.414 5       729.486          34.000  
R11  20081478.086 8 107308948.388 8     -1272.621          51.000    20081480.617 7  83462530.306 7      -989.820          46.000  
R22  22234862.086 7 118690897.514 7      4269.680          45.000    22234869.273 7  92315099.370 7      3320.863          43.000  
R12  20224798.789 4 108036783.52124      1613.953          27.000                                                                  
E04  25828633.258 8 135730377.306 8     -2626.922          48.000    25828633.750 7 104001189.326 7     -2012.852          47.000  
E01  24045348.266 8 126359134.917 8      -958.387          51.000    24045350.586 8  96820705.352 8      -734.304          51.000  
E21  27499006.836 5 144508254.796 5     -2264.277          31.000                                                                  
E13                                                                  26897767.617 6 108306146.179 6      -678.171          37.000  
C29  24860287.148 5 129453996.350 5      3386.238          30.000  
C22  25695648.812 7 133804119.355 7     -2747.367          45.000  
C27  24279783.336 5 126431184.475 5     -1682.336          31.000  
C30  22619940.219 8 117787986.385 8      1277.633          50.000  
> 2020 05 14 08 13  0.0000000  0 13      -0.000000000000
G02  24412152.492 5 128286782.737 5      2419.562          34.000    24412154.695 5  99963674.997 5      1885.374          34.000  
G12  20136072.742 8 105815798.325 8       615.156          48.000    20136070.344 8  82453856.864 8       479.343          48.000  
G24  20390188.945 8 107151158.852 8     -1093.547          51.000    20390190.484 8  83494417.703 8      -852.115          51.000  
R21  20565257.812 5 110048440.113 5       909.441          35.000    20565256.977 6  85593227.750 6       707.343          37.000  
R11  20088617.141 8 107347096.468 8     -1283.406          51.000    20088619.273 7  83492201.025 7      -998.205          45.000  
R22  22210857.875 8 118562760.687 8      4259.891          49.000    22210866.031 6  92215437.402 6      3313.249          38.000  
E04  25843616.883 8 135809112.794 8     -2634.566          48.000    25843616.344 7 104061519.041 7     -2018.755          46.000  
E01  24050799.641 8 126387782.120 8      -963.926          51.000    24050802.000 8  96842655.788 8      -738.608          51.000  
E13  26902822.516 6 141375281.270 6      -900.367          37.000    26902825.969 6 108326518.109 6      -689.545          36.000  
C29  24840752.422 5 129352295.515 5      3381.836          34.000  
C22  25711458.328 7 133886435.177 7     -2752.750          45.000  
C27  24289487.156 5 126481694.132 5     -1698.613          30.000  
C30  22612593.195 8 117749725.717 8      1260.688          51.000  
> 2020 05 14 08 13 30.0000000  0 15      -0.000000000000
G02  24398397.508 6 128214498.937 6      2410.617          38.000    24398399.289 6  99907356.982 6      1878.404          36.000  
G12  20132642.359 8 105797771.429 8       598.203          49.000    20132640.070 8  82439809.932 8       466.132          49.000  
G24  20396513.562 8 107184395.191 8     -1110.707          50.000    20396514.906 8  83520316.135 8      -865.489          50.000  
G17  24607691.664 5 129314261.84425     -3129.770          30.000                                                                  
R02  21172617.211 5 112980709.45625     -1739.590          31.000                                                                  
R21  20560282.383 6 110021828.685 6       878.523          37.000    20560274.594 5  85572530.355 5       683.287          32.000  
R11  20095892.602 8 107385974.062 8     -1296.715          51.000    20095894.609 7  83522439.143 7     -1008.556          45.000  
R22  22186985.258 8 118435323.472 8      4247.617          51.000    22186998.156 4  92116355.89024      3303.691          28.000  
E04  25858719.703 8 135888475.533 8     -2644.703          49.000    25858719.570 7 104122329.373 7     -2026.411          47.000  
E01  24056358.273 8 126416992.563 8      -971.910          51.000    24056360.680 8  96865037.794 8      -744.738          51.000  
E13  26908043.812 6 141402720.406 6      -917.582          40.000    26908046.172 6 108347542.894 6      -703.196          36.000  
C29  24821321.172 6 129251122.561 6      3374.926          38.000  
C22  25727373.211 7 133969306.328 7     -2760.469          44.000  
C27  24299349.914 5 126533061.671 5     -1715.188          33.000  
C30  22605419.664 8 117712365.976 8      1241.395          51.000  
> 2020 05 14 08 14  0.0000000  0 16      -0.000000000000
G02  24384607.023 6 128142028.588 6      2404.801          37.000    24384608.797 6  99850886.572 6      1873.871          37.000  
G12  20129221.195 8 105779793.288 8       584.180          49.000    20129219.266 8  82425801.011 8       455.205          49.000  
G24  20402848.695 8 107217686.218 8     -1124.855          51.000    20402849.703 8  83546257.184 8      -876.511          51.000  
G19  22440197.727 5 117924012.31225     -2436.852          31.000                                                                  
G25  21557801.523 5 113286977.76025      2310.793          31.000                                                                  
R02  21182419.023 5 113033094.37025     -1763.246          30.000    21182423.844 4  87914614.65424     -1371.414          25.000  
R21  20555380.352 6 109995618.605 6       850.375          36.000    20555394.086 5  85552147.023 5       661.406          35.000  
R11  20103154.461 8 107424780.332 8     -1306.770          49.000    20103156.570 7  83552621.766 7     -1016.377          44.000  
R22  22163094.844 8 118307790.727 8      4238.246          51.000    22163108.109 6  92017173.081 6      3296.411          36.000  
E04  25873791.492 8 135967676.356 8     -2651.582          49.000    25873792.734 8 104183015.663 8     -2031.706          48.000  
E01  24061874.188 8 126445978.602 8      -976.688          51.000    24061876.570 8  96887247.866 8      -748.389          51.000  
E13  26913277.812 7 141430223.576 7      -932.145          42.000    26913279.086 6 108368616.675 6      -714.223          36.000  
C29  24801842.133 6 129149699.574 6      3370.965          39.000  
C22  25743242.445 7 134051950.096 7     -2764.941          43.000  
C27  24309228.070 6 126584505.310 6     -1730.074          36.000  
C30  22598269.109 8 117675128.151 8      1225.133          51.000  
> 2020 05 14 08 14 30.0000000  0 14      -0.000000000000
G02  24370889.711 5 128069945.235 5      2394.957          32.000    24370891.383 5  99794717.746 5      1866.192          31.000  
G12  20125917.734 8 105762434.220 8       566.906          49.000    20125915.953 8  82412274.454 8       441.745          49.000  
G24  20409302.820 8 107251601.945 8     -1142.332          51.000    20409303.516 8  83572685.006 8      -890.129          51.000  
R02  21192396.625 5 113086282.654 5     -1791.539          31.000    21192397.086 4  87955996.47824     -1393.417          28.000  
R21  20550685.414 6 109970482.436 6       819.336          37.000                                                                  
R11  20110511.695 8 107464095.788 8     -1320.277          48.000    20110513.883 7  83583200.448 7     -1026.883          44.000  
R22  22139296.000 8 118180746.707 8      4225.219          51.000    22139302.570 7  91918361.041 7      3286.282          42.000  
E04  25888940.758 8 136047284.147 8     -2661.887          51.000    25888943.203 8 104244013.805 8     -2039.554          49.000  
E01  24067455.875 8 126475310.719 8      -984.922          51.000    24067458.289 8  96909723.111 8      -754.684          51.000  
E13  26918631.914 6 141458360.730 6      -949.961          40.000    26918633.969 5 108390176.294 5      -728.210          35.000  
C29  24782423.070 6 129048594.350 6      3363.520          36.000  
C22  25759175.359 7 134134929.508 7     -2772.781          43.000  
C27  24319229.531 5 126636589.058 5     -1747.930          35.000  
C30  22591250.336 8 117638578.941 8      1205.500          51.000  
> 2020 05 14 08 15  0.0000000  0 16      -0.000000000000
G02  24357205.812 5 127998040.513 5      2393.605          33.000    24357207.750 5  99738688.174 5      1865.145          34.000  
G12  20122691.750 8 105745482.699 8       558.277          48.000    20122690.219 8  82399065.465 8       435.021          48.000  
G24  20415835.906 8 107285932.224 8     -1151.219          51.000    20415836.250 8  83599435.843 8      -897.054          51.000  
G25  21531496.000 4 113148779.81824      2291.832          28.000                                                                  
R02  21202503.258 5 113140237.674 5     -1809.883          33.000    21202509.438 4  87997952.315 4     -1407.687          28.000  
R21  20546140.898 7 109946175.677 7       796.379          42.000                                                                  
R11  20117924.289 8 107503705.443 8     -1325.359          48.000    20117926.320 7  83614007.926 7     -1030.835          43.000  
R22  22115549.117 8 118053981.716 8      4220.789          50.000    22115552.945 7  91819766.093 7      3282.837          46.000  
E04  25904127.008 8 136127085.989 8     -2663.254          51.000    25904130.117 8 104305160.622 8     -2040.613          49.000  
E01  24073063.148 8 126504777.517 8      -984.414          51.000    24073065.695 8  96932301.543 8      -754.301          51.000  
E31  24365954.867 5 128043943.176 5      1229.371          33.000                                                                  
E13  26924065.938 6 141486920.110 6      -958.961          37.000    26924069.992 6 108412059.365 6      -734.872          36.000  
C29  24763025.305 6 128947599.966 6      3364.375          37.000  
C22  25775132.867 7 134218032.837 7     -2772.012          44.000  
C27  24329312.844 6 126689102.191 6     -1757.754          36.000  
C30  22584323.844 8 117602510.344 8      1194.270          51.000  
> 2020 05 14 08 15 30.0000000  0 15      -0.000000000000
