     3.02           OBSERVATION DATA    M (MIXED)           RINEX VERSION / TYPE
SAVERINEX           SC600               20200504 145932 LCL PGM / RUN BY / DATE
       G = GPS       R = GLONASS       C = COMPASS          COMMENT
       S = SBAS      J = QZSS          E = GALILEO          COMMENT
BEAN                                                        MARKER NAME
1                                                           MARKER NUMBER
GEODETIC                                                    MARKER TYPE
Unige DICCA         GTER                                    OBSERVER / AGENCY
SC60291900056       SC600               2.12(191226)        REC # / TYPE / VERS
                    HEMA45          NONE                    ANT # / TYPE
  4509407.8091   693652.4678  4442337.6214                  APPROX POSITION XYZ
        0.0000        0.0000        0.0000                  ANTENNA: DELTA H/E/N
G    8 C1C L1C D1C S1C C2Y L2Y D2Y S2Y                      SYS / # / OBS TYPES
R    8 C1C L1C D1C S1C C2P L2P D2P S2P                      SYS / # / OBS TYPES
C    8 C1I L1I D1I S1I C7I L7I D7I S7I                      SYS / # / OBS TYPES
E    8 C1C L1C D1C S1C C7Q L7Q D7Q S7Q                      SYS / # / OBS TYPES
DBHZ                                                        COMMENT
     30.000                                                 INTERVAL
  2020    05    04    12    00    0.0000000     GPS         TIME OF FIRST OBS
  2020    05    04    12    59   30.0000000     GPS         TIME OF LAST OBS
     0                                                      RCV CLOCK OFFS APPL
G L1C  0.00000                                              SYS / PHASE SHIFT
G L2Y  0.00000                                              SYS / PHASE SHIFT
R L1C  0.00000                                              SYS / PHASE SHIFT
R L2P  0.25000                                              SYS / PHASE SHIFT
C L1I  0.00000                                              SYS / PHASE SHIFT
C L7I  0.00000                                              SYS / PHASE SHIFT
E L1C  0.50000                                              SYS / PHASE SHIFT
E L7Q -0.25000                                              SYS / PHASE SHIFT
 13 R05  1 R06 -4 R07  5 R08  6 R09 -2 R10 -7 R11  0 R12 -1 GLONASS SLOT / FRQ #
    R16 -1 R19  3 R20  2 R21  4 R22 -3                      GLONASS SLOT / FRQ #
 C1C   71.950 C2C   71.950 C2P   71.950                     GLONASS COD/PHS/BIS
    18                                                      LEAP SECONDS
*** Above antenna height is from mark to ANTENNA BOTTOM.    COMMENT
    17     4        0.0000        ANT MEASURE TYPE/HEIGT    COMMENT
    0.0000    0.0000    0.0458    0.0405    0.0000          COMMENT
                    BASE STATION                            COMMENT
                                                            END OF HEADER
> 2020 05 04 12 00  0.0000000  0 18        .000000000000
G02  24474178.617 5 128612678.463 5     -2677.098          34.000
G14  23859638.438 7 125383244.827 7     -2277.055          43.000    23859641.086 7  97701243.422 7     -1774.325          42.000
G18  22864142.172 6 120151926.688 6      3462.574          40.000    22864146.328 6  93624870.669 6      2698.107          41.000
G21  22690470.938 7 119239234.273 7      3094.922          44.000    22690483.547 4  92913696.944 4      2411.624          29.000
G25  20960414.961 8 110147733.385 8     -1772.461          50.000    20960416.891 8  85829389.316 8     -1381.138          50.000
G29  20218941.023 8 106251239.357 8      -252.953          51.000    20218939.781 8  82793181.763 8      -197.106          51.000
R10  21758532.055 7 115985186.185 7     -3389.434          45.000
R11  19169258.398 8 102434746.933 8       250.445          51.000    19169260.672 8  79671442.949 8       194.791          48.000
R21  19195760.266 8 102720372.251 8      -161.520          50.000    19195761.680 7  79893643.192 7      -125.626          46.000
R22  21381492.586 8 114135854.350 8      3670.695          50.000    21381498.312 7  88772360.173 7      2854.985          45.000
C11  22013771.719 8 114631577.044 8     -1022.414          49.000    22013772.430 8  88640357.838 8      -790.577          51.000
C12  25370600.008 5 132111370.261 5     -3063.758          30.000    25370602.297 5 102156901.941 5     -2368.578          30.000
C23  21959322.922 8 114347944.149 8       341.398          51.000
C25  23325349.508 8 121461218.683 8     -2523.801          50.000
C28  24283252.914 7 126449219.419 7      2928.070          43.000
E12  22472737.367 8 118095043.964 8      2016.922          48.000    22472731.922 7  90488415.192 7      1545.434          46.000
E31  23875189.719 8 125464954.088 8     -1037.875          51.000    23875192.750 8  96135487.937 8      -795.294          51.000
E33  24186918.844 6 127103128.446 6      -841.855          38.000    24186921.445 7  97390734.617 7      -645.001          46.000
> 2020 05 04 12 00 30.0000000  0 18        .000000000000
G02  24489491.281 5 128693152.344 5     -2686.617          33.000
G14  23872668.727 7 125451720.197 7     -2287.035          43.000    23872672.008 6  97754600.797 6     -1782.108          40.000
G18  22844401.523 7 120048187.444 7      3454.602          43.000    22844405.414 7  93544034.894 7      2691.897          42.000
G21  22672833.180 7 119146542.930 7      3085.289          45.000    22672849.484 3  92841469.883 3      2404.130          22.000
G25  20970568.469 8 110201090.060 8     -1783.781          50.000    20970570.562 8  85870965.927 8     -1389.959          50.000
G29  20220431.219 8 106259070.620 8      -268.238          51.000    20220429.891 8  82799284.045 8      -209.017          51.000
R10  21777643.883 7 116087067.903 7     -3401.758          44.000
R11  19167914.922 8 102427568.177 8       229.000          51.000    19167917.398 8  79665859.442 8       178.111          48.000
R21  19196738.805 8 102725608.336 8      -186.527          50.000    19196739.969 7  79897715.695 7      -145.077          46.000
R22  21360908.109 8 114025969.195 8      3655.977          50.000    21360912.766 7  88686893.997 7      2843.540          45.000
C11  22019702.523 8 114662460.361 8     -1035.602          49.000    22019703.273 8  88664238.768 8      -800.790          51.000
C12  25388258.867 4 132203325.621 4     -3066.402          29.000    25388259.672 4 102228002.305 4     -2370.608          29.000
C23  21957402.016 8 114337940.360 8       326.309          51.000
C25  23339923.211 8 121537108.189 8     -2534.449          50.000
C28  24266408.484 7 126361498.512 7      2920.594          43.000
E12  22461258.703 7 118034726.975 7      2005.074          47.000    22461255.188 8  90442198.282 8      1536.490          48.000
E31  23881143.328 8 125496241.558 8     -1046.996          51.000    23881146.297 8  96159461.431 8      -802.244          51.000
E33  24191766.375 6 127128605.431 6      -855.348          38.000    24191769.500 7  97410255.895 7      -655.630          45.000
> 2020 05 04 12 01  0.0000000  0 17        .000000000000
G14  23885763.641 7 125520534.920 7     -2300.652          44.000    23885767.328 6  97808222.595 6     -1792.716          39.000
G18  22824714.328 7 119944726.888 7      3442.734          46.000    22824717.242 7  93463416.301 7      2682.650          43.000
G21  22655258.016 7 119054180.955 7      3071.914          47.000    22655275.922 3  92769499.359 3      2393.696          23.000
G25  20980792.742 8 110254818.882 8     -1798.477          49.000    20980795.008 8  85912832.546 8     -1401.410          48.000
G29  20222015.180 8 106267394.363 8      -286.934          51.000    20222014.078 8  82805770.089 8      -223.585          51.000
R10  21796833.094 7 116189361.313 7     -3417.859          45.000
R11  19166699.305 8 102421070.913 8       203.914          51.000    19166701.547 8  79660806.012 8       158.600          48.000
R21  19197864.211 8 102731630.537 8      -215.148          51.000    19197865.727 7  79902399.649 7      -167.338          47.000
R22  21340413.500 8 113916563.651 8      3637.590          51.000    21340416.891 7  88601800.846 7      2829.237          45.000
C11  22025716.258 8 114693775.637 8     -1052.312          48.000    22025716.984 8  88688453.732 8      -813.760          51.000
C12                                                                  25405941.109 4 102299196.361 4     -2376.193          29.000
C23  21955575.047 8 114328426.216 8       307.758          51.000
C25  23354564.625 8 121613349.556 8     -2548.594          50.000
C28  24249613.219 6 126274038.929 6      2909.570          41.000
E12  22449853.781 7 117974798.864 7      1989.727          45.000    22449852.695 8  90396279.338 8      1524.659          49.000
E31  23887156.430 8 125527841.729 8     -1059.785          51.000    23887159.500 8  96183674.523 8      -812.043          51.000
E33  24196699.023 6 127154529.737 6      -872.820          37.000    24196702.602 7  97430119.919 7      -668.772          45.000
> 2020 05 04 12 01 30.0000000  0 17        .000000000000
G14  23898901.336 7 125589574.162 7     -2306.281          44.000    23898904.945 6  97862019.347 6     -1797.105          39.000
G18  22805059.414 8 119841435.810 8      3439.066          48.000    22805060.812 7  93382929.791 7      2679.792          42.000
G21  22637724.664 8 118962038.927 8      3066.527          48.000    22637736.992 4  92697700.244 4      2389.508          28.000
G25  20991066.297 7 110308807.541 7     -1805.078          47.000    20991068.602 7  85954901.626 7     -1406.554          47.000
G29  20223671.258 8 106276097.581 8      -297.578          51.000    20223670.195 8  82812551.822 8      -231.879          51.000
R10  21816078.508 7 116291951.272 7     -3425.699          44.000
R11  19165589.891 8 102415142.806 8       186.914          51.000    19165592.453 8  79656195.255 8       145.378          49.000
R21  19199115.148 8 102738323.404 8      -235.441          50.000    19199116.477 7  79907605.210 7      -183.121          47.000
R22  21319987.883 8 113807526.654 8      3627.168          51.000    21319989.820 7  88516994.348 7      2821.131          44.000
C11  22031791.586 8 114725410.494 8     -1060.957          49.000    22031792.258 8  88712915.806 8      -820.439          51.000
C12                                                                  25423624.828 5 102370404.471 5     -2374.613          30.000
C23  21953820.734 8 114319291.620 8       297.000          51.000
C25  23369252.602 8 121689830.636 8     -2554.418          51.000
C28  24232845.180 6 126186730.863 6      2906.602          38.000
E12  22438502.094 7 117915148.594 7      1982.449          46.000    22438502.891 8  90350573.307 8      1519.079          50.000
E31  23893207.859 8 125559642.866 8     -1064.672          51.000    23893210.828 8  96208041.614 8      -815.779          51.000
E33  24201696.453 5 127180788.297 5      -881.996          35.000    24201699.570 7  97450240.097 7      -675.860          44.000
> 2020 05 04 12 02  0.0000000  0 17        .000000000000
G14  23912092.742 7 125658894.839 7     -2315.180          44.000    23912095.812 6  97916035.390 6     -1804.036          38.000
G18  22785448.523 8 119738376.951 8      3431.812          48.000    22785448.141 6  93302624.212 6      2674.140          41.000
G21  22620244.758 7 118870178.919 7      3057.668          47.000    22620249.539 5  92626120.993 5      2382.598          34.000
G25  21001400.555 8 110363115.440 8     -1815.203          48.000    21001402.891 8  85997219.474 8     -1414.444          49.000
G29  20225410.930 8 106285238.998 8      -311.508          51.000    20225409.508 8  82819674.987 8      -242.733          51.000
R10  21835390.656 7 116394896.718 7     -3437.113          45.000
R11  19164598.633 8 102409846.279 8       166.371          51.000    19164601.406 8  79652075.713 8       129.400          49.000
R21  19200502.438 8 102745746.574 8      -259.160          50.000    19200503.844 8  79913378.799 8      -201.569          48.000
R22  21299643.117 8 113698921.645 8      3613.406          50.000    21299643.289 7  88432523.879 7      2810.430          43.000
C11  22037939.227 8 114757422.841 8     -1072.988          48.000    22037940.000 8  88737669.770 8      -829.718          51.000
C12                                                                  25441322.742 5 102441667.318 5     -2376.308          31.000
C23  21952150.875 8 114310596.712 8       282.895          51.000
C25  23383997.922 8 121766609.594 8     -2563.898          51.000
C28  24216116.688 6 126099634.774 6      2900.152          39.000
E12  22427215.523 8 117855837.036 8      1971.617          48.000    22427217.305 8  90305126.800 8      1510.794          50.000
E31  23899309.062 8 125591705.048 8     -1072.766          51.000    23899311.812 8  96232608.728 8      -821.989          51.000
E33  24206768.805 6 127207439.874 6      -894.652          40.000    24206771.016 7  97470661.427 7      -685.462          43.000
> 2020 05 04 12 02 30.0000000  0 17        .000000000000
G14  23925338.305 7 125728500.167 7     -2315.285          44.000    23925341.016 6  97970273.253 6     -1804.121          39.000
G18  22765883.109 7 119635559.341 7      3432.715          46.000    22765881.422 6  93222506.649 6      2674.846          40.000
G21  22602819.453 7 118778609.461 7      3056.887          46.000    22602820.133 6  92554768.203 6      2381.993          38.000
G25  21011796.805 8 110417748.339 8     -1817.012          49.000    21011799.266 8  86039790.564 8     -1415.853          49.000
G29  20227234.875 8 106294823.675 8      -317.270          51.000    20227233.422 8  82827143.578 8      -247.223          51.000
R10  21854770.711 7 116498202.219 7     -3439.887          46.000
R11  19163727.258 8 102405189.138 8       154.285          50.000    19163729.523 8  79648453.508 8       120.000          48.000
R21  19202027.031 8 102753904.816 8      -274.445          50.000    19202028.477 7  79919724.093 7      -213.457          47.000
R22  21279380.414 8 113590757.592 8      3607.723          48.000    21279379.719 7  88348396.347 7      2806.007          43.000
C11  22044160.000 8 114789817.292 8     -1076.750          48.000    22044160.914 8  88762719.200 8      -832.566          51.000
C12  25459036.852 4 132571885.721 4     -3066.109          29.000    25459035.672 5 102512987.370 5     -2371.031          32.000
C23  21950566.891 8 114302348.500 8       276.906          51.000
C25  23398800.805 8 121843691.342 8     -2564.969          51.000
C28  24199431.891 6 126012757.901 6      2901.387          41.000
E12  22415995.211 8 117796871.351 8      1969.219          49.000    22415997.164 8  90259945.307 8      1508.918          51.000
E31  23905461.211 8 125624034.750 8     -1072.594          51.000    23905463.773 8  96257380.809 8      -821.852          51.000
E33  24211916.391 6 127234489.633 6      -898.684          41.000    24211917.750 7  97491387.860 7      -688.626          42.000
> 2020 05 04 12 03  0.0000000  0 17        .000000000000
G14  23938623.773 7 125798314.830 7     -2334.887          44.000    23938625.758 6  98024674.233 6     -1819.392          37.000
G18  22746350.000 7 119532913.249 7      3414.426          46.000    22746347.188 6  93142522.731 6      2660.595          40.000
G21  22585435.500 7 118687261.041 7      3037.055          44.000    22585435.133 6  92483587.628 6      2366.536          38.000
G25  21022241.117 8 110472633.366 8     -1837.910          49.000    21022243.742 8  86082558.098 8     -1432.141          49.000
G29  20229128.977 8 106304778.018 8      -342.180          51.000    20229127.406 8  82834900.202 8      -266.634          51.000
R10  21874204.156 7 116601791.794 7     -3461.922          46.000
R11  19162961.461 8 102401099.245 8       122.590          50.000    19162964.055 8  79645272.473 8        95.348          49.000
R21  19203674.859 8 102762722.562 8      -309.133          48.000    19203676.141 8  79926582.336 8      -240.434          48.000
R22  21259186.453 8 113482963.740 8      3582.777          49.000    21259187.016 7  88264556.696 7      2786.605          46.000
C11  22050440.312 8 114822520.634 8     -1099.242          48.000    22050441.266 8  88788007.491 8      -850.113          51.000
C12  25476749.148 5 132664117.940 5     -3078.613          30.000    25476748.984 5 102584310.391 5     -2380.165          31.000
C23  21949055.148 8 114294475.961 8       252.023          51.000
C25  23413647.758 8 121921002.853 8     -2585.066          50.000
C28  24182777.305 7 125926029.453 7      2884.309          44.000
E12  22404827.188 8 117738180.007 8      1947.637          50.000    22404828.539 8  90214974.006 8      1492.354          50.000
E31  23911650.531 8 125656559.704 8     -1091.598          51.000    23911653.141 8  96282302.502 8      -836.443          51.000
E33  24217125.992 7 127261863.926 7      -922.043          42.000    24217126.641 6  97512362.979 6      -706.390          41.000
> 2020 05 04 12 03 30.0000000  0 17        .000000000000
G14  23951971.852 7 125868458.897 7     -2341.875          43.000    23951972.758 6  98079331.923 6     -1824.838          36.000
G18  22726873.438 7 119430564.390 7      3408.074          47.000    22726869.867 6  93062770.429 6      2655.642          39.000
G21  22568117.156 7 118596258.481 7      3028.883          44.000    22568116.875 6  92412676.534 6      2360.168          39.000
G25  21032756.750 8 110527893.015 8     -1846.789          50.000    21032759.227 8  86125617.523 8     -1439.056          50.000
G29  20231116.695 8 106315224.010 8      -354.984          51.000    20231114.922 8  82843039.907 8      -276.611          51.000
R10  21893713.188 7 116705788.686 7     -3471.812          43.000
R11  19162325.922 8 102397702.846 8       102.992          50.000    19162328.523 8  79642630.851 8        80.105          49.000
R21  19205468.938 8 102772323.807 8      -331.629          49.000    19205470.711 8  79934049.975 8      -257.934          48.000
R22  21239085.680 8 113375667.301 8      3569.613          49.000    21239088.242 7  88181103.930 7      2776.369          47.000
C11  22056803.000 8 114855653.107 8     -1110.160          48.000    22056804.148 8  88813627.607 8      -858.416          51.000
C12  25494485.102 5 132756471.966 5     -3078.430          30.000    25494485.469 5 102655723.897 5     -2380.833          30.000
C23  21947638.844 8 114287101.793 8       238.832          51.000
C25  23428561.922 8 121998664.692 8     -2593.148          50.000
C28  24166175.297 7 125839572.408 7      2878.750          45.000
E12  22393734.898 8 117679886.838 8      1937.906          49.000    22393735.320 8  90170307.809 8      1484.847          51.000
E31  23917900.312 8 125689403.050 8     -1098.746          51.000    23917903.031 8  96307468.166 8      -841.872          51.000
E33  24222420.656 7 127289684.648 7      -933.242          43.000    24222420.945 6  97533680.160 6      -715.159          41.000
> 2020 05 04 12 04  0.0000000  0 17        .000000000000
G14  23965368.258 6 125938857.572 6     -2351.496          41.000    23965368.180 6  98134187.964 6     -1832.341          36.000
G18  22707440.516 8 119328443.671 8      3399.309          48.000    22707437.531 6  92983195.906 6      2648.815          40.000
G21  22550851.680 7 118505532.264 7      3018.887          45.000    22550852.148 7  92341980.791 7      2352.379          42.000
G25  21043330.023 8 110583454.993 8     -1857.852          50.000    21043331.617 8  86168912.538 8     -1447.677          51.000
G29  20233184.016 8 106326088.580 8      -369.918          51.000    20233182.352 8  82851505.830 8      -288.248          51.000
R10  21913283.969 7 116810118.280 7     -3484.062          43.000
R11  19161806.477 8 102394928.564 8        81.254          49.000    19161809.438 8  79640473.081 8        63.201          48.000
R21  19207395.070 7 102782633.653 7      -356.125          47.000    19207397.070 7  79942068.744 7      -276.986          47.000
R22  21219064.992 8 113268797.987 8      3554.391          50.000    21219068.773 7  88097983.367 7      2764.526          47.000
C11  22063234.266 8 114889142.136 8     -1123.098          50.000    22063235.391 8  88839523.435 8      -868.420          51.000
C12  25512230.039 5 132848874.031 5     -3081.082          30.000
C23  21946304.602 8 114280155.557 8       223.617          51.000
C25  23443529.742 8 122076604.443 8     -2603.402          51.000
C28  24149611.500 7 125753316.639 7      2870.973          45.000
E12  22382704.438 8 117621920.946 8      1925.852          48.000    22382704.297 8  90125892.387 8      1475.658          50.000
E31  23924196.891 8 125722493.159 8     -1107.930          50.000    23924199.906 8  96332822.911 8      -848.918          51.000
E33  24227785.836 7 127317878.730 7      -946.801          42.000    24227786.812 6  97555283.458 6      -725.504          41.000
> 2020 05 04 12 04 30.0000000  0 17        .000000000000
G14  23978819.188 6 126009544.416 6     -2359.324          40.000    23978818.234 6  98189268.584 6     -1838.431          38.000
G18  22688058.523 8 119226590.440 8      3392.121          48.000    22688057.133 7  92903829.794 7      2643.211          43.000
G21  22533646.961 7 118415121.732 7      3009.902          47.000    22533647.906 7  92271531.029 7      2345.381          44.000
G25  21053967.656 8 110639355.361 8     -1867.410          50.000    21053969.062 8  86212471.220 8     -1455.125          50.000
G29  20235337.969 8 106337407.305 8      -383.348          51.000    20235336.148 8  82860325.620 8      -298.712          51.000
R10  21932925.195 7 116914815.542 7     -3494.469          45.000
R11  19161410.578 8 102392814.741 8        60.871          50.000    19161413.523 8  79638829.002 8        47.344          48.000
R21  19209460.266 8 102793687.690 8      -379.180          48.000    19209462.734 8  79950666.295 8      -294.921          48.000
R22  21199132.188 8 113162395.377 8      3540.531          50.000    21199135.703 7  88015225.796 7      2753.747          46.000
C11  22069740.844 8 114923022.467 8     -1134.297          50.000    22069741.664 8  88865721.858 8      -877.141          51.000
C12  25529991.141 4 132941362.291 4     -3082.496          29.000
C23  21945059.570 8 114273674.249 8       209.805          51.000
C25  23458557.711 8 122154857.092 8     -2612.148          51.000
C28  24133092.711 7 125667299.462 7      2864.848          44.000
E12  22371742.812 7 117564319.735 7      1915.445          47.000    22371742.758 8  90081756.426 8      1467.703          50.000
E31  23930547.289 8 125755866.732 8     -1115.711          50.000    23930551.039 8  96358394.860 8      -854.803          51.000
E33  24233228.906 7 127346481.628 7      -958.754          44.000    24233230.812 6  97577200.001 6      -734.624          41.000
> 2020 05 04 12 05  0.0000000  0 18        .000000000000
G02  24629622.914 5 129429542.165 5     -2771.754          33.000
G12  23343216.320 5 122669429.219 5     -2968.355          31.000
G14  23992331.828 6 126080555.865 6     -2375.219          38.000    23992330.461 5  98244602.112 5     -1850.817          35.000
G18  22668735.305 8 119125046.861 8      3376.660          48.000    22668735.570 7  92824704.942 7      2631.167          44.000
G21  22516510.656 8 118325068.147 8      2992.980          48.000    22516511.578 7  92201359.408 7      2332.196          44.000
G25  21064676.930 8 110695633.026 8     -1885.012          49.000    21064678.844 8  86256323.897 8     -1468.843          49.000
G29  20237585.469 8 106349218.200 8      -404.723          51.000    20237583.633 8  82869528.929 8      -315.365          51.000
R10  21952643.500 7 117019918.588 7     -3513.094          47.000
R11  19161146.242 8 102391402.893 8        32.508          50.000    19161149.156 8  79637730.916 8        25.281          48.000
R21  19211671.508 7 102805524.279 7      -410.477          46.000    19211674.898 8  79959872.548 8      -319.260          48.000
R22  21179295.391 8 113056502.453 8      3518.410          50.000    21179298.125 7  87932864.693 7      2736.544          47.000
C11  22076329.711 8 114957331.583 8     -1153.641          50.000    22076330.344 8  88892251.823 8      -891.981          51.000
C23  21943911.492 8 114267697.619 8       187.926          51.000
C25  23473652.984 8 122233460.383 8     -2628.848          51.000
C28  24116626.367 7 125581560.992 7      2850.395          43.000
E12  22360858.117 8 117507123.498 8      1896.969          48.000    22360858.219 8  90037930.777 8      1453.465          49.000
E31  23936959.250 8 125789563.364 8     -1131.402          50.000    23936963.688 8  96384214.350 8      -866.904          51.000
E33  24238757.039 7 127375531.585 7      -978.566          43.000    24238758.797 6  97599459.068 6      -749.847          41.000
> 2020 05 04 12 05 30.0000000  0 17        .000000000000
G02  24645441.734 5 129512660.425 5     -2773.422          33.000
G14  24005881.312 6 126151761.080 6     -2376.336          39.000    24005879.727 5  98300086.627 5     -1851.687          35.000
G18  22649447.086 8 119023687.555 8      3375.809          48.000    22649448.562 7  92745723.670 7      2630.500          45.000
G21  22499418.375 8 118235246.035 8      2990.500          49.000    22499419.297 7  92131368.174 7      2330.260          44.000
G25  21075433.555 8 110752159.431 8     -1888.145          48.000    21075435.430 8  86300370.404 8     -1471.281          48.000
G29  20239902.070 8 106361392.172 8      -411.543          51.000    20239900.344 8  82879015.137 8      -320.683          51.000
R10  21972413.344 8 117125295.463 8     -3516.867          48.000
R11  19160989.094 8 102390564.173 8        18.688          50.000    19160992.367 8  79637078.560 8        14.535          48.000
R21  19214005.250 8 102818011.482 8      -426.781          48.000    19214008.281 8  79969584.770 8      -331.941          49.000
R22  21159530.008 8 112950991.282 8      3510.754          48.000    21159532.617 7  87850800.518 7      2730.586          47.000
C11  22082976.086 8 114991940.997 8     -1158.410          50.000    22082976.695 8  88919014.031 8      -895.708          51.000
C23  21942836.438 8 114262099.509 8       180.594          51.000
C25  23488790.781 8 122312286.068 8     -2630.988          51.000
C28  24100187.773 7 125495975.309 7      2850.254          42.000
E12  22350026.727 8 117450205.010 8      1892.945          50.000    22350026.586 8  89994317.934 8      1450.442          49.000
E31  23943408.836 8 125823455.145 8     -1132.738          51.000    23943413.016 8  96410183.371 8      -867.951          51.000
E33  24244345.539 7 127404899.238 7      -983.941          43.000    24244345.703 6  97621961.546 6      -753.717          39.000
> 2020 05 04 12 06  0.0000000  0 17        .000000000000
G02  24661302.133 5 129596004.536 5     -2782.680          32.000
G14  24019475.305 6 126223197.116 6     -2386.410          40.000    24019472.945 5  98355751.056 5     -1859.540          32.000
G18  22630202.102 8 118922555.357 8      3366.512          48.000    22630203.992 7  92666919.392 7      2623.259          45.000
G21  22482377.930 8 118145698.093 8      2979.484          48.000    22482378.828 7  92061590.573 7      2321.676          43.000
G25  21086245.109 8 110808974.193 8     -1899.438          48.000    21086246.617 8  86344641.635 8     -1480.081          48.000
G29  20242295.172 8 106373968.027 8      -426.711          51.000    20242293.531 8  82888814.508 8      -332.502          51.000
R10  21992241.883 7 117230984.809 7     -3529.020          47.000
R11  19160946.914 8 102390340.528 8        -3.707          50.000    19160950.547 8  79636904.590 8        -2.883          48.000
R21  19216467.555 8 102831188.249 8      -451.465          49.000    19216470.906 8  79979833.381 8      -351.139          49.000
R22  21139843.508 7 112845905.113 7      3494.789          47.000    21139847.102 8  87769066.845 8      2718.166          48.000
C11  22089687.711 8 115026889.027 8     -1171.355          51.000    22089687.961 8  88946038.061 8      -905.800          51.000
C23  21941841.891 8 114256920.368 8       164.785          51.000
C25  23503978.234 8 122391372.632 8     -2641.453          48.000
C28  24083786.664 7 125410583.159 7      2842.297          42.000
E12  22339256.516 8 117393605.238 8      1880.527          51.000    22339255.648 8  89950949.304 8      1440.945          48.000
E31  23949903.461 8 125857582.336 8     -1142.277          51.000    23949907.281 8  96436332.767 8      -875.254          51.000
E33  24250002.148 7 127434623.581 7      -997.641          44.000    24250001.953 6  97644737.357 6      -764.504          40.000
> 2020 05 04 12 06 30.0000000  0 17        .000000000000
G02  24677209.992 5 129679601.091 5     -2790.523          34.000
G14  24033118.141 6 126294889.340 6     -2394.004          41.000    24033115.508 6  98411615.101 6     -1865.458          38.000
G18  22611006.078 8 118821681.574 8      3358.363          48.000    22611008.141 7  92588316.432 7      2616.906          45.000
G21  22465394.828 7 118056454.658 7      2969.832          47.000    22465395.758 6  91992050.233 6      2314.158          41.000
G25  21097116.719 7 110866105.291 7     -1909.355          47.000    21097118.508 7  86389159.390 7     -1487.812          47.000
G29  20244769.898 8 106386972.920 8      -440.418          51.000    20244768.289 8  82898948.184 8      -343.183          51.000
R10  22012132.875 7 117337013.431 7     -3539.805          43.000
R11  19161025.922 8 102390762.271 8       -24.684          51.000    19161029.219 7  79637232.600 7       -19.198          47.000
R21  19219064.227 8 102845081.862 8      -474.832          49.000    19219067.227 8  79990639.524 8      -369.311          48.000
R22  21120243.281 8 112741275.697 8      3480.172          50.000    21120247.164 8  87687688.391 8      2706.800          48.000
C11  22096469.508 8 115062202.342 8     -1182.938          51.000    22096469.250 8  88973344.532 8      -914.737          51.000
C23  21940933.266 8 114252189.138 8       150.434          51.000
C25  23519219.914 7 122470747.035 7     -2650.309          45.000
C28  24067429.500 7 125325413.857 7      2835.523          44.000
E12  22328552.734 8 117337353.485 8      1869.500          51.000    22328551.156 8  89907847.338 8      1432.411          49.000
E31  23956448.250 8 125891973.603 8     -1150.633          51.000    23956451.805 8  96462684.503 8      -881.651          51.000
E33  24255731.617 7 127464731.886 7     -1009.543          44.000    24255732.227 6  97667807.365 6      -773.761          41.000
> 2020 05 04 12 07  0.0000000  0 17        .000000000000
G02  24693165.844 5 129763448.333 5     -2799.508          33.000
G14  24046809.422 6 126366835.766 6     -2402.500          41.000    24046807.398 6  98467677.192 6     -1872.081          37.000
G18  22591859.977 8 118721069.712 8      3349.199          48.000    22591861.812 7  92509917.593 7      2609.766          46.000
G21  22448470.398 7 117967519.223 7      2959.344          47.000    22448470.352 6  91922749.930 6      2305.985          39.000
G25  21108048.484 8 110923553.062 8     -1920.230          48.000    21108050.445 8  86433923.877 8     -1496.280          48.000
G29  20247326.281 8 106400406.962 8      -455.102          51.000    20247324.828 8  82909416.266 8      -354.625          51.000
R10  22032085.484 7 117443380.315 7     -3551.219          43.000
R11  19161226.156 8 102391831.441 8       -46.469          51.000    19161229.258 7  79638064.164 7       -36.145          47.000
R21  19221794.477 8 102859691.409 8      -499.062          49.000    19221797.516 7  80002002.513 7      -388.160          47.000
R22  21100729.680 8 112637106.096 8      3464.488          50.000    21100732.852 7  87606667.638 7      2694.602          47.000
C11  22103321.039 8 115097880.147 8     -1195.469          51.000    22103320.648 8  89000932.890 8      -924.452          51.000
C23  21940110.969 8 114247907.322 8       135.168          51.000
C25  23534516.273 7 122550408.709 7     -2660.125          43.000
C28  24051116.312 7 125240469.234 7      2827.582          44.000
E12  22317915.477 8 117281451.411 8      1857.410          51.000    22317913.695 8  89865013.303 8      1423.240          50.000
E31  23963043.594 8 125926629.882 8     -1159.750          51.000    23963046.547 8  96489239.301 8      -888.696          51.000
E33  24261533.773 7 127495223.722 7     -1022.867          42.000    24261534.102 6  97691171.250 6      -783.779          41.000
> 2020 05 04 12 07 30.0000000  0 18        .000000000000
G02  24709167.477 5 129847540.326 5     -2806.387          31.000
G12  23428106.234 5 123115529.177 5     -2985.762          31.000
G14  24060547.844 7 126439029.428 7     -2409.660          43.000    24060545.766 5  98523931.971 5     -1877.654          34.000
G18  22572763.812 8 118620718.621 8      3341.480          49.000    22572764.984 7  92431721.973 7      2603.754          44.000
G21  22431604.945 8 117878890.279 8      2949.949          49.000    22431602.203 6  91853688.493 6      2298.665          38.000
G25  21119040.086 8 110981313.199 8     -1929.672          49.000    21119041.992 8  86478931.764 8     -1503.643          49.000
G29  20249963.242 8 106414264.852 8      -468.234          51.000    20249962.180 8  82920214.624 8      -364.858          51.000
R10  22052101.328 7 117550079.938 7     -3561.449          43.000
R11  19161547.203 8 102393545.463 8       -67.066          51.000    19161550.266 7  79639397.260 7       -52.163          47.000
R21  19224657.180 8 102875010.957 8      -521.641          50.000    19224660.492 7  80013917.735 7      -405.720          47.000
R22  21081301.406 8 112533394.876 8      3450.203          50.000    21081303.617 7  87526003.400 7      2683.491          46.000
C11  22110241.789 8 115133917.134 8     -1206.402          51.000    22110241.172 8  89028798.972 8      -932.749          51.000
C23  21939374.742 8 114244071.784 8       121.188          51.000
C25  23549867.727 7 122630352.656 7     -2668.828          45.000
C28  24034846.672 7 125155746.502 7      2821.141          46.000
E12  22307343.867 8 117225895.990 8      1846.922          50.000    22307342.562 8  89822444.890 8      1415.192          51.000
E31  23969688.656 8 125961547.501 8     -1167.426          51.000    23969691.008 8  96515994.340 8      -894.464          51.000
E33  24267408.438 7 127526094.045 7     -1034.281          44.000    24267408.070 6  97714825.146 6      -792.627          41.000
> 2020 05 04 12 08  0.0000000  0 17        .000000000000
G02  24725213.141 5 129931873.030 5     -2815.230          30.000
G14  24074331.094 7 126511458.573 7     -2418.281          42.000    24074328.297 5  98580370.220 5     -1884.372          35.000
G18  22553716.242 8 118520622.239 8      3331.957          49.000    22553716.602 7  92353724.833 7      2596.330          44.000
G21  22414796.836 8 117790560.946 8      2938.898          50.000    22414792.664 6  91784860.531 6      2290.054          39.000
G25  21130089.477 8 111039376.284 8     -1940.668          51.000    21130091.227 8  86524175.718 8     -1512.209          50.000
G29  20252678.969 8 106428536.348 8      -482.965          51.000    20252678.188 8  82931335.270 8      -376.336          51.000
R10  22072177.203 7 117657100.815 7     -3573.199          42.000
R11  19161987.570 8 102395896.504 8       -89.301          51.000    19161990.266 7  79641225.835 7       -69.459          47.000
R21  19227650.797 8 102891029.772 8      -545.961          50.000    19227653.852 7  80026376.820 7      -424.633          47.000
R22  21061956.711 8 112430135.668 8      3434.078          50.000    21061959.492 7  87445690.730 7      2670.953          47.000
C11  22117229.586 8 115170303.111 8     -1218.945          51.000    22117228.578 8  89056934.922 8      -942.590          51.000
C23  21938722.812 8 114240674.437 8       105.625          51.000
C25  23565273.133 8 122710568.713 8     -2678.695          48.000
C28  24018618.930 7 125071237.858 7      2813.027          47.000
E12  22296836.234 8 117170679.200 8      1834.621          49.000    22296835.758 8  89780135.953 8      1405.758          51.000
E31  23976381.727 8 125996717.770 8     -1176.859          51.000    23976383.609 8  96542942.974 8      -901.699          51.000
E33  24273353.344 7 127557332.840 7     -1047.777          45.000    24273353.508 7  97738761.346 7      -802.735          42.000
> 2020 05 04 12 08 30.0000000  0 17        .000000000000
G02  24741304.016 5 130016439.345 5     -2822.926          31.000
G14  24088160.328 7 126584129.374 7     -2426.602          42.000    24088156.430 5  98636996.736 5     -1890.861          31.000
G18  22534719.266 8 118420792.451 8      3323.156          49.000    22534719.070 7  92275935.426 7      2589.472          45.000
G21  22398047.969 8 117702543.017 8      2928.742          51.000    22398044.422 7  91716275.200 7      2282.137          42.000
G25  21141197.914 8 111097751.052 8     -1951.062          49.000    21141199.484 8  86569662.525 8     -1520.311          49.000
G29  20255474.953 8 106443229.581 8      -496.730          51.000    20255474.344 8  82942784.541 8      -387.063          51.000
R10  22092315.789 7 117764450.662 7     -3583.680          45.000
R11  19162549.023 8 102398894.913 8      -110.785          51.000    19162551.406 7  79643557.917 7       -86.166          47.000
R21  19230776.547 8 102907755.445 8      -569.289          51.000    19230779.539 7  80039385.701 7      -442.780          47.000
R22  21042698.430 8 112327340.106 8      3418.652          49.000    21042702.273 7  87365738.632 7      2658.949          46.000
C11  22124285.430 8 115207045.458 8     -1230.754          50.000    22124284.219 8  89085346.432 8      -951.736          51.000
C23  21938156.625 8 114237725.064 8        90.832          51.000
C25  23580733.031 8 122791064.648 8     -2687.914          50.000
C28  24002434.320 8 124986953.452 8      2805.738          48.000
E12  22286394.672 8 117115811.048 8      1823.109          48.000    22286395.117 8  89738094.132 8      1396.880          51.000
E31  23983124.570 8 126032149.986 8     -1185.488          51.000    23983126.016 8  96570092.322 8      -908.418          51.000
E33  24279369.656 7 127588947.969 7     -1060.188          43.000    24279370.469 7  97762985.941 7      -812.298          42.000
> 2020 05 04 12 09  0.0000000  0 17        .000000000000
G02  24757440.547 5 130101233.253 5     -2831.551          32.000
G14  24102035.531 7 126657042.241 7     -2434.387          42.000    24102030.719 5  98693811.948 5     -1896.928          30.000
G18  22515774.227 8 118321235.527 8      3314.035          49.000    22515774.008 7  92198358.634 7      2582.365          45.000
G21  22381359.312 8 117614842.269 8      2918.176          51.000    22381356.914 7  91647936.993 7      2273.903          43.000
G25  21152366.156 8 111156440.492 8     -1961.367          50.000    21152368.031 8  86615394.513 8     -1528.338          50.000
G29  20258351.617 8 106458346.561 8      -510.879          51.000    20258351.133 8  82954563.995 8      -398.087          51.000
R10  22112517.367 7 117872130.437 7     -3594.613          46.000
R11  19163232.695 8 102402545.681 8      -132.418          51.000    19163234.992 8  79646397.397 8      -102.992          48.000
R21  19234034.555 8 102925189.541 8      -592.828          50.000    19234037.344 7  80052945.566 7      -461.089          46.000
R22  21023528.078 8 112225014.226 8      3403.152          49.000    21023532.703 7  87286151.853 7      2646.896          46.000
C11  22131410.102 8 115244146.188 8     -1242.641          50.000    22131408.883 8  89114035.076 8      -960.728          51.000
C23  21937677.203 8 114235227.813 8        75.781          51.000
C25  23596247.148 8 122871842.599 8     -2697.246          51.000
C28  23986293.445 8 124902897.802 8      2798.086          48.000
E12  22276020.109 7 117061295.860 7      1811.324          47.000    22276021.148 8  89696322.746 8      1387.994          50.000
E31  23989917.805 8 126067847.811 8     -1194.191          51.000    23989918.992 8  96597445.176 8      -914.979          51.000
E33  24285457.711 7 127620941.752 7     -1072.539          45.000    24285458.703 6  97787500.674 6      -821.861          41.000
> 2020 05 04 12 09 30.0000000  0 17        .000000000000
G02  24773597.000 5 130186142.753 5     -2836.387          32.000
G14  24115929.773 6 126730056.402 6     -2438.965          41.000    24115924.297 4  98750706.047 4     -1900.492          28.000
G18  22496855.516 8 118221816.099 8      3308.168          49.000    22496855.430 7  92120888.969 7      2577.793          46.000
G21  22364704.930 8 117527322.810 8      2910.910          51.000    22364703.438 7  91579740.033 7      2268.242          44.000
G25  21163567.750 8 111215305.944 8     -1968.582          48.000    21163569.836 8  86661263.677 8     -1533.960          48.000
G29  20261282.453 8 106473748.272 8      -521.438          51.000    20261282.055 8  82966565.305 8      -406.315          51.000
R10  22132754.211 7 117979998.488 7     -3602.078          47.000
R11  19164012.305 8 102406709.537 8      -150.754          51.000    19164014.359 8  79649635.934 8      -117.253          48.000
R21  19237398.383 8 102943189.534 8      -612.887          51.000    19237401.234 7  80066945.548 7      -476.690          46.000
R22  21004421.109 8 112123020.229 8      3390.758          51.000    21004425.703 7  87206823.209 7      2637.256          47.000
C11  22138577.156 8 115281466.918 8     -1250.984          50.000    22138576.039 8  89142893.837 8      -967.404          51.000
C23  21937258.539 8 114233046.433 8        64.168          51.000
C25  23611788.312 8 122952764.387 8     -2703.117          50.000
C28  23970170.070 8 124818935.030 8      2793.777          49.000
E12  22265686.578 7 117006996.291 7      1802.902          46.000    22265687.688 8  89654716.560 8      1381.534          49.000
E31  23996735.219 8 126103673.281 8     -1199.730          51.000    23996736.297 8  96624895.839 8      -919.274          51.000
E33  24291591.523 7 127653174.877 7     -1081.781          45.000    24291591.734 6  97812198.784 6      -828.984          41.000
> 2020 05 04 12 10  0.0000000  0 17        .000000000000
G02  24789829.633 5 130271434.522 5     -2846.441          30.000
G14  24129900.008 6 126803470.177 6     -2449.930          39.000    24129895.211 5  98807911.515 5     -1909.039          34.000
G18  22478020.922 8 118122838.057 8      3295.602          49.000    22478020.984 7  92043763.237 7      2568.004          46.000
G21  22348142.781 8 117440288.132 8      2896.895          51.000    22348141.859 7  91511920.820 7      2257.320          45.000
G25  21174859.891 7 111274648.163 7     -1982.195          47.000    21174862.094 7  86707504.323 7     -1544.571          47.000
G29  20264324.617 8 106489734.798 8      -538.797          51.000    20264324.188 8  82979022.346 8      -419.842          51.000
R10  22153082.461 8 118088358.386 8     -3616.281          48.000
R11  19164945.250 8 102411693.675 8      -175.922          51.000    19164947.141 8  79653512.487 8      -136.828          48.000
R21  19240924.695 8 102962060.041 8      -639.625          51.000    19240927.828 7  80081622.642 7      -497.486          45.000
R22  20985435.047 8 112021666.516 8      3371.602          51.000    20985439.492 8  87127992.575 8      2622.357          49.000
C11  22145843.383 8 115319304.600 8     -1266.113          50.000    22145842.414 8  89172152.347 8      -979.118          51.000
C23  21936957.977 8 114231480.051 8        45.738          51.000
C25  23627413.016 8 123034127.207 8     -2715.684          50.000
C28  23954121.891 8 124735364.650 8      2782.957          49.000
E12  22255451.664 7 116953214.331 7      1787.832          46.000    22255452.656 8  89613507.008 8      1369.939          48.000
E31  24003634.133 8 126139927.740 8     -1211.793          51.000    24003635.398 8  96652675.204 8      -928.612          51.000
E33  24297827.867 7 127685947.272 7     -1097.637          44.000    24297827.445 7  97837310.104 7      -841.154          42.000
> 2020 05 04 12 10 30.0000000  0 16        .000000000000
G14  24143931.508 6 126877206.594 6     -2457.871          38.000    24143927.617 5  98865368.380 5     -1915.224          32.000
G18  22459256.773 8 118024230.322 8      3286.008          49.000    22459257.172 7  91966926.048 7      2560.529          45.000
G21  22331659.234 8 117353666.652 8      2885.852          51.000    22331658.086 7  91444423.583 7      2248.719          44.000
G25  21186228.719 7 111334392.797 7     -1992.980          47.000    21186230.641 7  86754058.555 7     -1552.972          47.000
G29  20267463.906 8 106506231.655 8      -553.055          51.000    20267463.414 8  82991877.044 8      -430.952          51.000
R10  22173487.961 7 118197133.151 7     -3627.262          46.000
R11  19166017.680 8 102417424.140 8      -198.008          51.000    19166019.555 8  79657969.507 8      -154.006          49.000
R21  19244599.445 8 102981724.073 8      -663.227          50.000    19244601.977 7  80096916.901 7      -515.843          44.000
R22  20966555.477 8 111920880.567 8      3355.445          51.000    20966560.055 8  87049603.522 8      2609.791          49.000
C11  22153194.539 8 115357584.516 8     -1277.992          51.000    22153193.547 8  89201752.794 8      -988.309          51.000
C23  21936761.289 8 114230456.158 8        30.352          51.000
C25  23643108.109 8 123115856.528 8     -2725.086          50.000
C28  23938134.852 8 124652114.518 8      2774.957          50.000
E12  22245301.602 7 116899876.907 7      1775.840          47.000    22245302.695 8  89572638.102 8      1360.685          48.000
E31  24010600.648 8 126176537.530 8     -1220.934          51.000    24010601.961 8  96680726.837 8      -935.559          51.000
E33  24304152.508 7 127719183.844 7     -1110.297          44.000    24304152.500 7  97862777.098 7      -850.747          42.000
> 2020 05 04 12 11  0.0000000  0 16        .000000000000
G14  24157976.758 6 126951016.523 6     -2465.043          39.000    24157973.695 5  98922882.531 5     -1920.813          30.000
G18  22440516.406 8 117925749.397 8      3277.094          48.000    22440516.828 7  91890187.693 7      2553.583          42.000
G21  22315207.773 8 117267214.532 8      2875.461          50.000    22315206.047 7  91377058.362 7      2240.622          44.000
G25  21197627.141 7 111394293.076 7     -2002.711          46.000    21197629.195 7  86800734.085 7     -1560.554          47.000
G29  20270652.789 8 106522990.181 8      -566.379          51.000    20270652.406 8  83004935.646 8      -441.334          51.000
R10  22193923.250 7 118306070.361 7     -3637.449          44.000
R11  19167183.055 8 102423651.650 8      -219.348          51.000    19167185.062 8  79662813.110 8      -170.604          49.000
R21  19248375.164 8 103001928.772 8      -685.988          49.000    19248377.477 7  80112631.681 7      -533.546          45.000
R22  20947735.211 8 111820414.389 8      3339.961          50.000    20947740.117 8  86971463.171 8      2597.747          49.000
C11  22160583.477 8 115396061.029 8     -1289.188          51.000    22160582.594 8  89231505.269 8      -996.960          51.000
C23  21936621.883 8 114229731.334 8        15.758          51.000
C25  23658825.984 8 123197707.032 8     -2733.699          51.000
C28  23922162.094 8 124568941.573 8      2767.598          50.000
E12  22235189.945 8 116846738.560 8      1764.523          49.000    22235190.898 8  89531921.758 8      1352.088          49.000
E31  24017587.828 8 126213256.485 8     -1229.242          51.000    24017589.281 8  96708862.119 8      -941.863          51.000
E33  24310518.398 7 127752637.092 7     -1122.023          44.000    24310518.922 7  97888410.128 7      -859.852          42.000
> 2020 05 04 12 11 30.0000000  0 16        .000000000000
G14  24172069.453 6 127025074.845 6     -2472.156          41.000    24172067.234 5  98980590.280 5     -1926.359          35.000
G18  22421834.367 8 117827576.243 8      3267.922          48.000    22421833.211 6  91813689.166 6      2546.433          36.000
G21  22298822.508 8 117181111.877 8      2864.902          49.000    22298820.742 7  91309965.426 7      2232.394          44.000
G25  21209089.266 7 111454526.729 7     -2012.664          47.000    21209092.023 7  86847669.383 7     -1568.310          47.000
G29  20273925.273 8 106540187.760 8      -579.844          51.000    20273924.836 8  83018336.352 8      -451.826          51.000
R10  22214421.688 6 118415349.379 6     -3647.793          40.000
R11  19168475.414 8 102430558.545 8      -240.879          51.000    19168477.578 8  79668185.129 8      -187.350          49.000
R21  19252285.406 8 103022853.790 8      -708.691          49.000    19252288.047 7  80128906.706 7      -551.204          45.000
R22  20929008.117 8 111720451.586 8      3324.445          49.000    20929013.531 8  86893714.305 8      2585.680          48.000
C11  22168043.781 8 115434909.251 8     -1300.473          51.000    22168043.203 8  89261545.198 8     -1005.572          51.000
C23  21936573.961 8 114229482.794 8         1.016          51.000
C25  23674601.328 8 123279853.946 8     -2742.523          51.000
C28  23906237.773 8 124486023.450 8      2760.355          49.000
E12  22225150.680 8 116793978.330 8      1753.086          50.000    22225150.953 8  89491495.121 8      1343.196          49.000
E31  24024629.352 8 126250263.006 8     -1237.684          51.000    24024631.492 8  96737217.732 8      -948.349          51.000
E33  24316959.062 7 127786484.047 7     -1134.133          43.000    24316959.367 7  97914344.799 7      -868.900          42.000
> 2020 05 04 12 12  0.0000000  0 16        .000000000000
G14  24186204.273 6 127099354.995 6     -2480.031          40.000    24186203.227 5  99038470.844 5     -1932.498          31.000
G18  22403207.164 8 117729689.961 8      3257.965          49.000    22403201.570 6  91737414.287 6      2538.677          37.000
G21  22282499.688 8 117095337.625 8      2853.512          49.000    22282498.516 7  91243128.373 7      2223.516          45.000
G25  21220610.336 7 111515069.692 7     -2023.406          47.000    21220613.305 7  86894845.702 7     -1576.680          47.000
G29  20277276.789 8 106557799.772 8      -594.152          51.000    20277276.086 8  83032059.998 8      -462.976          51.000
R10  22234980.398 6 118524944.185 6     -3658.707          41.000
R11  19169890.617 8 102438121.838 8      -263.277          51.000    19169892.844 8  79674067.688 8      -204.771          49.000
R21  19256325.508 8 103044472.908 8      -732.422          49.000    19256327.773 7  80145721.581 7      -569.661          46.000
R22  20910371.469 8 111620970.511 8      3307.797          50.000    20910376.125 7  86816340.141 7      2572.731          46.000
C11  22175570.766 8 115474104.272 8     -1312.430          51.000    22175570.305 8  89291853.276 8     -1014.963          51.000
C23  21936613.109 8 114229687.754 8       -14.605          51.000
C25  23690429.211 8 123362272.518 8     -2751.992          51.000
C28  23890357.617 8 124403337.770 8      2752.113          49.000
E12  22215179.062 8 116741573.348 8      1740.559          50.000    22215178.570 8  89451340.680 8      1333.756          49.000
E31  24031721.227 8 126287533.591 8     -1246.980          50.000    24031724.047 8  96765775.693 8      -955.541          51.000
E33  24323470.016 7 127820699.788 7     -1146.883          43.000    24323470.062 7  97940562.077 7      -878.774          43.000
> 2020 05 04 12 12 30.0000000  0 16        .000000000000
G14  24200379.695 6 127173847.570 6     -2486.648          40.000    24200380.055 5  99096516.973 5     -1937.648          32.000
G18  22384633.852 8 117632086.668 8      3248.734          49.000    22384628.773 6  91661359.907 6      2531.484          40.000
G21  22266238.797 8 117009887.708 8      2842.898          48.000    22266238.672 7  91176544.026 7      2215.246          47.000
G25  21232188.984 8 111575914.835 8     -2033.098          48.000    21232191.586 8  86942257.514 8     -1584.232          48.000
G29  20280705.594 8 106575818.188 8      -607.320          51.000    20280704.859 8  83046100.328 8      -473.237          51.000
R10  22255598.180 7 118634846.041 7     -3668.418          43.000
R11  19171427.453 8 102446335.794 8      -284.617          51.000    19171430.086 8  79680456.299 8      -221.369          49.000
R21  19260493.688 8 103066777.253 8      -754.754          49.000    19260496.023 7  80163069.413 7      -587.031          46.000
R22  20891824.844 8 111521966.682 8      3292.277          51.000    20891827.625 7  86739337.224 7      2560.663          44.000
C11  22183162.727 8 115513637.973 8     -1323.414          51.000    22183162.336 8  89322423.232 8     -1023.314          51.000
C23  21936738.273 8 114230340.284 8       -29.176          51.000
C25  23706307.695 8 123444954.839 8     -2760.309          51.000
C28  23874521.133 8 124320878.972 8      2744.984          48.000
E12  22205273.758 8 116689517.765 8      1729.422          50.000    22205272.734 8  89411453.956 8      1325.174          49.000
E31  24038862.352 8 126325061.778 8     -1255.121          50.000    24038865.609 8  96794531.053 8      -961.707          51.000
E33  24330049.344 7 127855276.490 7     -1158.559          42.000    24330050.031 7  97967055.931 7      -887.649          43.000
> 2020 05 04 12 13  0.0000000  0 17        .000000000000
G12  23617316.898 5 124109844.833 5     -3039.582          32.000
G14  24214597.258 6 127248559.926 6     -2493.902          39.000    24214598.156 5  99154734.319 5     -1943.297          34.000
G18  22366116.852 8 117534779.389 8      3238.895          48.000    22366114.141 7  91585536.115 7      2523.817          44.000
G21  22250042.273 8 116924774.457 8      2831.703          49.000    22250042.742 7  91110222.012 7      2206.525          47.000
G25  21243826.992 8 111637071.925 8     -2043.418          49.000    21243829.492 8  86989912.381 8     -1592.274          49.000
G29  20284213.586 8 106594252.350 8      -621.141          51.000    20284212.812 8  83060464.604 8      -484.006          51.000
R10  22276275.680 7 118745063.252 7     -3678.926          45.000
R11  19173088.375 8 102455211.904 8      -306.805          51.000    19173091.117 8  79687359.932 8      -238.626          48.000
R21  19264791.461 8 103089775.377 8      -777.938          48.000    19264793.484 7  80180956.832 7      -605.062          46.000
R22  20873370.391 8 111423453.061 8      3275.898          51.000    20873370.523 7  86662715.577 7      2547.924          43.000
C11  22190821.430 8 115553518.972 8     -1334.973          51.000    22190821.273 8  89353261.749 8     -1032.283          51.000
C23  21936951.531 8 114231451.149 8       -44.496          51.000
C25  23722238.250 8 123527909.766 8     -2769.375          50.000
C28  23858731.125 8 124238658.274 8      2736.879          49.000
E12  22195436.867 8 116637822.644 8      1717.289          50.000    22195435.750 8  89371843.433 8      1315.866          50.000
E31  24046054.578 8 126362858.022 8     -1264.184          49.000    24046058.039 8  96823491.806 8      -968.618          51.000
E33  24336699.445 7 127890223.176 7     -1170.859          42.000    24336700.562 7  97993833.282 7      -897.128          43.000
> 2020 05 04 12 13 30.0000000  0 17        .000000000000
G12  23634680.070 5 124201099.555 5     -3040.949          35.000
G14  24228848.859 6 127323450.519 6     -2497.785          39.000    24228849.578 5  99213090.573 5     -1946.320          35.000
G18  22347649.180 7 117437732.348 7      3231.906          47.000    22347648.336 7  91509915.088 7      2518.369          46.000
G21  22233903.172 8 116839961.392 8      2823.586          49.000    22233903.438 7  91044133.925 7      2200.197          47.000
G25  21255516.906 8 111698501.950 8     -2050.660          49.000    21255519.250 8  87037779.907 8     -1597.920          49.000
G29  20287792.922 8 106613062.105 8      -631.836          51.000    20287792.180 8  83075121.564 8      -492.340          51.000
R10  22297004.984 7 118855554.721 7     -3686.129          46.000
R11  19174866.016 8 102464711.867 8      -325.590          51.000    19174868.695 8  79694748.792 8      -253.237          48.000
R21  19269211.016 7 103113425.824 7      -797.719          47.000    19269213.297 7  80199351.628 7      -620.448          46.000
R22  20855001.039 8 111325392.855 8      3262.543          51.000    20855000.023 7  86586446.601 7      2537.536          45.000
C11  22198539.125 8 115593707.500 8     -1343.223          51.000    22198539.391 8  89384338.069 8     -1038.713          51.000
C23  21937245.438 8 114232982.730 8       -56.578          51.000
C25  23738213.781 8 123611097.756 8     -2775.430          51.000
C28  23842980.211 8 124156638.432 8      2732.043          49.000
E12  22185661.141 8 116586450.195 8      1708.574          49.000    22185660.148 8  89332480.129 8      1309.098          51.000
E31  24053290.406 8 126400883.924 8     -1269.797          49.000    24053294.359 8  96852628.519 8      -973.009          51.000
E33  24343412.328 6 127925500.052 6     -1179.980          41.000    24343413.977 7  98020863.614 7      -904.057          44.000
> 2020 05 04 12 14  0.0000000  0 17        .000000000000
G12  23652070.242 6 124292455.650 6     -3047.156          36.000    23652072.719 5  96851286.594 5     -2374.407          32.000
G14  24243144.828 6 127398574.790 6     -2506.035          39.000    24243145.180 5  99271628.908 5     -1952.755          35.000
G18  22329242.359 7 117341007.133 7      3220.973          46.000    22329243.070 7  91434544.775 7      2509.849          46.000
G21  22217832.914 8 116755509.667 8      2810.996          50.000    22217832.469 7  90978327.416 7      2190.390          46.000
G25  21267269.898 8 111760263.135 8     -2062.188          49.000    21267271.445 8  87085905.472 8     -1606.899          49.000
G29  20291454.625 8 106632305.391 8      -646.641          51.000    20291453.969 8  83090116.326 8      -503.876          51.000
R10  22317796.047 7 118966377.795 7     -3697.512          46.000
R11  19176771.969 8 102474896.436 8      -348.969          51.000    19176774.539 8  79702670.116 8      -271.420          48.000
R21  19273763.477 7 103137786.309 7      -821.785          47.000    19273765.758 7  80218298.680 7      -639.166          46.000
R22  20836728.039 8 111227848.114 8      3244.910          51.000    20836727.867 7  86510578.508 7      2523.819          47.000
C11  22206326.742 8 115634260.406 8     -1355.766          50.000    22206327.219 8  89415696.143 8     -1048.455          51.000
C23  21937631.562 8 114234993.891 8       -73.043          51.000
C25  23754245.344 8 123694575.784 8     -2785.500          51.000
C28  23827279.766 8 124074878.714 8      2722.934          49.000
E12  22175957.852 8 116535460.009 8      1695.164          48.000    22175956.727 8  89293409.691 8      1298.973          51.000
E31  24060581.555 8 126439198.415 8     -1280.062          51.000    24060586.031 8  96881986.339 8      -980.764          51.000
E33  24350198.836 6 127961164.574 6     -1193.418          39.000    24350200.891 7  98048191.014 7      -914.347          43.000
> 2020 05 04 12 14 30.0000000  0 16        .000000000000
