     3.02           OBSERVATION DATA    M (MIXED)           RINEX VERSION / TYPE
SAVERINEX           SC600               20200513 175931 LCL PGM / RUN BY / DATE
       G = GPS       R = GLONASS       C = COMPASS          COMMENT
       S = SBAS      J = QZSS          E = GALILEO          COMMENT
BEAN                                                        MARKER NAME
1                                                           MARKER NUMBER
GEODETIC                                                    MARKER TYPE
Unige DICCA         GTER                                    OBSERVER / AGENCY
SC60291900056       SC600               2.12(191226)        REC # / TYPE / VERS
                    HEMA45          NONE                    ANT # / TYPE
  4509407.8091   693652.4678  4442337.6214                  APPROX POSITION XYZ
        0.0000        0.0000        0.0000                  ANTENNA: DELTA H/E/N
G    8 C1C L1C D1C S1C C2Y L2Y D2Y S2Y                      SYS / # / OBS TYPES
R    8 C1C L1C D1C S1C C2P L2P D2P S2P                      SYS / # / OBS TYPES
C    8 C1I L1I D1I S1I C7I L7I D7I S7I                      SYS / # / OBS TYPES
E    8 C1C L1C D1C S1C C7Q L7Q D7Q S7Q                      SYS / # / OBS TYPES
DBHZ                                                        COMMENT
     30.000                                                 INTERVAL
  2020    05    13    15    00    0.0000000     GPS         TIME OF FIRST OBS
  2020    05    13    15    59   30.0000000     GPS         TIME OF LAST OBS
     0                                                      RCV CLOCK OFFS APPL
G L1C  0.00000                                              SYS / PHASE SHIFT
G L2Y  0.00000                                              SYS / PHASE SHIFT
R L1C  0.00000                                              SYS / PHASE SHIFT
R L2P  0.25000                                              SYS / PHASE SHIFT
C L1I  0.00000                                              SYS / PHASE SHIFT
C L7I  0.00000                                              SYS / PHASE SHIFT
E L1C  0.50000                                              SYS / PHASE SHIFT
E L7Q -0.25000                                              SYS / PHASE SHIFT
 14 R01  1 R02 -4 R06 -4 R07  5 R08  6 R10 -5 R11  0 R12 -1 GLONASS SLOT / FRQ #
    R13 -2 R14 -7 R15  0 R17  4 R22 -3 R23  3               GLONASS SLOT / FRQ #
 C1C   71.950 C2C   71.950 C2P   71.950                     GLONASS COD/PHS/BIS
    18                                                      LEAP SECONDS
*** Above antenna height is from mark to ANTENNA BOTTOM.    COMMENT
    17     4        0.0000        ANT MEASURE TYPE/HEIGT    COMMENT
    0.0000    0.0000    0.0458    0.0405    0.0000          COMMENT
                    BASE STATION                            COMMENT
                                                            END OF HEADER
> 2020 05 13 15 00  0.0000000  0 20        .000000000000
G10  22318587.156 8 117284997.056 8      2765.301          51.000    22318588.555 8  91390918.132 8      2154.783          51.000
G16  20468302.617 8 107561642.553 8      -212.312          51.000    20468300.906 8  83814277.076 8      -165.438          51.000
G18  22045090.164 6 115847786.136 6     -2695.797          36.000
G20  21040477.430 8 110568483.658 8       711.047          51.000    21040476.344 8  86157275.821 8       554.066          49.000
G21  22207834.352 6 116702975.893 6     -2244.293          41.000    22207833.328 6  90937400.390 6     -1748.797          36.000
G26  21240173.070 8 111617848.104 8     -2356.262          50.000    21240175.445 8  86974951.036 8     -1836.048          50.000
R01  22250928.016 5 118943965.175 5      3388.477          35.000
R14  20297072.453 8 108194810.328 8     -1949.855          50.000    20297075.688 7  84151572.072 7     -1516.557          46.000
R23  20724465.672 6 110861887.112 6     -2249.297          37.000    20724467.906 4  86225919.111 4     -1749.450          29.000
R24  19628766.992 5 104963798.745 5       -42.453          33.000
C05  39617048.570 5 206296367.030 5        -2.207          34.000
C11                                                                  22423713.672 5  90290991.851 5       914.076          32.000
C12  22315986.141 6 116205270.565 6     -1348.234          41.000    22315986.352 6  89857290.478 6     -1042.607          41.000
C21  24142243.906 7 125715032.085 7      2227.453          46.000
C22  24764890.109 4 128957347.285 4      -445.680          27.000
C25  24060424.891 8 125288928.160 8     -2222.500          51.000
E02  27272693.398 6 143318975.066 6     -3236.141          37.000    27272698.969 6 109815833.303 6     -2479.838          39.000
E15  24327499.867 6 127841845.153 6      1524.355          38.000    24327499.828 5  97956757.374 5      1168.360          34.000
E30  23049879.766 8 121127949.499 8     -1796.805          51.000    23049881.305 8  92812326.639 8     -1376.763          51.000
E36  26537318.094 5 139454547.569 5     -2363.820          35.000
> 2020 05 13 15 00 30.0000000  0 19        .000000000000
G10  22302845.289 8 117202272.457 8      2753.832          51.000    22302846.891 8  91326457.493 8      2145.849          51.000
G16  20469580.641 8 107568359.761 8      -231.383          51.000    20469579.062 8  83819511.248 8      -180.298          51.000
G18  22060511.727 6 115928825.735 6     -2702.820          36.000
G20  21036484.016 8 110547498.044 8       692.188          51.000    21036483.078 8  86140923.416 8       539.370          50.000
G21  22220670.414 6 116770430.313 6     -2248.672          40.000    22220669.648 6  90989962.262 6     -1752.212          37.000
G26  21253677.211 8 111688812.044 8     -2370.422          51.000    21253679.211 8  87030247.582 8     -1847.085          51.000
R01  22231962.422 6 118842570.603 6      3375.461          37.000
R14  20308126.391 8 108253735.987 8     -1974.176          49.000    20308129.836 7  84197403.094 7     -1535.473          46.000
R23  20737106.469 6 110929519.005 6     -2255.215          37.000    20737107.477 4  86278532.133 4     -1754.062          27.000
R24  19629050.109 4 104965350.759 4       -53.176          28.000
C05  39617072.727 5 206296493.133 5        -2.285          35.000
C11  22416933.273 4 116730847.791 4      1176.000          29.000    22416933.164 5  90263681.943 5       909.998          33.000
C12  22323782.914 6 116245871.295 6     -1353.914          38.000    22323782.750 6  89888685.531 6     -1047.135          39.000
C21  24129453.547 7 125648434.227 7      2216.375          44.000
C25  24073272.430 8 125355829.817 8     -2233.441          50.000
E02  27291185.898 6 143416150.166 6     -3237.953          38.000    27291191.594 6 109890291.959 6     -2480.978          40.000
E15  24318824.859 5 127796263.950 5      1518.781          35.000    24318826.359 5  97921831.559 5      1162.975          35.000
E30  23060182.844 8 121182094.061 8     -1808.645          51.000    23060184.703 8  92853813.994 8     -1385.839          51.000
E36                                                                  26550833.516 5 106909205.507 5     -1811.236          34.000
> 2020 05 13 15 01  0.0000000  0 20        .000000000000
G10  22287158.156 8 117119836.796 8      2741.965          51.000    22287159.992 8  91262221.997 8      2136.599          51.000
G16  20470956.570 8 107575590.954 8      -250.625          50.000    20470954.898 8  83825145.952 8      -195.292          50.000
G18  22075962.242 5 116010017.418 5     -2709.453          32.000
G20  21032587.539 8 110527022.137 8       672.980          51.000    21032586.398 8  86124968.170 8       524.400          48.000
G21  22233523.180 6 116837972.340 6     -2254.348          41.000    22233522.070 5  91042592.401 5     -1756.631          35.000
G26  21267250.836 8 111760140.770 8     -2384.797          51.000    21267252.547 8  87085828.368 8     -1858.286          51.000
R01  22213058.844 6 118741509.612 6      3362.027          36.000    22213064.203 4  92354541.188 4      2614.916          28.000
R14  20319305.164 8 108313329.047 8     -1998.633          48.000    20319309.750 7  84243753.231 7     -1554.492          47.000
R17  21819203.469 5 116758961.464 5      2592.316          32.000
R23  20749770.023 6 110997273.073 6     -2261.035          36.000    20749770.867 4  86331219.159 4     -1758.589          26.000
R24  19629370.578 5 104967087.965 5       -65.047          32.000
C05  39617084.945 5 206296556.624 5        -2.332          35.000
C11  22410177.664 4 116695675.566 4      1170.129          28.000
C12  22331601.398 6 116286587.246 6     -1360.230          38.000    22331601.344 6  89920169.671 6     -1051.838          41.000
C21  24116714.086 6 125582107.513 6      2205.297          39.000
C25  24086170.844 8 125423001.155 8     -2244.430          49.000
E02  27309675.469 6 143513311.150 6     -3239.426          38.000    27309681.016 6 109964739.896 6     -2482.370          38.000
E15  24310174.008 5 127750803.188 5      1512.418          35.000    24310175.758 5  97886997.864 5      1158.938          34.000
E30  23070542.906 8 121236535.975 8     -1820.691          51.000    23070545.273 8  92895529.185 8     -1395.075          51.000
E36                                                                  26564327.586 5 106963551.335 5     -1811.718          33.000
> 2020 05 13 15 01 30.0000000  0 17        .000000000000
G10  22271528.055 8 117037701.797 8      2730.477          51.000    22271529.664 8  91198220.769 8      2127.644          51.000
G16  20472432.062 8 107583345.234 8      -269.520          51.000    20472430.625 8  83831188.245 8      -210.015          50.000
G20  21028789.852 8 110507065.696 8       654.199          51.000    21028788.781 8  86109417.718 8       509.766          48.000
G21  22246394.102 6 116905609.717 6     -2258.195          41.000    22246393.078 5  91095296.842 5     -1759.633          35.000
G26  21280895.195 8 111831841.583 8     -2398.652          51.000    21280896.773 8  87141699.087 8     -1869.080          51.000
R01  22194218.469 5 118640795.849 5      3349.051          33.000    22194224.992 4  92276208.310 4      2604.814          28.000
R14  20330610.664 8 108373596.321 8     -2022.398          50.000    20330616.734 8  84290627.766 8     -1572.977          48.000
R23  20762457.508 6 111065157.163 6     -2267.395          36.000
R24  19629768.570 6 104969183.413 6       -76.281          38.000    19629780.891 4  81642721.449 4       -59.324          26.000
C05  39617086.781 5 206296565.490 5        -1.828          34.000
C12  22339444.039 6 116327426.986 6     -1365.703          40.000    22339444.570 7  89951749.494 7     -1056.181          43.000
C21  24104028.273 6 125516063.353 6      2194.457          38.000
C22  24773025.039 5 128999623.950 5      -494.938          32.000
C25  24099122.461 8 125490448.962 8     -2254.977          48.000
E02  27328163.727 6 143610465.740 6     -3240.781          37.000    27328168.609 6 110039182.917 6     -2483.160          36.000
E15  24301547.984 5 127705496.617 5      1506.469          33.000    24301550.234 5  97852263.349 5      1154.262          32.000
E30  23080961.492 8 121291283.204 8     -1832.297          51.000    23080964.070 8  92937478.361 8     -1404.040          51.000
> 2020 05 13 15 02  0.0000000  0 19        .000000000000
G10  22255992.258 8 116956061.909 8      2716.535          51.000    22255993.469 8  91134605.332 8      2116.781          51.000
G16  20474043.633 8 107591814.845 8      -290.734          50.000    20474042.656 8  83837787.932 8      -226.546          50.000
G20  21025127.844 8 110487821.476 8       633.102          51.000    21025126.680 8  86094422.242 8       493.329          48.000
G21  22259319.453 6 116973532.608 6     -2264.844          41.000    22259318.820 5  91148223.740 5     -1764.816          34.000
G26  21294646.305 8 111904104.402 8     -2414.516          49.000    21294648.055 8  87198007.721 8     -1881.444          49.000
R01  22175478.547 5 118540629.109 5      3332.930          33.000    22175486.703 4  92198300.803 4      2592.279          27.000
R14  20342079.695 8 108434729.359 8     -2048.605          51.000    20342085.781 8  84338175.660 8     -1593.360          48.000
R23  20775207.289 6 111133365.446 6     -2275.379          37.000
R24  19630252.305 5 104971739.110 5       -89.719          34.000
C05  39617114.906 5 206296711.805 5        -3.270          34.000
C11  22396770.500 5 116625869.511 5      1155.750          30.000    22396775.523 5  90182508.090 5       893.512          32.000
C12  22347347.062 6 116368580.480 6     -1373.430          38.000    22347348.297 7  89983571.960 7     -1062.219          43.000
C21  24091436.055 6 125450494.082 6      2181.172          41.000
C22  24775952.711 5 129014824.516 5      -513.418          32.000
C25  24112164.281 8 125558361.178 8     -2267.949          49.000
E02  27346687.172 6 143707803.952 6     -3244.074          36.000    27346691.312 6 110113766.655 6     -2485.668          37.000
E15  24292981.648 5 127660480.002 5      1498.426          34.000
E30  23091474.445 8 121346526.397 8     -1846.102          51.000    23091477.281 8  92979807.567 8     -1414.572          51.000
E36  26591316.336 5 139738289.204 5     -2366.840          34.000
> 2020 05 13 15 02 30.0000000  0 19        .000000000000
G10  22240504.023 8 116874671.003 8      2705.211          51.000    22240505.727 8  91071183.901 8      2107.960          51.000
G16  20475744.148 8 107600751.020 8      -309.145          50.000    20475743.445 8  83844751.164 8      -240.892          50.000
G20  21021554.062 8 110469041.265 8       614.797          51.000    21021552.859 7  86079788.334 7       479.062          47.000
G21  22272251.617 6 117041490.365 6     -2269.086          39.000    22272250.820 6  91201177.826 6     -1768.119          37.000
G26  21308456.344 8 111976678.751 8     -2427.738          48.000    21308458.656 8  87254559.130 8     -1891.747          48.000
R01  22156795.352 5 118440760.578 5      3320.215          33.000
R14  20353663.328 8 108496473.025 8     -2071.867          51.000    20353668.391 7  84386198.465 7     -1611.455          46.000
R17  21775767.641 5 116526499.122 5      2572.156          34.000
R23  20787969.961 5 111201643.732 5     -2280.902          34.000
R24  19630767.930 5 104974521.225 5      -100.000          34.000
C05  39617121.891 5 206296748.276 5        -2.980          34.000
C11                                                                  22390127.289 5  90155713.833 5       889.298          33.000
C12  22355263.383 6 116409800.861 6     -1378.547          41.000    22355264.570 7  90015446.172 7     -1066.140          43.000
C21  24078890.188 7 125385155.410 7      2170.551          45.000
C25  24125247.922 8 125626489.028 8     -2277.953          49.000
E02  27365197.906 6 143805075.602 6     -3244.727          37.000    27365201.922 6 110188299.380 6     -2486.584          38.000
E15  24284429.391 5 127615537.643 5      1492.836          32.000    24284440.352 5  97783360.471 5      1143.975          33.000
E30  23102033.930 8 121402015.795 8     -1857.293          51.000    23102037.312 8  93022325.427 8     -1423.145          51.000
E36  26604825.281 5 139809276.594 5     -2366.004          35.000
> 2020 05 13 15 03  0.0000000  0 20        .000000000000
G10  22225074.656 8 116793589.175 8      2689.641          51.000    22225077.352 8  91008003.298 8      2095.824          51.000
G16  20477544.578 8 107610211.713 8      -331.988          51.000    20477543.914 8  83852123.132 8      -258.692          50.000
G20  21018079.688 8 110450783.239 8       592.000          51.000    21018078.516 8  86065561.315 8       461.299          48.000
G21  22285201.047 6 117109539.892 6     -2278.094          37.000    22285199.648 5  91254203.410 5     -1775.138          32.000
G26  21322335.969 7 112049620.260 7     -2445.402          47.000    21322338.984 7  87311396.689 7     -1905.508          47.000
R01  22138179.828 5 118341253.468 5      3302.961          32.000
R14  20365371.266 8 108558882.631 8     -2099.348          51.000    20365375.125 7  84434739.221 7     -1632.829          45.000
R17  21761348.266 5 116449329.313 5      2562.277          31.000
R23  20800759.742 5 111270049.603 5     -2289.836          31.000    20800767.086 4  86543373.614 4     -1780.990          26.000
R24  19631340.867 5 104977587.953 5      -115.098          32.000    19631347.500 4  81649275.971 4       -89.520          25.000
C05  39617118.734 5 206296731.734 5        -6.176          34.000
C11                                                                  22383498.391 4  90129025.075 4       882.070          29.000
C12  22363203.797 7 116451144.898 7     -1387.914          42.000    22363204.250 7  90047415.980 7     -1073.284          43.000
C21  24066400.422 7 125320106.596 7      2155.609          46.000
C22  24782016.531 5 129046493.110 5      -550.266          30.000
C25  24138383.156 8 125694887.305 8     -2292.305          48.000
E02  27383705.953 6 143902336.350 6     -3249.504          37.000    27383710.227 6 110262823.743 6     -2490.026          38.000
E15                                                                  24275917.070 5  97749057.248 5      1137.133          31.000
E30  23112650.797 8 121457807.770 8     -1872.738          51.000    23112654.586 8  93065075.116 8     -1434.961          51.000
E36  26618323.031 5 139880202.066 5     -2370.434          34.000    26618318.805 5 107180948.444 5     -1816.252          32.000
> 2020 05 13 15 03 30.0000000  0 16        .000000000000
G10  22209771.719 8 116713173.246 8      2679.418          50.000    22209775.617 8  90945341.553 8      2087.858          50.000
G16  20479512.203 8 107620551.147 8      -349.156          50.000    20479511.602 8  83860179.838 8      -272.070          50.000
G20  21014772.242 8 110433402.397 8       574.773          51.000    21014771.289 8  86052017.829 8       447.875          48.000
G21  22298235.148 6 117178033.699 6     -2280.637          39.000    22298232.695 5  91307575.222 5     -1777.126          30.000
G26  21336352.977 8 112123281.318 8     -2457.285          48.000    21336356.273 8  87368794.961 8     -1914.768          48.000
R14  20377270.938 8 108622314.717 8     -2121.184          51.000    20377274.023 7  84484075.261 7     -1649.809          46.000
R23  20813638.648 5 111338942.691 5     -2294.457          34.000    20813651.070 4  86596957.056 4     -1784.590          26.000
R24  19632033.469 5 104981299.153 5      -124.578          30.000
C05  39617172.859 5 206297013.269 5        -4.785          34.000
C12  22371235.109 7 116492963.395 7     -1391.980          42.000    22371235.102 7  90079752.655 7     -1076.274          44.000
C21  24054033.484 7 125255700.810 7      2145.996          45.000
C25  24151637.250 8 125763904.829 8     -2300.996          48.000
E02  27402278.664 6 143999939.020 6     -3249.402          36.000    27402282.555 6 110337610.084 6     -2489.350          37.000
E15                                                                  24267484.688 5  97715093.803 5      1133.376          31.000
E30  23123392.375 8 121514255.416 8     -1882.492          51.000    23123396.078 8  93108327.181 8     -1442.405          51.000
E36                                                                  26631863.961 5 107235480.204 5     -1814.525          30.000
> 2020 05 13 15 04  0.0000000  0 16        .000000000000
G10  22194496.727 8 116632906.761 8      2673.160          49.000    22194502.062 8  90882796.224 8      2082.982          49.000
G16  20481548.070 8 107631250.232 8      -362.340          49.000    20481547.703 8  83868516.772 8      -282.343          49.000
G18  22169533.664 5 116501672.589 5     -2747.809          33.000
G20  21011533.023 8 110416380.277 8       561.688          51.000    21011531.930 8  86038753.862 8       437.679          48.000
G21  22311254.641 6 117246450.945 6     -2279.312          40.000    22311251.703 3  91360887.370 3     -1776.088          23.000
G26  21350408.406 8 112197141.032 8     -2465.027          50.000    21350411.758 8  87426347.984 8     -1920.804          50.000
R14  20389263.539 8 108686239.749 8     -2138.793          51.000    20389266.734 8  84533794.728 8     -1663.506          48.000
R23  20826510.883 6 111407793.322 6     -2294.160          37.000    20826516.117 4  86650529.536 4     -1784.344          25.000
R24  19632747.570 5 104985125.541 5      -129.242          34.000
C05  39617185.469 5 206297079.647 5         1.262          34.000
C12  22379258.609 6 116534741.594 6     -1391.832          41.000    22379258.141 7  90112058.197 7     -1076.208          44.000
C21  24041690.922 7 125191426.059 7      2140.297          43.000
C22  24788541.133 5 129080383.619 5      -575.508          33.000
C25  24164911.227 7 125833024.949 7     -2305.473          47.000
E02  27420817.297 5 144097367.860 5     -3244.289          34.000    27420820.750 6 110412259.468 6     -2485.968          37.000
E30  23134159.859 8 121570838.518 8     -1888.109          51.000    23134162.992 8  93151683.032 8     -1446.769          51.000
> 2020 05 13 15 04 30.0000000  0 15        .000000000000
G10  22179305.219 8 116553078.431 8      2655.344          48.000    22179311.578 7  90820592.310 7      2069.099          47.000
G16  20483706.977 8 107642595.595 8      -387.238          49.000    20483706.852 8  83877357.310 8      -301.744          49.000
G18  22185270.398 5 116584391.484 5     -2760.016          34.000
G20  21008416.672 8 110400003.526 8       536.777          51.000    21008415.398 8  86025992.773 8       418.271          49.000
G21  22324313.672 6 117315076.946 6     -2289.047          39.000    22324310.969 5  91414362.094 5     -1783.685          35.000
G26  21364556.070 8 112271483.700 8     -2484.469          51.000    21364558.961 8  87484277.306 8     -1935.950          51.000
R14  20401402.742 8 108750945.115 8     -2168.195          51.000    20401406.234 8  84584121.104 8     -1686.374          48.000
R23  20839428.016 6 111476891.868 6     -2305.688          37.000    20839436.062 4  86704272.857 4     -1793.312          26.000
R24  19633539.648 5 104989357.942 5      -145.965          35.000    19633547.539 4  81658408.712 4      -113.531          27.000
C05  39617210.969 5 206297212.297 5        -4.105          35.000
C12  22387328.227 6 116576762.908 6     -1403.031          40.000    22387327.805 7  90144551.725 7     -1084.937          45.000
C21  24029426.922 6 125127568.137 6      2123.082          41.000
C25  24178258.898 7 125902529.030 7     -2321.590          46.000
E02                                                                  27439380.453 6 110486989.808 6     -2490.987          38.000
E30  23145007.367 8 121627842.107 8     -1905.477          51.000    23145009.953 8  93195361.064 8     -1460.029          51.000
> 2020 05 13 15 05  0.0000000  0 16        .000000000000
G10  22164175.555 8 116473571.984 8      2644.078          49.000    22164181.906 8  90758639.253 8      2060.324          49.000
G16  20485966.398 8 107654468.362 8      -405.500          50.000    20485966.367 8  83886608.819 8      -315.974          50.000
G18  22201039.594 5 116667254.243 5     -2765.516          35.000
G20  21005400.500 8 110384153.944 8       518.613          51.000    21005399.352 8  86013642.477 8       404.114          49.000
G21  22337389.648 6 117383791.433 6     -2292.719          39.000    22337387.820 4  91467905.818 4     -1786.552          28.000
G26  21378772.695 8 112346188.651 8     -2497.055          51.000    21378774.664 8  87542488.918 8     -1945.757          51.000
R14  20413664.977 8 108816307.096 8     -2190.535          51.000    20413668.242 8  84634958.159 8     -1703.750          48.000
R23  20852368.805 6 111546116.478 6     -2310.125          39.000    20852378.258 4  86758114.168 4     -1796.758          25.000
R24  19634385.531 5 104993874.780 5      -155.797          33.000    19634397.961 5  81661921.861 5      -121.169          32.000
C05  39617226.680 5 206297293.587 5        -2.332          35.000
C12  22395420.750 6 116618909.430 6     -1407.809          36.000    22395421.523 7  90177142.028 7     -1088.571          44.000
C21  24017220.672 6 125064011.584 6      2112.742          41.000
C25  24191656.969 7 125972297.091 7     -2330.898          45.000
E02  27457932.281 5 144292405.401 5     -3250.996          33.000    27457937.688 6 110561708.906 6     -2490.930          37.000
E15  24242270.188 6 127393970.006 6      1462.621          36.000
E30  23155912.039 8 121685146.172 8     -1915.941          51.000    23155914.555 8  93239269.333 8     -1468.056          51.000
> 2020 05 13 15 05 30.0000000  0 18        .000000000000
G10  22149119.211 8 116394448.612 8      2633.316          50.000    22149124.688 8  90696984.753 8      2051.935          50.000
G16  20488337.336 8 107666927.422 8      -422.754          49.000    20488337.250 8  83896317.177 8      -329.419          48.000
G18  22216847.633 6 116750322.934 6     -2770.062          37.000
G20  21002496.008 8 110368890.768 8       501.336          51.000    21002494.797 8  86001749.099 8       390.651          49.000
G21  22350493.555 5 117452651.070 5     -2295.230          33.000
G26  21393068.672 8 112421312.595 8     -2508.766          51.000    21393070.023 8  87601026.996 8     -1954.885          51.000
R14  20426060.305 8 108882382.375 8     -2212.012          51.000    20426063.867 8  84686349.987 8     -1720.454          49.000
R17  21689934.523 5 116067182.098 5      2534.133          35.000
R23  20865342.703 5 111615525.630 5     -2314.430          32.000    20865353.891 4  86812099.074 4     -1800.115          25.000
R24  19635294.672 6 104998734.896 6      -165.309          36.000    19635301.617 5  81665701.963 5      -128.573          31.000
C05  39617244.102 5 206297384.719 5         -.496          35.000
C12  22403549.492 6 116661238.945 6     -1411.973          40.000    22403550.195 7  90209873.883 7     -1091.769          44.000
C21  24005084.516 6 125000816.588 6      2102.578          39.000
C22  24798996.148 5 129134910.939 5      -628.125          32.000
C25  24205116.406 7 126042385.028 7     -2339.219          45.000
E02  27476497.656 5 144389968.776 5     -3250.191          32.000    27476502.242 5 110636460.496 5     -2490.526          35.000
E15  24233938.289 5 127350181.386 5      1458.461          33.000
E30  23166885.055 8 121742808.216 8     -1925.621          51.000    23166887.992 8  93283451.907 8     -1475.503          51.000
> 2020 05 13 15 06  0.0000000  0 16        .000000000000
G10  22134117.984 8 116315613.788 8      2621.531          51.000    22134122.250 8  90635555.094 8      2042.755          51.000
G16  20490801.234 8 107679875.701 8      -441.453          48.000    20490801.172 8  83906406.730 8      -343.989          48.000
G20  20999684.609 8 110354117.714 8       482.754          51.000    20999683.719 8  85990237.651 8       376.172          49.000
G21  22363602.484 5 117521542.622 5     -2299.121          31.000
G26  21407424.938 8 112496756.494 8     -2521.574          50.000    21407426.398 8  87659814.378 8     -1964.866          50.000
R14  20438569.703 8 108949069.159 8     -2234.551          51.000    20438574.414 8  84738217.461 8     -1737.984          50.000
R17  21675740.453 5 115991217.835 5      2529.098          34.000
R23  20878331.695 5 111685019.506 5     -2319.273          30.000
R24  19636249.820 5 105003838.653 5      -175.301          30.000    19636253.047 5  81669671.416 5      -136.345          32.000
C05  39617244.438 5 206297387.017 5         -.414          34.000
C12  22411695.477 6 116703654.846 6     -1416.723          40.000    22411695.461 7  90242672.578 7     -1095.503          44.000
C21  23992998.102 6 124937888.935 6      2091.465          40.000
C22  24802658.117 5 129153965.332 5      -643.719          34.000
C25  24218619.188 8 126112694.347 8     -2348.801          48.000
E02                                                                  27495055.047 5 110711192.901 5     -2490.445          33.000
E30  23177907.516 8 121800729.882 8     -1936.457          51.000    23177910.836 8  93327833.419 8     -1483.785          51.000
> 2020 05 13 15 06 30.0000000  0 16        .000000000000
G10  22119224.695 8 116237347.048 8      2627.266          51.000    22119228.211 8  90574568.068 8      2047.223          51.000
G16  20493410.930 8 107693589.833 8      -442.043          49.000    20493410.695 8  83917093.058 8      -344.449          49.000
G18  22248605.484 6 116917207.955 6     -2763.527          36.000
G20  20997019.172 8 110340111.897 8       481.969          51.000    20997018.602 8  85979324.043 8       375.560          49.000
G21  22376778.430 5 117590771.846 5     -2285.309          34.000
G26  21421894.078 8 112572795.397 8     -2516.680          48.000    21421896.305 8  87719065.425 8     -1961.049          48.000
R14  20451246.555 8 109016645.340 8     -2239.039          51.000    20451251.289 8  84790776.705 8     -1741.475          49.000
R17  21661621.578 5 115915643.415 5      2541.148          33.000
R23  20891392.227 4 111754859.650 4     -2306.031          28.000
C05  39617280.453 5 206297574.743 5        18.426          34.000
C12  22419910.414 6 116746431.620 6     -1404.629          37.000    22419910.273 7  90275750.255 7     -1085.885          44.000
C21  23981018.594 7 124875505.527 7      2097.848          42.000
C22  24806469.234 6 129173703.854 6      -641.461          37.000
C25  24232217.039 8 126183497.146 8     -2340.648          49.000
E02                                                                  27513649.938 5 110786068.102 5     -2477.279          33.000
E30  23189031.383 8 121859186.927 8     -1929.625          51.000    23189035.070 8  93372625.165 8     -1478.520          51.000
> 2020 05 13 15 07  0.0000000  0 16        .000000000000
G10  22104336.500 8 116159108.889 8      2596.016          51.000    22104339.930 8  90513603.295 8      2022.869          51.000
G16  20496063.469 8 107707528.263 8      -479.750          49.000    20496062.883 8  83927954.178 8      -373.831          49.000
G18  22264476.891 6 117000601.552 6     -2788.719          38.000
G20  20994396.602 8 110326331.698 8       444.180          49.000    20994396.102 8  85968586.236 8       346.114          48.000
G21  22389911.312 5 117659780.102 5     -2308.648          35.000
G26  21436372.703 7 112648885.358 7     -2548.520          47.000    21436375.797 7  87778356.286 7     -1985.859          47.000
R14  20463987.531 8 109084557.930 8     -2280.883          51.000    20463990.578 8  84843597.580 8     -1774.020          48.000
R23  20904420.219 5 111824570.189 5     -2330.785          35.000
R24  19638346.656 5 105015091.953 5      -197.570          31.000    19638348.594 4  81678407.187 4      -153.675          29.000
C05  39617249.008 5 206297410.003 5         -.285          34.000
C12  22428091.227 6 116789031.667 6     -1428.602          40.000    22428091.273 7  90308691.294 7     -1104.471          43.000
C21  23969040.531 6 124813131.384 6      2067.723          41.000
C22  24810295.023 6 129193588.637 6      -676.793          40.000
C25  24245805.852 8 126254254.129 8     -2369.172          49.000
E02                                                                  27532184.125 5 110860695.491 5     -2492.044          33.000
E30  23200153.250 8 121917636.157 8     -1959.562          51.000    23200157.219 8  93417410.942 8     -1501.480          51.000
> 2020 05 13 15 07 30.0000000  0 18        .000000000000
G10  22089618.516 8 116081765.339 8      2563.574          51.000    22089621.992 8  90453335.601 8      1997.593          51.000
G16  20498922.945 8 107722554.385 8      -518.492          50.000    20498922.227 8  83939662.822 8      -404.023          50.000
G20  20991981.391 8 110313641.470 8       405.277          49.000    20991981.156 7  85958697.756 7       315.801          47.000
G21  22403165.609 5 117729429.619 5     -2331.566          33.000
G26  21451025.195 8 112725887.931 8     -2581.641          48.000    21451028.977 7  87838358.313 7     -2011.665          47.000
R01  21974513.469 5 117466341.445 5      3157.875          32.000    21974516.938 4  91362736.599 4      2456.128          27.000
R14  20476955.359 8 109153679.839 8     -2323.688          51.000    20476957.039 8  84897359.022 8     -1807.316          48.000
R17  21633446.891 5 115764918.970 5      2488.957          33.000    21633465.367 4  90039488.640 4      1935.849          25.000
R23  20917576.289 5 111894934.039 5     -2356.047          30.000
R24  19639556.758 5 105021544.347 5      -229.070          33.000    19639556.500 4  81683425.723 4      -178.160          29.000
C05  39617314.586 5 206297751.485 5       -19.691          34.000
C12  22436403.078 6 116832310.549 6     -1453.324          39.000    22436402.523 7  90342157.271 7     -1123.908          44.000
C21  23957229.641 7 124751624.306 7      2036.270          43.000
C22  24814310.984 5 129214474.878 5      -711.973          31.000
C25  24259548.516 7 126325818.627 7     -2398.535          47.000
E02                                                                  27550821.031 5 110935734.587 5     -2508.051          32.000
E15  24200956.594 6 127176890.054 6      1415.727          36.000
E30  23211437.797 8 121976939.912 8     -1990.527          51.000    23211441.406 8  93462851.498 8     -1525.281          51.000
> 2020 05 13 15 08  0.0000000  0 16        .000000000000
G10  22074945.078 8 116004655.073 8      2568.410          51.000    22074948.320 8  90393249.712 8      2001.359          51.000
G16  20501863.008 8 107738004.258 8      -520.098          50.000    20501862.336 8  83951701.671 8      -405.271          50.000
G20  20989647.555 8 110301377.734 8       403.613          49.000    20989647.219 7  85949141.594 7       314.504          46.000
G21  22416415.125 5 117799055.511 5     -2318.953          30.000
G26  21465725.297 8 112803137.379 8     -2576.938          50.000    21465729.273 8  87898552.721 8     -2008.003          49.000
R01  21956762.508 6 117371447.881 6      3159.977          37.000
R14  20490022.039 8 109223334.375 8     -2328.652          51.000    20490024.125 8  84951534.742 8     -1811.174          49.000
R23  20930733.445 5 111965312.403 5     -2344.348          31.000
R24  19640795.477 5 105028171.346 5      -221.816          35.000    19640795.664 4  81688580.015 4      -172.527          29.000
C05  39617350.648 5 206297939.887 5        -1.086          35.000
C11                                                                  22319475.734 5  89871277.415 5       836.577          32.000
C12  22444718.234 6 116875610.342 6     -1441.727          38.000    22444717.719 7  90375639.355 7     -1114.732          44.000
C21  23945459.211 6 124690328.708 6      2041.629          41.000
C25  24273318.352 7 126397530.612 7     -2390.770          46.000
E15  24192813.828 5 127134109.341 5      1428.055          32.000
E30  23222758.992 8 122036433.159 8     -1984.285          51.000    23222761.586 8  93508437.229 8     -1520.381          51.000
> 2020 05 13 15 08 30.0000000  0 17        .000000000000
G10  22060332.188 8 115927862.403 8      2556.562          51.000    22060334.844 8  90333411.304 8      1992.127          51.000
G16  20504899.148 8 107753959.549 8      -538.234          50.000    20504898.250 8  83964134.359 8      -419.403          50.000
G20  20987410.570 8 110289622.607 8       385.445          48.000    20987410.219 7  85939981.779 7       300.350          46.000
G21  22429675.414 5 117868739.783 5     -2321.148          30.000    22429668.422 4  91845755.718 4     -1808.681          28.000
G26  21480488.242 8 112880713.649 8     -2589.129          51.000    21480491.938 8  87959001.751 8     -2017.503          51.000
R01  21939083.609 6 117276944.823 6      3145.777          37.000
R14  20503203.008 8 109293601.389 8     -2350.332          51.000    20503206.672 8  85006186.866 8     -1828.036          50.000
R17  21605463.102 5 115615117.957 5      2494.840          34.000    21605449.109 4  89922863.945 4      1940.431          26.000
R23  20943906.594 5 112035787.552 5     -2349.113          31.000
R24  19642082.805 5 105035055.576 5      -231.762          35.000    19642082.992 5  81693934.420 5      -180.262          32.000
C05  39617372.969 5 206298055.955 5         -.570          34.000
C11                                                                  22313281.070 6  89846311.590 6       832.340          36.000
C12  22453052.984 6 116919011.794 6     -1446.305          39.000    22453052.664 7  90409200.059 7     -1118.151          45.000
C21  23933745.070 6 124629327.797 6      2030.531          41.000
C25  24287133.117 8 126469468.869 8     -2399.609          48.000
E15  24184688.750 6 127091406.379 6      1422.812          37.000    24184691.258 5  97381738.405 5      1090.261          34.000
E30  23234131.969 8 122096196.507 8     -1994.430          51.000    23234133.891 8  93554229.900 8     -1528.193          51.000
> 2020 05 13 15 09  0.0000000  0 17        .000000000000
G10  22045788.930 8 115851435.574 8      2539.352          51.000    22045790.945 8  90273857.988 8      1978.719          51.000
G16  20508040.336 8 107770466.052 8      -561.434          49.000    20508039.266 8  83976996.571 8      -437.481          49.000
G20  20985279.266 8 110278422.189 8       362.176          49.000    20985278.898 7  85931254.201 7       282.215          45.000
G21  22442955.055 5 117938523.192 5     -2329.781          31.000
G26  21495321.977 8 112958660.438 8     -2606.383          51.000    21495324.906 8  88019739.475 8     -2030.951          51.000
R01  21921486.570 6 117182883.552 6      3126.105          37.000
R14  20516507.672 8 109364523.902 8     -2376.992          51.000    20516511.977 8  85061348.806 8     -1848.775          50.000
R17  21591509.609 4 115540439.189 4      2483.445          27.000    21591498.047 5  89864803.339 5      1931.569          30.000
R23  20957102.352 5 112106380.503 5     -2358.891          31.000
R24  19643426.617 6 105042242.898 6      -246.484          37.000    19643428.352 5  81699524.576 5      -191.710          35.000
C05  39617390.180 5 206298145.376 5        -4.922          34.000
C11                                                                  22307114.641 5  89821473.256 5       824.166          32.000
C12  22461416.234 6 116962559.903 6     -1456.027          40.000    22461415.789 7  90442874.204 7     -1125.938          44.000
C21  23922095.414 6 124568669.099 6      2014.277          39.000
C25  24301000.773 8 126541676.453 8     -2413.332          49.000
E15  24176596.648 6 127048888.639 6      1412.762          36.000    24176600.250 6  97349159.992 6      1082.410          36.000
E30  23245564.984 8 122156274.397 8     -2009.812          51.000    23245566.562 8  93600263.580 8     -1540.001          51.000
> 2020 05 13 15 09 30.0000000  0 15        .000000000000
G10  22031331.719 8 115775460.406 8      2528.539          51.000    22031332.906 8  90214656.611 8      1970.293          51.000
G16  20511302.141 8 107787607.056 8      -578.391          49.000    20511301.312 8  83990353.178 8      -450.694          49.000
G20  20983269.633 8 110267860.171 8       344.902          49.000    20983269.031 7  85923024.077 7       268.755          47.000
G21  22456270.000 5 118008489.237 5     -2332.066          31.000
G26  21510241.547 8 113037059.070 8     -2617.238          51.000    21510243.586 8  88080829.270 8     -2039.406          51.000
R01  21903988.445 5 117089353.362 5      3112.262          33.000
R14  20529950.945 8 109436183.375 8     -2397.270          51.000    20529955.094 8  85117083.938 8     -1864.543          49.000
R24  19644844.805 5 105049817.516 5      -255.207          35.000    19644845.766 5  81705415.941 5      -198.497          33.000
C05  39617418.227 5 206298291.243 5        -2.090          34.000
C11                                                                  22300992.820 5  89796826.309 5       821.444          31.000
C12  22469822.992 6 117006337.097 6     -1459.594          39.000    22469822.531 7  90476725.491 7     -1128.747          43.000
C21  23910525.625 5 124508437.302 5      2003.945          33.000
C25  24314935.602 8 126614233.584 8     -2420.875          49.000
E15  24168550.922 5 127006608.381 5      1408.992          34.000    24168555.062 6  97316763.520 6      1079.516          37.000
E30  23257073.453 8 122216748.929 8     -2018.902          51.000    23257074.797 8  93646601.172 8     -1546.891          51.000
> 2020 05 13 15 10  0.0000000  0 12        .000000000000
G10  22016929.516 8 115699775.096 8      2525.828          51.000    22016930.258 8  90155681.083 8      1968.178          51.000
G16  20514653.141 8 107805217.879 8      -587.125          49.000    20514652.539 8  84004075.879 8      -457.500          50.000
G20  20981350.133 8 110257772.525 8       336.125          50.000    20981349.953 8  85915163.601 8       261.916          48.000
G26  21525214.992 8 113115743.078 8     -2619.734          51.000    21525216.695 8  88142141.436 8     -2041.355          51.000
R14  20543500.320 8 109508409.550 8     -2409.082          51.000    20543504.039 8  85173259.844 8     -1873.730          48.000
R24  19646302.133 5 105057611.223 5      -255.441          32.000    19646301.273 5  81711477.686 5      -198.680          30.000
C05  39617425.727 5 206298330.241 5         8.105          35.000
C11                                                                  22294887.148 4  89772245.105 4       824.272          29.000
C12  22478242.531 6 117050180.238 6     -1454.777          39.000    22478242.172 7  90510627.775 7     -1124.857          45.000
C25  24328904.969 7 126686974.936 7     -2420.016          47.000
E15  24160534.234 5 126964469.825 5      1413.641          32.000    24160522.617 6  97284422.798 6      1083.308          37.000
E30  23268625.609 8 122277454.327 8     -2019.543          51.000    23268626.812 8  93693115.654 8     -1547.448          51.000
> 2020 05 13 15 10 30.0000000  0 15        .000000000000
G10  22002633.672 8 115624649.733 8      2502.098          51.000    22002634.758 8  90097141.858 8      1949.690          51.000
G16  20518144.695 8 107823566.764 8      -616.691          50.000    20518143.930 8  84018373.707 8      -480.542          49.000
G20  20979572.203 8 110248427.840 8       306.371          50.000    20979572.055 8  85907882.033 8       238.731          48.000
G26  21540292.984 8 113194978.490 8     -2643.117          51.000    21540295.359 8  88203883.256 8     -2059.575          51.000
R14  20557206.305 8 109581470.847 8     -2441.812          51.000    20557210.227 8  85230085.279 8     -1899.187          49.000
R17  21549882.016 5 115317741.278 5      2467.438          32.000
R23  20996919.180 5 112319350.969 5     -2372.539          33.000    20996934.602 4  87359536.889 4     -1845.305          25.000
R24  19647850.336 5 105065896.268 5      -276.984          34.000    19647849.664 4  81717921.657 4      -215.429          29.000
C05  39617463.734 5 206298528.867 5        -2.102          34.000
C11                                                                  22288846.547 4  89747950.103 4       811.184          29.000
C12  22486725.977 6 117094354.576 6     -1470.824          38.000    22486725.891 7  90544786.144 7     -1137.344          44.000
C21  23887594.102 5 124388956.198 5      1979.418          34.000
C25  24342958.141 7 126760163.846 7     -2439.875          44.000
E15                                                                  24152554.984 6  97252343.175 6      1070.653          36.000
E30  23280272.148 8 122338657.398 8     -2041.105          51.000    23280273.312 8  93740011.476 8     -1563.958          51.000
> 2020 05 13 15 11  0.0000000  0 14        .000000000000
G10  21988405.195 8 115549878.425 8      2491.188          51.000    21988406.773 8  90038878.519 8      1941.185          51.000
G16  20521737.008 8 107842444.506 8      -633.426          51.000    20521736.156 8  84033083.632 8      -493.579          49.000
G20  20977895.742 8 110239617.465 8       289.469          50.000    20977895.508 8  85901016.804 8       225.560          49.000
G26  21555435.461 8 113274554.766 8     -2653.273          49.000    21555438.797 8  88265890.716 8     -2067.486          49.000
R01  21852018.852 5 116811586.760 5      3066.410          30.000
R14  20571029.430 8 109655152.529 8     -2461.617          51.000    20571033.227 8  85287393.272 8     -1914.591          49.000
R23  21010256.258 6 112390699.144 6     -2375.121          36.000
R24  19649451.469 6 105074459.832 6      -285.254          36.000    19649450.602 4  81724582.221 4      -221.864          29.000
C05  39617492.438 5 206298677.585 5          .914          35.000
C12  22495232.719 6 117138653.444 6     -1474.031          38.000    22495233.492 7  90579040.788 7     -1139.733          44.000
C21  23876248.695 6 124329853.254 6      1969.355          40.000
C25  24357057.188 7 126833591.331 7     -2446.906          44.000
E15                                                                  24144613.195 5  97220364.838 5      1067.678          34.000
E30  23291972.883 8 122400148.328 8     -2049.758          51.000    23291974.641 8  93787127.893 8     -1570.597          51.000
> 2020 05 13 15 11 30.0000000  0 15        .000000000000
G10  21974207.508 8 115475270.220 8      2480.789          51.000    21974209.664 8  89980742.288 8      1933.082          51.000
G16  20525393.109 8 107861657.691 8      -649.688          50.000    20525392.141 8  84048054.941 8      -506.250          49.000
G20  20976284.172 8 110231148.362 8       273.188          50.000    20976284.188 8  85894417.511 8       212.870          49.000
G26  21570605.289 8 113354276.518 8     -2663.379          48.000    21570609.766 8  88328011.557 8     -2075.360          48.000
R14  20584931.648 8 109729254.837 8     -2480.707          51.000    20584934.812 8  85345028.366 8     -1929.439          49.000
R17  21522264.789 6 115169989.198 6      2459.152          36.000    21522278.773 4  89576693.848 4      1912.677          27.000
R23  21023577.867 5 112461966.277 5     -2377.875          35.000
R24  19651068.586 6 105083104.597 6      -293.352          40.000    19651068.000 5  81731305.923 5      -228.162          30.000
C05  39617475.141 5 206298587.881 5         3.629          35.000
C12  22503726.844 6 117182884.961 6     -1476.668          38.000    22503727.570 7  90613243.428 7     -1141.769          44.000
C21  23864927.078 6 124270889.911 6      1959.457          40.000
C22  24849439.906 4 129397548.156 4      -820.453          28.000
C25  24371167.180 7 126907063.523 7     -2453.152          47.000
E15                                                                  24136659.977 5  97188339.437 5      1065.699          35.000
E30  23303691.023 8 122461732.461 8     -2057.789          50.000    23303693.992 8  93834315.741 8     -1576.697          51.000
> 2020 05 13 15 12  0.0000000  0 15        .000000000000
G10  21960169.586 8 115401503.625 8      2459.137          51.000    21960172.438 8  89923261.854 8      1916.210          51.000
G16  20529241.766 8 107881882.182 8      -676.703          51.000    20529240.539 8  84063814.283 8      -527.301          49.000
G20  20974866.383 8 110223697.325 8       245.805          50.000    20974866.133 8  85888611.497 8       191.536          48.000
G26  21585931.109 8 113434817.765 8     -2684.125          48.000    21585936.352 8  88390770.988 8     -2091.526          48.000
R14  20599040.203 8 109804460.373 8     -2510.621          51.000    20599042.734 7  85403521.530 7     -1952.705          47.000
R17  21508590.797 5 115096771.356 5      2444.176          34.000
R23  21037015.430 5 112533839.943 5     -2391.191          31.000
R24  19652828.594 6 105092517.685 6      -311.762          36.000    19652828.836 5  81738627.230 5      -242.481          32.000
C05  39617540.531 5 206298928.571 5        -4.137          35.000
C12  22512337.195 6 117227718.720 6     -1490.109          38.000    22512337.305 7  90647911.756 7     -1152.362          45.000
C21  23853760.383 7 124212738.227 7      1938.855          43.000
C22  24854311.953 5 129422893.736 5      -845.496          34.000
C25  24385414.516 8 126981247.986 8     -2470.422          49.000
E15                                                                  24128824.789 6  97156784.898 6      1054.927          38.000
E30  23315556.133 8 122524084.603 8     -2076.859          51.000    23315559.773 8  93882092.048 8     -1591.381          51.000
> 2020 05 13 15 12 30.0000000  0 16        .000000000000
G10  21946176.016 8 115327971.322 8      2454.590          50.000    21946179.719 8  89865964.004 8      1912.667          50.000
G16  20533167.047 8 107902508.253 8      -686.684          51.000    20533165.602 8  84079886.540 8      -535.078          49.000
G20  20973526.273 8 110216654.489 8       235.328          50.000    20973525.828 8  85883123.588 8       183.376          48.000
G26  21601296.758 8 113515566.840 8     -2687.742          48.000    21601302.086 8  88453692.368 8     -2094.345          48.000
R01  21800887.812 4 116538183.096 4      3020.902          29.000
R14  20613238.992 8 109880147.003 8     -2523.270          51.000    20613240.195 7  85462388.875 7     -1962.543          46.000
R17  21494918.883 5 115023567.660 5      2446.723          32.000
R23  21050455.039 5 112605709.568 5     -2387.258          31.000
R24  19654615.812 5 105102078.037 5      -313.168          34.000    19654617.602 5  81746063.019 5      -243.581          32.000
C05  39617572.625 5 206299096.134 5         4.742          34.000
C12  22520947.070 6 117272550.468 6     -1486.758          37.000    22520946.359 7  90682578.454 7     -1149.885          43.000
C21  23842634.047 7 124154795.989 7      1935.297          43.000
C22  24859236.234 5 129448543.459 5      -853.324          35.000
C25  24399681.914 8 127055538.184 8     -2470.770          49.000
E15                                                                  24120990.805 6  97125233.853 6      1057.310          40.000
E30  23327451.703 8 122586593.751 8     -2078.836          51.000    23327455.547 8  93929988.619 8     -1592.838          51.000
> 2020 05 13 15 13  0.0000000  0 15        .000000000000
G10  21932225.680 8 115254665.938 8      2428.418          50.000    21932229.289 8  89808842.947 8      1892.274          50.000
G16  20537166.922 8 107923525.595 8      -718.324          51.000    20537165.055 8  84096263.688 8      -559.733          48.000
G20  20972262.172 8 110210010.336 8       203.559          50.000    20972261.891 8  85877946.317 8       158.617          48.000
G21  22550072.094 5 118501428.464 5     -2366.387          30.000
G26  21616700.039 8 113596511.637 8     -2712.645          49.000    21616704.953 8  88516766.212 8     -2113.752          49.000
R14  20627525.461 8 109956301.465 8     -2557.551          50.000    20627525.508 7  85521620.076 7     -1989.209          45.000
R17  21481238.766 4 114950385.277 4      2427.949          29.000
R24  19656428.875 5 105111774.861 5      -336.832          31.000    19656430.469 5  81753604.948 5      -261.980          30.000
C05  39617569.500 5 206299079.174 5        -7.605          35.000
C12  22529553.125 5 117317370.227 5     -1504.535          34.000    22529552.773 7  90717235.904 7     -1163.620          42.000
C21  23831545.008 7 124097055.455 7      1910.184          44.000
C22  24864220.305 5 129474499.895 5      -881.414          34.000
C25  24413966.914 8 127129921.903 8     -2492.066          49.000
E15                                                                  24113155.055 6  97093678.634 6      1043.356          39.000
E30  23339375.203 8 122649248.633 8     -2102.113          51.000    23339379.156 8  93977996.844 8     -1610.683          51.000
> 2020 05 13 15 13 30.0000000  0 16        .000000000000
G10  21918389.031 8 115181957.003 8      2437.812          49.000    21918392.242 8  89752186.702 8      1899.594          50.000
G16  20541311.023 8 107945301.387 8      -714.449          51.000    20541308.398 7  84113231.833 7      -556.714          47.000
G18  22474699.977 5 118105346.074 5     -2850.121          35.000
G20  20971143.547 8 110204132.014 8       207.195          49.000    20971142.992 7  85873365.811 7       161.451          46.000
G26  21632210.250 8 113678017.399 8     -2702.152          50.000    21632214.359 8  88580277.163 8     -2105.573          50.000
R14  20641968.094 8 110033292.682 8     -2555.949          49.000    20641968.703 7  85581502.092 7     -1987.961          45.000
R17  21467648.727 5 114877705.696 5      2444.395          33.000
R24  19658336.078 5 105121981.309 5      -324.598          31.000    19658338.375 4  81761543.311 4      -252.468          29.000
C05  39617600.930 5 206299242.265 5        14.965          35.000
C11  22253311.977 4 115878820.365 4      1027.934          29.000    22253304.695 5  89604832.583 5       795.238          32.000
C12  22538227.578 6 117362541.642 6     -1487.875          36.000    22538227.117 7  90752165.223 7     -1150.507          43.000
C21  23820566.031 7 124039882.755 7      1920.113          46.000
C22  24869332.641 5 129501126.316 5      -874.961          32.000
C25  24428339.242 8 127204760.768 8     -2478.340          49.000
E15                                                                  24105386.719 5  97062400.544 5      1056.361          34.000
E30  23351396.164 8 122712415.209 8     -2090.121          51.000    23351399.805 8  94026397.164 8     -1601.512          51.000
> 2020 05 13 15 14  0.0000000  0 15        .000000000000
G10  21904600.562 8 115109499.096 8      2398.512          51.000    21904603.445 8  89695726.060 8      1868.973          51.000
G16  20545533.031 8 107967487.208 8      -758.902          51.000    20545529.891 7  84130519.474 7      -591.352          47.000
G18  22491077.148 5 118191401.385 5     -2881.121          34.000
G20  20970104.648 8 110198672.166 8       162.566          49.000    20970103.859 7  85869111.386 7       126.675          46.000
G21  22577086.242 5 118643388.392 5     -2375.129          33.000
G26  21647760.789 8 113759734.296 8     -2739.844          50.000    21647764.195 8  88643952.613 8     -2134.943          51.000
R14  20656500.711 8 110110764.278 8     -2603.102          49.000    20656503.438 7  85641757.777 7     -2024.635          47.000
R24  19660274.133 5 105132342.987 5      -360.871          33.000    19660276.609 4  81769591.444 4      -280.678          26.000
C05  39617600.812 5 206299242.102 5        -9.797          34.000
C11                                                                  22247486.617 5  89581413.198 5       771.273          31.000
C12  22546904.219 6 117407719.678 6     -1518.551          37.000    22546903.109 7  90787099.732 7     -1174.062          43.000
C21  23809629.953 7 123982935.129 7      1882.066          45.000
C22  24874507.914 5 129528077.388 5      -915.957          31.000
C25  24442732.852 8 127279707.767 8     -2512.367          51.000
E30  23363447.898 8 122775744.339 8     -2126.176          51.000    23363450.461 8  94074922.049 8     -1629.106          51.000
> 2020 05 13 15 14 30.0000000  0 16        .000000000000
G10  21890947.039 8 115037748.848 8      2391.953          51.000    21890949.867 8  89639816.804 8      1863.860          51.000
G16  20549919.398 8 107990537.023 8      -770.625          51.000    20549916.117 8  84148480.340 8      -600.487          48.000
G20  20969231.672 8 110194085.213 8       150.414          49.000    20969231.078 7  85865537.164 7       117.209          45.000
G26  21663437.469 8 113842114.403 8     -2744.887          50.000    21663440.156 8  88708144.860 8     -2138.873          50.000
R01  21734021.297 5 116180788.686 5      2945.680          31.000
R14  20671210.492 8 110189173.482 8     -2616.879          50.000    20671214.828 8  85702742.704 8     -2035.350          48.000
R17  21440531.766 5 114732632.342 5      2413.387          32.000    21440533.969 4  89236485.974 4      1877.082          26.000
R23  21104467.102 6 112894583.904 6     -2415.902          36.000
R24  19662327.734 5 105143321.251 5      -363.848          35.000    19662330.305 4  81778130.142 4      -282.996          27.000
C05  39617655.734 5 206299528.046 5        -2.551          34.000
C11  22241771.594 4 115818712.760 4       997.656          29.000    22241760.906 5  89558364.896 5       771.376          31.000
C12  22555668.461 6 117453354.478 6     -1516.418          36.000    22555667.070 7  90822387.506 7     -1172.887          43.000
C21  23798824.055 7 123926664.734 7      1876.383          45.000
C25  24457233.555 8 127355210.720 8     -2514.051          50.000
E30  23375616.109 8 122839688.965 8     -2129.652          51.000    23375617.805 8  94123918.563 8     -1631.701          50.000
E36  26929543.234 5 141515705.521 5     -2369.508          34.000    26929545.031 5 108434115.524 5     -1815.809          33.000
> 2020 05 13 15 15  0.0000000  0 16        .000000000000
G10  21877329.852 8 114966188.895 8      2381.516          51.000    21877332.727 8  89584055.829 8      1855.730          51.000
G16  20554371.156 8 108013930.924 8      -786.215          51.000    20554367.688 7  84166709.346 7      -612.635          47.000
G20  20968426.070 8 110189851.517 8       134.621          50.000    20968424.922 7  85862238.193 7       104.900          44.000
G26  21679140.766 8 113924635.980 8     -2753.613          48.000    21679142.867 8  88772447.344 8     -2145.673          49.000
R01  21717536.828 5 116092660.524 5      2932.023          30.000
R14  20685996.828 8 110267989.475 8     -2634.609          51.000    20686001.500 8  85764044.021 8     -2049.141          48.000
R17  21427023.766 5 114660333.869 5      2409.914          35.000
R24  19664398.109 6 105154386.774 6      -371.016          38.000    19664400.219 4  81786736.650 4      -288.565          27.000
C05  39617666.562 5 206299585.034 5         1.316          35.000
C11  22236040.719 5 115788903.039 5       995.711          30.000    22236030.383 5  89535289.415 5       769.222          33.000
C12  22564420.930 5 117498930.892 5     -1518.812          33.000    22564419.734 7  90857630.057 7     -1174.460          44.000
C21  23788048.867 6 123870558.645 6      1866.641          40.000
C22  24885205.258 5 129583775.355 5      -937.680          35.000
C25  24471741.125 8 127430752.272 8     -2519.285          50.000
E30  23387801.016 8 122903727.900 8     -2136.754          49.000    23387803.188 8  94172987.375 8     -1637.322          50.000
E36  26943067.648 5 141586778.434 5     -2365.637          35.000    26943071.398 5 108488577.688 5     -1812.706          35.000
> 2020 05 13 15 15 30.0000000  0 15        .000000000000
G10  21863823.352 8 114895211.569 8      2360.793          50.000    21863826.492 8  89528748.856 8      1839.579          49.000
G16  20558962.320 8 108038058.593 8      -811.875          51.000    20558959.094 8  84185510.136 8      -632.630          48.000
G20  20967761.820 8 110186360.957 8       108.520          50.000    20967760.875 7  85859518.322 7        84.561          44.000
G26  21694944.641 7 114007686.817 7     -2772.516          47.000    21694946.312 7  88837162.246 7     -2160.405          47.000
R01  21701179.781 5 116005219.111 5      2907.645          30.000
