     3.02           OBSERVATION DATA    M (MIXED)           RINEX VERSION / TYPE
SAVERINEX           SC600               20200503 125931 LCL PGM / RUN BY / DATE
       G = GPS       R = GLONASS       C = COMPASS          COMMENT
       S = SBAS      J = QZSS          E = GALILEO          COMMENT
BEAN                                                        MARKER NAME
1                                                           MARKER NUMBER
GEODETIC                                                    MARKER TYPE
Unige DICCA         GTER                                    OBSERVER / AGENCY
SC60291900056       SC600               2.12(191226)        REC # / TYPE / VERS
                    HEMA45          NONE                    ANT # / TYPE
  4509407.8091   693652.4678  4442337.6214                  APPROX POSITION XYZ
        0.0000        0.0000        0.0000                  ANTENNA: DELTA H/E/N
G    8 C1C L1C D1C S1C C2Y L2Y D2Y S2Y                      SYS / # / OBS TYPES
R    8 C1C L1C D1C S1C C2P L2P D2P S2P                      SYS / # / OBS TYPES
C    8 C1I L1I D1I S1I C7I L7I D7I S7I                      SYS / # / OBS TYPES
E    8 C1C L1C D1C S1C C7Q L7Q D7Q S7Q                      SYS / # / OBS TYPES
DBHZ                                                        COMMENT
     30.000                                                 INTERVAL
  2020    05    03    10    00    0.0000000     GPS         TIME OF FIRST OBS
  2020    05    03    10    59   30.0000000     GPS         TIME OF LAST OBS
     0                                                      RCV CLOCK OFFS APPL
G L1C  0.00000                                              SYS / PHASE SHIFT
G L2Y  0.00000                                              SYS / PHASE SHIFT
R L1C  0.00000                                              SYS / PHASE SHIFT
R L2P  0.25000                                              SYS / PHASE SHIFT
C L1I  0.00000                                              SYS / PHASE SHIFT
C L7I  0.00000                                              SYS / PHASE SHIFT
E L1C  0.50000                                              SYS / PHASE SHIFT
E L7Q -0.25000                                              SYS / PHASE SHIFT
 13 R04  6 R05  1 R06 -4 R07  5 R09 -2 R10 -5 R14 -7 R15  0 GLONASS SLOT / FRQ #
    R16 -1 R17  4 R18 -3 R19  3 R20  2                      GLONASS SLOT / FRQ #
 C1C   71.950 C2C   71.950 C2P   71.950                     GLONASS COD/PHS/BIS
    18                                                      LEAP SECONDS
*** Above antenna height is from mark to ANTENNA BOTTOM.    COMMENT
    17     4        0.0000        ANT MEASURE TYPE/HEIGT    COMMENT
    0.0000    0.0000    0.0458    0.0405    0.0000          COMMENT
                    BASE STATION                            COMMENT
                                                            END OF HEADER
> 2020 05 03 10 00  0.0000000  0 17        .000000000000
G02  23114139.055 5 121465633.914 5      1043.445          33.000
G12  20275016.258 8 106545938.844 8      -950.828          50.000    20275015.242 8  83022807.917 8      -740.905          50.000
G24  21743424.531 8 114262483.298 8     -2681.551          51.000    21743427.695 8  89035683.118 8     -2089.520          51.000
G25  20417131.945 5 107292752.791 5      1034.094          32.000    20417132.484 4  83604753.349 4       805.787          29.000
G29  22555067.422 8 118527674.279 8      3335.121          51.000    22555067.969 8  92359217.170 8      2598.796          51.000
G32  22134182.383 5 116315928.113 5        62.160          35.000
R07  23300520.492 7 124729483.702 7     -3675.371          44.000    23300524.234 5  97011840.296 5     -2858.625          35.000
R09  19613549.531 5 104735259.552 5      1111.832          30.000    19613550.406 4  81460760.745 4       864.758          26.000
R18  21437862.688 5 114436714.027 5     -2808.758          31.000
R19  19853810.055 6 106204477.050 6      1121.527          37.000    19853811.211 7  82603513.196 7       872.299          44.000
C11  22827456.281 7 118868538.840 7      -950.738          42.000    22827455.703 7  91916675.871 7      -735.177          42.000
C23  21855437.883 8 113807018.489 8      -153.887          51.000
C25  24246225.938 5 126256437.889 5     -2446.383          35.000
C28  24003136.789 7 124990602.805 7      3168.133          44.000
E03  26481937.195 7 139163506.449 7     -2561.750          44.000    26481940.711 8 106631784.914 8     -1962.869          48.000
E11  24080015.836 7 126541337.114 7      1576.445          46.000    24080015.547 7  96960266.431 7      1207.866          46.000
E25  23598698.367 8 124011993.950 8      -266.285          51.000    23598700.578 8  95022181.927 8      -204.061          51.000
> 2020 05 03 10 00 30.0000000  0 14        .000000000000
G02  23108244.984 5 121434646.127 5      1020.477          33.000
G12  20280487.305 8 106574689.744 8      -970.336          50.000    20280486.148 8  83045211.208 8      -756.106          50.000
G24  21758775.789 8 114343152.883 8     -2700.930          51.000    21758777.867 8  89098542.515 8     -2104.621          51.000
G29  22536067.906 8 118427828.882 8      3316.988          51.000    22536067.812 8  92281415.598 8      2584.666          51.000
R07  23321150.695 7 124839914.942 7     -3691.246          45.000    23321151.180 5  97097731.167 5     -2870.972          35.000
R09  19607333.828 5 104702093.229 5      1092.008          30.000    19607334.836 4  81434958.056 4       849.336          28.000
R19  19847609.055 6 106171308.062 6      1085.051          36.000    19847610.734 7  82577715.070 7       843.928          44.000
C11  22832991.898 6 118897364.866 6      -975.238          39.000    22832991.469 6  91938966.058 6      -754.488          41.000
C23  21856365.898 8 113811851.200 8      -172.793          51.000
C25  24260349.109 5 126329985.167 5     -2461.000          35.000
C28  23984915.469 7 124895722.026 7      3152.844          46.000
E03  26496589.875 7 139240506.331 7     -2576.117          44.000    26496593.156 8 106690784.759 8     -1973.911          48.000
E11  24071063.961 7 126494295.741 7      1554.828          46.000    24071064.047 7  96924221.750 7      1191.413          45.000
E25  23600245.938 8 124020127.372 8      -280.473          51.000    23600248.086 8  95028414.020 8      -214.830          51.000
> 2020 05 03 10 01  0.0000000  0 16        .000000000000
G02  23102402.719 5 121403969.616 5      1014.051          32.000    23102417.836 4  94600538.197 4       790.169          27.000
G12  20286000.695 8 106603662.625 8      -971.312          50.000    20285999.117 8  83067787.467 8      -756.867          50.000
G24  21774168.703 8 114424042.423 8     -2701.938          49.000    21774169.797 8  89161573.291 8     -2105.406          49.000
G29  22517102.930 8 118328166.434 8      3317.070          51.000    22517102.469 8  92203756.587 8      2584.730          51.000
R07  23341801.594 7 124950453.944 7     -3688.215          45.000    23341800.016 6  97183705.834 6     -2868.615          36.000
R09  19601175.641 5 104669193.978 5      1090.891          35.000    19601174.758 5  81409369.870 5       848.474          32.000
R18  21469653.969 5 114606467.814 5     -2848.164          35.000    21469660.016 4  89138390.278 4     -2215.242          25.000
R19  19841543.688 6 106138865.595 6      1067.094          38.000    19841546.227 7  82552482.058 7       829.962          44.000
C11  22838600.617 6 118926570.693 6      -981.965          40.000    22838600.531 6  91961549.861 6      -759.073          40.000
C23  21857333.859 8 113816892.221 8      -173.402          51.000
C25  24274490.516 6 126403618.916 6     -2457.648          37.000
C28  23966715.094 7 124800946.720 7      3155.500          47.000
E02  25001349.047 5 131382974.295 5      1747.633          33.000
E03  26511255.078 7 139317572.478 7     -2571.988          45.000    26511258.336 7 106749835.413 7     -1970.651          47.000
E11  24062166.352 7 126447538.447 7      1551.934          47.000    24062166.945 7  96888394.755 7      1189.192          46.000
E25  23601804.789 8 124028320.296 8      -276.031          51.000    23601806.898 8  95034691.710 8      -211.472          51.000
> 2020 05 03 10 01 30.0000000  0 13        .000000000000
G12  20291595.047 8 106633061.338 8      -985.945          50.000    20291593.312 8  83090695.533 8      -768.269          50.000
G24  21789641.414 7 114505355.062 7     -2716.191          46.000    21789642.422 7  89224933.760 7     -2116.513          46.000
G29  22498211.656 8 118228893.431 8      3303.672          50.000    22498210.836 8  92126401.026 8      2574.290          50.000
R07  23362511.188 7 125061304.177 7     -3699.145          42.000    23362508.008 6  97269922.584 6     -2877.115          36.000
R18  21485739.641 5 114692297.508 5     -2870.914          32.000
R19  19835653.961 6 106107359.436 6      1035.828          38.000    19835656.500 7  82527977.288 7       805.647          44.000
C11  22844320.844 6 118956357.744 6     -1001.508          38.000    22844320.695 5  91984583.154 5      -774.511          34.000
C23  21858381.062 8 113822344.952 8      -187.582          51.000
C25  24288685.727 5 126477541.542 5     -2467.840          34.000
C28  23948574.336 7 124706481.722 7      3144.742          46.000
E03  26525971.148 7 139394907.548 7     -2581.191          44.000    26525974.758 7 106809092.157 7     -1977.838          46.000
E11  24053362.188 7 126401271.205 7      1535.277          47.000    24053362.758 7  96852943.246 7      1176.462          46.000
E25  23603414.016 8 124036777.583 8      -285.203          51.000    23603415.898 8  95041171.963 8      -218.559          51.000
> 2020 05 03 10 02  0.0000000  0 13        .000000000000
G12  20297248.516 8 106662771.115 8      -999.305          50.000    20297246.953 8  83113845.994 8      -778.679          50.000
G24  21805171.664 7 114586976.029 7     -2729.594          43.000    21805174.133 7  89288534.489 7     -2126.959          43.000
G29  22479373.086 8 118129898.395 8      3291.473          50.000    22479371.742 8  92049262.061 8      2564.784          50.000
R07  23383256.008 6 125172345.655 6     -3708.367          39.000    23383252.391 6  97356288.154 6     -2884.289          36.000
R09  19589088.156 5 104604615.016 5      1060.859          34.000    19589086.102 5  81359156.659 5       825.113          32.000
R19  19829917.477 6 106076675.126 6      1005.184          39.000    19829920.344 7  82504111.769 7       781.809          44.000
C11  22850130.727 6 118986612.305 6     -1020.004          38.000    22850130.133 6  92007977.795 6      -788.692          36.000
C23  21859485.875 8 113828097.355 8      -200.535          51.000
C25  24302914.172 6 126551640.179 6     -2476.672          36.000
C28  23930471.391 7 124612216.451 7      3135.109          44.000
E03  26540716.188 7 139472395.925 7     -2589.316          44.000    26540720.242 7 106868466.374 7     -1983.917          45.000
E11  24044629.781 7 126355381.647 7      1519.645          47.000    24044630.023 7  96817781.156 7      1164.137          44.000
E25  23605052.047 8 124045385.744 8      -293.281          51.000    23605053.727 8  95047767.815 8      -224.716          51.000
> 2020 05 03 10 02 30.0000000  0 14        .000000000000
G12  20302958.898 8 106692779.736 8     -1004.980          51.000    20302957.477 8  83137229.325 8      -783.102          51.000
G24  21820758.789 7 114668892.307 7     -2734.996          43.000    21820762.617 7  89352365.397 7     -2131.166          43.000
G25  20388452.617 5 107142040.098 5       977.574          35.000    20388446.000 5  83487277.172 5       761.740          33.000
G29  22460585.570 8 118031171.664 8      3286.680          51.000    22460584.625 8  91972332.183 8      2561.052          51.000
R07  23404032.195 6 125283561.570 6     -3710.043          36.000    23404029.477 6  97442789.413 6     -2885.589          36.000
R09  19583134.766 5 104572833.968 5      1054.262          35.000    19583133.953 5  81334438.036 5       819.981          34.000
R19  19824333.242 6 106046802.154 6       982.539          38.000    19824335.570 7  82480877.241 7       764.197          44.000
C11  22856027.953 5 119017321.514 5     -1031.422          35.000    22856028.656 6  92031724.152 6      -797.090          39.000
C23  21860646.180 8 113834138.301 8      -205.863          51.000
C25  24317173.867 5 126625902.382 5     -2478.445          32.000
C28  23912403.758 7 124518141.252 7      3132.789          43.000
E03  26555488.328 7 139550023.881 7     -2589.586          46.000    26555492.156 7 106927947.522 7     -1984.162          44.000
E11  24035967.148 7 126309859.235 7      1511.445          46.000    24035966.297 7  96782900.345 7      1158.171          43.000
E25  23606716.594 8 124054133.135 8      -293.512          51.000    23606718.180 8  95054470.350 8      -224.893          51.000
> 2020 05 03 10 03  0.0000000  0 13        .000000000000
G12  20308741.461 8 106723166.930 8     -1018.117          51.000    20308740.148 8  83160907.650 8      -793.341          51.000
G24  21836418.406 7 114751182.658 7     -2748.223          45.000    21836422.625 7  89416487.714 7     -2141.475          45.000
G29  22441864.961 8 117932796.127 8      3274.387          51.000    22441865.164 8  91895675.941 8      2551.470          51.000
R07  23424853.734 5 125395029.049 5     -3718.578          35.000    23424853.812 6  97529486.368 6     -2892.224          36.000
R09  19577262.414 5 104541474.749 5      1039.410          32.000    19577262.945 5  81310051.475 5       808.430          35.000
R19  19818915.805 6 106017823.289 6       952.117          37.000    19818918.227 7  82458338.140 7       740.536          45.000
C11  22862026.625 4 119048571.547 4     -1048.645          27.000    22862028.797 6  92055882.625 6      -811.344          38.000
C23  21861877.422 8 113840547.993 8      -218.734          51.000
C25  24331479.039 4 126700407.463 4     -2486.383          29.000
C28  23894388.273 7 124424337.713 7      3123.262          44.000
E03  26570302.547 7 139627869.668 7     -2597.301          47.000    26570305.375 7 106987595.582 7     -1990.146          42.000
E11  24027389.680 7 126264785.541 7      1496.055          45.000    24027387.516 7  96748363.362 7      1146.319          42.000
E25  23608423.039 8 124063100.276 8      -301.465          51.000    23608424.398 8  95061341.260 8      -231.019          51.000
> 2020 05 03 10 03 30.0000000  0 13        .000000000000
G12  20314576.289 8 106753828.355 8     -1029.371          51.000    20314575.203 8  83184799.688 8      -802.104          51.000
G24  21852129.867 8 114833742.593 8     -2759.281          49.000    21852133.805 8  89480820.067 8     -2150.092          49.000
G29  22423192.102 8 117834670.572 8      3263.910          51.000    22423193.016 8  91819214.477 8      2543.307          51.000
R07  23445701.617 6 125506639.127 6     -3725.469          36.000    23445704.773 5  97616294.169 5     -2897.584          35.000
R09  19571440.477 5 104510395.249 5      1026.895          34.000    19571443.781 5  81285882.246 5       798.693          32.000
R19  19813646.039 6 105989634.931 6       923.168          36.000    19813648.469 7  82436413.852 7       718.016          44.000
C11  22868109.789 5 119080247.185 5     -1064.934          30.000    22868110.148 5  92080373.247 5      -824.060          35.000
C23  21863159.891 8 113847225.000 8      -229.793          51.000
C25  24345811.938 4 126775031.922 4     -2493.469          28.000
C28  23876406.953 7 124330705.788 7      3115.453          47.000
E03  26585138.578 7 139705828.388 7     -2603.312          47.000    26585139.484 6 107047330.127 6     -1994.746          41.000
E11  24018878.617 7 126220058.851 7      1482.414          46.000    24018875.812 7  96714092.270 7      1136.037          43.000
E25  23610151.805 8 124072184.385 8      -307.609          51.000    23610152.805 8  95068301.805 8      -235.683          51.000
> 2020 05 03 10 04  0.0000000  0 15        .000000000000
G12  20320464.648 8 106784771.095 8     -1037.719          51.000    20320463.727 8  83208910.902 8      -808.612          51.000
G24  21867893.969 8 114916578.651 8     -2767.348          51.000    21867897.109 8  89545367.595 8     -2156.375          51.000
G29  22404569.062 8 117736804.684 8      3256.340          51.000    22404569.336 8  91742955.365 8      2537.408          51.000
R07  23466578.031 6 125618394.963 6     -3728.797          38.000    23466582.070 5  97703215.341 5     -2900.178          33.000
R09  19565684.867 5 104479649.796 5      1018.609          34.000    19565687.188 5  81261969.170 5       792.258          31.000
R16  21627536.172 5 115530392.661 5     -2646.762          33.000
R18  21567788.617 5 115130228.880 5     -2968.199          34.000
R19  19808526.172 6 105962246.190 6       897.871          38.000    19808528.125 7  82415111.493 7       698.344          44.000
C11                                                                  22874276.398 6  92105201.140 6      -834.478          36.000
C23  21864495.266 8 113854177.586 8      -237.867          51.000
C25  24360173.438 5 126849825.038 5     -2497.191          30.000
C28  23858461.586 8 124237255.227 8      3110.484          49.000
E03  26599996.867 7 139783905.763 7     -2606.023          46.000    26599995.633 6 107107155.563 6     -1996.605          40.000
E11  24010435.328 7 126175688.149 7      1471.617          45.000    24010432.062 7  96680093.981 7      1127.543          42.000
E25  23611904.336 8 124081393.416 8      -310.387          51.000    23611905.234 8  95075358.072 8      -237.844          51.000
> 2020 05 03 10 04 30.0000000  0 16        .000000000000
G12  20326402.875 8 106815976.185 8     -1045.105          51.000    20326401.945 8  83233226.535 8      -814.368          51.000
G24  21883707.008 8 114999671.433 8     -2774.676          51.000    21883708.734 8  89610115.196 8     -2162.085          51.000
G25  20366635.656 5 107027393.950 5       935.434          35.000    20366638.453 5  83397986.635 5       728.909          34.000
G29  22385992.555 8 117639182.300 8      3249.445          51.000    22385991.578 8  91666886.046 8      2532.038          51.000
G32  22135597.625 5 116323340.694 5      -113.414          33.000
R07  23487479.000 6 125730273.696 6     -3731.875          36.000    23487481.484 5  97790232.049 5     -2902.572          31.000
R09  19559984.023 5 104449205.105 5      1008.988          34.000    19559985.984 5  81238289.893 5       784.766          32.000
R18  21584512.547 5 115219498.956 5     -2984.629          32.000    21584519.633 4  89615258.969 4     -2321.378          29.000
R19  19803552.750 6 105935639.765 6       873.211          39.000    19803554.352 7  82394417.633 7       679.164          44.000
C11  22880530.352 6 119144906.777 6     -1091.844          37.000    22880522.703 5  92130351.401 5      -843.993          35.000
C23  21865880.117 8 113861388.365 8      -245.270          51.000
C25  24374562.086 5 126924747.282 5     -2500.617          32.000
C28  23840548.523 8 124143969.991 8      3106.188          50.000
E03  26614873.211 7 139862081.626 7     -2608.039          45.000    26614871.203 6 107167056.462 6     -1998.158          39.000
E11  24002056.328 7 126131656.463 7      1461.477          45.000    24002052.953 7  96646355.474 7      1119.719          42.000
E25  23613677.250 8 124090709.429 8      -312.875          51.000    23613678.164 8  95082496.310 8      -239.690          51.000
> 2020 05 03 10 05  0.0000000  0 13        .000000000000
G12  20332441.688 8 106847710.234 8     -1067.148          51.000    20332440.680 8  83257954.349 8      -831.544          51.000
G24  21899619.172 8 115083286.930 8     -2796.480          51.000    21899619.820 8  89675270.108 8     -2179.079          51.000
G29  22367513.664 8 117542073.196 8      3227.707          51.000    22367512.531 8  91591216.686 8      2515.099          51.000
R07  23508452.141 5 125842543.098 5     -3749.336          31.000    23508453.383 4  97877552.674 4     -2916.150          29.000
R09  19554390.609 5 104419333.718 5       986.383          33.000    19554391.977 5  81215056.594 5       767.184          33.000
R19  19798776.508 6 105910088.478 6       833.387          41.000    19798777.930 7  82374544.449 7       648.190          44.000
C11  22886905.523 5 119178112.256 5     -1118.473          34.000    22886899.289 5  92156027.872 5      -865.134          34.000
C23  21867365.289 8 113869122.978 8      -267.199          51.000
C25  24389030.539 5 127000063.198 5     -2517.648          34.000
C28  23822718.516 8 124051117.225 8      3087.207          51.000
E03  26629818.266 7 139940621.536 7     -2624.629          44.000    26629818.227 6 107227236.324 6     -2011.034          38.000
E11  23993793.320 7 126088232.609 7      1436.809          46.000    23993789.188 7  96613082.676 7      1100.638          42.000
E25  23615521.500 8 124100400.123 8      -329.930          51.000    23615522.484 8  95089921.654 8      -252.803          51.000
> 2020 05 03 10 05 30.0000000  0 14        .000000000000
G12  20338524.227 8 106879674.544 8     -1067.598          50.000    20338523.414 8  83282861.579 8      -831.894          50.000
G24  21915573.305 8 115167126.020 8     -2796.852          49.000    21915573.812 8  89740599.249 8     -2179.365          49.000
G25  20356164.953 5 106972367.868 5       911.227          35.000
G29  22349075.992 8 117445181.571 8      3227.773          51.000    22349075.383 8  91515716.752 8      2515.148          51.000
R09  19548847.586 5 104389734.913 5       983.980          33.000    19548848.289 5  81192035.275 5       765.318          34.000
R19  19794140.898 6 105885290.595 6       815.723          41.000    19794142.586 7  82355257.247 7       634.454          44.000
C11  22893350.734 5 119211701.839 5     -1124.512          35.000    22893350.680 6  92182001.606 6      -869.511          36.000
C23  21868894.516 8 113877086.860 8      -267.695          51.000
C25  24403519.422 6 127075477.539 6     -2513.660          37.000
C28  23804914.898 8 123958403.817 8      3089.750          51.000
E03  26644776.016 7 140019225.697 7     -2619.496          45.000    26644778.578 6 107287465.453 6     -2007.281          39.000
E11  23985589.273 7 126045119.895 7      1433.598          46.000    23985585.586 7  96580048.275 7      1098.489          43.000
E25  23617380.328 8 124110167.845 8      -325.109          51.000    23617381.562 8  95097406.002 8      -249.080          51.000
E36  26558633.391 6 139566558.219 6      3173.441          38.000    26558635.812 6 106940617.979 6      2431.478          38.000
> 2020 05 03 10 06  0.0000000  0 15        .000000000000
G12  20344656.781 8 106911902.037 8     -1081.129          51.000    20344656.281 8  83307973.885 8      -842.438          51.000
G24  21931575.562 8 115251220.577 8     -2809.887          48.000    21931577.133 8  89806127.455 8     -2189.519          48.000
G25  20350984.359 5 106945130.657 5       896.613          34.000    20350981.523 5  83333876.954 5       698.666          33.000
G29  22330686.250 8 117348542.965 8      3214.613          51.000    22330686.219 8  91440413.962 8      2504.893          51.000
R07  23550445.188 5 126067375.254 5     -3752.762          31.000    23550455.898 5  98052439.382 5     -2918.815          31.000
R09  19543362.672 5 104360444.573 5       968.551          35.000    19543361.789 5  81169253.869 5       753.311          34.000
R19  19789652.633 6 105861281.040 6       784.695          41.000    19789654.422 7  82336583.181 7       610.319          44.000
C11  22899880.445 6 119245707.765 6     -1142.793          38.000    22899881.617 6  92208297.086 6      -883.605          37.000
C23  21870474.273 8 113885313.895 8      -281.016          51.000
C25  24418031.648 5 127151023.030 5     -2522.832          35.000
C28  23787144.414 8 123865865.071 8      3079.305          51.000
E03  26659752.547 7 140097925.744 7     -2627.414          45.000    26659755.992 6 107347767.975 6     -2013.025          37.000
E11  23977450.828 7 126002353.042 7      1417.477          45.000    23977448.250 7  96547278.920 7      1086.130          43.000
E25  23619260.094 8 124120046.440 8      -333.652          51.000    23619261.797 8  95104975.294 8      -255.614          51.000
E36  26540532.891 5 139471439.729 5      3167.547          35.000    26540537.062 6 106867735.034 6      2427.066          40.000
> 2020 05 03 10 06 30.0000000  0 17        .000000000000
G02  23044234.367 5 121098271.275 5       835.996          31.000
G06  23474948.430 6 123361679.385 6      -431.516          37.000
G12  20350862.156 8 106944511.954 8     -1094.918          50.000    20350861.680 8  83333384.189 8      -853.183          50.000
G24  21947648.656 7 115335689.804 7     -2823.445          46.000    21947651.680 7  89871947.618 7     -2200.087          46.000
G29  22312367.711 8 117252279.398 8      3201.047          50.000    22312368.102 8  91365403.403 8      2494.325          50.000
R07  23571499.156 5 126180070.310 5     -3762.008          35.000    23571511.688 5  98140091.025 5     -2926.009          31.000
R09  19537959.289 6 104331585.997 6       952.742          36.000    19537956.500 5  81146808.261 5       741.016          34.000
R18  21652578.914 4 115582935.554 4     -3068.613          29.000
R19  19785334.781 6 105838182.764 6       753.383          41.000    19785336.305 7  82318617.862 7       585.964          44.000
C11  22906512.125 6 119280247.236 6     -1161.777          38.000    22906514.203 6  92235005.277 6      -898.435          39.000
C23  21872127.508 8 113893923.346 8      -294.809          51.000
C25  24432587.797 6 127226817.877 6     -2532.160          39.000
C28  23769430.164 8 123773621.692 8      3068.391          50.000
E03  26674770.211 7 140176839.437 7     -2635.621          46.000    26674772.008 6 107408234.209 6     -2019.277          38.000
E11  23969401.289 7 125960053.147 7      1400.621          45.000    23969399.656 7  96514867.336 7      1073.218          43.000
E25  23621183.820 8 124130155.870 8      -342.363          51.000    23621186.008 8  95112721.466 8      -262.318          51.000
E36                                                                  26522465.109 6 106794963.161 6      2422.750          40.000
> 2020 05 03 10 07  0.0000000  0 18        .000000000000
G02  23039495.008 5 121073361.709 5       823.242          34.000
G06  23477456.773 6 123374858.657 6      -447.344          36.000    23477458.469 5  96136252.349 5      -348.580          35.000
G12  20357130.305 8 106977451.720 8     -1101.484          50.000    20357129.734 8  83359051.537 8      -858.300          50.000
G24  21963783.094 7 115420480.156 7     -2829.535          46.000    21963786.766 7  89938017.988 7     -2204.836          46.000
G29  22294111.219 8 117156341.972 8      3194.480          50.000    22294111.812 8  91290646.985 8      2489.209          49.000
G32  22140393.875 5 116348526.614 5      -215.512          33.000
R07  23592585.594 5 126292938.942 5     -3763.172          35.000    23592595.984 4  98227877.683 4     -2926.914          29.000
R09  19532627.023 6 104303108.213 6       945.008          38.000    19532624.312 5  81124658.827 5       735.006          35.000
R16  21717644.852 5 116011763.502 5     -2700.348          30.000
R19  19781177.367 6 105815944.509 6       728.926          41.000    19781179.125 7  82301321.482 7       566.942          43.000
C11  22913237.273 6 119315268.393 6     -1173.512          39.000    22913239.914 6  92262085.876 6      -907.334          39.000
C23  21873844.406 8 113902865.024 8      -301.617          51.000
C25  24447181.164 6 127302810.684 6     -2534.578          39.000
C28  23751762.938 8 123681624.921 8      3064.438          49.000
E03  26689818.633 7 140255913.505 7     -2636.348          45.000    26689817.570 6 107468823.348 6     -2020.169          39.000
E11  23961431.078 7 125918170.124 7      1390.945          46.000    23961429.930 7  96482775.150 7      1065.855          45.000
E25  23623141.867 8 124140445.130 8      -343.824          51.000    23623144.414 8  95120605.440 8      -263.513          51.000
E36                                                                  26504410.797 6 106722264.680 6      2423.597          41.000
> 2020 05 03 10 07 30.0000000  0 16        .000000000000
G02  23034841.156 5 121048903.558 5       806.609          32.000
G06  23480070.750 6 123388593.788 6      -467.918          38.000    23480074.641 6  96146955.031 6      -364.608          38.000
G12  20363453.312 8 107010679.016 8     -1113.359          51.000    20363452.734 8  83384942.939 8      -867.553          51.000
G24  21979971.219 8 115505549.304 8     -2841.293          49.000    21979974.570 8  90004305.564 8     -2213.998          49.000
G29  22275909.180 8 117060690.553 8      3182.672          49.000    22275909.867 8  91216113.429 8      2480.004          49.000
R07  23613694.383 5 126405934.376 5     -3769.902          33.000    23613703.328 4  98315763.007 4     -2932.146          26.000
R09  19527358.500 6 104274970.842 6       931.012          40.000    19527355.531 5  81102774.191 5       724.120          33.000
R19  19777172.914 6 105794524.493 6       699.242          39.000    19777174.414 7  82284661.475 7       543.858          43.000
C11  22920046.141 6 119350728.383 6     -1190.059          37.000    22920050.172 6  92289505.848 6      -920.319          36.000
C23  21875617.039 8 113912098.199 8      -313.621          51.000
C25  24461804.461 5 127378959.742 5     -2541.520          34.000
C28  23734134.656 7 123589835.441 7      3055.152          47.000
E03  26704889.250 7 140335104.347 7     -2642.695          42.000    26704886.219 6 107529501.930 6     -2024.800          39.000
E11  23953532.359 7 125876663.391 7      1376.383          46.000    23953532.055 7  96450971.323 7      1054.580          45.000
E25  23625126.297 8 124150872.765 8      -350.914          51.000    23625129.047 8  95128595.432 8      -268.873          51.000
E36                                                                  26486367.062 6 106649609.134 6      2420.329          39.000
> 2020 05 03 10 08  0.0000000  0 15        .000000000000
G06  23482761.141 6 123402732.936 6      -481.328          38.000    23482766.562 6  96157972.576 6      -375.064          38.000
G12  20369802.062 8 107044041.661 8     -1117.453          51.000    20369801.469 8  83410939.785 8      -870.746          51.000
G24  21996183.688 8 115590743.551 8     -2844.984          51.000    21996186.930 8  90070690.598 8     -2216.871          51.000
G25  20330984.656 5 106840041.590 5       857.797          35.000    20330987.750 5  83251987.509 5       668.410          35.000
G29  22257733.094 8 116965175.824 8      3178.477          48.000    22257733.523 8  91141686.406 8      2476.735          48.000
R09  19522124.789 6 104247021.428 6       925.395          40.000    19522120.922 5  81081035.778 5       719.754          34.000
R19  19773293.000 6 105773769.287 6       677.652          40.000    19773294.344 7  82268518.572 7       527.066          43.000
C11  22926910.805 6 119386475.774 6     -1199.383          38.000    22926913.430 5  92317147.879 5      -927.608          32.000
C23  21877417.344 8 113921473.258 8      -317.988          51.000
C25  24476429.047 6 127455114.630 6     -2541.965          36.000
C28  23716517.297 7 123498105.082 7      3053.590          47.000
E03  26719952.789 6 140414258.357 6     -2640.887          39.000    26719948.602 6 107590152.345 6     -2023.411          39.000
E11  23945676.836 7 125835382.554 7      1369.480          45.000    23945676.797 7  96419340.576 7      1049.228          45.000
E25  23627108.203 8 124161287.450 8      -350.133          51.000    23627111.102 8  95136575.504 8      -268.266          51.000
E36                                                                  26468304.961 6 106576881.939 6      2422.762          37.000
> 2020 05 03 10 08 30.0000000  0 15        .000000000000
G06  23485601.961 5 123417664.000 5      -507.316          32.000    23485607.461 5  96169607.156 5      -395.315          34.000
G12  20376250.203 8 107077926.610 8     -1134.391          51.000    20376249.305 8  83437343.635 8      -883.941          51.000
G24  22012493.695 8 115676449.954 8     -2861.691          51.000    22012497.000 8  90137474.754 8     -2229.889          51.000
G25  20326155.789 5 106814677.004 5       840.305          34.000    20326158.406 5  83232222.899 5       654.783          35.000
G29  22239657.258 7 116870187.624 7      3161.355          47.000    22239656.977 8  91067669.667 8      2463.394          48.000
R09  19516999.938 6 104219655.367 6       906.355          39.000    19516996.312 5  81059751.076 5       704.943          35.000
R19  19769611.633 6 105754074.603 6       642.723          39.000    19769612.539 7  82253200.486 7       499.892          44.000
C11  22933904.789 6 119422893.402 6     -1221.223          40.000    22933907.680 6  92345308.391 6      -944.375          38.000
C23  21879318.797 8 113931375.045 8      -335.094          51.000
C25  24491129.031 6 127531658.840 6     -2554.398          39.000
C28  23698985.961 8 123406820.126 8      3039.043          48.000
E03  26735080.750 5 140493800.327 5     -2652.328          34.000    26735077.367 6 107651070.236 6     -2031.944          38.000
E11  23937938.102 7 125794716.619 7      1348.984          45.000    23937938.133 7  96388180.985 7      1033.643          44.000
E25  23629161.438 8 124172077.251 8      -362.043          51.000    23629164.453 8  95144843.006 8      -277.398          51.000
E36  26450289.727 6 138997210.044 6      3152.922          36.000    26450299.250 6 106504381.740 6      2416.082          36.000
> 2020 05 03 10 09  0.0000000  0 16        .000000000000
G06  23488546.484 6 123433141.912 6      -526.191          36.000    23488554.422 5  96181667.817 5      -410.019          35.000
G12  20382751.078 8 107112088.728 8     -1144.379          51.000    20382749.836 8  83463963.457 8      -891.724          51.000
G24  22028854.039 8 115762421.860 8     -2871.219          51.000    22028857.484 8  90204465.813 8     -2237.313          51.000
G29  22221635.258 7 116775483.538 7      3151.156          47.000    22221635.086 7  90993874.323 7      2455.446          47.000
G32  22146197.078 5 116379057.731 5      -295.219          35.000    22146200.000 5  90684977.721 5      -230.041          35.000
R09  19511937.211 6 104192625.782 6       894.160          36.000    19511932.453 5  81038728.099 5       695.458          33.000
R19  19766081.719 6 105735191.817 6       614.750          39.000    19766082.914 7  82238513.894 7       478.142          45.000
C11  22940980.945 6 119459737.585 6     -1236.004          40.000    22940984.914 6  92373798.685 6      -955.814          39.000
C23  21881275.047 8 113941561.648 8      -345.301          51.000
C25  24505856.789 6 127608349.565 6     -2559.969          39.000
C28  23681494.578 8 123315740.054 8      3031.621          48.000
E02  24844069.156 5 130556464.661 5      1696.969          30.000
E03  26750225.555 6 140573405.495 6     -2656.152          40.000    26750225.586 6 107712066.589 6     -2035.261          39.000
E11  23930269.828 7 125754421.946 7      1335.836          45.000    23930269.969 7  96357305.873 7      1023.664          45.000
E25  23631239.531 8 124182997.644 8      -367.258          51.000    23631242.461 8  95153210.579 8      -281.417          51.000
E36  26432296.047 6 138902644.695 6      3150.340          39.000    26432304.117 5 106431922.612 5      2414.040          30.000
> 2020 05 03 10 09 30.0000000  0 18        .000000000000
G02  23017112.781 5 120955762.458 5       743.531          30.000
G06  23491604.242 4 123449213.850 4      -545.770          28.000    23491615.453 4  96194191.361 4      -425.287          28.000
G12  20389313.422 8 107146573.651 8     -1154.590          51.000    20389312.102 8  83490834.806 8      -899.680          51.000
G24  22045273.430 8 115848705.850 8     -2881.078          49.000    22045276.859 8  90271700.047 8     -2244.999          49.000
G29  22203677.125 8 116681112.977 8      3140.477          49.000    22203677.555 8  90920338.859 8      2447.125          48.000
G32  22147939.344 5 116388211.765 5      -314.379          32.000    22147942.719 5  90692110.764 5      -244.964          33.000
R09  19506946.672 5 104165982.432 5       881.625          35.000    19506942.477 5  81018005.484 5       685.711          34.000
R16  21794075.625 5 116420026.042 5     -2744.469          30.000
R18  21757832.086 5 116144747.601 5     -3176.582          32.000
R19  19762712.812 6 105717169.963 6       586.766          39.000    19762714.000 7  82224496.877 7       456.370          46.000
C11  22948147.688 6 119497053.850 6     -1251.441          39.000    22948152.188 6  92402654.094 6      -967.443          36.000
C23  21883295.117 8 113952080.643 8      -355.895          51.000
C25  24520620.836 6 127685233.313 6     -2565.703          36.000
C28  23664052.352 7 123224913.895 7      3023.664          47.000
E03  26765402.078 7 140653158.656 7     -2660.430          44.000    26765402.398 6 107773176.132 6     -2038.496          41.000
E11  23922681.602 7 125714547.186 7      1322.418          44.000    23922682.078 7  96326752.492 7      1013.326          45.000
E25  23633351.516 8 124194096.337 8      -372.586          51.000    23633354.242 8  95161714.772 8      -285.485          51.000
E36  26414321.000 6 138808182.261 6      3147.414          41.000
> 2020 05 03 10 10  0.0000000  0 14        .000000000000
G06  23494791.203 5 123465942.388 5      -556.906          33.000
G12  20395951.875 8 107181458.334 8     -1157.223          51.000    20395950.523 8  83518017.666 8      -901.732          51.000
G24  22061766.359 8 115935377.540 8     -2883.340          48.000    22061769.672 8  90339236.395 8     -2246.761          48.000
G29  22185797.992 8 116587154.870 8      3137.223          50.000    22185798.719 8  90847124.766 8      2444.589          50.000
R09  19502043.664 6 104139804.871 6       877.203          36.000    19502040.320 5  80997645.193 5       682.269          33.000
R19  19759519.430 6 105700087.923 6       566.355          39.000    19759520.609 7  82211210.836 7       440.499          46.000
C11  22955419.719 6 119534917.073 6     -1259.219          40.000    22955422.359 5  92431932.308 5      -973.838          33.000
C23  21885393.742 8 113963008.849 8      -358.961          51.000
C25  24535435.969 5 127762386.004 5     -2563.926          33.000
C28  23646674.164 8 123134419.900 8      3023.113          48.000
E03  26780621.484 7 140733134.651 7     -2657.270          44.000    26780621.602 7 107834456.418 7     -2036.203          42.000
E11  23915188.109 7 125675170.361 7      1316.570          44.000    23915188.930 7  96296580.670 7      1008.690          44.000
E25  23635512.133 8 124205450.581 8      -370.441          51.000    23635514.609 8  95170414.762 8      -283.878          51.000
E36  26396380.695 7 138713901.793 7      3151.973          42.000    26396382.438 5 106287285.678 5      2415.211          33.000
> 2020 05 03 10 10 30.0000000  0 16        .000000000000
G02  23008820.992 6 120912167.587 6       710.102          37.000    23008825.984 4  94217295.396 4       553.326          27.000
G06  23498054.672 6 123483081.522 6      -585.270          36.000    23498062.867 5  96220647.104 5      -456.051          35.000
G12  20402614.062 8 107216468.107 8     -1176.004          51.000    20402612.727 8  83545297.984 8      -916.367          51.000
G24  22078280.484 7 116022161.348 7     -2901.727          47.000    22078283.766 7  90406860.100 7     -2261.086          47.000
G25  20307473.977 5 106716486.887 5       794.590          35.000    20307474.602 5  83155717.482 5       619.161          35.000
G29  22167945.609 8 116493337.292 8      3118.004          50.000    22167946.320 8  90774020.185 8      2429.616          49.000
R09  19497176.070 6 104113816.867 6       856.117          38.000    19497171.961 5  80977432.257 5       665.872          32.000
R19  19756449.820 6 105683667.546 6       529.141          40.000    19756451.164 7  82198439.413 7       411.554          46.000
C11  22962743.820 6 119573054.661 6     -1282.875          37.000    22962746.781 5  92461422.740 5      -992.163          33.000
C23  21887519.219 8 113974075.647 8      -378.062          51.000
C25  24550249.312 5 127839535.897 5     -2578.629          32.000
C28  23629308.211 8 123043988.857 8      3006.445          48.000
E03  26795830.656 7 140813057.823 7     -2670.160          42.000    26795830.453 7 107895696.169 7     -2046.009          44.000
E11  23907737.867 7 125636018.912 7      1294.293          45.000    23907738.672 7  96266581.534 7       991.728          44.000
E25  23637669.352 8 124216786.921 8      -384.590          51.000    23637671.742 8  95179101.041 8      -294.692          51.000
E36  26378423.086 6 138619531.501 6      3140.215          41.000    26378426.867 6 106214976.047 6      2406.073          37.000
> 2020 05 03 10 11  0.0000000  0 14        .000000000000
G12  20409379.844 8 107252022.194 8     -1195.184          51.000    20409378.602 8  83573002.449 8      -931.312          51.000
G24  22094895.125 7 116109475.931 7     -2920.230          46.000    22094898.672 7  90474897.435 7     -2275.504          46.000
G25  20302990.672 5 106692938.639 5       773.582          32.000    20302992.391 5  83137364.347 5       602.794          32.000
G29  22150200.031 8 116400082.502 8      3098.062          50.000    22150200.445 8  90701354.109 8      2414.075          50.000
R09  19492424.922 7 104088446.635 7       834.465          42.000    19492418.602 5  80957665.888 5       649.031          31.000
R19  19753584.094 6 105668337.141 6       491.859          41.000    19753585.297 7  82186515.761 7       382.557          46.000
C11  22970199.711 6 119611881.433 6     -1306.652          36.000    22970204.031 5  92491446.126 5     -1010.426          32.000
C23  21889751.438 8 113985697.776 8      -397.680          51.000
C25  24565142.047 4 127917098.576 4     -2593.387          29.000
C28  23612034.594 8 122954038.946 8      2989.359          49.000
E03  26811108.617 7 140893346.216 7     -2683.531          42.000    26811109.133 7 107957215.734 7     -2055.946          45.000
E11  23900411.367 7 125597513.959 7      1271.570          47.000    23900411.383 7  96237077.744 7       974.251          44.000
E25  23639903.164 8 124228525.598 8      -398.980          51.000    23639905.602 8  95188095.596 8      -305.682          51.000
E36  26360528.656 6 138525493.414 6      3128.102          41.000    26360533.695 6 106142920.970 6      2396.848          41.000
> 2020 05 03 10 11 30.0000000  0 15        .000000000000
G02  23000918.625 5 120870613.124 5       679.316          31.000
G12  20416179.391 8 107287753.943 8     -1194.691          51.000    20416178.281 8  83600845.351 8      -930.928          51.000
G24  22111540.781 7 116196953.997 7     -2919.535          45.000    22111544.820 7  90543062.202 7     -2274.962          46.000
G25  20298547.727 5 106669595.476 5       773.723          32.000    20298549.086 5  83119166.278 5       602.901          30.000
G29  22132491.797 8 116307026.301 8      3097.840          49.000    22132491.766 8  90628842.795 8      2413.901          49.000
R09  19487720.422 7 104063324.044 7       832.344          42.000    19487714.852 5  80938126.080 5       647.378          32.000
R19  19750852.359 6 105653724.627 6       474.426          41.000    19750853.570 7  82175150.489 7       368.998          45.000
C11  22977718.797 5 119651033.439 5     -1311.191          34.000    22977722.258 5  92521720.958 5     -1013.401          30.000
C23  21892020.570 8 113997513.179 8      -397.785          51.000
C25  24580044.312 5 127994711.035 5     -2588.703          30.000
C28  23594783.922 8 122864209.578 8      2991.711          48.000
E03  26826385.789 6 140973631.834 6     -2676.922          41.000    26826387.570 7 108018733.241 7     -2050.980          45.000
E11  23893138.203 7 125559290.640 7      1268.664          47.000    23893137.992 7  96207789.764 7       972.039          45.000
E25  23642143.984 8 124240300.955 8      -393.727          51.000    23642146.336 8  95197118.266 8      -301.711          51.000
E36  26342628.492 7 138431423.648 7      3135.641          42.000    26342634.250 7 106070841.592 7      2402.532          42.000
> 2020 05 03 10 12  0.0000000  0 14        .000000000000
G12  20423044.094 8 107323828.004 8     -1208.277          51.000    20423042.945 8  83628954.997 8      -941.515          51.000
G24  22128249.430 7 116284759.892 7     -2932.250          47.000    22128253.719 8  90611482.374 8     -2284.870          48.000
G29  22114852.719 7 116214336.256 7      3083.387          47.000    22114852.734 7  90556616.782 7      2402.639          47.000
R09  19483094.102 6 104038618.902 6       816.250          40.000    19483090.727 5  80918910.978 5       634.861          34.000
R16  21871792.484 5 116835144.915 5     -2789.484          32.000
R19  19748286.641 6 105639998.879 6       442.590          41.000    19748287.594 7  82164474.911 7       344.237          44.000
C11  22985330.203 5 119690673.022 5     -1329.789          31.000    22985332.555 5  92552372.975 5     -1028.214          30.000
C23  21894358.328 8 114009686.447 8      -411.852          51.000
C25  24594988.383 5 128072560.010 5     -2597.559          32.000
C28  23577588.188 8 122774666.745 8      2979.836          49.000
E03  26841693.422 6 141054078.283 6     -2684.410          41.000    26841696.969 7 108080373.999 7     -2056.820          46.000
E11  23885950.172 7 125521515.531 7      1251.785          47.000    23885949.766 7  96178845.235 7       959.079          45.000
E25  23644423.367 8 124252278.812 8      -402.812          51.000    23644425.531 8  95206296.095 8      -308.684          51.000
E36  26324754.305 6 138337489.683 6      3128.742          40.000    26324760.359 7 105998866.268 7      2397.237          43.000
> 2020 05 03 10 12 30.0000000  0 14        .000000000000
G12  20429956.125 8 107360150.868 8     -1216.516          51.000    20429954.883 8  83657258.517 8      -947.934          51.000
G24  22145003.328 8 116372799.002 8     -2940.156          49.000    22145007.453 8  90680084.242 8     -2291.034          49.000
G29  22097266.367 8 116121921.897 8      3074.227          48.000    22097265.930 8  90484605.566 8      2395.501          48.000
R09  19478528.508 6 104014238.143 6       805.629          39.000    19478527.062 5  80899948.202 5       626.600          35.000
R16  21887473.758 4 116918954.831 4     -2797.102          28.000
R19  19745868.852 6 105627065.837 6       416.207          41.000    19745869.688 7  82154415.913 7       323.720          44.000
C11  22993019.047 5 119730707.007 5     -1341.789          31.000    22993019.570 5  92583329.839 5     -1038.605          31.000
C23  21896747.203 8 114022126.119 8      -420.730          51.000
C25  24609958.531 5 128150506.814 5     -2601.488          34.000
C28  23560430.438 8 122685320.401 8      2973.320          49.000
E03  26857014.062 6 141134590.733 6     -2686.293          40.000    26857019.008 7 108142065.366 7     -2058.463          45.000
E11  23878829.789 7 125484096.869 7      1239.805          47.000    23878829.172 7  96150173.803 7       950.046          45.000
E25  23646723.719 8 124264366.564 8      -406.324          51.000    23646725.742 8  95215558.119 8      -311.354          51.000
E36  26306888.961 6 138243600.659 6      3127.254          39.000    26306894.977 7 105926925.378 7      2396.270          43.000
> 2020 05 03 10 13  0.0000000  0 15        .000000000000
G12  20436931.180 8 107396805.187 8     -1226.113          51.000    20436929.945 8  83685820.320 8      -955.413          51.000
G24  22161817.523 8 116461153.753 8     -2949.137          49.000    22161820.719 8  90748932.022 8     -2298.032          49.000
G25  20285611.570 5 106601606.179 5       739.762          33.000
G29  22079749.547 8 116029868.512 8      3063.648          50.000    22079747.750 8  90412875.677 8      2387.262          50.000
G32  22163295.523 5 116468910.270 5      -451.219          34.000
R09  19474039.797 6 103990268.729 6       793.152          39.000    19474040.047 6  80881305.332 6       616.896          37.000
R19  19743615.391 6 105615010.672 6       388.523          40.000    19743616.016 7  82145039.692 7       302.185          43.000
C11  23000799.430 5 119771193.673 5     -1356.812          31.000    23000799.352 5  92614654.572 5     -1049.119          34.000
C23  21899203.367 8 114034915.537 8      -430.980          51.000
C25  24624968.680 5 128228656.788 5     -2607.004          34.000
C28  23543326.828 8 122596255.339 8      2965.359          49.000
E03  26872363.344 6 141215250.883 6     -2690.043          41.000    26872369.047 7 108203869.828 7     -2061.046          45.000
E11  23871793.203 7 125447119.306 7      1226.406          46.000    23871792.398 7  96121840.393 7       939.636          45.000
E25  23649060.992 8 124276648.054 8      -411.367          51.000    23649062.781 8  95224968.615 8      -315.239          51.000
E36  26289048.797 6 138149842.107 6      3124.047          39.000    26289054.734 7 105855084.490 7      2393.858          44.000
> 2020 05 03 10 13 30.0000000  0 14        .000000000000
G12  20443955.062 8 107433716.215 8     -1235.957          51.000    20443953.906 8  83714582.168 8      -963.083          51.000
G24  22178677.008 8 116549748.276 8     -2958.422          50.000    22178679.258 8  90817966.621 8     -2305.267          50.000
G25  20281417.344 5 106579594.054 5       727.621          32.000    20281420.352 5  83049017.409 5       566.977          34.000
G29  22062287.883 8 115938104.169 8      3052.598          51.000    22062285.320 8  90341371.051 8      2378.648          51.000
G32  22165915.562 5 116482689.956 5      -469.941          35.000    22165919.328 5  90765728.356 5      -366.191          35.000
R09  19469613.727 6 103966636.832 6       780.875          39.000    19469615.109 6  80862924.873 6       607.347          38.000
R19  19741511.867 6 105603758.475 6       360.258          41.000    19741512.336 7  82136288.013 7       280.201          43.000
C11  23008657.266 5 119812104.238 5     -1371.676          33.000    23008655.773 6  92646289.282 6     -1060.652          38.000
C23  21901712.438 8 114047981.903 8      -441.500          50.000
C28  23526263.234 8 122507400.172 8      2957.000          48.000
E03  26887726.555 6 141295982.643 6     -2693.734          41.000    26887732.344 7 108265729.205 7     -2063.890          46.000
E11  23864826.469 7 125410509.822 7      1212.711          45.000    23864825.633 7  96093788.974 7       929.187          45.000
E25  23651421.031 8 124289049.519 8      -416.773          51.000    23651422.484 8  95234471.031 8      -319.379          51.000
E36  26271218.758 6 138056142.028 6      3121.035          41.000    26271225.695 7 105783288.463 7      2391.413          44.000
> 2020 05 03 10 14  0.0000000  0 16        .000000000000
G12  20451035.539 8 107470924.606 8     -1246.582          51.000    20451034.352 8  83743575.732 8      -971.363          51.000
G24  22195589.633 8 116638622.795 8     -2968.605          51.000    22195590.883 8  90887219.403 8     -2313.199          51.000
G25  20277290.172 5 106557879.106 5       716.539          32.000    20277289.875 5  83032110.708 5       558.345          33.000
G29  22044889.406 8 115846672.182 8      3040.875          51.000    22044887.008 8  90270125.380 8      2369.513          51.000
G32  22168655.297 5 116497065.288 5      -489.668          30.000    22168658.695 4  90776929.886 4      -381.569          29.000
R09  19465258.969 6 103943386.039 6       767.211          37.000    19465262.234 6  80844840.939 6       596.720          37.000
R18  21922535.938 4 117023972.473 4     -3332.270          29.000    21922540.797 5  91018668.380 5     -2591.765          31.000
R19  19739566.445 6 105593351.788 6       331.461          40.000    19739566.984 7  82128193.944 7       257.803          44.000
C11  23016598.445 5 119853455.190 5     -1386.883          33.000    23016596.688 6  92678264.550 6     -1072.667          39.000
C23  21904282.492 8 114061366.734 8      -452.832          50.000
C25  24655072.492 5 128385410.968 5     -2618.773          33.000
C28  23509247.766 8 122418797.898 8      2947.770          48.000
E03  26903110.711 7 141376825.393 7     -2697.945          42.000    26903116.391 7 108327673.654 7     -2067.344          46.000
E11  23857937.836 7 125374310.825 7      1198.531          45.000    23857937.125 7  96066052.100 7       918.391          44.000
E25  23653811.703 8 124301612.626 8      -422.812          51.000    23653812.922 8  95244097.302 8      -323.961          51.000
E36  26253407.039 7 137962543.891 7      3116.988          44.000    26253415.055 7 105711570.467 7      2388.276          45.000
> 2020 05 03 10 14 30.0000000  0 15        .000000000000
G12  20458191.078 8 107508527.367 8     -1255.754          51.000    20458189.680 8  83772876.586 8      -978.510          51.000
G24  22212573.859 8 116727873.584 8     -2976.977          51.000    22212574.094 8  90956765.420 8     -2319.722          51.000
G29  22027572.727 8 115755671.990 8      3030.324          50.000    22027571.234 8  90199216.166 8      2361.292          50.000
G32  22171521.742 5 116512146.536 5      -508.262          34.000    22171523.500 5  90788698.793 5      -396.048          33.000
R09  19460995.102 6 103920617.393 6       755.422          38.000    19460998.188 6  80827131.966 6       587.550          36.000
R18  21941326.578 6 117124279.583 6     -3348.820          36.000    21941334.977 5  91096685.045 5     -2604.638          31.000
R19  19737797.742 6 105583890.134 6       303.941          40.000    19737798.250 7  82120834.869 7       236.399          45.000
C11  23024642.641 5 119895342.064 5     -1401.047          35.000    23024640.672 6  92710654.145 6     -1083.140          39.000
C23  21906932.797 8 114075167.550 8      -462.648          50.000
C25  24670191.438 6 128464126.543 6     -2623.988          36.000
C28  23492299.547 8 122330547.424 8      2939.922          48.000
E03  26918533.977 7 141457875.124 7     -2700.684          42.000    26918539.414 7 108389776.673 7     -2069.376          45.000
E11  23851146.188 7 125338621.234 7      1185.539          44.000    23851145.609 7  96038705.540 7       908.400          44.000
E25  23656251.852 8 124314435.541 8      -427.461          51.000    23656252.922 8  95253922.650 8      -327.526          51.000
E36  26235633.305 7 137869147.533 7      3114.117          46.000    26235641.773 7 105640007.068 7      2386.184          45.000
> 2020 05 03 10 15  0.0000000  0 17        .000000000000
G02  22976122.172 5 120740336.556 5       562.148          32.000
G12  20465389.836 8 107546357.146 8     -1268.250          51.000    20465388.242 8  83802354.340 8      -988.247          51.000
G24  22229597.430 8 116817332.236 8     -2988.852          51.000    22229597.422 8  91026473.429 8     -2328.975          51.000
G25  20269246.609 5 106515636.072 5       691.516          32.000    20269251.336 4  82999195.482 4       538.843          29.000
G29  22010306.523 8 115664939.500 8      3016.516          49.000    22010306.305 8  90128515.528 8      2350.532          49.000
G32  22174481.477 5 116527698.293 5      -530.055          35.000    22174487.125 6  90800816.927 6      -413.024          36.000
R09  19456790.242 6 103898162.928 6       739.844          39.000    19456792.367 6  80809667.402 6       575.431          36.000
R18  21960198.211 6 117225010.291 6     -3368.305          38.000    21960204.555 5  91175031.194 5     -2619.789          31.000
R19  19736173.797 6 105575204.284 6       273.152          40.000    19736174.742 7  82114079.214 7       212.452          46.000
C11  23032757.492 5 119937598.205 5     -1418.227          33.000    23032755.492 6  92743329.286 6     -1096.753          38.000
C23  21909631.297 8 114089219.696 8      -476.086          51.000
C25  24685326.648 5 128542942.823 5     -2632.320          31.000
C28  23475387.914 8 122242485.487 8      2928.801          49.000
E03  26933964.664 7 141538963.177 7     -2707.285          42.000    26933969.539 7 108451909.038 7     -2074.297          45.000
E11  23844420.031 7 125303275.281 7      1168.898          46.000    23844419.078 7  96011622.304 7       895.757          43.000
E25  23658709.719 8 124327351.808 8      -435.723          51.000    23658710.742 8  95263819.526 8      -333.827          51.000
E36  26217866.336 7 137775788.200 7      3107.820          47.000    26217874.758 7 105568472.036 7      2381.260          45.000
> 2020 05 03 10 15 30.0000000  0 15        .000000000000
G12  20472669.844 8 107584613.707 8     -1279.211          51.000    20472668.133 8  83832164.647 8      -996.785          51.000
G24  22246698.453 8 116907197.890 8     -2999.266          51.000    22246699.133 8  91096498.586 8     -2337.090          51.000
G25  20265340.289 5 106495081.981 5       679.723          31.000
G29  21993129.586 8 115574676.860 8      3003.957          49.000    21993130.344 8  90058180.996 8      2340.746          49.000
R09  19452682.531 6 103876228.539 6       725.301          37.000    19452685.094 6  80792607.309 6       564.123          36.000
R18  21979186.086 6 117326364.324 6     -3385.484          38.000    21979189.422 4  91253862.113 4     -2633.155          29.000
R19  19734733.273 6 105567498.162 6       243.770          40.000    19734734.453 7  82108085.540 7       189.595          47.000
C11  23040979.992 5 119980420.608 5     -1434.098          35.000    23040978.586 6  92776442.334 6     -1108.787          40.000
C23  21912416.398 8 114103722.390 8      -487.934          51.000
C25  24700516.258 4 128622072.947 4     -2638.336          29.000
C28  23458551.547 8 122154812.772 8      2919.004          50.000
E03  26949440.617 7 141620288.043 7     -2711.715          42.000    26949444.961 7 108514222.863 7     -2077.790          44.000
E11  23837797.953 7 125268474.506 7      1153.852          47.000    23837795.438 7  95984956.813 7       884.168          42.000
E25  23661223.484 8 124340562.254 8      -442.141          51.000    23661224.539 8  95273941.810 8      -338.774          51.000
E36  26200145.117 8 137682668.422 8      3103.074          48.000    26200152.984 7 105497120.559 7      2377.501          46.000
> 2020 05 03 10 16  0.0000000  0 15        .000000000000
G12  20479989.523 8 107623078.788 8     -1286.793          51.000    20479987.812 8  83862137.426 8     -1002.696          51.000
G24  22263835.422 8 116997252.552 8     -3006.117          50.000    22263836.562 8  91166671.012 8     -2342.432          50.000
G25  20261479.992 6 106474790.288 6       670.730          37.000    20261482.625 6  82967375.710 6       522.641          37.000
G29  21976001.562 8 115484668.651 8      2994.855          50.000    21976002.367 8  89988044.735 8      2333.654          50.000
G32  22180770.672 5 116560745.081 5      -566.684          32.000
R09  19448631.031 6 103854594.550 6       715.141          37.000    19448633.734 5  80775780.900 5       556.224          35.000
