     3.02           OBSERVATION DATA    M (MIXED)           RINEX VERSION / TYPE
SAVERINEX           SC600               20200518 095932 LCL PGM / RUN BY / DATE
       G = GPS       R = GLONASS       C = COMPASS          COMMENT
       S = SBAS      J = QZSS          E = GALILEO          COMMENT
BEAN                                                        MARKER NAME
1                                                           MARKER NUMBER
GEODETIC                                                    MARKER TYPE
Unige DICCA         GTER                                    OBSERVER / AGENCY
SC60291900056       SC600               2.12(191202)        REC # / TYPE / VERS
                    HEMA45          NONE                    ANT # / TYPE
  4509407.8091   693652.4678  4442337.6214                  APPROX POSITION XYZ
        0.0000        0.0000        0.0000                  ANTENNA: DELTA H/E/N
G    8 C1C L1C D1C S1C C2Y L2Y D2Y S2Y                      SYS / # / OBS TYPES
R    8 C1C L1C D1C S1C C2P L2P D2P S2P                      SYS / # / OBS TYPES
C    8 C1I L1I D1I S1I C7I L7I D7I S7I                      SYS / # / OBS TYPES
E    8 C1C L1C D1C S1C C7Q L7Q D7Q S7Q                      SYS / # / OBS TYPES
DBHZ                                                        COMMENT
     30.000                                                 INTERVAL
  2020    05    18    07    00    0.0000000     GPS         TIME OF FIRST OBS
  2020    05    18    07    59   30.0000000     GPS         TIME OF LAST OBS
     0                                                      RCV CLOCK OFFS APPL
G L1C  0.00000                                              SYS / PHASE SHIFT
G L2Y  0.00000                                              SYS / PHASE SHIFT
R L1C  0.00000                                              SYS / PHASE SHIFT
R L2P  0.25000                                              SYS / PHASE SHIFT
C L1I  0.00000                                              SYS / PHASE SHIFT
C L7I  0.00000                                              SYS / PHASE SHIFT
E L1C  0.50000                                              SYS / PHASE SHIFT
E L7Q -0.25000                                              SYS / PHASE SHIFT
 13 R02 -4 R03  5 R04  6 R05  1 R10 -5 R12 -1 R13 -2 R14 -7 GLONASS SLOT / FRQ #
    R15  0 R17  4 R18 -3 R22 -3 R23  3                      GLONASS SLOT / FRQ #
 C1C   71.950 C2C   71.950 C2P   71.950                     GLONASS COD/PHS/BIS
    18                                                      LEAP SECONDS
*** Above antenna height is from mark to ANTENNA BOTTOM.    COMMENT
    17     4        0.0000        ANT MEASURE TYPE/HEIGT    COMMENT
    0.0000    0.0000    0.0458    0.0405    0.0000          COMMENT
                    BASE STATION                            COMMENT
                                                            END OF HEADER
> 2020 05 18 07 00  0.0000000  0 15        .000000000000
G12  21047230.039 8 110603947.434 8      2190.637          50.000    21047228.859 8  86184893.845 8      1706.987          50.000
G13  23864746.188 6 125409984.031 6     -3732.082          39.000    23864745.859 4  97722157.184 4     -2908.110          28.000
G15  22342346.250 8 117409797.780 8     -3175.770          51.000    22342346.258 8  91488152.479 8     -2474.626          51.000
G24  20188486.703 8 106091210.077 8       448.645          51.000    20188488.383 8  82668471.244 8       349.593          51.000
G25  23400610.344 7 122971022.003 7      3292.152          44.000    23400613.656 7  95821587.042 7      2565.314          43.000
R05  20853489.508 8 111473870.989 8     -2947.992          50.000    20853494.156 7  86701894.331 7     -2292.883          47.000
R15  19633982.312 6 104918072.596 6      -312.648          38.000    19633983.086 4  81602934.235 4      -243.174          29.000
R17  21795431.867 5 116631754.504 5      3281.953          35.000    21795438.742 5  90713604.771 5      2552.627          31.000
R23  23351626.305 4 124915357.014 4     -2728.359          29.000
C12  24223238.086 7 126136831.160 7      2931.281          45.000    24223239.383 8  97536961.285 8      2266.882          50.000
C24  21999388.875 8 114556542.396 8      -496.051          51.000
C25  23586520.008 5 122821208.364 5      2043.363          30.000
C26  24227572.852 5 126159331.977 5     -2357.656          31.000
E21  24168213.039 6 127004819.206 6      1105.695          39.000    24168215.711 6  97315379.646 6       847.422          40.000
E27  23837571.727 8 125267287.740 8     -1220.488          51.000    23837574.180 8  95984025.929 8      -935.221          51.000
> 2020 05 18 07 00 30.0000000  0 15        .000000000000
G12  21034793.008 8 110538591.726 8      2169.223          50.000    21034791.836 8  86133967.325 8      1690.303          50.000
G13  23886099.070 6 125522193.489 6     -3745.203          38.000    23886098.539 5  97809593.130 5     -2918.343          30.000
G15  22360535.547 8 117505379.852 8     -3193.602          51.000    22360535.664 8  91562631.978 8     -2488.521          51.000
G19  21559202.250 5 113294364.071 5      -142.590          33.000
G24  20185993.219 8 106078106.469 8       427.727          51.000    20185995.039 8  82658260.630 8       333.293          51.000
G25  23381866.641 7 122872523.864 7      3277.094          44.000    23381870.445 7  95744835.263 7      2553.580          45.000
R05  20870121.461 8 111562774.562 8     -2976.121          50.000    20870126.141 8  86771041.482 8     -2314.764          48.000
R14  21988224.609 5 117209599.125 5     -2779.148          30.000
R15  19635799.898 5 104927785.628 5      -332.543          31.000    19635802.664 5  81610488.846 5      -258.638          30.000
R17  21777107.977 5 116533702.148 5      3256.762          33.000    21777115.328 4  90637341.651 4      2533.031          28.000
C12  24206401.430 7 126049161.174 7      2915.805          43.000    24206402.984 8  97469169.274 8      2254.691          50.000
C24  22002300.750 8 114571704.858 8      -511.977          51.000
C26  24241197.625 5 126230258.878 5     -2368.223          32.000
E21  24161948.906 6 126971904.322 6      1091.273          37.000    24161952.383 6  97290159.125 6       836.018          40.000
E27  23844585.016 8 125304142.698 8     -1233.715          51.000    23844587.570 8  96012265.416 8      -945.326          51.000
> 2020 05 18 07 01  0.0000000  0 12        .000000000000
G12  21022452.875 8 110473743.836 8      2152.133          51.000    21022452.328 8  86083436.540 8      1676.990          51.000
G13  23907500.211 6 125634654.461 6     -3753.309          39.000    23907499.242 5  97897213.005 5     -2924.665          33.000
G15  22378800.258 8 117601359.331 8     -3206.883          51.000    22378800.273 8  91637421.150 8     -2498.873          51.000
G19  21560092.891 5 113299058.891 5      -173.117          33.000
G24  20183593.578 8 106065496.118 8       411.082          51.000    20183595.320 8  82648434.381 8       320.324          51.000
G25  23363182.859 7 122774340.105 7      3266.613          45.000    23363187.109 7  95668328.464 7      2545.413          45.000
R05  20886885.500 8 111652385.082 8     -2999.711          50.000    20886890.352 7  86840738.526 7     -2333.109          47.000
R17  21758896.719 5 116436287.250 5      3237.520          31.000
C12  24189629.125 7 125961829.687 7      2904.367          43.000    24189631.836 8  97401639.010 8      2245.859          50.000
C24  22005278.672 8 114587211.127 8      -523.582          51.000
E21  24155742.047 6 126939293.835 6      1080.711          38.000    24155746.344 6  97265171.763 6       828.257          39.000
E27  23851647.914 8 125341258.266 8     -1242.508          51.000    23851650.672 8  96040704.598 8      -952.069          51.000
> 2020 05 18 07 01 30.0000000  0 14        .000000000000
G12  21010170.453 8 110409198.948 8      2147.113          51.000    21010170.844 8  86033141.837 8      1673.075          51.000
G13  23928909.586 6 125747159.053 6     -3750.375          41.000    23928908.523 4  97984878.992 4     -2922.364          27.000
G15  22397100.820 8 117697528.638 8     -3208.051          51.000    22397100.516 8  91712358.239 8     -2499.783          51.000
G24  20181248.695 8 106053174.220 8       406.598          50.000    20181250.594 8  82638832.881 8       316.829          51.000
G25  23344520.047 7 122676266.181 7      3268.008          45.000    23344524.836 7  95591907.260 7      2546.500          45.000
R05  20903741.641 8 111742488.859 8     -3010.879          51.000    20903746.070 7  86910819.238 7     -2341.795          46.000
R14  22019535.938 5 117376482.805 5     -2782.152          35.000    22019530.938 4  91292831.765 4     -2163.890          25.000
R15  19639639.469 5 104948272.887 5      -348.762          31.000
R17  21740756.977 6 116339219.228 6      3229.734          36.000    21740763.445 4  90486044.591 4      2512.016          29.000
R24  21799173.789 5 116569932.506 5      -222.199          35.000
C12  24172884.125 7 125874635.395 7      2904.695          45.000    24172887.312 8  97334214.877 8      2246.264          51.000
C24  22008283.391 8 114602857.179 8      -523.188          51.000
E21  24149555.641 6 126906781.451 6      1082.887          41.000    24149558.539 6  97240259.685 6       829.628          38.000
E27  23858721.062 8 125378427.915 8     -1239.207          51.000    23858724.117 8  96069185.220 8      -949.534          51.000
> 2020 05 18 07 02  0.0000000  0 14        .000000000000
G12  20997968.562 8 110345077.044 8      2129.434          51.000    20997968.906 8  85983176.711 8      1659.299          51.000
G13  23950349.492 6 125859824.276 6     -3759.211          40.000    23950347.852 3  98072669.974 3     -2929.258          20.000
G15  22415459.398 8 117794004.000 8     -3221.789          50.000    22415458.664 8  91787533.805 8     -2510.485          50.000
G24  20178981.523 8 106041261.023 8       389.414          50.000    20178983.555 8  82629549.869 8       303.440          50.000
G25  23325901.055 7 122578422.486 7      3256.734          45.000    23325906.219 7  95515665.434 7      2537.715          45.000
R05  20920712.469 8 111833203.639 8     -3034.863          51.000    20920715.062 7  86981375.159 7     -2360.449          43.000
R15  19641644.836 5 104958999.899 5      -364.508          32.000
R17  21722711.164 5 116242666.945 5      3208.973          34.000
R24  21800516.516 5 116577149.098 5      -253.691          32.000
C12  24156189.914 7 125787699.063 7      2892.598          47.000    24156192.078 8  97266990.240 8      2236.803          49.000
C14  25485541.125 5 132709863.771 5     -3194.762          31.000
C24  22011337.609 8 114618761.216 8      -535.328          51.000
E21  24143411.422 7 126874486.426 7      1071.840          42.000    24143412.062 6  97215514.151 6       821.145          37.000
E27  23865827.102 8 125415770.328 8     -1248.566          51.000    23865830.406 8  96097798.214 8      -956.679          51.000
> 2020 05 18 07 02 30.0000000  0 15        .000000000000
G12  20985844.195 8 110281362.923 8      2116.977          50.000    20985842.898 8  85933529.334 8      1649.592          49.000
G13  23971816.695 6 125972632.013 6     -3762.527          40.000    23971815.297 5  98160572.089 5     -2931.843          33.000
G15  22433872.625 8 117890767.023 8     -3230.250          50.000    22433871.586 8  91862933.537 8     -2517.078          50.000
G17  22986810.586 5 120796508.987 5     -1899.090          32.000
G24  20176789.258 8 106029741.316 8       377.441          50.000    20176791.430 8  82620573.470 8       294.110          50.000
G25  23307322.969 7 122480794.122 7      3250.680          45.000    23307328.234 7  95439591.410 7      2533.000          45.000
R05  20937793.062 8 111924508.586 8     -3053.297          51.000    20937793.227 7  87052390.059 7     -2374.789          42.000
R14  22050927.102 5 117543852.112 5     -2793.730          35.000
R15  19643715.281 5 104970083.848 5      -373.535          33.000
R17  21704762.648 5 116146618.526 5      3193.336          33.000    21704766.828 4  90336229.583 4      2483.706          29.000
C12  24139543.000 7 125701007.277 7      2885.727          47.000    24139543.609 8  97199954.701 8      2231.424          49.000
C14  25503942.688 5 132805673.308 5     -3193.895          30.000    25503940.578 5 102693793.121 5     -2470.420          32.000
C24  22014438.391 8 114634907.213 8      -542.219          51.000
E21  24137305.414 7 126842392.426 7      1066.504          43.000    24137304.445 5  97190922.659 5       817.060          35.000
E27  23872962.875 8 125453268.767 8     -1252.586          51.000    23872966.188 8  96126530.771 8      -959.786          51.000
> 2020 05 18 07 03  0.0000000  0 17        .000000000000
G12  20973778.078 8 110217955.916 8      2117.496          49.000    20973776.203 8  85884121.295 8      1650.000          49.000
G13  23993291.625 6 126085478.619 6     -3752.754          36.000    23993289.609 4  98248504.459 4     -2924.227          29.000
G15  22452320.922 8 117987713.970 8     -3225.445          50.000    22452320.203 8  91938476.589 8     -2513.334          50.000
G17  22997695.938 5 120853679.268 5     -1900.559          35.000
G24  20174652.703 8 106018514.233 8       378.434          51.000    20174655.141 8  82611825.084 8       294.883          51.000
G25  23288766.766 7 122383280.885 7      3257.711          45.000    23288771.461 7  95363607.110 7      2538.476          45.000
R05  20954964.219 8 112016297.147 8     -3058.328          51.000    20954963.531 7  87123781.100 7     -2378.703          43.000
R14  22066650.648 5 117627610.893 5     -2783.105          35.000    22066663.750 4  91488240.777 4     -2164.638          27.000
R15  19645823.562 5 104981357.720 5      -369.875          32.000
R17  21686889.336 6 116050975.079 6      3190.672          37.000    21686893.547 4  90261840.294 4      2481.634          29.000
R24  21803633.023 5 116593755.968 5      -293.031          33.000    21803639.039 5  90684105.269 5      -227.913          30.000
C12  24122924.102 7 125614462.169 7      2891.395          47.000    24122923.656 8  97133032.571 8      2235.855          49.000
C14  25522331.945 5 132901419.255 5     -3180.883          31.000    25522327.562 5 102767829.919 5     -2460.382          31.000
C24  22017566.234 8 114651194.736 8      -536.254          51.000
C25  23516582.219 5 122457059.410 5      2022.762          34.000
E21  24131217.961 7 126810397.945 7      1073.965          43.000    24131216.688 5  97166407.496 5       822.726          35.000
E27  23880108.977 8 125490821.261 8     -1243.465          51.000    23880112.023 8  96155304.742 8      -952.776          51.000
> 2020 05 18 07 03 30.0000000  0 16        .000000000000
G12  20961780.805 8 110154910.550 8      2089.773          50.000    20961780.469 8  85834995.054 8      1628.395          50.000
G15  22470813.977 8 118084896.165 8     -3249.004          50.000    22470813.797 8  92014202.972 8     -2531.691          49.000
G17  23008639.250 5 120911216.366 5     -1929.086          31.000    23008639.797 4  94216523.056 4     -1503.181          24.000
G19  21566432.148 5 113332351.304 5      -279.523          34.000
G24  20172582.336 8 106007634.375 8       351.160          51.000    20172584.852 8  82603347.264 8       273.631          51.000
G25  23270242.812 7 122285934.899 7      3236.383          45.000    23270244.695 7  95287752.459 7      2521.860          45.000
R05  20972235.312 8 112108620.212 8     -3092.012          51.000    20972235.281 7  87195587.885 7     -2404.901          45.000
R15  19647983.234 5 104992841.259 5      -395.324          32.000
R17  21669102.406 6 115955796.290 6      3159.059          38.000    21669108.219 5  90187812.360 5      2457.049          31.000
C12  24106343.742 7 125528119.709 7      2868.875          47.000    24106342.828 8  97066267.169 8      2218.463          49.000
C14  25540717.797 5 132997152.738 5     -3196.320          32.000    25540710.172 5 102841857.138 5     -2472.024          31.000
C24  22020731.297 8 114667677.163 8      -558.227          51.000
C25  23504997.289 5 122396733.112 5      2003.809          34.000
C26  24323343.562 5 126658060.892 5     -2387.562          30.000
E21  24125159.141 7 126778556.679 7      1053.008          42.000    24125158.391 6  97142009.684 6       806.751          36.000
E27  23887275.414 8 125528481.042 8     -1262.879          51.000    23887278.156 8  96184160.918 8      -967.660          51.000
> 2020 05 18 07 04  0.0000000  0 14        .000000000000
G12  20949880.273 8 110092371.725 8      2063.984          51.000    20949881.336 8  85786263.512 8      1608.303          51.000
G15  22489378.641 8 118182455.373 8     -3270.316          49.000    22489379.297 8  92090223.142 8     -2548.298          49.000
G19  21568088.078 4 113341067.758 4      -314.160          28.000
G24  20170605.727 8 105997246.684 8       325.918          51.000    20170608.023 8  82595252.953 8       253.962          51.000
G25  23251779.523 7 122188917.841 7      3216.832          46.000
R05  20989632.320 8 112201619.692 8     -3123.535          51.000    20989634.031 7  87267920.793 7     -2429.419          45.000
R15  19650226.000 5 105004820.727 5      -418.602          30.000
R17  21651430.820 5 115861233.075 5      3129.723          34.000    21651434.453 4  90114263.191 4      2434.229          26.000
C12  24089829.953 7 125442125.269 7      2848.590          46.000    24089828.031 7  96999770.852 7      2202.725          47.000
C14  25559128.906 5 133093014.043 5     -3210.234          30.000    25559117.211 5 102915983.163 5     -2481.686          32.000
C24  22023961.367 8 114684497.206 8      -578.281          51.000
C25  23493460.984 5 122336650.201 5      1986.645          30.000
E21  24119156.281 6 126747012.423 6      1034.441          41.000    24119157.047 6  97117839.485 6       792.462          38.000
E27  23894489.484 8 125566391.566 8     -1280.016          51.000    23894491.984 8  96213209.232 8      -980.836          51.000
> 2020 05 18 07 04 30.0000000  0 14        .000000000000
G12  20938055.023 8 110030229.332 8      2078.230          51.000    20938056.172 8  85737840.898 8      1619.400          51.000
G15  22507993.602 8 118280278.312 8     -3251.664          48.000    22507994.859 8  92166448.805 8     -2533.764          49.000
G24  20168701.742 8 105987240.534 8       340.609          51.000    20168703.891 8  82587455.962 8       265.410          51.000
G25  23233355.195 8 122092098.659 8      3237.305          48.000    23233356.906 8  95136703.145 8      2522.575          48.000
R05  21007133.445 8 112295179.123 8     -3114.301          51.000    21007136.406 7  87340689.206 7     -2422.234          45.000
R15  19652528.719 5 105017113.325 5      -401.562          32.000
R17  21633853.727 5 115767177.522 5      3140.254          31.000    21633858.180 5  90041108.879 5      2442.423          30.000
R24  21809448.844 4 116624818.766 4      -372.414          29.000    21809446.422 4  90708267.010 4      -289.649          28.000
C12  24073361.766 7 125356371.700 7      2867.723          44.000    24073357.234 6  96933460.802 6      2217.442          41.000
C14  25577542.625 4 133188974.322 4     -3182.781          27.000    25577528.664 5 102990121.457 5     -2461.180          32.000
C24  22027235.273 8 114701545.170 8      -558.797          51.000
C25  23481952.820 5 122276701.358 5      2009.801          31.000
E21  24113188.703 6 126715654.454 6      1055.504          39.000    24113191.258 6  97093811.916 6       808.870          40.000
E27  23901730.000 8 125604441.545 8     -1257.242          51.000    23901732.531 8  96242364.395 8      -963.344          51.000
> 2020 05 18 07 05  0.0000000  0 14        .000000000000
G12  20926345.320 8 109968695.251 8      2050.234          50.000    20926344.719 8  85689892.313 8      1597.588          50.000
G15  22526698.703 8 118378573.537 8     -3275.113          50.000    22526700.133 8  92243042.477 8     -2552.039          50.000
G24  20166910.844 8 105977828.735 8       313.156          51.000    20166912.852 8  82580122.078 8       244.018          51.000
G25  23215010.469 8 121995695.111 8      3215.676          48.000    23215012.352 8  95061583.541 8      2505.721          48.000
R05  21024779.469 8 112389509.101 8     -3147.719          50.000    21024782.445 7  87414056.901 7     -2448.229          45.000
R14  22129785.273 5 117964154.070 5     -2811.438          34.000    22129795.047 5  91749915.226 5     -2186.674          30.000
R15  19654929.758 5 105029984.925 5      -427.141          30.000
R17  21616411.000 6 115673848.449 6      3108.137          38.000    21616417.977 5  89968519.733 5      2417.440          32.000
C12  24056979.398 7 125271070.736 7      2845.047          43.000    24056971.695 6  96867500.672 6      2199.853          37.000
C14  25596002.352 4 133285103.221 4     -3197.195          28.000    25595983.969 4 103064431.973 4     -2472.356          27.000
C24  22030593.102 8 114719030.163 8      -580.938          51.000
C25  23470509.438 4 122217100.942 4      1990.316          29.000
E21  24107295.750 6 126684693.625 6      1034.648          38.000    24107300.508 6  97070088.609 6       792.753          41.000
E27  23909037.133 8 125642841.439 8     -1276.508          51.000    23909039.922 8  96271787.687 8      -978.145          51.000
> 2020 05 18 07 05 30.0000000  0 13        .000000000000
G12  20914652.602 8 109907250.423 8      2048.379          50.000    20914651.344 8  85642013.252 8      1596.142          50.000
G13  24101081.219 5 126652039.022 5     -3776.379          34.000
G15  22545394.609 8 118476818.966 8     -3272.277          50.000    22545395.898 8  92319597.331 8     -2549.830          50.000
G24  20165134.148 8 105968491.794 8       311.703          51.000    20165136.031 8  82572846.528 8       242.883          51.000
G25  23196646.281 8 121899196.150 8      3220.078          48.000    23196647.648 8  94986385.663 8      2509.149          48.000
R05  21042469.672 8 112484077.091 8     -3154.625          48.000    21042473.562 7  87487609.748 7     -2453.600          46.000
R14  22145583.984 5 118048373.416 5     -2802.922          33.000    22145595.914 5  91815413.773 5     -2180.056          30.000
R17  21599007.352 6 115580721.557 6      3102.516          36.000    21599015.016 5  89896087.752 5      2413.068          32.000
C12  24040584.922 7 125185709.929 7      2847.969          42.000    24040578.242 6  96801494.289 6      2202.212          39.000
C24  22033936.039 8 114736437.230 8      -577.293          51.000
C25  23459033.836 4 122157344.219 4      1996.602          29.000
E21  24101381.000 6 126653609.916 6      1039.809          37.000    24101384.438 6  97046271.164 6       796.829          40.000
E27  23916311.867 8 125681070.934 8     -1269.805          51.000    23916315.016 8  96301080.409 8      -972.937          51.000
> 2020 05 18 07 06  0.0000000  0 13        .000000000000
G12  20903050.188 8 109846279.356 8      2034.543          50.000    20903050.156 8  85594503.334 8      1585.358          50.000
G13  24122701.289 5 126765652.560 5     -3779.156          34.000
G15  22564153.641 8 118575395.746 8     -3281.168          51.000    22564154.547 8  92396410.370 8     -2556.754          51.000
G24  20163444.852 8 105959614.053 8       298.281          51.000    20163446.727 8  82565928.806 8       232.427          51.000
G25  23178336.367 8 121802976.497 8      3212.582          48.000    23178337.141 7  94911409.336 7      2503.314          47.000
R05  21060276.930 8 112579269.055 8     -3173.164          50.000    21060281.812 7  87561647.952 7     -2468.016          46.000
R14  22161422.148 4 118132809.214 4     -2807.992          27.000
R17  21581713.156 4 115488191.681 4      3085.012          28.000    21581723.156 5  89824120.207 5      2399.460          31.000
C12  24024253.516 7 125100671.980 7      2839.246          45.000    24024248.531 7  96735737.549 7      2195.485          43.000
C24  22037336.867 8 114754146.431 8      -585.422          51.000
C26  24392343.375 4 127017332.054 4     -2393.082          29.000
E21  24095516.070 6 126622786.579 6      1033.043          39.000    24095516.414 6  97022653.350 6       791.463          38.000
E27  23923627.141 8 125719513.020 8     -1274.906          51.000    23923630.477 8  96330536.025 8      -976.876          51.000
> 2020 05 18 07 06 30.0000000  0 11        .000000000000
G12  20891560.109 8 109785897.782 8      2010.496          51.000    20891560.859 8  85547452.775 8      1566.623          51.000
G13  24144379.039 6 126879567.483 6     -3794.297          36.000
G15  22582997.000 8 118674416.333 8     -3300.410          51.000    22582997.508 8  92473569.239 8     -2571.748          51.000
G24  20161864.891 8 105951311.035 8       274.781          51.000    20161866.836 8  82559458.914 8       214.115          51.000
G25  23160102.547 7 121707157.412 7      3194.930          47.000    23160103.781 7  94836745.167 7      2489.556          47.000
R05  21078223.305 8 112675197.902 8     -3202.109          51.000    21078227.695 7  87636259.222 7     -2490.530          46.000
R17  21564559.703 5 115396324.654 5      3055.648          33.000    21564560.969 5  89752696.055 5      2376.612          30.000
C12  24008006.961 7 125016073.392 7      2820.031          44.000    24008003.750 7  96670320.546 7      2180.663          46.000
C24  22040817.547 8 114772271.820 8      -603.586          51.000
E21  24089722.805 6 126592338.776 6      1016.125          40.000    24089720.312 6  96999323.213 6       778.586          37.000
E27  23931004.688 8 125758282.219 8     -1290.086          51.000    23931008.047 8  96360242.290 8      -988.540          51.000
> 2020 05 18 07 07  0.0000000  0 14        .000000000000
G12  20880096.914 8 109725657.035 8      1997.531          51.000    20880097.062 8  85500511.963 8      1556.518          51.000
G13  24166027.273 5 126993330.531 5     -3797.184          32.000    24166016.969 4  98955799.550 4     -2958.844          28.000
G15  22601838.664 8 118773429.056 8     -3308.426          50.000    22601838.688 8  92550721.976 8     -2577.997          50.000
G19  21580628.844 5 113407020.908 5      -432.914          32.000
G24  20160308.992 8 105943134.721 8       262.262          51.000    20160310.961 8  82553087.756 8       204.363          51.000
G25  23141859.453 7 121611290.898 7      3187.992          46.000    23141861.273 7  94762044.004 7      2484.150          46.000
R05  21096221.445 8 112771402.700 8     -3219.719          51.000    21096224.953 7  87711085.100 7     -2504.229          47.000
R14  22193184.656 5 118302139.133 5     -2825.203          30.000    22193184.633 4  92012792.801 4     -2197.380          26.000
R17  21547454.898 6 115304779.141 6      3038.879          39.000    21547457.797 5  89681493.575 5      2363.576          34.000
C12  23991759.656 7 124931471.683 7      2811.969          43.000    23991759.242 8  96604901.199 8      2174.396          51.000
C24  22044292.664 8 114790368.290 8      -610.852          51.000
C26  24420086.414 5 127161748.989 5     -2409.438          31.000
E21  24083914.977 6 126561817.034 6      1010.375          37.000    24083912.641 6  96975936.450 6       774.573          37.000
E27  23938358.961 8 125796928.753 8     -1294.281          51.000    23938362.172 8  96389854.562 8      -991.746          51.000
> 2020 05 18 07 07 30.0000000  0 15        .000000000000
G12  20868744.898 8 109666000.304 8      1982.859          51.000    20868744.211 8  85454026.237 8      1545.085          51.000
G13  24187730.328 6 127107385.733 6     -3802.086          36.000
G15  22620762.227 8 118872873.877 8     -3318.035          49.000    22620761.641 8  92628211.397 8     -2585.482          50.000
G19  21583170.195 6 113420384.092 6      -455.621          36.000    21583171.734 6  88379474.970 6      -355.029          36.000
G24  20158861.492 8 105935528.109 8       248.113          51.000    20158863.422 8  82547160.517 8       193.335          51.000
G25  23123691.508 7 121515820.508 7      3179.734          46.000    23123694.148 7  94687651.496 7      2477.715          46.000
R05  21114353.469 8 112868329.188 8     -3238.777          48.000    21114357.461 7  87786472.327 7     -2519.052          47.000
R14  22209104.500 5 118386992.342 5     -2828.504          30.000    22209109.719 4  92078790.665 4     -2199.947          28.000
R17  21530483.375 6 115213954.266 6      3019.473          39.000    21530486.133 5  89610852.026 5      2348.482          33.000
C12  23975596.641 7 124847307.807 7      2801.984          44.000    23975599.055 8  96539820.396 8      2166.826          51.000
C24  22047846.422 8 114808874.194 8      -619.691          51.000
C25  23413468.531 4 121920106.736 4      1966.500          28.000
C26  24433987.273 5 127234151.526 5     -2413.953          31.000
E21  24078175.859 5 126531668.508 5      1002.828          33.000    24078176.406 6  96952831.943 6       768.670          36.000
E27  23945774.008 8 125835894.392 8     -1300.145          51.000    23945777.047 8  96419711.338 8      -996.182          51.000
> 2020 05 18 07 08  0.0000000  0 13        .000000000000
G12  20857469.344 8 109606746.056 8      1970.395          51.000    20857468.391 8  85407854.112 8      1535.372          51.000
G13  24209453.195 6 127221546.555 6     -3804.918          37.000    24209456.930 4  99133678.137 4     -2964.871          26.000
G15  22639732.734 8 118972566.013 8     -3325.133          49.000    22639731.203 8  92705893.539 8     -2591.013          49.000
G19  21585839.234 5 113434349.115 5      -476.980          30.000    21585838.203 5  88390405.233 5      -371.673          31.000
G24  20157487.859 8 105928309.671 8       236.176          51.000    20157489.742 8  82541535.754 8       184.033          51.000
G25  23105564.766 7 121420565.103 7      3173.488          47.000    23105567.531 7  94613426.545 7      2472.851          47.000
R05  21132583.938 8 112965787.904 8     -3255.461          48.000    21132589.148 7  87862273.579 7     -2532.025          47.000
R14  22225033.875 5 118471948.212 5     -2831.469          30.000    22225050.945 5  92144866.788 5     -2202.263          30.000
R17  21513608.922 5 115123668.661 5      3002.605          32.000    21513615.797 5  89540630.000 5      2335.369          32.000
C12  23959484.023 7 124763403.810 7      2794.348          45.000    23959488.453 8  96474940.535 8      2160.782          51.000
C24  22051444.297 8 114827609.012 8      -626.336          51.000
E21                                                                  24072475.984 6  96929869.921 6       764.501          36.000
E27  23953214.953 8 125874996.400 8     -1303.742          51.000    23953218.031 8  96449672.613 8      -998.992          51.000
> 2020 05 18 07 08 30.0000000  0 13        .000000000000
G12  20846258.641 8 109547834.581 8      1956.559          50.000    20846257.914 8  85361949.068 8      1524.591          50.000
G13  24231184.336 5 127335750.941 5     -3808.652          35.000
G15  22658738.398 8 119072442.989 8     -3333.891          49.000    22658736.086 8  92783719.698 8     -2597.837          49.000
G19  21588622.734 6 113448974.271 6      -498.809          38.000    21588621.641 6  88401799.775 6      -388.688          36.000
G24  20156176.727 8 105921419.588 8       222.605          51.000    20156178.516 8  82536166.851 8       173.459          51.000
G25  23087468.000 7 121325465.611 7      3165.867          47.000    23087470.078 7  94539323.089 7      2466.909          47.000
R05  21150902.805 8 113063713.390 8     -3273.410          50.000    21150908.617 7  87938437.858 7     -2545.986          47.000
R14  22240971.219 5 118556903.087 5     -2835.230          30.000
R17  21496825.219 5 115033865.580 5      2983.988          35.000    21496834.102 4  89470783.111 4      2320.871          24.000
C12  23943410.969 8 124679702.470 8      2785.227          48.000    23943416.008 8  96410217.365 8      2153.714          51.000
C24  22055074.750 8 114846513.052 8      -634.453          51.000
E21                                                                  24066799.578 6  96907003.972 6       759.538          38.000
E27  23960670.172 8 125914173.967 8     -1308.656          51.000    23960673.328 8  96479691.771 8     -1002.686          51.000
> 2020 05 18 07 09  0.0000000  0 13        .000000000000
G12  20835119.195 8 109489298.800 8      1945.363          50.000    20835118.367 8  85316336.791 8      1515.867          50.000
G13  24252928.016 5 127450009.745 5     -3808.824          33.000
G15  22677785.031 8 119172534.348 8     -3339.488          50.000    22677782.734 8  92861712.903 8     -2602.202          50.000
G19  21591525.406 6 113464226.619 6      -518.426          40.000    21591525.922 5  88413684.691 5      -403.971          30.000
G24  20154934.414 8 105914891.120 8       211.949          51.000    20154936.062 8  82531079.733 8       165.155          51.000
G25  23069407.164 7 121230555.201 7      3160.867          46.000    23069409.094 7  94465366.959 7      2463.013          46.000
R05  21169315.367 8 113162134.090 8     -3288.586          51.000    21169320.250 7  88014987.292 7     -2557.789          46.000
R17  21480141.273 6 114944582.155 6      2967.496          38.000
R24  21835081.984 5 116761893.132 5      -625.820          32.000
C12  23927383.859 8 124596238.088 8      2778.551          49.000    23927388.070 8  96345677.407 8      2148.503          51.000
C24  22058743.750 8 114865618.086 8      -639.832          51.000
E21  24061146.078 5 126442173.484 5       987.172          34.000    24061151.414 6  96884258.553 6       756.419          38.000
E27  23968145.680 8 125953458.598 8     -1310.941          51.000    23968148.797 8  96509792.967 8     -1004.512          51.000
> 2020 05 18 07 09 30.0000000  0 15        .000000000000
G12  20824057.750 8 109431170.959 8      1931.383          51.000    20824056.750 8  85271042.392 8      1504.974          51.000
G13  24274695.742 5 127564382.962 5     -3813.723          32.000
G15  22696878.055 8 119272869.213 8     -3347.941          50.000    22696876.375 8  92939895.886 8     -2608.786          50.000
G17  23146886.914 5 121637683.816 5     -2103.941          34.000
G19  21594553.750 5 113480138.897 5      -540.598          34.000    21594550.750 5  88426083.753 5      -421.245          33.000
G24  20153766.961 8 105908756.246 8       198.543          51.000    20153768.531 8  82526299.303 8       154.709          51.000
G25  23051388.445 7 121135866.738 7      3153.094          44.000    23051391.117 7  94391583.772 7      2456.956          44.000
R05  21187826.164 8 113261078.265 8     -3306.172          51.000    21187829.438 7  88091943.846 7     -2571.467          46.000
R17  21463561.586 6 114855854.399 6      2948.828          36.000
R24  21838672.703 5 116781100.881 5      -652.840          35.000
C12  23911408.617 8 124513044.568 8      2768.980          49.000    23911411.305 8  96281346.905 8      2141.239          51.000
C24  22062457.406 8 114884955.520 8      -647.898          51.000
C26  24489732.656 5 127524480.451 5     -2424.152          30.000
E21  24055534.594 6 126412677.652 6       980.500          36.000    24055537.211 6  96861657.801 6       751.310          39.000
E27  23975647.523 8 125992881.356 8     -1315.852          51.000    23975650.398 8  96540000.008 8     -1008.280          51.000
> 2020 05 18 07 10  0.0000000  0 16        .000000000000
G12  20813078.008 8 109373471.660 8      1915.168          51.000    20813077.391 8  85226081.907 8      1492.339          51.000
G15  22716020.711 8 119373464.968 8     -3358.582          50.000    22716019.938 8  93018282.162 8     -2617.077          49.000
G17  23158945.852 6 121701078.975 6     -2121.852          36.000    23158942.789 5  94832022.737 5     -1653.406          34.000
G19  21597710.922 6 113496730.301 6      -565.527          40.000    21597709.891 3  88439012.194 3      -440.680          23.000
G24  20152678.500 8 105903036.081 8       182.648          51.000    20152679.992 8  82521842.026 8       142.323          51.000
G25  23033415.930 7 121041421.311 7      3143.191          45.000    23033419.531 7  94317989.934 7      2449.237          45.000
R05  21206437.664 8 113360561.639 8     -3326.125          51.000    21206439.352 7  88169319.744 7     -2586.986          44.000
R15  19681759.617 5 105173413.714 5      -531.438          31.000    19681766.320 5  81801543.795 5      -413.340          31.000
R17  21447090.586 5 114767707.357 5      2927.832          33.000    21447096.406 4  89263784.263 4      2277.209          26.000
R24  21842416.961 5 116801132.434 5      -682.328          32.000
C12  23895488.641 7 124430144.301 7      2757.328          47.000    23895490.289 8  96217243.155 8      2132.168          51.000
C24  22066219.492 8 114904545.157 8      -658.301          51.000
C25  23357116.562 4 121626634.262 4      1942.832          29.000
C26  24503712.922 5 127597267.341 5     -2429.781          30.000
E21  24049961.188 6 126383390.431 6       971.723          37.000    24049963.766 6  96839216.944 6       744.501          41.000
E27  23983179.344 8 126032461.726 8     -1323.027          51.000    23983181.820 8  96570327.816 8     -1013.808          50.000
> 2020 05 18 07 10 30.0000000  0 16        .000000000000
G12  20802173.320 8 109316166.278 8      1903.316          51.000    20802172.711 8  85181428.343 8      1483.101          51.000
G15  22735205.969 8 119474284.310 8     -3364.746          51.000    22735205.961 8  93096842.661 8     -2621.880          51.000
G17  23171083.945 5 121764868.065 5     -2133.797          34.000    23171084.969 5  94881728.464 5     -1662.699          35.000
G19  21600990.984 6 113513965.868 6      -585.664          39.000    21600990.500 4  88452442.404 4      -456.349          28.000
G24  20151662.391 8 105897695.905 8       171.320          51.000    20151663.766 8  82517680.846 8       133.496          51.000
G25  23015483.641 7 120947184.952 7      3137.188          47.000    23015487.234 7  94244559.021 7      2444.565          47.000
R05  21225141.695 8 113460544.322 8     -3341.422          51.000    21225142.203 7  88247084.001 7     -2598.887          44.000
R14  22304945.234 5 118897842.580 5     -2848.578          32.000
R15  19684758.602 5 105189453.496 5      -539.949          34.000    19684764.109 4  81814019.170 4      -419.957          29.000
R17  21430722.133 6 114680109.706 6      2910.645          36.000    21430726.195 5  89195652.781 5      2263.835          31.000
R24  21846310.273 4 116822037.637 4      -707.949          28.000
C12  23879617.617 7 124347504.955 7      2749.805          46.000    23879619.414 8  96153341.172 8      2126.390          51.000
C24  22070022.930 8 114924352.210 8      -664.234          51.000
C25  23345927.562 4 121568358.766 4      1940.258          29.000
E21  24044420.688 6 126354276.534 6       967.301          39.000    24044423.469 6  96816908.889 6       741.295          41.000
E27  23990734.352 8 126072163.994 8     -1325.789          51.000    23990736.602 8  96600749.015 8     -1015.858          50.000
> 2020 05 18 07 11  0.0000000  0 13        .000000000000
G12  20791359.492 8 109259338.828 8      1888.184          51.000    20791358.219 8  85137147.204 8      1471.312          51.000
G15  22754449.273 8 119575407.909 8     -3373.914          51.000    22754449.555 8  93175640.241 8     -2629.024          51.000
G17  23183316.992 5 121829154.123 5     -2149.496          34.000    23183321.492 5  94931821.447 5     -1674.932          31.000
G19  21604409.148 5 113531927.369 5      -608.363          35.000    21604407.570 5  88466439.424 5      -474.040          31.000
G24  20150734.648 8 105892820.089 8       156.617          51.000    20150735.758 8  82513881.503 8       122.039          51.000
G25  22997607.312 7 120853242.081 7      3128.422          47.000    22997610.336 8  94171356.828 8      2437.731          48.000
R05  21243953.445 8 113561106.953 8     -3359.836          48.000    21243954.422 7  88325299.332 7     -2613.209          45.000
R15  19687831.227 6 105205874.817 6      -551.609          41.000    19687835.891 5  81826791.301 5      -429.030          30.000
R17  21414472.398 5 114593150.395 5      2889.641          35.000    21414474.773 5  89128017.863 5      2247.495          31.000
C12  23863812.234 7 124265211.770 7      2739.039          44.000    23863815.586 8  96089706.881 8      2118.192          48.000
C24  22073884.039 8 114944459.281 8      -673.320          51.000
E21  24038928.344 6 126325419.159 6       959.441          37.000    24038931.273 6  96794797.391 6       735.270          39.000
E27  23998328.398 8 126112071.010 8     -1331.641          51.000    23998330.812 8  96631327.106 8     -1020.453          50.000
> 2020 05 18 07 11 30.0000000  0 13        .000000000000
G12  20780609.703 8 109202849.085 8      1878.273          50.000    20780607.789 8  85093129.279 8      1463.593          50.000
G15  22773723.141 8 119676692.311 8     -3377.961          51.000    22773723.602 8  93254563.115 8     -2632.177          51.000
G19  21607939.055 6 113550473.901 6      -626.887          37.000    21607938.930 5  88480891.129 5      -488.486          31.000
G24  20149868.469 8 105888268.074 8       147.172          51.000    20149869.375 8  82510334.480 8       114.679          51.000
G25  22979760.312 7 120759453.038 7      3124.344          47.000    22979762.898 7  94098274.473 7      2434.554          47.000
R05  21262845.500 7 113662102.045 7     -3372.711          46.000    21262848.320 7  88403851.052 7     -2623.220          47.000
R15  19690948.336 7 105222534.136 7      -558.574          42.000    19690947.961 5  81839688.483 5      -434.447          30.000
R17  21398315.414 5 114506690.363 5      2874.719          35.000    21398317.086 5  89060771.194 5      2235.895          32.000
C12  23848048.016 7 124183127.664 7      2733.418          46.000    23848052.039 7  96026234.274 7      2113.737          45.000
C24  22077775.898 8 114964726.897 8      -677.402          51.000
C25  23323641.695 4 121452319.108 4      1933.406          28.000
E21  24033457.211 5 126296677.307 5       957.234          35.000    24033459.914 6  96772774.418 6       733.340          37.000
E27  24005934.570 8 126152041.444 8     -1332.523          51.000    24005937.188 8  96661953.775 8     -1020.977          50.000
> 2020 05 18 07 12  0.0000000  0 15        .000000000000
G12  20769929.680 8 109146726.143 8      1863.887          50.000    20769927.836 8  85049397.158 8      1452.379          50.000
G15  22793032.367 8 119778163.533 8     -3386.152          50.000    22793033.195 8  93333631.570 8     -2638.563          50.000
G19  21611585.617 5 113569633.203 5      -649.461          33.000    21611574.680 5  88495784.276 5      -506.073          31.000
G24  20149069.336 8 105884068.587 8       133.367          51.000    20149070.195 8  82507062.159 8       103.922          51.000
G25  22961947.734 7 120665847.347 7      3116.336          46.000    22961950.656 7  94025334.997 7      2428.314          45.000
R05  21281822.727 7 113763554.354 7     -3390.086          46.000    21281827.969 7  88482758.419 7     -2636.734          47.000
R14  22353103.898 5 119154592.083 5     -2856.195          31.000
R15  19694116.367 7 105239459.823 7      -569.258          42.000    19694117.844 5  81852852.868 5      -442.753          34.000
R17  21382257.930 5 114420762.847 5      2854.188          30.000    21382259.656 5  88993938.665 5      2219.927          34.000
R24  21858896.602 5 116889307.854 5      -786.547          32.000    21858896.531 4  90913927.400 4      -611.759          28.000
C12  23832330.836 7 124101283.297 7      2723.461          47.000    23832333.391 7  95962947.138 7      2105.968          45.000
C24  22081703.914 8 114985183.168 8      -685.750          51.000
C25  23312523.586 4 121394420.915 4      1927.484          28.000
E21  24028013.023 5 126268079.252 5       950.184          35.000    24028015.703 6  96750861.601 6       728.287          37.000
E27  24013558.070 8 126192103.071 8     -1337.625          51.000    24013560.734 8  96692650.328 8     -1024.877          50.000
> 2020 05 18 07 12 30.0000000  0 12        .000000000000
G12  20759342.773 8 109091092.658 8      1845.074          50.000    20759341.500 8  85006046.399 8      1437.720          50.000
G15  22812399.664 8 119879941.002 8     -3398.785          49.000    22812400.938 8  93412938.681 8     -2648.404          49.000
G19  21615371.430 5 113589526.161 5      -675.586          32.000    21615389.570 5  88511405.729 5      -526.431          31.000
G24  20148360.719 8 105880345.145 8       115.043          51.000    20148361.711 8  82504160.772 8        89.644          51.000
G25  22944193.117 7 120572548.090 7      3103.484          46.000    22944196.359 7  93952634.273 7      2418.300          46.000
R05  21300909.195 8 113865583.196 8     -3411.781          49.000    21300914.680 7  88562114.159 7     -2653.611          46.000
R15  19697356.531 6 105256775.671 6      -584.668          39.000    19697360.961 5  81866320.788 5      -454.739          35.000
R24  21863391.219 4 116913325.403 4      -816.965          29.000    21863395.930 4  90932599.800 4      -635.417          26.000
C12  23816684.086 8 124019801.972 8      2708.820          48.000    23816683.938 8  95899940.743 8      2094.550          48.000
C24  22085691.578 8 115005948.949 8      -698.578          50.000
E21  24022621.180 6 126239746.703 6       938.816          37.000    24022622.930 6  96729152.255 6       719.338          37.000
E27  24021222.008 8 126232377.350 8     -1347.223          50.000    24021224.703 8  96723509.833 8     -1032.329          50.000
> 2020 05 18 07 13  0.0000000  0 13        .000000000000
G12  20748830.359 8 109035850.188 8      1834.859          50.000    20748829.789 8  84963000.322 8      1429.761          50.000
G15  22831806.102 8 119981923.769 8     -3402.887          49.000    22831807.586 8  93492405.766 8     -2651.603          49.000
G24  20147723.945 8 105876998.932 8       105.121          51.000    20147725.008 8  82501553.325 8        81.913          51.000
G25  22926478.336 7 120479457.520 7      3099.551          46.000    22926481.133 7  93880096.207 7      2415.234          46.000
R05  21320084.766 8 113968084.367 8     -3424.676          50.000    21320089.344 7  88641837.225 7     -2663.637          45.000
R15  19700650.016 6 105274380.785 6      -591.488          38.000    19700656.258 5  81880013.697 5      -460.043          33.000
R17  21350493.352 5 114250835.940 5      2813.477          34.000    21350500.414 4  88861761.459 4      2188.257          27.000
C12  23801088.789 7 123938588.429 7      2702.484          46.000    23801087.711 8  95837141.311 8      2089.723          50.000
C24  22089720.039 8 115026926.444 8      -702.801          50.000
C25  23290404.055 5 121279246.982 5      1916.102          31.000
C26  24587988.664 5 128036095.972 5     -2447.383          31.000
E21  24017261.961 6 126211580.670 6       935.754          38.000    24017263.820 6  96707570.523 6       717.228          39.000
E27  24028907.594 8 126272764.994 8     -1348.207          50.000    24028910.305 8  96754456.198 8     -1033.093          50.000
> 2020 05 18 07 13 30.0000000  0 15        .000000000000
G12  20738379.461 8 108980930.225 8      1823.195          50.000    20738379.297 8  84920205.560 8      1420.672          50.000
G15  22851238.281 8 120084039.987 8     -3408.188          50.000    22851239.570 8  93571976.842 8     -2655.731          50.000
G19  21623318.047 5 113631250.629 5      -713.812          30.000
G24  20147146.109 8 105873962.171 8        93.973          51.000    20147147.172 8  82499187.029 8        73.225          51.000
G25  22908790.672 7 120386507.903 7      3093.840          47.000    22908792.562 7  93807667.950 7      2410.784          47.000
R05  21339334.641 8 114070983.220 8     -3438.578          51.000    21339337.867 7  88721869.627 7     -2674.450          45.000
R14  22401424.297 5 119412205.509 5     -2865.301          31.000    22401436.289 5  92876167.456 5     -2228.570          30.000
R15  19703986.062 6 105292204.976 6      -600.117          38.000    19703991.352 5  81893876.883 5      -466.761          31.000
R17  21334756.102 5 114166632.176 5      2796.047          33.000    21334773.938 5  88796234.424 5      2174.706          30.000
R24  21872812.438 5 116963711.719 5      -865.070          33.000
C12  23785531.391 7 123857576.726 7      2694.996          45.000    23785531.164 8  95774497.934 8      2083.954          51.000
C24  22093776.188 8 115048047.309 8      -708.457          51.000
C26  24602089.805 4 128109481.708 4     -2448.176          29.000
E21  24011921.383 6 126183512.076 6       931.848          40.000    24011924.109 6  96686063.418 6       714.163          40.000
E27  24036601.617 8 126313196.518 8     -1350.543          50.000    24036604.461 8  96785436.195 8     -1034.853          51.000
> 2020 05 18 07 14  0.0000000  0 12        .000000000000
G12  20728030.617 8 108926547.051 8      1806.141          50.000    20728030.500 8  84877829.061 8      1407.382          50.000
G15  22870736.352 8 120186500.580 8     -3418.645          51.000    22870737.109 8  93651816.255 8     -2663.879          51.000
G24  20146667.773 8 105871448.116 8        77.391          51.000    20146668.836 8  82497228.024 8        60.307          51.000
G25  22891170.523 7 120293913.528 7      3082.676          46.000    22891172.391 7  93735516.511 7      2402.085          46.000
R05  21358698.203 8 114174492.462 8     -3458.113          50.000    21358700.531 7  88802376.763 7     -2689.644          45.000
R15  19707403.406 6 105310464.351 6      -613.363          36.000    19707404.719 4  81908089.498 4      -477.069          29.000
R17  21319154.977 6 114083148.095 6      2773.219          38.000    21319168.438 4  88731379.245 4      2156.939          27.000
R24  21877760.094 5 116990171.875 5      -894.879          35.000
C12  23770052.805 7 123776980.852 7      2682.016          42.000    23770054.688 8  95712176.083 8      2073.890          51.000
C24  22097900.578 8 115069522.926 8      -719.496          51.000
E21  24006640.203 6 126155754.001 6       922.383          41.000    24006643.312 7  96664794.220 7       706.800          42.000
E27  24044344.531 8 126353884.657 8     -1358.168          50.000    24044347.602 8  96816612.803 8     -1040.608          51.000
> 2020 05 18 07 14 30.0000000  0 13        .000000000000
G12  20717752.938 8 108872536.754 8      1793.129          51.000    20717752.172 8  84835743.091 8      1397.243          51.000
G13  24493359.312 5 128713481.138 5     -3845.789          31.000
G15  22890268.344 8 120289138.987 8     -3425.109          50.000    22890268.141 8  93731794.192 8     -2668.919          50.000
G24  20146257.938 8 105869293.975 8        64.773          51.000    20146259.016 8  82495549.476 8        50.473          51.000
G25  22873586.570 7 120201511.327 7      3075.695          43.000    22873589.297 7  93663514.782 7      2396.646          43.000
R05  21378144.430 8 114278440.657 8     -3473.191          51.000    21378146.742 7  88883225.323 7     -2701.371          47.000
R15  19710870.891 5 105328991.668 5      -623.191          34.000    19710870.039 5  81922499.635 5      -484.701          31.000
R17  21303660.219 6 114000220.970 6      2753.754          36.000    21303664.445 5  88666880.291 5      2141.806          31.000
R24  21882847.750 5 117017386.802 5      -920.723          33.000
C12  23754623.070 7 123696640.571 7      2672.719          43.000    23754626.766 8  95650051.864 8      2066.806          51.000
C24  22102061.773 8 115091190.635 8      -726.391          51.000
E21  24001386.375 6 126128142.058 6       917.043          39.000    24001389.859 7  96643637.023 7       702.544          43.000
E27  24052104.820 8 126394664.733 8     -1361.742          49.000    24052108.000 8  96847859.874 8     -1043.425          51.000
> 2020 05 18 07 15  0.0000000  0 13        .000000000000
G12  20707540.281 8 108818866.458 8      1776.152          51.000    20707538.906 8  84793922.111 8      1384.015          51.000
G15  22909827.211 8 120391919.524 8     -3435.359          50.000    22909824.289 8  93811882.824 8     -2676.906          50.000
G24  20145910.312 8 105867466.857 8        48.363          51.000    20145911.453 8  82494125.750 8        37.686          51.000
G25  22856033.203 7 120109269.102 7      3065.059          44.000    22856037.000 7  93591637.710 7      2388.357          44.000
R05  21397665.164 8 114382789.716 8     -3492.191          51.000    21397667.922 7  88964385.635 7     -2716.152          47.000
R14  22449925.438 5 119670736.827 5     -2880.641          30.000
R15  19714380.883 6 105347752.686 6      -637.031          36.000    19714382.562 5  81937091.590 5      -495.466          33.000
R17  21288263.086 6 113917820.995 6      2730.355          36.000    21288263.719 5  88602791.287 5      2123.604          35.000
C12  23739237.789 7 123616525.333 7      2659.848          44.000    23739241.609 8  95588101.692 8      2056.666          51.000
C24  22106253.656 8 115113017.460 8      -737.285          51.000
C25  23246469.992 5 121050464.174 5      1892.039          30.000
E21  23996153.023 6 126100642.781 6       907.598          38.000    23996157.141 7  96622566.141 7       695.456          42.000
E27  24059876.148 8 126435502.909 8     -1369.270          49.000    24059879.078 8  96879151.456 8     -1049.216          51.000
> 2020 05 18 07 15 30.0000000  0 14        .000000000000
G12  20697428.164 8 108765725.410 8      1769.895          51.000    20697427.047 8  84752513.534 8      1379.142          51.000
G15  22929448.164 8 120495027.916 8     -3434.969          49.000    22929443.203 8  93892226.911 8     -2676.602          49.000
G24  20145660.867 8 105866155.916 8        42.520          51.000    20145662.117 8  82493104.235 8        33.132          51.000
G25  22838546.812 7 120017376.576 7      3064.562          46.000    22838550.945 7  93520033.185 7      2387.974          46.000
R05  21417296.164 8 114487727.082 8     -3500.148          51.000    21417298.453 7  89046003.554 7     -2722.338          46.000
R14  22466135.438 6 119757150.043 6     -2876.324          36.000    22466137.156 4  93144440.772 4     -2237.147          26.000
R15  19717970.422 6 105366939.273 6      -638.781          37.000    19717974.945 5  81952014.557 5      -496.830          34.000
R24  21893461.602 5 117074148.819 5      -968.965          32.000
C12  23723932.484 7 123536824.520 7      2657.129          45.000    23723935.633 8  95526472.001 8      2054.652          51.000
C24  22110511.914 8 115135190.449 8      -737.566          51.000
C26  24658707.891 5 128404387.664 5     -2458.887          30.000
E13  27688676.836 7 145504977.760 7      2976.594          46.000    27688681.711 7 111490832.807 7      2280.776          47.000
E21  23990976.398 6 126073444.706 6       909.117          38.000    23990980.977 7  96601726.079 7       696.426          42.000
E27  24067694.195 8 126476587.380 8     -1366.121          49.000    24067696.953 8  96910631.770 8     -1046.876          51.000
> 2020 05 18 07 16  0.0000000  0 17        .000000000000
G12  20687374.109 8 108712890.914 8      1754.070          50.000    20687373.516 8  84711343.783 8      1366.808          50.000
G13  24559257.992 5 129059781.456 5     -3850.234          34.000
G15  22949088.094 7 120598238.549 7     -3444.016          47.000    22949084.820 7  93972650.700 7     -2683.649          47.000
G17  23309888.438 5 122494296.484 5     -2283.871          32.000
G24  20145467.250 8 105865138.387 8        27.105          51.000    20145468.562 8  82492311.341 8        21.121          51.000
G25  22821084.789 7 119925611.412 7      3054.754          47.000    22821088.273 7  93448527.915 7      2380.331          47.000
R05  21436993.336 8 114593021.352 8     -3517.836          51.000    21436995.438 7  89127899.022 7     -2736.098          46.000
R14  22482348.508 5 119843550.300 5     -2881.434          34.000
R15  19721598.211 6 105386323.938 6      -651.508          38.000    19721604.250 5  81967091.480 5      -506.731          34.000
R17  21257828.102 6 113754949.535 6      2695.270          40.000    21257828.945 5  88476072.442 5      2096.318          33.000
R24  21898985.492 5 117103696.231 5      -997.398          32.000
C12  23708664.516 7 123457319.265 7      2644.949          47.000    23708666.664 8  95464993.549 8      2045.249          51.000
C24  22114793.984 8 115157488.211 8      -747.359          51.000
C26  24672898.758 5 128478250.139 5     -2464.465          30.000
E13  27671693.133 7 145415732.594 7      2974.688          45.000    27671698.680 7 111422450.190 7      2279.360          47.000
E21  23985814.594 6 126046324.276 6       900.664          38.000    23985819.406 7  96580945.449 7       690.398          42.000
E27  24075516.516 8 126517694.258 8     -1372.531          48.000    24075519.227 8  96942129.229 8     -1051.689          51.000
> 2020 05 18 07 16 30.0000000  0 15        .000000000000
G12  20677406.039 8 108660509.146 8      1737.301          50.000    20677405.609 8  84670526.815 8      1353.741          50.000
G15  22968774.633 7 120701694.476 7     -3453.867          47.000    22968774.180 7  94053265.670 7     -2691.328          47.000
G24  20145357.406 8 105864560.997 8        10.664          51.000    20145358.703 8  82491861.415 8         8.310          51.000
G25  22803674.836 7 119834120.510 7      3043.750          46.000    22803676.852 7  93377236.345 7      2371.756          46.000
R05  21456784.539 8 114698816.291 8     -3536.020          51.000    21456786.094 7  89210183.938 7     -2750.237          46.000
R14  22498582.711 5 119930087.594 5     -2888.262          30.000
R15  19725291.539 6 105406053.999 6      -664.527          41.000    19725296.562 5  81982437.119 5      -516.855          31.000
R17  21242782.047 6 113674425.186 6      2672.039          40.000    21242780.664 5  88413442.443 5      2078.256          30.000
R24  21904665.609 6 117134054.221 6     -1026.746          36.000
C12  23693462.344 7 123378156.504 7      2631.785          47.000    23693463.953 8  95403779.938 8      2035.087          51.000
C24  22119127.867 8 115180055.195 8      -757.969          51.000
C26  24687111.156 4 128552255.516 4     -2470.234          29.000
E13  27654716.672 7 145326522.583 7      2971.934          45.000    27654722.438 7 111354094.519 7      2277.112          46.000
E21  23980695.969 6 126019427.008 6       891.723          40.000    23980700.492 6  96560335.860 6       683.295          41.000
E27  24083370.930 8 126558968.774 8     -1379.812          48.000    24083373.430 8  96973755.122 8     -1057.220          51.000
> 2020 05 18 07 17  0.0000000  0 17        .000000000000
G12  20667511.578 8 108608514.560 8      1721.441          51.000    20667510.922 8  84630011.581 8      1341.386          51.000
G15  22988495.180 8 120805327.578 8     -3462.562          48.000    22988496.609 8  94134018.715 8     -2698.104          48.000
G17  23336129.758 5 122632214.892 5     -2316.852          35.000    23336133.570 5  95557565.073 5     -1805.339          35.000
G24  20145318.742 8 105864357.934 8        -4.719          51.000    20145320.156 8  82491703.176 8        -3.677          51.000
