     3.02           OBSERVATION DATA    M (MIXED)           RINEX VERSION / TYPE
SAVERINEX           SC600               20200514 235931 LCL PGM / RUN BY / DATE
       G = GPS       R = GLONASS       C = COMPASS          COMMENT
       S = SBAS      J = QZSS          E = GALILEO          COMMENT
BEAN                                                        MARKER NAME
1                                                           MARKER NUMBER
GEODETIC                                                    MARKER TYPE
Unige DICCA         GTER                                    OBSERVER / AGENCY
SC60291900056       SC600               2.12(191202)        REC # / TYPE / VERS
                    HEMA45          NONE                    ANT # / TYPE
  4509407.8091   693652.4678  4442337.6214                  APPROX POSITION XYZ
        0.0000        0.0000        0.0000                  ANTENNA: DELTA H/E/N
G    8 C1C L1C D1C S1C C2Y L2Y D2Y S2Y                      SYS / # / OBS TYPES
R    8 C1C L1C D1C S1C C2P L2P D2P S2P                      SYS / # / OBS TYPES
C    8 C1I L1I D1I S1I C7I L7I D7I S7I                      SYS / # / OBS TYPES
E    8 C1C L1C D1C S1C C7Q L7Q D7Q S7Q                      SYS / # / OBS TYPES
DBHZ                                                        COMMENT
     30.000                                                 INTERVAL
  2020    05    14    21    00    0.0000000     GPS         TIME OF FIRST OBS
  2020    05    14    21    59   30.0000000     GPS         TIME OF LAST OBS
     0                                                      RCV CLOCK OFFS APPL
G L1C  0.00000                                              SYS / PHASE SHIFT
G L2Y  0.00000                                              SYS / PHASE SHIFT
R L1C  0.00000                                              SYS / PHASE SHIFT
R L2P  0.25000                                              SYS / PHASE SHIFT
C L1I  0.00000                                              SYS / PHASE SHIFT
C L7I  0.00000                                              SYS / PHASE SHIFT
E L1C  0.50000                                              SYS / PHASE SHIFT
E L7Q -0.25000                                              SYS / PHASE SHIFT
 13 R03  5 R04  6 R05  1 R06 -4 R10 -5 R13 -2 R14 -7 R15  0 GLONASS SLOT / FRQ #
    R16 -1 R17  4 R18 -3 R19  3 R20  2                      GLONASS SLOT / FRQ #
 C1C   71.950 C2C   71.950 C2P   71.950                     GLONASS COD/PHS/BIS
    18                                                      LEAP SECONDS
*** Above antenna height is from mark to ANTENNA BOTTOM.    COMMENT
    17     4        0.0000        ANT MEASURE TYPE/HEIGT    COMMENT
    0.0000    0.0000    0.0458    0.0405    0.0000          COMMENT
                    BASE STATION                            COMMENT
                                                            END OF HEADER
> 2020 05 14 21 00  0.0000000  0 14        .000000000000
G01  21195789.031 8 111384620.295 8     -2118.094          49.000    21195790.703 8  86793219.089 8     -1650.463          49.000
G03  20329190.039 8 106830629.488 8      -237.578          51.000    20329191.516 8  83244678.575 8      -185.126          51.000
G04  21383159.859 8 112369259.806 8      2514.660          50.000    21383159.609 7  87560509.103 7      1959.475          46.000
G11  23385596.367 5 122892143.339 5     -3882.586          33.000    23385602.047 5  95760130.339 5     -3025.389          31.000
G22  21369882.672 7 112299520.477 7     -1548.113          46.000    21369880.719 7  87506084.476 7     -1206.322          44.000
R05  19293875.312 7 103136913.429 7      -333.539          46.000    19293878.375 7  80217609.519 7      -259.419          42.000
R06  21961836.602 7 117192595.217 7      3152.980          44.000
R20  19379690.453 6 103631910.121 6      -674.934          41.000    19379693.992 8  80602597.589 8      -524.948          48.000
C05                                                                  39718544.938 5 159930121.319 5       -28.828          34.000
C11  24205505.977 7 126044442.705 7     -3205.066          46.000    24205508.461 8  97465521.107 8     -2478.527          48.000
C14  21480004.875 8 111852039.084 8         8.617          49.000    21480003.469 8  86491177.225 8         6.585          51.000
E03  25553227.719 8 134283098.905 8      2394.395          51.000    25553230.391 8 102892327.994 8      1834.561          51.000
E05  23376155.727 8 122842550.581 8        65.121          51.000    23376158.906 8  94126158.959 8        49.856          51.000
E36  25325818.609 8 133088044.757 8     -2569.867          51.000    25325822.742 8 101976575.594 8     -1969.197          51.000
> 2020 05 14 21 00 30.0000000  0 14        .000000000000
G01  21207901.398 8 111448271.171 8     -2127.184          51.000    21207903.539 8  86842817.144 8     -1657.546          50.000
G03  20330560.719 8 106837831.904 8      -244.570          51.000    20330561.945 8  83250290.849 8      -190.574          51.000
G04  21368827.930 8 112293945.282 8      2504.516          50.000    21368828.211 7  87501822.481 7      1951.571          47.000
G11  23407762.555 5 123008622.082 5     -3884.102          35.000    23407769.125 5  95850893.053 5     -3026.570          35.000
G22  21378726.680 7 112345996.280 7     -1551.891          47.000    21378724.633 7  87542299.394 7     -1209.265          43.000
R05  19295779.273 7 103147092.016 7      -346.992          47.000    19295782.633 7  80225526.232 7      -269.886          42.000
R06  21944123.344 7 117098072.383 7      3146.535          45.000
R20  19383534.188 6 103652462.144 6      -697.000          40.000    19383536.938 7  80618582.480 7      -542.114          47.000
C05                                                                  39718744.695 5 159930924.808 5       -26.049          34.000
C11  24223976.680 7 126140622.075 7     -3208.664          45.000    24223978.766 7  97539893.103 7     -2481.146          45.000
C14  21479968.352 8 111851848.251 8         2.273          50.000    21479966.883 8  86491029.647 8         1.797          51.000
E03  25539562.203 8 134211285.028 8      2391.359          51.000    25539564.531 8 102837301.802 8      1832.322          50.000
E05  23375798.453 8 122840673.409 8        58.086          51.000    23375801.656 8  94124720.618 8        44.427          51.000
E36  25340493.812 8 133165162.405 8     -2573.125          50.000    25340498.578 8 102035665.727 8     -1971.669          51.000
> 2020 05 14 21 01  0.0000000  0 15        .000000000000
G01  21220090.727 8 111512325.024 8     -2144.793          51.000    21220093.297 8  86892729.218 8     -1671.267          51.000
G03  20331996.109 8 106845374.532 8      -260.023          51.000    20331997.109 8  83256168.206 8      -202.616          51.000
G04  21354578.352 8 112219065.489 8      2485.828          48.000    21354579.562 8  87443474.588 8      1937.009          48.000
G11  23429962.844 6 123125275.897 6     -3894.297          37.000    23429968.344 6  95941792.169 6     -3034.514          36.000
G22  21387616.500 7 112392711.649 7     -1564.008          46.000    21387614.164 7  87578700.994 7     -1218.707          43.000
R05  19297783.188 7 103157804.195 7      -368.957          47.000    19297786.219 7  80233857.908 7      -286.967          42.000
R06  21926470.430 7 117003871.561 7      3131.633          45.000
R19  22413720.258 4 119898288.773 4     -4243.168          29.000
R20  19387526.266 6 103673810.204 6      -727.840          41.000    19387528.000 7  80635186.529 7      -566.095          46.000
C11  24242490.648 7 126237030.030 7     -3220.391          43.000    24242491.891 6  97614441.854 6     -2490.002          40.000
C14  21479992.180 8 111851972.895 8       -12.367          49.000    21479990.844 8  86491126.037 8        -9.485          51.000
E03  25525938.039 8 134139690.499 8      2379.891          50.000    25525940.367 8 102782443.682 8      1823.550          49.000
E05  23375506.414 8 122839139.432 8        42.527          51.000    23375509.648 8  94123545.239 8        32.616          51.000
E09  23738260.727 5 124745401.236 5     -2291.383          34.000
E36  25355212.383 8 133242510.815 8     -2584.988          48.000    25355217.797 8 102094932.675 8     -1980.696          51.000
> 2020 05 14 21 01 30.0000000  0 16        .000000000000
G01  21232350.695 8 111576748.936 8     -2153.203          51.000    21232353.422 8  86942929.661 8     -1677.821          51.000
G03  20333489.992 8 106853224.778 8      -266.492          51.000    20333490.945 8  83262285.268 8      -207.656          51.000
G04  21340405.688 8 112144590.046 8      2476.117          48.000    21340407.773 8  87385441.782 8      1929.442          48.000
G11  23452189.586 6 123242070.213 6     -3895.109          38.000    23452194.531 5  96032800.743 5     -3035.150          35.000
G22  21396545.672 7 112439633.853 7     -1567.098          45.000    21396543.125 7  87615263.731 7     -1221.115          43.000
R05  19299880.602 7 103169015.686 7      -381.805          46.000    19299883.422 7  80242577.973 7      -296.959          42.000
R06  21908871.648 7 116909960.878 7      3125.758          45.000
R19  22437528.805 5 120025640.627 5     -4248.297          31.000    22437530.695 5  93353276.655 5     -3304.231          35.000
R20  19391661.156 6 103695921.456 6      -749.551          41.000    19391662.711 7  80652384.177 7      -582.984          47.000
C05                                                                  39719145.133 5 159932536.909 5       -26.182          35.000
C11  24261041.141 6 126333632.661 6     -3223.117          41.000    24261041.102 6  97689141.130 6     -2492.325          37.000
C14  21480070.445 8 111852380.556 8       -17.930          50.000    21480069.125 8  86491441.287 8       -13.922          51.000
E03  25512349.383 8 134068283.950 8      2377.371          49.000    25512352.273 8 102727729.615 8      1821.682          49.000
E05  23375273.664 8 122837915.927 8        35.871          51.000    23375276.477 8  94122607.744 8        27.504          51.000
E09  23751341.750 5 124814108.752 5     -2292.051          35.000
E36  25369967.617 7 133320056.933 7     -2587.883          46.000    25369974.305 8 102154351.148 8     -1982.929          51.000
> 2020 05 14 21 02  0.0000000  0 17        .000000000000
G01  21244679.250 8 111641534.166 8     -2164.812          51.000    21244682.055 8  86993411.660 8     -1686.867          51.000
G03  20335040.766 8 106861374.173 8      -276.020          51.000    20335041.797 8  83268635.452 8      -215.080          51.000
G04  21326309.336 8 112070512.728 8      2463.305          50.000    21326311.562 8  87327719.193 8      1919.458          48.000
G11  23474440.852 6 123358994.680 6     -3898.871          40.000    23474445.852 5  96123910.683 5     -3038.078          30.000
G17  22079458.047 6 116028336.187 6       525.348          36.000
G22  21405512.453 7 112486754.055 7     -1573.348          46.000    21405509.688 7  87651980.755 7     -1225.985          42.000
R05  19302069.227 7 103180716.428 7      -397.621          46.000    19302072.086 7  80251678.564 7      -309.261          42.000
R06  21891325.914 7 116816333.460 7      3116.832          45.000
R19  22461375.195 5 120153204.579 5     -4255.410          32.000    22461378.703 5  93452493.104 5     -3309.760          32.000
R20  19395936.984 6 103718787.985 6      -774.133          41.000    19395938.945 7  80670169.235 7      -602.103          46.000
C05                                                                  39719338.305 5 159933314.329 5       -24.932          35.000
C11  24279627.656 6 126430420.098 6     -3228.418          41.000    24279623.742 5  97763983.194 5     -2496.415          35.000
C14  21480201.578 8 111853062.664 8       -26.629          50.000    21480200.055 8  86491968.732 8       -20.597          51.000
E03  25498795.234 8 133997058.069 8      2371.852          49.000    25498798.602 8 102673153.995 8      1817.408          49.000
E05  23375098.375 8 122836994.318 8        26.402          51.000    23375100.828 8  94121901.584 8        20.191          51.000
E09  23764440.492 5 124882976.782 5     -2294.969          33.000
E36  25384758.523 7 133397791.855 7     -2593.715          46.000    25384766.727 8 102213914.312 8     -1987.326          51.000
> 2020 05 14 21 02 30.0000000  0 16        .000000000000
G01  21257089.766 8 111706750.796 8     -2180.797          51.000    21257092.500 8  87044229.807 8     -1699.322          51.000
G03  20336661.859 8 106869893.345 8      -289.859          51.000    20336662.945 8  83275273.776 8      -225.861          51.000
G04  21312302.945 8 111996906.240 8      2446.004          51.000    21312304.648 8  87270363.501 8      1905.980          48.000
G11  23496729.969 6 123476117.818 6     -3906.914          40.000    23496735.133 3  96215175.490 3     -3044.346          20.000
G17  22076527.797 6 116012940.909 6       503.000          36.000    22076540.406 4  90399729.996 4       391.951          29.000
G22  21414530.164 7 112534142.726 7     -1583.684          44.000    21414527.141 7  87688906.984 7     -1234.039          42.000
R05  19304363.195 7 103192977.502 7      -417.762          46.000    19304365.672 7  80261214.937 7      -324.926          42.000
R06  21873846.828 7 116723062.401 7      3103.383          44.000
R19  22485280.227 5 120281085.421 5     -4267.707          31.000    22485286.922 4  93551956.059 4     -3319.325          29.000
R20  19400367.625 6 103742481.993 6      -803.348          40.000    19400369.883 7  80688597.908 7      -624.826          47.000
C05                                                                  39719539.602 5 159934125.654 5       -27.406          35.000
C11  24298264.125 7 126527460.749 7     -3238.504          44.000    24298260.164 6  97839021.133 6     -2504.356          39.000
C14  21480398.609 8 111854088.940 8       -39.637          50.000    21480397.039 8  86492762.321 8       -30.707          51.000
E03  25485289.125 8 133926084.546 8      2361.785          49.000    25485292.180 8 102618771.724 8      1809.793          48.000
E05  23374993.906 8 122836445.043 8        12.371          51.000    23374996.430 8  94121480.719 8         9.494          51.000
E36  25399599.695 8 133475785.765 8     -2603.863          48.000    25399608.336 8 102273675.901 8     -1995.108          51.000
> 2020 05 14 21 03  0.0000000  0 16        .000000000000
G01  21269570.570 8 111772336.574 8     -2195.359          51.000    21269572.961 8  87095335.590 8     -1710.670          51.000
G03  20338341.547 8 106878720.395 8      -302.520          51.000    20338342.539 8  83282151.998 8      -235.730          51.000
G04  21298374.766 8 111923710.849 8      2429.840          51.000    21298375.742 7  87213328.154 7      1893.385          47.000
G11  23519044.875 6 123593376.070 6     -3913.664          40.000    23519031.555 4  96306501.217 4     -3049.608          26.000
G17  22073702.195 5 115998096.121 5       482.852          35.000    22073716.383 4  90388162.764 4       376.251          28.000
G22  21423587.320 7 112581738.146 7     -1593.062          44.000    21423584.234 6  87725994.305 6     -1241.347          41.000
R05  19306749.273 7 103205734.321 7      -436.730          43.000    19306752.070 7  80271136.924 7      -339.676          42.000
R06  21856422.883 7 116630086.302 7      3091.098          44.000
R19  22509232.117 5 120409217.555 5     -4278.770          30.000    22509242.242 4  93651614.453 4     -3327.929          25.000
R20  19404941.156 6 103766940.882 6      -831.277          40.000    19404943.977 8  80707621.466 8      -646.549          48.000
C05                                                                  39719737.539 5 159934922.232 5       -28.674          35.000
C11  24316937.633 7 126624691.488 7     -3247.297          44.000    24316934.664 7  97914206.083 7     -2511.052          43.000
C14  21480649.922 8 111855397.819 8       -51.391          50.000    21480648.141 8  86493774.445 8       -39.817          51.000
E03  25471819.422 8 133855302.600 8      2352.949          48.000    25471821.859 8 102564536.268 8      1802.981          48.000
E05  23374948.516 8 122836205.975 8         -.320          51.000    23374951.211 8  94121297.547 8         -.284          51.000
E36  25414479.188 8 133553976.272 8     -2612.789          48.000    25414486.977 8 102333588.129 8     -2002.037          51.000
> 2020 05 14 21 03 30.0000000  0 16        .000000000000
G01  21282134.250 8 111838357.912 8     -2205.902          51.000    21282136.070 8  87146780.776 8     -1718.885          51.000
G03  20340092.570 8 106887922.091 8      -310.957          51.000    20340093.531 8  83289322.152 8      -242.304          51.000
G04  21284537.594 8 111850995.482 8      2417.781          50.000    21284538.016 7  87156666.882 7      1883.985          47.000
G11  23541398.000 6 123710834.069 6     -3916.574          39.000    23541386.867 4  96398041.695 4     -3051.876          29.000
G17  22070995.164 5 115983870.014 5       465.945          35.000    22071006.336 5  90377077.415 5       363.074          34.000
G22  21432696.258 7 112629606.637 7     -1597.902          42.000    21432693.711 6  87763294.455 6     -1245.119          40.000
R05  19309240.828 7 103219053.724 7      -451.391          45.000    19309243.820 7  80281496.458 7      -351.082          42.000
R06  21839067.641 7 116537474.836 7      3082.961          43.000
R19  22533243.422 5 120537666.034 5     -4284.039          30.000
R20  19409670.516 6 103792232.500 6      -854.957          39.000    19409673.914 8  80727292.712 8      -664.967          48.000
C05                                                                  39719944.828 5 159935757.115 5       -26.738          35.000
C11  24335659.641 7 126722176.978 7     -3251.684          43.000    24335658.109 7  97989588.044 7     -2514.393          44.000
C14  21480968.258 8 111857055.292 8       -58.992          50.000    21480966.156 8  86495056.116 8       -45.710          51.000
E03  25458399.102 8 133784780.134 8      2348.449          48.000    25458401.578 8 102510499.644 8      1799.473          48.000
E05  23374974.781 8 122836343.825 8        -8.844          51.000    23374977.508 8  94121403.176 8        -6.809          51.000
E36  25429408.953 8 133632429.700 8     -2617.492          48.000    25429415.945 8 102393701.790 8     -2005.593          50.000
> 2020 05 14 21 04  0.0000000  0 14        .000000000000
G01  21294767.070 8 111904742.506 8     -2222.961          51.000    21294768.289 8  87198509.000 8     -1732.177          51.000
G03  20341901.203 8 106897426.536 8      -325.891          51.000    20341902.312 8  83296728.215 8      -253.941          51.000
G04  21270777.977 8 111778690.389 8      2399.352          48.000    21270778.609 8  87100325.306 8      1869.628          48.000
G11  23563774.344 6 123828418.138 6     -3925.527          36.000
G22  21441843.359 6 112677676.201 6     -1609.480          40.000    21441841.328 6  87800751.250 6     -1254.141          39.000
R05  19311824.008 7 103232861.371 7      -472.480          44.000    19311826.844 7  80292235.736 7      -367.485          43.000
R06  21821767.633 7 116445156.220 7      3068.484          44.000
R20  19414542.195 6 103818284.302 6      -885.246          40.000    19414546.102 8  80747555.231 8      -688.525          49.000
C05                                                                  39720148.039 5 159936575.140 5       -29.937          34.000
C11  24354415.508 6 126819844.354 6     -3262.523          41.000    24354416.016 7  98065110.699 7     -2522.857          44.000
C14  21481339.805 8 111858989.917 8       -73.043          50.000    21481337.562 8  86496552.091 8       -56.527          51.000
E03  25445014.781 8 133714446.391 8      2337.309          48.000    25445017.969 8 102456607.628 8      1790.832          49.000
E05  23375059.078 8 122836786.505 8       -23.922          51.000    23375061.617 8  94121742.366 8       -18.282          51.000
E36  25444375.188 8 133711073.687 8     -2628.734          49.000    25444381.133 8 102453961.455 8     -2014.144          49.000
> 2020 05 14 21 04 30.0000000  0 15        .000000000000
G01  21307475.070 8 111971523.346 8     -2231.117          51.000    21307475.242 8  87250545.948 8     -1738.536          51.000
G03  20343773.820 8 106907267.188 8      -332.145          51.000    20343775.188 8  83304396.259 8      -258.814          51.000
G04  21257103.031 8 111706831.163 8      2389.316          48.000    21257104.328 7  87044331.114 7      1861.805          47.000
G11  23586180.578 5 123946159.866 5     -3926.008          35.000    23586176.508 5  96581448.509 5     -3059.227          34.000
G22  21451034.914 6 112725980.112 6     -1612.508          39.000    21451033.008 6  87838390.706 6     -1256.500          37.000
R04  21734935.977 5 116389572.999 5     -3346.375          30.000
R05  19314503.938 7 103247190.049 7      -484.934          44.000    19314507.578 7  80303380.272 7      -377.171          43.000
R06  21804529.047 7 116353166.254 7      3062.352          44.000
R20  19419562.742 6 103845130.532 6      -906.609          39.000    19419567.055 8  80768435.616 8      -705.141          49.000
C05                                                                  39720353.422 5 159937402.241 5       -26.430          35.000
C11  24373211.930 6 126917725.039 6     -3264.734          41.000    24373214.414 7  98140798.315 7     -2524.524          43.000
C14  21481770.820 8 111861234.606 8       -78.562          51.000    21481768.664 8  86498287.831 8       -60.722          51.000
E03  25431672.867 8 133644335.886 8      2334.785          48.000    25431676.953 8 102402886.645 8      1788.892          49.000
E05  23375207.672 8 122837567.255 8       -30.188          51.000    23375210.148 8  94122340.607 8       -23.173          51.000
E36  25459383.805 8 133789941.192 8     -2631.230          48.000    25459388.688 8 102514392.360 8     -2016.150          48.000
> 2020 05 14 21 05  0.0000000  0 14        .000000000000
G01  21320249.750 8 112038655.608 8     -2245.016          49.000    21320249.375 8  87302856.709 8     -1749.363          50.000
G03  20345702.000 8 106917399.614 8      -344.086          51.000    20345703.359 8  83312291.655 8      -268.119          51.000
G04  21243505.086 8 111635375.441 8      2373.609          48.000    21243506.820 8  86988651.326 8      1849.566          48.000
G11  23608607.922 5 124064012.507 5     -3931.383          35.000
G22  21460262.852 6 112774473.908 6     -1621.207          39.000    21460260.664 6  87876178.095 6     -1263.278          39.000
R05  19317273.172 7 103261993.398 7      -502.789          45.000    19317276.719 7  80314893.961 7      -391.058          42.000
R06  21787343.477 7 116261461.229 7      3050.465          43.000
R20  19424723.625 6 103872726.256 6      -934.082          40.000    19424727.766 8  80789898.955 8      -726.508          49.000
C05                                                                  39720552.758 5 159938204.753 5       -27.472          35.000
C11  24392041.633 7 127015773.613 7     -3272.398          44.000    24392044.617 6  98216615.694 6     -2530.432          40.000
C14  21482252.953 8 111863745.061 8       -89.547          50.000    21482250.867 8  86500229.078 8       -69.156          51.000
E03  25418365.422 8 133574405.333 8      2326.727          49.000    25418370.078 8 102349303.492 8      1782.760          49.000
E05  23375412.148 8 122838641.497 8       -42.027          51.000    23375414.703 8  94123163.722 8       -32.209          51.000
E36  25474426.359 8 133868987.254 8     -2639.324          49.000    25474429.875 8 102574960.072 8     -2022.181          48.000
> 2020 05 14 21 05 30.0000000  0 14        .000000000000
G01  21333096.898 7 112106171.816 7     -2256.914          47.000    21333097.758 7  87355466.714 7     -1758.634          47.000
G03  20347691.938 8 106927856.817 8      -354.086          51.000    20347693.070 8  83320440.130 8      -275.911          51.000
G04  21229991.148 8 111564358.307 8      2359.785          50.000    21229992.703 8  86933313.310 8      1838.794          48.000
G11  23631062.094 6 124182007.423 6     -3935.609          38.000
G22  21469533.805 6 112823190.278 6     -1627.672          41.000    21469531.133 6  87914138.903 6     -1268.313          39.000
R05  19320137.398 7 103277303.388 7      -518.773          44.000    19320140.750 7  80326801.749 7      -403.490          42.000
R06  21770217.734 7 116170075.996 7      3040.695          43.000
R20  19430031.188 6 103901105.069 6      -958.812          40.000    19430034.727 8  80811971.356 8      -745.743          48.000
C05                                                                  39720752.227 5 159939008.359 5       -26.599          35.000
C11  24410909.992 7 127114021.065 7     -3278.312          46.000    24410909.719 5  98292586.822 5     -2534.993          31.000
C14  21482792.242 8 111866553.786 8       -98.633          50.000    21482790.312 8  86502400.980 8       -76.218          51.000
E03  25405098.891 8 133504688.832 8      2320.270          49.000    25405104.070 8 102295884.357 8      1777.884          50.000
E05  23375678.750 8 122840042.035 8       -52.113          51.000    23375681.289 8  94124236.862 8       -39.916          51.000
E36  25489509.195 8 133948244.386 8     -2645.387          50.000    25489511.180 8 102635689.547 8     -2027.003          48.000
> 2020 05 14 21 06  0.0000000  0 16        .000000000000
G01  21346008.281 7 112174026.928 7     -2262.414          47.000    21346010.688 7  87408340.871 7     -1762.917          47.000
G03  20349735.117 8 106938594.204 8      -357.449          51.000    20349736.109 8  83328806.929 8      -278.532          51.000
G04  21216552.922 8 111493737.294 8      2352.516          51.000    21216553.891 7  86878283.957 7      1833.129          47.000
G11  23653534.305 6 124300097.939 6     -3932.969          38.000
G14  24310946.695 5 127754895.282 5     -3120.070          31.000
G17  22059050.562 5 115921089.855 5       378.039          32.000    22059061.102 5  90328165.969 5       294.576          32.000
G22  21478838.758 7 112872084.622 7     -1627.504          42.000    21478835.289 6  87952238.383 6     -1268.182          40.000
R05  19323087.719 7 103293073.609 7      -528.055          44.000    19323091.070 7  80339067.493 7      -410.709          42.000
R06  21753142.984 6 116078967.054 6      3037.398          41.000
R20  19435476.438 6 103930221.581 6      -977.527          39.000    19435479.297 7  80834617.536 7      -760.299          47.000
C05                                                                  39720943.695 5 159939779.244 5       -21.515          34.000
C11  24429807.414 7 127212421.533 7     -3277.449          46.000
C14  21483380.391 8 111869616.394 8      -101.211          51.000    21483378.516 8  86504769.195 8       -78.326          51.000
E03  25391865.070 8 133435142.839 8      2320.293          51.000    25391870.023 8 102242595.872 8      1777.911          49.000
E05  23375998.828 8 122841724.088 8       -55.715          51.000    23376001.195 8  94125525.705 8       -42.661          51.000
E36  25504623.500 8 134027667.543 8     -2645.090          51.000    25504624.555 7 102696546.200 7     -2026.697          47.000
> 2020 05 14 21 06 30.0000000  0 16        .000000000000
G01  21359004.766 8 112242325.361 8     -2285.848          49.000    21359007.945 8  87461560.453 8     -1781.180          49.000
G03  20351851.508 8 106949716.558 8      -379.117          51.000    20351852.602 8  83337473.695 8      -295.416          51.000
G04  21203210.367 8 111423619.253 8      2326.957          50.000    21203210.602 7  86823646.528 7      1813.213          47.000
G11  23676044.539 6 124418387.191 6     -3947.949          37.000
G14  24328822.578 5 127848835.533 5     -3137.363          32.000
G17  22056991.359 5 115910267.936 5       347.484          33.000    22057008.016 5  90319732.492 5       270.761          32.000
G22  21488197.422 7 112921261.675 7     -1645.824          44.000    21488192.898 6  87990558.121 6     -1282.463          39.000
R05  19326143.680 7 103309409.359 7      -555.887          44.000    19326147.391 7  80351773.107 7      -432.356          42.000
R06  21736139.891 6 115988241.950 6      3015.965          41.000
R20  19441079.305 6 103960182.614 6     -1014.703          39.000    19441082.047 8  80857920.576 8      -789.214          48.000
C05                                                                  39721147.023 5 159940598.064 5       -29.626          35.000
C11  24448753.555 7 127311077.208 7     -3294.758          45.000    24448760.297 6  98444985.764 6     -2547.791          38.000
C14  21484037.336 8 111873036.467 8      -121.922          51.000    21484035.438 8  86507413.804 8       -94.190          51.000
E03  25378683.945 8 133365873.204 8      2302.496          51.000    25378687.930 8 102189519.141 8      1764.262          49.000
E05  23376392.516 8 122843792.250 8       -77.305          51.000    23376394.570 8  94127110.399 8       -59.254          51.000
E36  25519789.008 8 134107360.969 8     -2662.820          51.000    25519789.672 8 102757609.945 8     -2040.361          48.000
> 2020 05 14 21 07  0.0000000  0 15        .000000000000
G01  21372075.383 8 112311010.071 8     -2293.172          50.000    21372078.898 8  87515080.998 8     -1786.887          49.000
G03  20354030.438 8 106961167.355 8      -384.355          51.000    20354031.758 8  83346396.388 8      -299.498          51.000
G04  21189952.789 8 111353949.702 8      2317.609          49.000    21189952.547 7  86769358.586 7      1805.929          46.000
G11  23698581.578 5 124536816.274 5     -3947.426          34.000
G14  24346732.547 5 127942951.933 5     -3137.078          33.000    24346725.945 5  99695770.559 5     -2444.476          30.000
G22  21497598.867 7 112970664.468 7     -1647.824          45.000    21497593.578 6  88029053.796 6     -1284.022          37.000
R05  19329294.570 7 103326251.958 7      -566.863          46.000    19329297.719 6  80364872.894 6      -440.894          41.000
R06  21719199.141 7 115897844.751 7      3010.625          42.000
R20  19446829.219 6 103990930.482 6     -1035.332          39.000    19446832.289 7  80881835.548 7      -805.261          47.000
C05                                                                  39721351.594 5 159941421.835 5       -25.234          35.000
C11  24467737.289 7 127409930.459 7     -3295.574          44.000    24467745.133 7  98521425.359 7     -2548.229          42.000
C14  21484751.914 8 111876757.765 8      -126.258          50.000    21484750.211 8  86510291.356 8       -97.540          51.000
E03  25365544.594 8 133296824.503 8      2300.918          51.000    25365547.836 8 102136611.723 8      1763.032          49.000
E05  23376849.008 8 122846189.767 8       -82.457          51.000    23376850.883 8  94128947.452 8       -63.172          51.000
E36  25534994.672 8 134187267.617 8     -2664.234          50.000    25534995.359 8 102818837.062 8     -2041.453          48.000
> 2020 05 14 21 07 30.0000000  0 15        .000000000000
G01  21385221.688 8 112380092.644 8     -2308.215          51.000    21385225.445 8  87568911.552 8     -1798.612          51.000
G03  20356274.195 8 106972958.680 8      -397.473          51.000    20356275.648 8  83355584.431 8      -309.719          51.000
G04  21176782.875 8 111284742.753 8      2300.352          49.000    21176782.766 7  86715431.122 7      1792.482          47.000
G11  23721146.883 5 124655465.463 5     -3954.230          32.000
G14  24364677.930 5 128037254.935 5     -3145.242          32.000
G22  21507045.281 7 113020305.383 7     -1657.641          43.000    21507039.898 6  88067735.049 6     -1291.668          39.000
R05  19332542.734 7 103343612.032 7      -586.191          44.000    19332545.039 6  80378375.160 6      -455.924          41.000
R06  21702322.969 7 115807789.837 7      2997.531          42.000
R20  19452728.594 6 104022478.008 6     -1063.852          40.000    19452731.211 7  80906372.513 7      -827.440          46.000
C05                                                                  39721559.742 5 159942260.250 5       -27.671          35.000
C11  24486760.242 7 127508991.589 7     -3304.496          42.000    24486768.406 7  98598025.743 7     -2555.192          43.000
C14  21485526.523 8 111880792.038 8      -138.598          50.000    21485525.031 8  86513410.918 8      -107.160          51.000
E03  25352449.430 8 133228009.906 8      2290.906          51.000    25352452.062 8 102083883.680 8      1755.388          49.000
E05  23377370.352 8 122848928.526 8       -95.859          51.000    23377372.180 8  94131045.991 8       -73.508          51.000
E36  25550242.617 8 134267399.081 8     -2673.602          49.000    25550243.969 8 102880236.472 8     -2048.703          49.000
> 2020 05 14 21 08  0.0000000  0 16        .000000000000
G01  21398416.078 8 112449428.706 8     -2310.645          50.000    21398420.094 8  87622939.647 8     -1800.502          50.000
G03  20358555.406 8 106984946.624 8      -398.125          51.000    20358556.836 8  83364925.682 8      -310.227          51.000
G04  21163674.156 8 111215856.507 8      2295.629          49.000    21163674.391 7  86661753.580 7      1788.802          46.000
G11  23743712.742 5 124774048.746 5     -3947.793          35.000
G14  24382631.445 5 128131589.837 5     -3140.441          31.000
G22  21516509.328 7 113070040.296 7     -1654.652          42.000    21516504.641 5  88106489.530 5     -1289.339          35.000
R05  19335859.719 7 103361341.983 7      -592.426          46.000    19335862.320 6  80392165.174 6      -460.776          40.000
R06  21685483.719 7 115717932.244 7      2996.707          42.000
R19  22751426.859 4 121704789.830 4     -4348.648          29.000    22751433.727 4  94659309.605 4     -3382.282          28.000
R20  19458749.812 6 104054678.222 6     -1079.426          40.000    19458752.875 7  80931417.110 7      -839.556          47.000
C05                                                                  39721744.227 5 159943002.327 5       -19.902          35.000
C11  24505795.305 6 127608116.286 6     -3300.324          41.000    24505803.250 7  98674675.298 7     -2552.189          44.000
C14  21486333.719 8 111884996.450 8      -138.219          50.000    21486332.414 8  86516662.036 8      -106.934          51.000
E03  25339371.547 8 133159286.562 8      2293.891          51.000    25339373.633 8 102031225.553 8      1757.600          49.000
E05  23377929.195 8 122851864.364 8       -96.477          51.000    23377930.688 8  94133295.533 8       -73.933          51.000
E36  25565505.117 7 134347610.863 7     -2670.348          47.000    25565508.406 8 102941697.453 8     -2046.108          49.000
> 2020 05 14 21 08 30.0000000  0 15        .000000000000
G01  21411706.711 8 112519271.776 8     -2346.969          49.000    21411711.070 8  87677362.816 8     -1828.807          49.000
G03  20360922.367 8 106997385.180 8      -432.488          51.000    20360923.758 8  83374618.060 8      -337.004          51.000
G04  21150675.531 8 111147547.047 8      2256.840          50.000    21150675.734 8  86608525.451 8      1758.580          48.000
G11  23766326.359 6 124892888.551 6     -3976.219          36.000
G22  21526039.430 6 113120122.889 6     -1685.594          39.000    21526035.484 6  88145514.951 6     -1313.450          36.000
R05  19339294.258 7 103379699.224 7      -632.957          44.000    19339295.781 6  80406443.033 6      -492.297          39.000
R06  21668730.383 7 115628531.152 7      2961.996          42.000
R19  22775906.516 5 121835722.937 5     -4381.355          31.000    22775912.047 5  94761151.998 5     -3407.721          30.000
R20  19464941.578 6 104087789.723 6     -1129.633          40.000    19464944.805 7  80957170.463 7      -878.603          47.000
C05                                                                  39721953.445 5 159943845.622 5       -37.941          35.000
C11  24524891.023 6 127707554.861 6     -3330.438          41.000    24524898.430 7  98751567.481 7     -2575.269          44.000
C14  21487221.898 8 111889622.442 8      -171.586          50.000    21487220.805 8  86520239.154 8      -132.714          51.000
E03  25326359.898 8 133090909.541 8      2263.020          51.000    25326361.602 8 101978832.802 8      1733.933          50.000
E05  23378573.812 8 122855251.132 8      -130.926          51.000    23378574.891 8  94135890.589 8      -100.326          51.000
E36  25580830.547 7 134428156.492 7     -2700.938          46.000    25580836.875 8 103003414.262 8     -2069.612          50.000
> 2020 05 14 21 09  0.0000000  0 15        .000000000000
G01  21425075.977 7 112589529.927 7     -2344.352          47.000    21425080.742 7  87732109.428 7     -1826.767          47.000
G03  20363357.742 8 107010182.980 8      -427.945          51.000    20363359.250 8  83384590.365 8      -333.464          51.000
G04  21137769.812 8 111079724.936 8      2257.094          51.000    21137769.711 8  86555677.073 8      1758.774          48.000
G11  23788969.961 6 125011891.428 6     -3965.273          38.000
G22  21535618.148 6 113170461.694 6     -1677.582          38.000    21535614.422 5  88184740.084 5     -1307.210          34.000
R05  19342827.602 7 103398589.067 7      -633.969          42.000    19342829.164 6  80421135.188 6      -493.084          40.000
R06  21652045.734 6 115539495.044 6      2966.711          41.000
R19  22800434.594 5 121966932.676 5     -4373.164          30.000    22800440.836 5  94863204.009 5     -3401.353          31.000
R20  19471286.430 6 104121719.290 6     -1139.938          40.000    19471289.898 8  80983560.112 8      -886.618          48.000
C05                                                                  39722170.281 6 159944717.955 6       -25.974          36.000
C11  24544029.898 6 127807214.912 6     -3321.074          41.000    24544035.883 7  98828630.990 7     -2568.002          42.000
C14  21488173.961 8 111894579.240 8      -166.211          50.000    21488172.781 8  86524072.058 8      -128.437          51.000
E03  25313397.273 8 133022788.522 8      2271.055          51.000    25313398.445 8 101926636.214 8      1740.189          50.000
E05  23379286.695 8 122858997.169 8      -126.164          51.000    23379287.703 8  94138760.941 8       -96.677          51.000
E36  25596202.852 7 134508944.103 7     -2692.488          46.000    25596211.102 8 103065316.463 8     -2062.971          51.000
> 2020 05 14 21 09 30.0000000  0 17        .000000000000
G01  21438499.703 8 112660073.202 8     -2357.688          48.000    21438504.328 8  87787078.206 8     -1837.159          48.000
G03  20365836.859 8 107023210.541 8      -439.508          51.000    20365838.500 8  83394741.712 8      -342.474          51.000
G04  21124932.312 8 111012262.723 8      2241.305          50.000    21124931.961 7  86503109.097 7      1746.471          47.000
G11  23811620.531 6 125130926.195 6     -3969.445          39.000
G17  22046923.438 5 115857364.203 5       237.793          33.000
G22  21545221.023 6 113220927.409 6     -1685.875          39.000    21545217.344 5  88224064.030 5     -1313.666          34.000
R04  21923628.789 4 117400035.629 4     -3387.504          29.000
R05  19346435.789 7 103417878.763 7      -650.863          42.000    19346437.250 6  80436138.242 6      -506.230          39.000
R06  21635404.406 6 115450694.127 6      2954.652          39.000
R19  22824988.484 4 122098277.966 4     -4381.527          29.000    22824993.273 5  94965361.423 5     -3407.855          31.000
R20  19477759.703 6 104156334.977 6     -1166.590          40.000    19477763.859 8  81010483.385 8      -907.348          49.000
C05                                                                  39722369.961 5 159945522.584 5       -26.653          35.000
C11  24563186.445 6 127906966.617 6     -3327.980          40.000    24563190.477 6  98905765.349 6     -2573.487          38.000
C14  21489164.719 8 111899738.312 8      -176.715          50.000    21489163.523 8  86528061.372 8      -136.689          51.000
E03  25300459.031 8 132954795.126 8      2262.840          51.000    25300459.562 8 101874537.414 8      1733.867          51.000
E05  23380043.180 8 122862972.832 8      -137.742          51.000    23380044.234 8  94141807.234 8      -105.513          51.000
E36  25611597.750 8 134589843.709 8     -2699.977          49.000    25611605.922 8 103127304.485 8     -2068.768          51.000
> 2020 05 14 21 10  0.0000000  0 15        .000000000000
G01  21451997.609 8 112731003.321 8     -2370.844          51.000    21452001.125 8  87842348.396 8     -1847.411          51.000
G03  20368379.117 8 107036570.153 8      -450.965          51.000    20368380.773 8  83405151.798 8      -351.401          51.000
G04  21112182.812 8 110945264.621 8      2225.375          49.000    21112182.344 8  86450902.761 8      1734.055          48.000
G11  23834296.930 6 125250092.872 6     -3974.492          41.000
G22  21554867.695 6 113271622.033 6     -1693.785          40.000    21554864.352 4  88263566.310 4     -1319.833          29.000
R05  19350137.812 7 103437670.831 7      -668.156          42.000    19350140.086 6  80451532.091 6      -519.674          41.000
R06  21618826.984 6 115362233.992 6      2942.961          39.000
R19  22849586.164 4 122229877.582 4     -4389.734          27.000    22849590.562 5  95067702.625 5     -3414.238          30.000
R20  19484380.734 6 104191740.865 6     -1193.535          39.000    19484385.039 8  81038021.292 8      -928.308          48.000
C05                                                                  39722572.016 5 159946336.134 5       -27.276          35.000
C11  24582379.570 6 128006909.579 6     -3334.773          39.000    24582381.875 6  98983047.628 6     -2578.447          37.000
C14  21490213.656 8 111905200.733 8      -187.145          50.000    21490212.555 8  86532285.267 8      -144.706          51.000
E03  25287564.312 8 132887032.622 8      2254.941          49.000    25287564.977 8 101822615.527 8      1727.776          51.000
E05  23380862.711 8 122867280.090 8      -149.156          51.000    23380863.484 8  94145107.616 8      -114.253          51.000
E36  25627033.789 8 134670956.962 8     -2707.293          49.000    25627040.930 8 103189456.192 8     -2074.452          51.000
> 2020 05 14 21 10 30.0000000  0 16        .000000000000
G01  21465554.539 8 112802242.478 8     -2381.516          51.000    21465557.094 8  87897859.385 8     -1855.730          51.000
G03  20370969.828 8 107050184.495 8      -459.645          51.000    20370971.398 8  83415760.371 8      -358.165          51.000
G04  21099507.086 7 110878655.317 7      2212.188          47.000    21099506.992 7  86398999.415 7      1723.786          47.000
G09  23553522.039 6 123774641.528 6      3559.465          36.000    23553521.648 6  96447732.325 6      2773.609          36.000
G11  23856983.688 6 125369312.319 6     -3976.469          41.000    23856973.062 5  97690314.469 5     -3098.547          31.000
G17  22044430.641 5 115844233.715 5       199.312          32.000    22044436.078 4  90268256.379 4       155.308          28.000
G22  21564543.594 6 113322468.027 6     -1699.336          40.000    21564539.664 5  88303186.575 5     -1324.161          33.000
R05  19353919.016 7 103457885.390 7      -682.504          44.000    19353922.211 6  80467254.530 6      -530.839          40.000
R06  21602299.445 6 115274037.323 6      2933.855          40.000
R20  19491134.195 6 104227857.938 6     -1217.480          38.000    19491138.828 8  81066112.333 8      -946.929          48.000
C05                                                                  39722762.062 5 159947101.834 5       -25.919          35.000
C11  24601594.539 6 128106965.588 6     -3338.477          40.000    24601597.062 5  99060417.413 5     -2581.972          35.000
C14  21491306.031 8 111910889.690 8      -194.988          49.000    21491305.203 8  86536684.343 8      -150.853          51.000
E03  25274698.375 8 132819424.833 8      2249.391          48.000    25274700.328 8 101770812.183 8      1723.610          51.000
E05  23381730.688 8 122871841.466 8      -157.898          51.000    23381730.984 8  94148602.706 8      -121.035          51.000
E36  25642495.805 8 134752206.053 8     -2712.102          50.000    25642501.531 8 103251711.966 8     -2078.161          50.000
> 2020 05 14 21 11  0.0000000  0 16        .000000000000
G01  21479192.148 8 112873905.227 8     -2395.074          51.000    21479194.188 8  87953700.440 8     -1866.292          51.000
G03  20373630.977 8 107064168.696 8      -471.637          51.000    20373632.406 8  83426657.137 8      -367.509          51.000
G04  21086927.430 7 110812551.828 7      2195.688          47.000    21086927.984 7  86347490.219 7      1710.925          47.000
G09  23533223.602 5 123667980.107 5      3551.617          35.000    23533224.289 5  96364619.551 5      2767.491          35.000
G11  23879702.320 7 125488697.927 7     -3981.625          42.000    23879692.727 4  97783342.169 4     -3102.568          29.000
G17  22043351.883 5 115838551.371 5       179.977          35.000    22043355.438 6  90263828.535 6       140.238          36.000
G22  21574270.148 7 113373580.321 7     -1707.648          42.000    21574265.414 5  88343014.393 5     -1330.635          32.000
R05  19357801.406 7 103478637.923 7      -700.035          42.000    19357803.906 6  80483395.340 6      -544.472          39.000
R06  21585842.969 6 115186222.041 6      2921.641          39.000
R20  19498043.344 6 104264802.959 6     -1244.645          38.000    19498047.664 8  81094847.351 8      -968.057          48.000
C05                                                                  39722961.953 5 159947906.714 5       -26.959          35.000
C11  24620853.016 6 128207247.070 6     -3345.777          40.000    24620857.188 5  99137961.527 5     -2587.451          33.000
C14  21492463.680 8 111916919.031 8      -205.949          50.000    21492463.070 8  86541346.604 8      -159.253          51.000
E03  25261884.023 8 132752087.822 8      2240.750          48.000    25261887.250 8 101719216.321 8      1716.929          51.000
E05  23382668.602 8 122876771.729 8      -169.789          51.000    23382669.133 8  94152380.450 8      -130.056          51.000
E36  25658005.594 8 134833705.485 8     -2720.035          50.000    25658009.719 8 103314159.563 8     -2084.243          51.000
> 2020 05 14 21 11 30.0000000  0 16        .000000000000
G01  21492898.227 8 112945928.437 8     -2406.902          51.000    21492900.023 8  88009822.402 8     -1875.508          51.000
G03  20376350.594 8 107078460.139 8      -481.699          51.000    20376351.938 8  83437793.318 8      -375.353          51.000
G04  21074432.508 7 110746893.560 7      2181.035          47.000    21074433.766 7  86296327.954 7      1699.511          47.000
G09  23512960.266 6 123561438.389 6      3546.297          37.000    23512963.141 6  96281644.498 6      2763.348          36.000
G11  23902440.438 7 125608184.950 7     -3984.535          44.000    23902432.188 4  97876448.910 4     -3104.827          27.000
G17  22042380.266 5 115833432.836 5       160.945          32.000    22042378.625 5  90259839.990 5       125.406          32.000
G22  21584035.352 6 113424896.486 6     -1714.055          41.000    21584031.812 5  88383000.995 5     -1335.627          33.000
R05  19361772.266 7 103499863.406 7      -715.590          43.000    19361774.414 6  80499904.049 6      -556.570          40.000
R06  21569445.594 6 115098726.497 6      2911.172          37.000
R20  19505095.258 6 104302511.922 6     -1269.828          38.000    19505099.422 8  81124176.536 8      -987.644          48.000
C05                                                                  39723159.820 6 159948703.141 6       -26.469          36.000
C11  24640142.484 6 128307690.354 6     -3351.125          39.000    24640149.148 6  99215630.618 6     -2591.154          36.000
C14  21493675.070 8 111923226.503 8      -215.086          50.000    21493674.172 8  86546223.926 8      -166.188          51.000
E03  25249109.961 8 132684960.055 8      2234.098          49.000    25249113.859 8 101667780.788 8      1711.766          51.000
E05  23383664.930 8 122882008.159 8      -179.738          51.000    23383665.953 8  94156392.793 8      -137.635          51.000
E36  25673550.781 8 134915392.217 8     -2726.133          49.000    25673553.984 8 103376750.667 8     -2088.795          51.000
> 2020 05 14 21 12  0.0000000  0 15        .000000000000
G01  21506678.797 8 113018345.204 8     -2419.012          51.000    21506680.617 8  88066251.050 8     -1884.944          51.000
G03  20379135.047 8 107093092.583 8      -491.922          51.000    20379136.383 8  83449195.232 8      -383.316          51.000
G04  21062029.562 8 110681716.053 8      2165.938          49.000    21062030.883 7  86245540.315 7      1687.747          47.000
G09  23492738.180 6 123455166.458 6      3540.531          39.000    23492740.703 6  96198835.213 6      2758.856          39.000
G11  23925203.742 6 125727805.084 6     -3988.184          40.000    23925196.461 4  97969659.350 4     -3107.676          26.000
G17  22041520.117 4 115828969.897 4       142.270          28.000
G22  21593845.758 7 113476450.165 7     -1721.035          43.000    21593843.430 5  88423172.659 5     -1341.066          35.000
R05  19365838.438 6 103521594.990 6      -731.598          41.000    19365840.180 6  80516806.380 6      -569.017          39.000
R06  21553115.484 6 115011585.863 6      2900.031          39.000
R20  19512296.281 6 104341018.910 6     -1295.441          38.000    19512300.391 8  81154126.428 8     -1007.566          48.000
C11  24659469.781 6 128408327.187 6     -3356.492          39.000    24659477.031 6  99293449.450 6     -2595.537          37.000
C14  21494946.188 8 111929845.203 8      -224.316          49.000    21494945.117 8  86551341.936 8      -173.510          51.000
E03  25236382.789 8 132618076.268 8      2226.906          50.000    25236386.641 8 101616532.191 8      1706.325          51.000
E05  23384726.016 8 122887584.146 8      -190.125          51.000    23384727.352 8  94160665.313 8      -145.731          51.000
E36  25689137.656 8 134997299.291 8     -2732.414          49.000    25689140.344 8 103439510.619 8     -2093.734          51.000
> 2020 05 14 21 12 30.0000000  0 15        .000000000000
G01  21520540.516 8 113091190.480 8     -2431.441          51.000    21520542.500 8  88123013.600 8     -1894.630          51.000
G03  20381991.055 8 107108101.477 8      -502.609          51.000    20381992.453 8  83460890.483 8      -391.644          51.000
G04  21049725.695 8 110617056.734 8      2150.496          50.000    21049726.797 8  86195156.466 8      1675.714          48.000
G09  23472563.906 6 123349145.294 6      3533.754          40.000    23472566.344 6  96116221.351 6      2753.578          40.000
G11  23947998.930 6 125847592.037 6     -3991.461          36.000
G22  21603707.992 7 113528276.408 7     -1728.344          43.000    21603706.617 5  88463556.738 5     -1346.761          34.000
R05  19370004.477 7 103543867.258 7      -747.496          44.000    19370007.086 6  80534129.295 6      -581.389          39.000
R06  21536859.258 6 114924837.889 6      2889.316          38.000
R20  19519653.344 6 104380359.503 6     -1321.250          39.000    19519657.359 8  81184724.632 8     -1027.639          48.000
C05                                                                  39723576.195 5 159950378.428 5       -26.587          35.000
C11  24678841.391 6 128509191.000 6     -3362.297          40.000    24678847.828 6  99371443.715 6     -2599.766          39.000
C14  21496283.531 8 111936810.084 8      -234.004          49.000    21496282.648 8  86556727.650 8      -181.040          51.000
E03  25223708.695 8 132551473.025 8      2219.219          49.000    25223712.344 8 101565498.541 8      1700.515          51.000
E05  23385858.070 8 122893534.881 8      -200.664          51.000    23385859.797 8  94165224.979 8      -153.857          51.000
E36  25704773.133 8 135079461.693 8     -2739.051          49.000    25704775.102 8 103502466.229 8     -2098.816          51.000
> 2020 05 14 21 13  0.0000000  0 16        .000000000000
G01  21534457.578 8 113164325.955 8     -2442.609          51.000    21534459.328 8  88180002.297 8     -1903.332          51.000
G03  20384892.539 8 107123349.101 8      -511.992          51.000    20384893.859 8  83472771.738 8      -398.955          51.000
G04  21037494.562 8 110552779.703 8      2136.340          50.000    21037495.570 8  86145070.510 8      1664.680          48.000
G09  23452411.891 6 123243239.535 6      3528.297          41.000    23452413.969 6  96033697.409 6      2749.325          41.000
G11  23970799.609 5 125967406.406 5     -3993.719          33.000
G22  21613595.773 7 113580237.613 7     -1733.883          42.000    21613594.586 6  88504045.989 6     -1351.078          37.000
R05  19374246.078 6 103566538.640 6      -761.984          41.000    19374248.773 6  80551762.576 6      -592.651          39.000
R06  21520650.227 6 114838343.711 6      2879.133          37.000
R20  19527140.078 6 104420393.245 6     -1345.820          39.000    19527143.727 8  81215861.976 8     -1046.752          48.000
C05                                                                  39723775.273 5 159951181.640 5       -25.481          35.000
C11  24698230.070 6 128610143.709 6     -3366.660          38.000    24698234.664 6  99449506.724 6     -2603.001          38.000
C14  21497661.297 8 111943984.385 8      -242.367          50.000    21497660.492 8  86562275.266 8      -187.489          51.000
E03  25211061.359 8 132485013.561 8      2213.008          49.000    25211064.758 8 101514575.066 8      1695.741          49.000
E05  23387035.352 8 122899722.398 8      -209.945          51.000    23387037.258 8  94169966.053 8      -160.915          51.000
E09  24059207.711 5 126431934.019 5     -2390.426          33.000
E36  25720430.812 8 135161741.051 8     -2744.426          49.000    25720432.406 8 103565511.451 8     -2102.893          50.000
> 2020 05 14 21 13 30.0000000  0 16        .000000000000
G01  21548448.102 8 113237846.078 8     -2455.191          51.000    21548449.258 8  88237290.690 8     -1913.136          51.000
G03  20387857.625 8 107138930.513 8      -523.082          51.000    20387858.734 8  83484913.088 8      -407.596          51.000
G04  21025354.445 8 110488981.936 8      2120.496          49.000    21025355.367 8  86095357.982 8      1652.335          48.000
G09  23432300.461 7 123137546.708 7      3521.223          43.000    23432302.328 7  95951339.396 7      2743.810          43.000
G11  23993626.914 5 126087362.095 5     -3998.887          30.000
G22  21623527.602 7 113632429.076 7     -1741.766          42.000    21623526.039 5  88544714.643 5     -1357.220          35.000
R05  19378578.977 7 103589704.396 7      -778.473          42.000    19378582.742 6  80569780.437 6      -605.479          38.000
R06  21504507.109 6 114752201.661 6      2867.461          38.000
R20  19534773.984 6 104461216.528 6     -1372.113          39.000    19534778.000 8  81247613.401 8     -1067.199          48.000
C05                                                                  39723977.883 5 159951996.797 5       -26.182          35.000
C11  24717653.133 5 128711277.949 5     -3372.820          35.000    24717655.453 6  99527710.088 6     -2607.644          38.000
C14  21499097.289 8 111951462.085 8      -252.387          49.000    21499096.688 8  86568057.496 8      -195.219          51.000
E03  25198459.875 8 132418793.935 8      2205.258          50.000    25198461.812 8 101463835.349 8      1689.701          48.000
E05  23388275.922 8 122906241.447 8      -220.910          51.000    23388278.117 8  94174961.168 8      -169.257          51.000
E09  24072881.711 5 126503849.349 5     -2394.613          34.000
E36  25736128.469 8 135244231.924 8     -2751.297          50.000    25736129.977 8 103628718.729 8     -2108.098          50.000
> 2020 05 14 21 14  0.0000000  0 14        .000000000000
G01  21562501.875 8 113311698.142 8     -2469.176          51.000    21562502.750 8  88294837.713 8     -1924.033          51.000
G03  20390876.297 8 107154793.589 8      -535.367          51.000    20390877.430 8  83497273.924 8      -417.169          51.000
G04  21013295.617 8 110425613.174 8      2103.145          49.000    21013296.391 8  86045979.732 8      1638.814          48.000
G09  23412220.086 7 123032017.090 7      3513.168          42.000    23412221.664 7  95869108.547 7      2737.530          42.000
G11  24016459.617 5 126207344.585 5     -4003.379          34.000
G22  21633493.398 7 113684798.091 7     -1750.543          45.000    21633491.000 6  88585521.670 6     -1364.056          37.000
R05  19382994.859 6 103613310.272 6      -796.242          40.000    19382997.398 6  80588140.494 6      -619.299          38.000
R06  21488420.914 5 114666359.725 5      2854.258          35.000
R20  19542545.305 6 104502775.401 6     -1399.461          39.000    19542550.031 8  81279936.957 8     -1088.470          50.000
C11  24737100.414 5 128812540.195 5     -3379.008          34.000    24737100.203 6  99606012.508 6     -2613.292          36.000
C14  21500581.578 8 111959191.297 8      -263.770          49.000    21500581.211 8  86574034.218 8      -203.991          51.000
E03  25185894.781 8 132352763.055 8      2195.914          51.000    25185895.547 8 101413240.290 8      1682.610          48.000
E05  23389569.523 8 122913039.713 8      -233.223          51.000    23389572.242 8  94180170.245 8      -178.724          51.000
E36  25751856.383 8 135326881.583 8     -2759.547          51.000    25751857.320 8 103692047.667 8     -2114.467          48.000
> 2020 05 14 21 14 30.0000000  0 15        .000000000000
G01  21576631.609 8 113385950.626 8     -2481.094          50.000    21576632.430 8  88352696.767 8     -1933.320          50.000
G03  20393961.734 8 107171007.418 8      -545.707          51.000    20393962.953 8  83509908.087 8      -425.226          51.000
G04  21001331.836 8 110362744.303 8      2087.938          49.000    21001332.180 7  85996990.982 7      1626.964          47.000
G09  23392184.602 6 122926722.252 6      3506.684          41.000    23392185.555 6  95787060.653 6      2732.481          41.000
G11  24039313.859 5 126327474.583 5     -4005.453          34.000
G22  21643505.781 7 113737413.864 7     -1757.359          44.000    21643503.289 5  88626521.028 5     -1369.371          35.000
R05  19387504.688 7 103637424.928 7      -811.789          43.000    19387509.570 6  80606896.402 6      -631.391          40.000
R06  21472403.992 5 114580889.829 5      2843.430          35.000
R20  19550467.477 6 104545139.861 6     -1425.004          39.000    19550472.734 8  81312887.058 8     -1108.339          50.000
C05                                                                  39724377.141 6 159953604.333 6       -27.125          36.000
C11  24756584.586 5 128913997.542 5     -3385.703          31.000    24756582.023 5  99684465.670 5     -2616.995          35.000
C14  21502127.445 8 111967240.172 8      -273.031          49.000    21502126.859 8  86580258.114 8      -211.104          51.000
