     3.02           OBSERVATION DATA    M (MIXED)           RINEX VERSION / TYPE
SAVERINEX           SC600               20200501 145930 LCL PGM / RUN BY / DATE
       G = GPS       R = GLONASS       C = COMPASS          COMMENT
       S = SBAS      J = QZSS          E = GALILEO          COMMENT
BEAN                                                        MARKER NAME
1                                                           MARKER NUMBER
GEODETIC                                                    MARKER TYPE
Unige DICCA         GTER                                    OBSERVER / AGENCY
SC60291900056       SC600               2.12(191226)        REC # / TYPE / VERS
                    HEMA45          NONE                    ANT # / TYPE
  4509407.8091   693652.4678  4442337.6214                  APPROX POSITION XYZ
        0.0000        0.0000        0.0000                  ANTENNA: DELTA H/E/N
G    8 C1C L1C D1C S1C C2Y L2Y D2Y S2Y                      SYS / # / OBS TYPES
R    8 C1C L1C D1C S1C C2P L2P D2P S2P                      SYS / # / OBS TYPES
C    8 C1I L1I D1I S1I C7I L7I D7I S7I                      SYS / # / OBS TYPES
E    8 C1C L1C D1C S1C C7Q L7Q D7Q S7Q                      SYS / # / OBS TYPES
DBHZ                                                        COMMENT
     30.000                                                 INTERVAL
  2020    05    01    12    00    0.0000000     GPS         TIME OF FIRST OBS
  2020    05    01    12    59   30.0000000     GPS         TIME OF LAST OBS
     0                                                      RCV CLOCK OFFS APPL
G L1C  0.00000                                              SYS / PHASE SHIFT
G L2Y  0.00000                                              SYS / PHASE SHIFT
R L1C  0.00000                                              SYS / PHASE SHIFT
R L2P  0.25000                                              SYS / PHASE SHIFT
C L1I  0.00000                                              SYS / PHASE SHIFT
C L7I  0.00000                                              SYS / PHASE SHIFT
E L1C  0.50000                                              SYS / PHASE SHIFT
E L7Q -0.25000                                              SYS / PHASE SHIFT
 12 R02 -4 R03  5 R04  6 R05  1 R10 -5 R13 -2 R14 -7 R15  0 GLONASS SLOT / FRQ #
    R16 -1 R17  4 R18 -3 R19  3                             GLONASS SLOT / FRQ #
 C1C   71.950 C2C   71.950 C2P   71.950                     GLONASS COD/PHS/BIS
    18                                                      LEAP SECONDS
*** Above antenna height is from mark to ANTENNA BOTTOM.    COMMENT
    17     4        0.0000        ANT MEASURE TYPE/HEIGT    COMMENT
    0.0000    0.0000    0.0458    0.0405    0.0000          COMMENT
                    BASE STATION                            COMMENT
                                                            END OF HEADER
> 2020 05 01 12 00  0.0000000  0 16        .000000000000
G02  24116839.852 5 126734850.421 5     -2430.426          33.000
G14  23558277.086 6 123799572.020 6     -2013.605          38.000    23558285.062 5  96467242.214 5     -1569.043          35.000
G18  23295427.648 5 122418301.653 5      3593.398          33.000    23295435.672 5  95390923.218 5      2800.051          32.000
G21  23154316.977 6 121676753.160 6      3296.461          38.000    23154322.742 5  94813070.685 5      2568.674          32.000
G25  20722671.883 8 108898374.683 8     -1499.781          51.000    20722674.102 8  84855877.280 8     -1168.661          51.000
G29  20209168.477 8 106199913.888 8       121.578          51.000    20209168.422 8  82753174.330 8        94.736          51.000
R15  21169316.312 8 113122355.724 8     -3013.293          51.000    21169319.805 7  87984069.177 7     -2343.672          47.000
R16  19228125.109 7 102713203.640 7       579.387          47.000    19228127.125 7  79888050.460 7       450.634          44.000
R18  19141173.438 8 102176999.302 8       -51.527          49.000    19141178.359 8  79470992.388 8       -40.080          49.000
R19  21067238.289 6 112695527.358 6      3527.172          39.000    21067241.234 6  87652071.755 6      2743.356          41.000
C27  24683824.977 6 128535143.030 6     -2921.938          38.000
C29  23062155.758 8 120090720.566 8      2441.336          48.000
C30  21576951.758 8 112356834.345 8      -544.977          50.000
E01  24325364.172 8 127830627.577 8     -1314.078          51.000    24325367.094 8  97948153.552 8     -1006.906          51.000
E26  23372526.117 7 122823436.175 7     -1013.277          44.000    23372529.945 6  94111475.841 6      -776.533          41.000
E33  24212977.047 8 127240106.460 8      1830.434          51.000    24212978.680 8  97495665.708 8      1402.522          51.000
> 2020 05 01 12 00 30.0000000  0 16        .000000000000
G02  24130746.922 6 126807915.847 6     -2434.855          37.000
G14  23569798.523 5 123860118.645 5     -2017.516          35.000    23569807.523 5  96514421.346 5     -1572.090          34.000
G18  23274922.828 6 122310549.450 6      3595.199          37.000    23274932.352 5  95306960.516 5      2801.454          35.000
G21  23135509.922 6 121577916.840 6      3297.441          37.000    23135516.125 5  94736055.417 5      2569.441          34.000
G25  20731257.844 8 108943494.369 8     -1503.035          51.000    20731260.406 8  84891035.457 8     -1171.196          51.000
G29  20208511.672 8 106196462.656 8       113.754          51.000    20208512.055 8  82750485.061 8        88.639          51.000
R15  21186264.336 8 113212924.086 8     -3019.289          50.000    21186268.273 7  88054511.221 7     -2348.336          45.000
R16  19224919.969 8 102696082.114 8       567.375          48.000    19224921.852 7  79874733.724 7       441.292          44.000
R18  19141526.555 8 102178885.843 8       -69.070          50.000    19141531.750 8  79472459.724 8       -53.721          49.000
R19  21047493.023 6 112589904.632 6      3519.438          38.000    21047496.422 6  87569920.823 6      2737.343          41.000
C27  24700667.641 6 128622842.396 6     -2919.488          39.000
C29  23048113.281 8 120017596.332 8      2438.805          50.000
C30  21580123.852 8 112373353.174 8      -551.211          50.000
E01  24332881.406 8 127870131.215 8     -1314.414          51.000    24332884.336 8  97978422.566 8     -1007.154          51.000
E26  23378340.867 6 122853992.836 6     -1018.605          38.000    23378344.398 6  94134889.408 6      -780.517          41.000
E33  24202554.852 8 127185337.067 8      1825.984          51.000    24202556.055 8  97453699.588 8      1399.110          51.000
> 2020 05 01 12 01  0.0000000  0 17        .000000000000
G02  24144708.805 6 126881276.419 6     -2453.215          38.000
G12  22812157.039 4 119878698.853 4     -2787.672          29.000    22812149.789 4  93411946.242 4     -2172.224          29.000
G14  23581381.375 6 123920986.856 6     -2037.145          37.000    23581390.578 6  96561851.083 6     -1587.385          36.000
G18  23254444.258 6 122202929.823 6      3582.484          40.000    23254452.570 6  95223101.099 6      2791.546          38.000
G21  23116737.031 5 121479260.149 5      3282.785          35.000    23116742.875 4  94659180.046 4      2558.020          28.000
G25  20739900.211 8 108988910.050 8     -1521.270          51.000    20739902.648 8  84926424.280 8     -1185.405          51.000
G29  20207936.586 8 106193440.972 8        90.867          51.000    20207937.219 8  82748130.510 8        70.806          51.000
R15  21203283.422 8 113303870.699 8     -3040.543          51.000    21203287.258 7  88125247.440 7     -2364.867          46.000
R16  19221819.555 8 102679519.690 8       539.957          48.000    19221821.062 7  79861851.847 7       419.967          44.000
R18  19142015.906 8 102181496.919 8      -101.867          51.000    19142020.836 8  79474490.573 8       -79.230          50.000
R19  21027828.750 6 112484718.733 6      3496.129          37.000    21027832.883 6  87488109.630 6      2719.214          41.000
C27  24717530.547 6 128710649.251 6     -2931.465          36.000
C29  23034122.852 8 119944740.354 8      2421.438          51.000
C30  21583369.500 8 112390253.998 8      -572.480          50.000
E01  24340437.297 8 127909838.276 8     -1329.688          51.000    24340440.344 8  98008847.445 8     -1018.834          51.000
E26  23384223.523 6 122884906.364 6     -1039.004          38.000    23384226.547 6  94158576.486 6      -796.270          41.000
E33  24192194.727 8 127130894.689 8      1806.547          51.000    24192195.539 8  97411984.051 8      1384.285          51.000
> 2020 05 01 12 01 30.0000000  0 17        .000000000000
G02  24158743.844 6 126955026.452 6     -2462.363          36.000
G12  22828083.984 5 119962394.399 5     -2792.629          34.000
G14  23593043.102 6 123982270.623 6     -2047.367          38.000    23593051.195 5  96609604.576 5     -1595.351          34.000
G18  23234010.156 6 122095542.067 6      3578.211          40.000    23234016.555 5  95139422.422 5      2788.222          35.000
G21  23098016.336 5 121380882.141 5      3277.137          35.000    23098022.633 4  94582521.856 4      2553.616          29.000
G25  20748617.234 8 109034717.925 8     -1531.098          51.000    20748619.477 8  84962118.734 8     -1193.063          51.000
G29  20207461.195 8 106190944.551 8        76.930          51.000    20207462.203 8  82746185.280 8        59.945          51.000
R15  21220391.805 8 113395291.926 8     -3052.836          51.000    21220395.625 7  88196352.801 7     -2374.431          46.000
R16  19218842.508 8 102663616.563 8       521.539          48.000    19218844.188 7  79849482.742 7       405.641          44.000
R18  19142659.211 8 102184929.307 8      -125.605          51.000    19142663.836 8  79477160.212 8       -97.693          48.000
R19  21008264.531 6 112380070.172 6      3482.188          36.000    21008269.008 6  87406716.325 6      2708.368          40.000
C27  24734431.633 5 128798657.412 5     -2934.125          32.000
C29  23020202.664 8 119872249.187 8      2412.652          51.000
C30  21586706.281 8 112407631.233 8      -584.762          50.000
E01  24348050.461 8 127949845.356 8     -1336.117          51.000    24348053.445 8  98039502.216 8     -1023.820          51.000
E26  23390192.758 6 122916272.350 6     -1050.773          36.000    23390194.688 6  94182610.102 6      -805.120          40.000
E33  24181915.422 8 127076876.747 8      1795.902          51.000    24181915.789 8  97370593.751 8      1376.090          50.000
> 2020 05 01 12 02  0.0000000  0 17        .000000000000
G02  24172836.477 5 127029083.857 5     -2473.277          34.000
G12  22844048.945 4 120046288.931 4     -2797.879          29.000    22844050.945 4  93542551.549 4     -2180.165          29.000
G14  23604767.867 6 124043887.358 6     -2059.000          37.000    23604774.664 5  96657617.679 5     -1604.409          32.000
G18  23213605.164 7 121988308.802 7      3571.980          42.000    23213609.234 5  95055864.097 5      2783.361          33.000
G21  23079333.523 6 121282705.118 6      3269.223          37.000    23079340.266 5  94506020.261 5      2547.440          33.000
G25  20757393.508 8 109080837.322 8     -1542.570          51.000    20757395.711 8  84998055.916 8     -1202.003          51.000
G29  20207070.430 8 106188892.200 8        61.020          51.000    20207071.648 8  82744586.054 8        47.548          51.000
R15  21237573.242 8 113487104.708 8     -3067.000          51.000    21237577.609 7  88267762.665 7     -2385.447          47.000
R16  19215973.844 8 102648292.677 8       501.023          48.000    19215975.766 7  79837564.164 7       389.685          44.000
R17  21423869.336 5 114643465.464 5     -3561.871          30.000
R18  19143440.758 8 102189100.079 8      -151.391          51.000    19143445.109 8  79480404.163 8      -117.748          49.000
R19  20988787.258 6 112275880.219 6      3465.203          38.000    20988790.867 6  87325679.727 6      2695.161          41.000
C29  23006337.219 8 119800044.224 8      2401.984          51.000
C30  21590118.953 8 112425404.212 8      -599.207          50.000
E01  24355705.562 8 127990072.327 8     -1344.602          51.000    24355708.188 8  98070325.476 8     -1030.306          51.000
E26                                                                  23396234.094 6  94206927.884 6      -815.437          40.000
E33  24171702.125 8 127023203.860 8      1783.234          51.000    24171701.859 8  97329467.818 8      1366.377          50.000
> 2020 05 01 12 02 30.0000000  0 16        .000000000000
G02  24187005.906 5 127103547.897 5     -2505.598          33.000
G12  22860057.156 5 120130424.274 5     -2825.902          33.000    22860061.445 5  93608116.113 5     -2201.996          30.000
G14  23616574.648 6 124105935.856 6     -2092.129          37.000    23616580.648 5  96705966.991 5     -1630.242          32.000
G18  23193249.180 7 121881334.585 7      3544.672          43.000    23193251.305 5  94972507.664 5      2762.085          35.000
G21  23060709.133 6 121184833.033 6      3240.207          40.000    23060714.828 4  94429756.323 4      2524.834          29.000
G25  20766248.336 8 109127369.743 8     -1574.648          51.000    20766250.641 8  85034314.933 8     -1227.002          51.000
G29  20206783.609 8 106187384.905 8        24.562          51.000    20206784.891 8  82743411.551 8        19.140          51.000
R15  21254847.227 8 113579411.238 8     -3101.996          51.000    21254851.562 7  88339556.566 7     -2412.667          45.000
R16  19213233.328 7 102633653.434 7       459.523          47.000    19213235.211 7  79826178.092 7       357.407          44.000
R18  19144379.672 8 102194111.310 8      -197.965          51.000    19144383.781 8  79484301.795 8      -153.973          48.000
R19  20969416.539 6 112172255.263 6      3427.777          40.000    20969419.031 7  87245082.590 7      2666.052          42.000
C29  22992545.195 8 119728227.221 8      2370.961          50.000
C30  21593627.148 8 112443672.659 8      -633.824          51.000
E01  24363421.609 8 128030621.086 8     -1373.734          51.000    24363424.258 8  98101395.289 8     -1052.566          51.000
E26  23402388.977 6 122980369.967 6     -1098.211          36.000    23402363.359 6  94231606.886 6      -841.537          40.000
E33  24161573.984 8 126969978.667 8      1750.035          51.000    24161573.320 8  97288684.923 8      1340.888          50.000
> 2020 05 01 12 03  0.0000000  0 14        .000000000000
G14  23628465.141 6 124168422.892 6     -2080.418          38.000    23628468.352 5  96754658.067 5     -1621.108          32.000
G18  23172944.312 7 121774631.685 7      3561.555          43.000    23172944.859 5  94889362.608 5      2775.234          33.000
G21  23042144.969 6 121087277.890 6      3256.047          40.000    23042149.516 5  94353739.405 5      2537.182          30.000
G25  20775183.547 8 109174324.188 8     -1562.672          51.000    20775186.016 8  85070902.810 8     -1217.663          51.000
G29  20206602.352 8 106186431.406 8        32.047          51.000    20206603.641 8  82742668.563 8        24.972          51.000
R15  21272215.398 8 113672219.523 8     -3092.191          51.000    21272219.070 7  88411740.756 7     -2405.038          45.000
R16  19210623.023 7 102619710.346 7       462.695          46.000    19210624.906 7  79815333.468 7       359.874          44.000
R18  19145477.586 8 102199971.141 8      -199.785          51.000    19145481.281 8  79488859.449 8      -155.388          48.000
R19  20950153.992 6 112069207.498 6      3434.648          40.000    20950155.445 6  87164934.397 6      2671.396          41.000
C29  22978829.641 8 119656808.346 8      2383.465          51.000
C30  21597231.867 8 112462444.725 8      -624.711          51.000
E01  24371200.664 8 128071501.157 8     -1358.629          51.000    24371203.281 8  98132718.971 8     -1041.048          51.000
E26                                                                  23408583.484 6  94256653.405 6      -833.797          39.000
E33  24151532.805 8 126917211.473 8      1760.863          51.000    24151532.164 8  97248252.955 8      1349.230          51.000
> 2020 05 01 12 03 30.0000000  0 16        .000000000000
G14  23640346.461 6 124230859.580 6     -2081.520          38.000    23640347.008 5  96803309.999 5     -1621.960          30.000
G18  23152598.688 7 121667716.972 7      3566.059          42.000    23152598.680 4  94806052.564 4      2778.756          27.000
G21  23023549.391 6 120989556.754 6      3258.488          40.000    23023552.414 4  94277593.109 4      2539.082          28.000
G25  20784106.516 8 109221214.467 8     -1563.285          51.000    20784108.961 8  85107440.682 8     -1218.147          51.000
G29  20206433.688 8 106185544.735 8        26.996          51.000    20206434.938 8  82741977.664 8        21.036          51.000
R15  21289584.711 8 113765034.071 8     -3095.348          50.000    21289587.695 7  88483929.799 7     -2407.496          46.000
R16  19208050.656 7 102605970.941 7       453.102          46.000    19208052.859 7  79804647.269 7       352.412          44.000
R17  21484082.375 5 114965588.575 5     -3583.191          33.000    21484079.703 4  89417713.695 4     -2786.927          25.000
R18  19146641.734 8 102206184.751 8      -214.520          51.000    19146645.438 8  79493692.289 8      -166.849          48.000
R19  20930906.680 6 111966245.062 6      3429.047          38.000    20930907.391 6  87084852.579 6      2667.039          40.000
C27  24802286.680 4 129152016.104 4     -2941.434          29.000
C29  22965099.086 8 119585307.024 8      2383.336          51.000
C30  21600840.852 8 112481237.827 8      -628.168          51.000
E01  24378950.625 8 128112226.761 8     -1356.340          51.000    24378953.203 8  98163924.294 8     -1039.306          51.000
E26  23414800.445 6 123045603.058 6     -1090.648          40.000    23414801.898 6  94281694.233 6      -835.593          38.000
E33  24141486.336 8 126864417.252 8      1758.828          51.000    24141486.000 8  97207800.275 8      1347.676          51.000
> 2020 05 01 12 04  0.0000000  0 16        .000000000000
G14  23652330.250 6 124293834.627 6     -2105.891          38.000    23652328.180 5  96852381.388 5     -1640.951          35.000
G18  23132325.320 6 121561184.432 6      3547.043          41.000    23132324.477 5  94723040.365 5      2763.936          30.000
G21  23005035.242 6 120892263.039 6      3238.203          39.000    23005037.453 5  94201779.858 5      2523.275          30.000
G25  20793129.750 8 109268631.380 8     -1587.207          51.000    20793132.164 8  85144388.930 8     -1236.785          51.000
G29  20206390.070 8 106185315.320 8        -1.070          51.000    20206390.945 8  82741798.893 8         -.834          51.000
R15  21307067.047 8 113858454.332 8     -3121.898          49.000    21307070.555 7  88556589.939 7     -2428.146          46.000
R16  19205629.328 7 102593037.671 7       419.898          46.000    19205631.891 7  79794588.063 7       326.588          44.000
R17  21504273.008 5 115073613.940 5     -3607.309          34.000    21504268.781 4  89501733.481 4     -2805.681          26.000
R18  19147984.203 8 102213351.042 8      -252.473          51.000    19147987.328 7  79499266.075 7      -196.368          47.000
R19  20911787.125 6 111863972.309 6      3399.777          36.000    20911788.062 6  87005307.186 6      2644.274          39.000
C27  24819310.992 5 129240662.053 5     -2958.059          31.000
C29  22951465.195 8 119514309.950 8      2360.367          51.000
C30  21604566.359 8 112500636.550 8      -654.492          51.000
E01  24386783.469 8 128153389.184 8     -1377.188          51.000    24386785.992 8  98195464.315 8     -1055.194          51.000
E26  23421129.242 6 123078865.985 6     -1116.152          41.000    23421130.914 6  94307181.431 6      -855.222          38.000
E33  24131547.211 8 126812188.001 8      1733.754          50.000    24131547.289 8  97167780.481 8      1328.467          51.000
> 2020 05 01 12 04 30.0000000  0 16        .000000000000
G14  23664383.680 6 124357174.273 6     -2130.074          39.000    23664379.195 5  96901736.924 5     -1659.795          30.000
G18  23112092.664 6 121454866.112 6      3527.574          38.000
G21  22986570.500 6 120795228.650 6      3217.043          38.000    22986572.023 4  94126168.782 4      2506.775          25.000
G25  20802220.516 8 109316403.702 8     -1611.242          51.000    20802223.133 8  85181614.128 8     -1255.513          51.000
G29  20206438.898 8 106185571.372 8       -29.625          51.000    20206439.570 8  82741998.426 8       -23.084          51.000
R15  21324629.430 8 113952305.105 8     -3148.750          48.000    21324633.688 7  88629585.009 7     -2449.025          44.000
R16  19203326.516 7 102580738.776 7       386.234          45.000    19203329.648 7  79785022.255 7       300.405          44.000
R17  21524526.688 4 115182094.824 4     -3631.645          29.000
R18  19149472.117 8 102221295.036 8      -290.961          51.000    19149475.461 8  79505444.781 8      -226.300          48.000
R19  20892764.000 6 111762218.044 6      3370.246          36.000    20892765.734 6  86926165.041 6      2621.306          39.000
C27  24836364.648 5 129329462.041 5     -2975.832          30.000
C29  22937895.516 8 119443648.746 8      2336.977          51.000
C30  21608375.344 8 112520470.456 8      -681.191          51.000
E01  24394667.055 8 128194817.672 8     -1398.355          51.000    24394669.648 8  98227208.221 8     -1071.458          51.000
E26  23427535.891 7 123112539.424 7     -1142.180          44.000    23427538.422 6  94332983.176 6      -875.210          37.000
E33  24121683.078 8 126760353.737 8      1708.262          51.000    24121683.461 8  97128063.332 8      1308.904          51.000
> 2020 05 01 12 05  0.0000000  0 15        .000000000000
G14  23676532.102 6 124421014.278 6     -2129.582          38.000    23676526.914 5  96951482.301 5     -1659.424          33.000
G18  23091926.570 5 121348903.041 5      3532.578          34.000
G21  22968181.789 5 120698594.136 5      3220.184          35.000
G25  20811405.094 8 109364669.358 8     -1610.969          51.000    20811407.820 8  85219223.724 8     -1255.300          51.000
G29  20206606.320 8 106186450.069 8       -33.410          51.000    20206606.836 8  82742683.145 8       -26.034          51.000
R15  21342298.070 8 114046725.401 8     -3150.527          48.000    21342302.625 7  88703023.008 7     -2450.413          42.000
R16  19201169.344 7 102569216.610 7       377.414          45.000    19201172.812 7  79776060.563 7       293.544          43.000
R18  19151131.828 8 102230155.931 8      -304.328          51.000    19151135.148 8  79512336.601 8      -236.700          48.000
R19  20873865.734 6 111661125.944 6      3364.754          36.000    20873867.969 6  86847537.895 6      2617.034          40.000
C27  24853474.125 5 129418553.327 5     -2968.426          31.000
C29  22924416.484 8 119373461.299 8      2337.871          50.000
C30  21612294.094 8 112540875.319 8      -683.543          51.000
E01  24402627.883 8 128236650.554 8     -1395.043          51.000    24402630.445 8  98259261.992 8     -1068.971          51.000
E26  23434047.570 7 123146760.412 7     -1143.668          45.000    23434050.445 6  94359204.426 6      -876.284          36.000
E33  24111920.547 8 126709053.516 8      1707.121          51.000    24111921.297 8  97088755.368 8      1308.063          51.000
> 2020 05 01 12 05 30.0000000  0 15        .000000000000
G14  23688712.469 6 124485021.023 6     -2137.676          40.000    23688707.242 5  97001357.607 5     -1665.727          31.000
G18  23071764.711 5 121242967.438 5      3529.078          32.000
G21  22949806.945 5 120602031.330 5      3215.637          33.000
G25  20820620.648 8 109413097.381 8     -1618.578          51.000    20820623.312 8  85256959.862 8     -1261.227          51.000
G29  20206829.102 8 106187619.984 8       -45.539          51.000    20206829.125 8  82743594.779 8       -35.485          51.000
R15  21360010.719 8 114141377.364 8     -3160.598          49.000    21360014.195 6  88776641.083 6     -2458.246          41.000
R16  19199095.109 7 102558136.613 7       360.344          45.000    19199098.547 7  79767442.807 7       280.267          43.000
R18  19152900.070 8 102239596.106 8      -325.996          51.000    19152903.594 8  79519678.968 8      -253.553          49.000
R19  20855029.648 6 111560361.756 6      3351.664          38.000    20855031.711 6  86769165.804 6      2606.850          41.000
C27  24870575.242 5 129507606.701 5     -2969.539          33.000
C29  22910965.438 8 119303420.904 8      2330.598          50.000
C30  21616259.242 8 112561522.405 8      -693.895          51.000
E01  24410602.672 8 128278557.396 8     -1399.797          51.000    24410605.234 8  98291372.422 8     -1072.563          51.000
E26  23440600.578 7 123181197.142 7     -1153.152          44.000    23440603.031 5  94385590.997 5      -883.707          35.000
E33  24102197.055 8 126657957.590 8      1698.133          51.000    24102198.312 8  97049603.952 8      1301.155          51.000
> 2020 05 01 12 06  0.0000000  0 14        .000000000000
G14  23700929.289 6 124549218.851 6     -2145.699          40.000    23700924.234 5  97051381.852 5     -1671.973          31.000
G18  23051615.953 5 121137089.117 5      3525.676          33.000
G25  20829872.117 8 109461714.367 8     -1626.691          50.000    20829874.672 8  85294843.240 8     -1267.552          50.000
G29  20207112.188 8 106189107.277 8       -57.688          51.000    20207112.055 8  82744753.700 8       -44.951          51.000
R15  21377772.188 8 114236287.167 8     -3170.844          51.000    21377775.445 7  88850459.699 7     -2466.215          44.000
R16  19197108.945 7 102547527.838 7       342.770          45.000    19197112.391 7  79759191.526 7       266.599          43.000
R18  19154781.797 8 102249641.560 8      -347.770          51.000    19154785.516 8  79527492.123 8      -270.487          49.000
R19  20836260.797 6 111459955.649 6      3338.137          40.000    20836261.875 6  86691072.204 6      2596.332          41.000
C27  24887674.336 5 129596646.889 5     -2970.793          34.000
C29  22897547.586 8 119233555.115 8      2323.180          49.000
C30  21620275.664 8 112582437.171 8      -704.340          51.000
E01  24418596.531 8 128320565.210 8     -1404.820          51.000    24418599.266 8  98323560.206 8     -1076.388          51.000
E26  23447199.906 7 123215875.275 7     -1162.793          43.000    23447203.547 5  94412162.526 5      -890.828          34.000
E33  24092517.688 8 126607093.671 8      1688.805          51.000    24092519.516 8  97010630.329 8      1293.992          51.000
> 2020 05 01 12 06 30.0000000  0 15        .000000000000
G12  22989199.516 5 120809057.945 5     -2849.035          32.000
G14  23713231.016 7 124613863.436 7     -2159.582          42.000    23713225.484 5  97101754.194 5     -1682.791          31.000
G18  23031529.539 5 121031529.346 5      3516.199          35.000    23031547.234 5  94310334.896 5      2739.895          30.000
G25  20839208.609 8 109510778.565 8     -1640.203          50.000    20839211.125 8  85333075.084 8     -1278.080          50.000
G29  20207504.672 8 106191169.811 8       -75.812          51.000    20207504.852 8  82746360.868 8       -59.075          51.000
R15  21395630.805 8 114331715.946 8     -3187.023          51.000    21395635.094 8  88924682.032 8     -2478.796          48.000
R16  19195260.805 7 102537654.665 7       319.289          45.000    19195264.094 7  79751512.391 7       248.336          42.000
R18  19156825.945 8 102260553.429 8      -375.586          51.000    19156829.477 8  79535979.136 8      -292.122          49.000
R19  20817608.289 6 111360173.533 6      3318.344          39.000    20817608.586 6  86613463.940 6      2580.937          41.000
C27  24904820.094 5 129685928.429 5     -2977.062          35.000
C29  22884212.578 8 119164121.038 8      2309.711          49.000
C30  21624392.797 8 112603874.748 8      -720.801          51.000
E01  24426658.742 8 128362932.710 8     -1415.703          51.000    24426661.461 8  98356023.601 8     -1084.760          51.000
E26  23453894.336 7 123251052.203 7     -1178.246          43.000    23453899.250 5  94439133.324 5      -903.162          31.000
E33  24082931.891 8 126556721.213 8      1673.383          51.000    24082934.273 8  96972033.288 8      1282.232          51.000
> 2020 05 01 12 07  0.0000000  0 16        .000000000000
G12  23005482.047 5 120894644.022 5     -2853.832          34.000    23005482.094 4  94203596.201 4     -2223.765          29.000
G14  23725592.672 6 124678823.360 6     -2168.930          41.000    23725587.531 5  97152372.289 5     -1690.075          33.000
G18  23011480.688 5 120926162.488 5      3510.574          34.000    23011492.164 5  94228203.879 5      2735.515          34.000
G21  22894914.688 6 120313602.476 6      3193.148          36.000
G25  20848605.711 8 109560161.003 8     -1649.906          50.000    20848607.945 8  85371554.890 8     -1285.641          50.000
G29  20207981.906 8 106193677.656 8       -89.531          51.000    20207982.062 8  82748315.033 8       -69.765          51.000
R15  21413561.617 8 114427531.286 8     -3198.781          50.000    21413566.875 8  88999205.050 8     -2487.944          48.000
R16  19193526.281 7 102528388.231 7       300.273          45.000    19193529.414 7  79744305.159 7       233.546          42.000
R18  19159007.547 8 102272199.419 8      -398.973          51.000    19159011.102 8  79545037.147 8      -310.312          49.000
R19  20799047.484 6 111260886.801 6      3302.836          37.000    20799047.789 7  86536240.936 7      2568.869          42.000
C27  24921987.195 6 129775322.133 6     -2980.137          37.000
C29  22870937.148 8 119094991.963 8      2300.727          51.000
C30  21628585.422 8 112625706.399 8      -732.805          51.000
E01  24434764.820 8 128405531.341 8     -1422.438          51.000    24434767.422 8  98388664.099 8     -1089.956          51.000
E26  23460658.406 7 123286598.114 7     -1189.527          45.000
E33  24073415.461 8 126506712.373 8      1662.246          51.000    24073418.094 8  96933714.856 8      1273.645          51.000
> 2020 05 01 12 07 30.0000000  0 15        .000000000000
G14  23738012.031 7 124744087.100 7     -2180.500          43.000    23738007.273 6  97203227.097 6     -1699.091          36.000
G18  22991470.164 5 120820982.232 5      3503.008          34.000    22991471.641 5  94146245.411 5      2729.616          34.000
G21  22876716.414 6 120217970.932 6      3183.418          38.000
G25  20858061.742 8 109609852.388 8     -1661.527          51.000    20858063.883 8  85410275.414 8     -1294.697          51.000
G29  20208542.227 8 106196621.167 8      -105.418          51.000    20208541.945 8  82750608.686 8       -82.144          51.000
R15  21431562.898 8 114523722.541 8     -3212.699          50.000    21431568.375 8  89074020.442 8     -2498.766          49.000
R16  19191903.906 7 102519720.916 7       278.766          46.000    19191906.617 7  79737563.914 7       216.818          42.000
R18  19161324.695 8 102284568.617 8      -424.289          49.000    19161328.367 8  79554657.638 8      -330.003          49.000
R19  20780577.320 6 111162089.340 6      3285.117          36.000    20780578.734 7  86459398.468 7      2555.091          43.000
C27  24939173.742 6 129864817.486 6     -2984.801          37.000
C29  22857719.586 8 119026159.960 8      2289.465          51.000
C30  21632851.680 8 112647922.114 8      -746.906          51.000
E01  24442913.305 8 128448352.298 8     -1431.152          51.000    24442915.938 8  98421474.958 8     -1096.603          51.000
E26  23467490.797 7 123322502.831 7     -1202.832          45.000    23467501.250 5  94493882.016 5      -921.489          34.000
E33  24063966.953 8 126457059.049 8      1649.070          51.000    24063969.453 8  96895668.825 8      1263.588          51.000
> 2020 05 01 12 08  0.0000000  0 17        .000000000000
G12  23038151.273 6 121066300.502 6     -2868.121          36.000
G14  23750502.438 7 124809724.020 7     -2193.730          42.000    23750498.820 6  97254372.669 6     -1709.403          37.000
G18  22971508.766 6 120716063.724 6      3493.309          38.000    22971504.195 6  94064490.916 6      2722.062          36.000
G21  22858575.766 5 120122643.940 5      3172.637          35.000
G25  20867590.250 8 109659924.421 8     -1674.984          50.000    20867592.164 8  85449292.536 8     -1305.186          51.000
G29  20209198.859 8 106200071.346 8      -123.004          51.000    20209198.531 8  82753297.151 8       -95.847          51.000
R15  21449648.430 8 114620361.315 8     -3228.230          51.000    21449653.242 8  89149183.910 8     -2510.846          48.000
R16  19190407.695 7 102511727.179 7       255.578          46.000    19190410.094 7  79731346.559 7       198.783          42.000
R17  21667897.984 5 115949297.624 5     -3690.094          31.000
R18  19163790.805 8 102297732.858 8      -451.492          49.000    19163794.164 8  79564896.476 8      -351.164          49.000
R19  20762212.945 6 111063856.927 6      3265.445          37.000    20762215.734 7  86382995.480 7      2539.794          44.000
C27  24956393.414 6 129954484.079 6     -2991.121          38.000
C29  22844573.062 8 118957697.297 8      2276.375          51.000
C30  21637205.227 8 112670592.055 8      -762.754          51.000
E01  24451117.852 8 128491467.729 8     -1441.680          51.000    24451120.641 8  98454511.443 8     -1104.703          51.000
E26  23474405.078 7 123358837.132 7     -1217.922          44.000    23474414.141 5  94521722.629 5      -933.225          33.000
E33  24054600.188 8 126407834.057 8      1634.059          51.000    24054602.281 8  96857950.997 8      1252.035          51.000
> 2020 05 01 12 08 30.0000000  0 15        .000000000000
G14  23763044.945 7 124875634.543 7     -2203.770          43.000    23763042.320 5  97305731.434 5     -1717.229          35.000
G18  22951576.414 6 120611313.226 6      3486.801          39.000    22951570.406 6  93982867.270 6      2716.991          37.000
G21  22840475.008 5 120027527.444 5      3164.738          33.000    22840480.938 3  93527950.503 3      2466.030          23.000
G25  20877172.648 8 109710280.236 8     -1685.402          50.000    20877174.391 8  85488530.794 8     -1313.304          50.000
G29  20209933.398 8 106203930.818 8      -137.664          51.000    20209933.086 8  82756304.536 8      -107.271          51.000
R15  21467798.617 8 114717348.105 8     -3240.938          50.000    21467802.984 7  89224618.031 7     -2520.732          47.000
R16  19189019.531 7 102504311.204 7       235.113          47.000    19189022.188 7  79725578.549 7       182.863          42.000
R18  19166386.688 8 102311592.155 8      -475.895          48.000    19166390.602 8  79575675.935 8      -370.140          50.000
R19  20743937.445 6 110966093.862 6      3248.652          39.000    20743940.758 7  86306957.568 7      2526.733          45.000
C27  24973627.055 6 130044224.626 6     -2994.859          37.000
C29  22831478.695 8 118889509.230 8      2266.160          50.000
C30  21641627.086 8 112693619.396 8      -775.703          51.000
E01  24459359.969 8 128534781.243 8     -1449.312          51.000    24459363.188 8  98487699.696 8     -1110.551          51.000
E26  23481382.617 7 123395503.269 7     -1230.004          44.000    23481383.992 5  94549817.421 5      -942.123          34.000
E33  24045296.555 8 126358941.653 8      1621.953          51.000    24045298.312 8  96820488.018 8      1242.816          51.000
> 2020 05 01 12 09  0.0000000  0 16        .000000000000
G12  23070938.062 5 121238608.681 5     -2874.008          32.000    23070942.383 5  94471625.411 5     -2239.490          32.000
G14  23775644.164 7 124941843.532 7     -2208.797          43.000    23775642.164 6  97357322.839 6     -1721.140          36.000
G18  22931680.109 6 120506761.004 6      3484.734          40.000    22931674.008 6  93901398.179 6      2715.384          38.000
G21  22822420.695 6 119932651.571 6      3161.430          37.000
G25  20886814.156 8 109760946.941 8     -1691.016          50.000    20886816.141 8  85528011.309 8     -1317.675          50.000
G29  20210750.820 8 106208225.984 8      -147.367          51.000    20210750.383 8  82759651.402 8      -114.835          51.000
R15  21486018.383 8 114814708.964 8     -3248.617          48.000    21486022.695 7  89300343.093 7     -2526.702          45.000
R16  19187744.984 7 102497501.783 7       220.027          47.000    19187747.500 7  79720282.329 7       171.132          42.000
R18  19169118.141 8 102326172.926 8      -494.941          48.000    19169122.031 8  79587016.494 8      -384.954          49.000
R19  20725755.688 6 110868830.766 6      3236.926          40.000    20725759.242 7  86231308.548 7      2517.612          45.000
C27  24990879.133 5 130134064.530 5     -2992.734          34.000
C29  22818440.922 8 118821623.800 8      2260.840          48.000
C30  21646122.789 8 112717030.152 8      -783.750          51.000
E01  24467645.219 8 128578320.361 8     -1452.086          51.000    24467648.477 8  98521060.829 8     -1112.619          51.000
E26  23488428.461 7 123432527.473 7     -1237.121          44.000    23488428.258 6  94578186.610 6      -947.714          36.000
E33  24036061.438 8 126310410.113 8      1614.750          51.000    24036062.953 8  96783301.550 8      1237.246          51.000
> 2020 05 01 12 09 30.0000000  0 15        .000000000000
G14  23788288.273 7 125008288.162 7     -2216.605          43.000    23788287.156 6  97409097.793 6     -1727.225          37.000
G18  22911809.633 7 120402350.002 7      3479.973          43.000    22911804.930 6  93820039.041 6      2711.670          40.000
G21  22804401.906 6 119837958.885 6      3155.422          40.000    22804409.086 5  93380246.653 5      2458.773          33.000
G25  20896503.305 8 109811864.175 8     -1699.531          49.000    20896505.641 8  85567687.058 8     -1324.310          50.000
G29  20211639.586 8 106212895.976 8      -159.867          51.000    20211639.023 8  82763290.361 8      -124.572          51.000
R15  21504296.305 8 114912381.432 8     -3258.906          48.000    21504300.812 7  89376310.500 7     -2534.705          45.000
R16  19186573.023 7 102491239.826 7       201.758          47.000    19186575.383 7  79715411.910 7       156.920          43.000
R18  19171972.781 8 102341412.229 8      -516.891          49.000    19171976.820 8  79598869.282 8      -402.026          50.000
R19  20707656.570 6 110772009.034 6      3221.934          39.000    20707659.586 7  86156002.807 7      2505.951          45.000
C27  25008138.133 5 130223942.797 5     -2994.262          34.000
C29  22805449.984 8 118753982.395 8      2252.598          50.000
C30  21650680.523 8 112740763.647 8      -794.480          51.000
E01  24475962.180 8 128622025.244 8     -1457.551          51.000    24475965.227 8  98554549.000 8     -1116.861          51.000
E26  23495530.539 7 123469848.532 7     -1246.984          44.000    23495531.555 6  94606783.307 6      -955.449          37.000
E33  24026883.508 8 126262180.272 8      1604.652          51.000    24026884.836 8  96746346.237 8      1229.554          51.000
> 2020 05 01 12 10  0.0000000  0 17        .000000000000
G02  24406348.062 5 128256207.894 5     -2632.367          32.000
G12  23103809.891 5 121411338.892 5     -2883.980          34.000
G14  23800976.586 7 125074964.994 7     -2229.109          44.000    23800976.047 6  97461053.698 6     -1736.968          38.000
G18  22891965.633 7 120298082.563 7      3470.488          43.000    22891963.078 6  93738791.726 6      2704.280          41.000
G21  22786418.672 6 119743451.486 6      3144.375          41.000    22786422.281 4  93306604.568 4      2450.165          26.000
G25  20906239.961 8 109863031.139 8     -1712.320          50.000    20906242.328 8  85607557.413 8     -1334.276          50.000
G29  20212599.391 8 106217939.396 8      -177.000          51.000    20212598.656 8  82767220.325 8      -137.922          51.000
R15  21522631.797 7 115010363.073 7     -3273.988          47.000    21522636.961 7  89452518.380 7     -2546.438          46.000
R16  19185503.312 7 102485526.102 7       178.750          47.000    19185506.047 7  79710967.878 7       139.028          43.000
R18  19174950.727 8 102357308.049 8      -543.457          49.000    19174954.922 8  79611232.679 8      -422.689          49.000
R19  20689639.992 6 110675630.573 6      3202.398          39.000    20689642.203 7  86081041.836 7      2490.757          43.000
C27  25025404.430 5 130313857.139 5     -2999.820          33.000
C29  22792507.375 8 118686585.283 8      2239.805          51.000
C30  21655299.812 8 112764818.133 8      -809.699          51.000
E01  24484310.500 8 128665895.491 8     -1467.656          51.000    24484313.602 8  98588163.849 8     -1124.565          51.000
E26  23502688.633 7 123507464.674 7     -1261.418          44.000    23502690.406 6  94635606.057 6      -966.676          38.000
E33  24017762.953 8 126214252.324 8      1589.969          51.000    24017764.336 8  96709622.239 8      1218.300          51.000
> 2020 05 01 12 10 30.0000000  0 16        .000000000000
G02  24421424.797 5 128335437.938 5     -2645.492          32.000
G14  23813752.281 7 125142100.479 7     -2242.594          44.000    23813752.414 6  97513367.019 6     -1747.476          36.000
G18  22872192.305 7 120194190.583 7      3459.746          43.000    22872192.891 7  93657836.983 7      2695.909          42.000
G21  22768514.969 6 119649361.292 6      3132.418          39.000    22768515.164 4  93233287.616 4      2440.836          28.000
G25  20916067.680 8 109914676.563 8     -1726.527          50.000    20916070.156 8  85647800.593 8     -1345.346          50.000
G29  20213673.617 8 106223584.366 8      -195.105          51.000    20213672.648 8  82771619.019 8      -152.030          51.000
R15  21541068.352 7 115108885.445 7     -3290.016          46.000    21541073.945 7  89529146.861 7     -2558.901          46.000
R16  19184580.508 8 102480595.200 8       154.367          48.000    19184583.219 7  79707132.726 7       120.063          43.000
R18  19178094.867 8 102374091.013 8      -571.066          50.000    19178098.781 8  79624286.075 8      -444.163          49.000
R19  20671750.211 6 110579931.225 6      3181.523          39.000    20671750.906 7  86006609.069 7      2474.521          42.000
C27  25042721.492 5 130404032.889 5     -3007.184          32.000
C29  22779655.773 8 118619660.290 8      2226.020          51.000
C30  21660024.180 8 112789419.409 8      -826.113          51.000
E01  24492734.008 8 128710160.261 8     -1479.043          51.000    24492736.781 8  98622081.004 8     -1133.251          51.000
E26  23509946.617 7 123545603.707 7     -1276.926          44.000    23509948.055 6  94664829.435 6      -978.355          38.000
E33  24008743.672 8 126166856.143 8      1574.004          51.000    24008745.266 8  96673305.687 8      1206.082          51.000
> 2020 05 01 12 11  0.0000000  0 15        .000000000000
G02  24436550.797 5 128414925.756 5     -2654.480          32.000    24436549.531 5 100063584.210 5     -2068.426          30.000
G14  23826579.781 7 125209508.764 7     -2252.152          44.000    23826580.648 6  97565892.901 6     -1754.924          38.000
G18  22852457.117 7 120090493.802 7      3452.730          44.000    22852459.758 7  93577034.322 7      2690.439          42.000
G25  20925951.695 8 109966616.956 8     -1736.828          51.000    20925954.289 8  85688273.613 8     -1353.373          51.000
G29  20214827.242 8 106229646.837 8      -209.547          51.000    20214826.242 8  82776343.022 8      -163.283          51.000
R15  21559569.891 7 115207760.673 7     -3302.227          43.000    21559576.117 7  89606049.717 7     -2568.401          44.000
R16  19183769.352 7 102476262.259 7       133.820          47.000    19183772.211 7  79703762.657 7       104.082          44.000
R18  19181369.969 8 102391573.642 8      -594.965          50.000    19181373.812 8  79637883.687 8      -462.750          49.000
R19  20653952.172 6 110484726.885 6      3164.703          39.000    20653952.000 6  85932561.298 6      2461.436          41.000
C27  25060053.898 5 130494286.910 5     -3010.617          30.000
C29  22766860.078 8 118553026.808 8      2215.758          51.000
C30  21664818.781 8 112814384.807 8      -838.852          51.000
E01  24501197.789 8 128754636.513 8     -1486.645          51.000    24501200.125 8  98656160.222 8     -1139.063          51.000
E26  23517268.922 7 123584081.326 7     -1288.895          43.000    23517270.766 6  94694312.279 6      -987.571          39.000
E33  23999790.711 8 126119809.322 8      1561.879          51.000    23999792.719 8  96637256.834 8      1196.779          51.000
> 2020 05 01 12 11 30.0000000  0 16        .000000000000
G02  24451738.406 5 128494736.787 5     -2667.484          34.000    24451738.969 5 100125782.615 5     -2078.559          30.000
G14  23839471.391 7 125277254.552 7     -2265.551          44.000    23839473.219 6  97618681.798 6     -1765.364          39.000
G18  22832773.453 7 119987062.665 7      3441.281          45.000    22832776.750 6  93496438.685 6      2681.521          41.000
G21  22732848.180 5 119461929.539 5      3111.434          35.000
G25  20935904.688 8 110018919.552 8     -1751.426          50.000    20935907.109 8  85729028.882 8     -1364.747          50.000
G29  20216072.859 8 106236193.252 8      -228.262          51.000    20216072.070 8  82781444.134 8      -177.866          51.000
R15  21578151.047 7 115307055.661 7     -3318.730          43.000    21578156.852 7  89683279.142 7     -2581.238          43.000
R16  19183083.297 7 102472597.731 7       108.984          47.000    19183086.305 7  79700912.454 7        84.766          44.000
R18  19184788.758 8 102409822.510 8      -622.988          51.000    19184792.391 8  79652077.247 8      -484.549          48.000
R19  20636259.703 6 110390089.052 6      3143.004          38.000    20636260.422 7  85858954.131 7      2444.562          42.000
C27  25077414.117 4 130584675.894 4     -3016.941          28.000
C29  22754132.953 8 118486752.677 8      2201.152          51.000
C30  21669695.742 8 112839780.049 8      -855.547          51.000
E01  24509714.539 8 128799391.962 8     -1498.402          51.000    24509716.703 8  98690453.366 8     -1148.123          51.000
E26  23524668.008 6 123622963.751 6     -1304.793          40.000    23524670.570 6  94724105.319 6      -999.773          39.000
E33  23990916.992 8 126073180.235 8      1545.414          51.000    23990919.555 8  96601528.078 8      1184.127          51.000
> 2020 05 01 12 12  0.0000000  0 16        .000000000000
G02  24466963.758 5 128574748.943 5     -2669.141          32.000
G14  23852403.805 7 125345215.008 7     -2267.551          43.000    23852406.430 6  97671637.936 6     -1766.926          39.000
G18  22813118.492 7 119883779.921 7      3441.461          44.000    22813121.844 7  93415958.692 7      2681.661          42.000
G21  22715084.977 6 119368570.567 6      3110.227          41.000
G25  20945903.641 8 110071463.946 8     -1754.148          50.000    20945906.078 8  85769972.548 8     -1366.869          50.000
G29  20217387.695 8 106243102.474 8      -235.027          51.000    20217386.891 8  82786827.942 8      -183.138          51.000
R15  21596787.797 7 115406646.624 7     -3323.480          45.000    21596792.758 6  89760738.800 6     -2584.929          41.000
R16  19182499.914 7 102469480.288 7        96.168          47.000    19182502.547 7  79698487.787 7        74.797          44.000
R18  19188327.750 8 102428713.549 8      -639.086          51.000    19188331.086 8  79666770.304 8      -497.067          48.000
R19  20618650.781 6 110295897.796 6      3133.258          38.000    20618653.023 7  85785694.276 7      2436.978          43.000
C27  25094779.406 4 130675100.445 4     -3013.320          29.000
C29  22741451.422 8 118420719.695 8      2198.473          49.000
C30  21674632.211 8 112865484.917 8      -860.613          51.000
E01  24518261.531 8 128844306.657 8     -1498.484          51.000    24518263.773 8  98724868.497 8     -1148.153          51.000
E26  23532121.172 6 123662129.669 6     -1308.934          39.000    23532123.469 6  94754115.575 6     -1002.898          39.000
E33  23982100.234 8 126026849.513 8      1540.750          51.000    23982102.945 8  96566027.932 8      1180.575          51.000
> 2020 05 01 12 12 30.0000000  0 16        .000000000000
G02  24482250.844 5 128655086.140 5     -2683.727          32.000
G14  23865400.539 7 125413513.600 7     -2282.113          43.000    23865403.734 6  97724857.573 6     -1778.270          39.000
G18  22793516.477 7 119780774.770 7      3428.906          42.000    22793520.477 7  93335695.000 7      2671.878          42.000
G21  22697381.070 7 119275529.369 7      3096.230          44.000    22697368.797 4  92941920.803 4      2412.656          29.000
G25  20955972.672 8 110124376.054 8     -1769.715          50.000    20955975.227 8  85811202.758 8     -1378.999          50.000
G29  20218795.508 8 106250500.165 8      -254.617          51.000    20218794.367 8  82792592.375 8      -198.403          51.000
R15  21615504.867 8 115506660.412 8     -3340.719          49.000    21615507.883 7  89838527.250 7     -2598.340          42.000
R16  19182042.945 7 102467040.623 7        70.059          45.000    19182045.664 7  79696590.271 7        54.490          44.000
R18  19192010.969 8 102448373.536 8      -668.070          51.000    19192014.039 8  79682061.417 8      -519.607          48.000
R19  20601150.312 6 110202284.272 6      3110.590          38.000    20601154.000 7  85712883.755 7      2419.348          45.000
C27  25112173.016 5 130765666.954 5     -3020.746          32.000
C29  22728839.711 8 118355053.840 8      2182.754          49.000
C30  21679652.227 8 112891623.338 8      -878.387          51.000
E01  24526863.148 8 128889506.924 8     -1511.316          51.000    24526865.250 8  98759502.456 8     -1158.052          51.000
E26  23539651.336 6 123701704.146 6     -1325.398          36.000    23539653.805 6  94784438.893 6     -1016.023          39.000
E33  23973364.703 8 125980944.168 8      1523.270          51.000    23973367.031 8  96530853.733 8      1167.130          51.000
> 2020 05 01 12 13  0.0000000  0 16        .000000000000
G02  24497588.867 5 128735692.741 5     -2691.254          30.000
G14  23878450.891 7 125482093.720 7     -2290.195          43.000    23878454.531 6  97778296.541 6     -1784.571          40.000
G18  22773958.102 6 119677996.460 6      3422.344          41.000    22773962.547 6  93255608.000 6      2666.758          40.000
G21  22679726.875 7 119182754.561 7      3088.352          44.000    22679718.680 5  92869628.837 5      2406.511          34.000
G25  20966101.469 8 110177601.873 8     -1779.090          50.000    20966103.953 8  85852677.414 8     -1386.304          50.000
G29  20220285.727 8 106258331.441 8      -267.867          51.000    20220284.352 8  82798694.681 8      -208.728          51.000
R15  21634291.031 8 115607040.806 8     -3351.754          51.000    21634293.227 7  89916600.783 7     -2606.923          43.000
R16  19181703.023 7 102465225.194 7        50.531          45.000    19181706.102 7  79695178.281 7        39.302          45.000
R18  19195827.500 8 102468745.894 8      -690.449          51.000    19195830.109 7  79697906.599 7      -537.016          47.000
R19  20583748.938 6 110109196.189 6      3094.535          38.000    20583753.008 7  85640481.927 7      2406.861          45.000
C27  25129584.414 5 130856325.771 5     -3023.395          33.000
C29  22716289.500 8 118289702.697 8      2173.500          51.000
C30  21684744.633 8 112918140.856 8      -889.812          51.000
E01  24535508.719 8 128934939.253 8     -1517.867          51.000    24535510.234 8  98794314.219 8     -1163.032          49.000
E26  23547248.164 5 123741625.200 5     -1336.543          34.000    23547251.680 6  94815033.142 6     -1024.146          39.000
E33  23964700.078 8 125935411.300 8      1511.969          51.000    23964702.094 8  96495964.931 8      1158.530          51.000
> 2020 05 01 12 13 30.0000000  0 15        .000000000000
G14  23891571.727 7 125551044.419 7     -2302.180          44.000    23891575.758 6  97832024.284 6     -1793.909          38.000
G18  22754461.453 7 119575539.572 7      3412.078          45.000    22754465.758 7  93175771.486 7      2658.762          45.000
G21  22662141.156 7 119090340.367 7      3076.629          45.000    22662136.633 5  92797617.830 5      2397.373          32.000
G25  20976307.383 8 110231232.881 8     -1792.152          49.000    20976309.555 8  85894467.804 8     -1396.479          49.000
G29  20221875.820 8 106266687.260 8      -284.965          51.000    20221874.461 8  82805205.724 8      -222.051          51.000
R15  21653162.266 8 115707879.496 8     -3366.516          49.000    21653165.242 7  89995030.764 7     -2618.404          44.000
R16  19181497.523 7 102464128.483 7        26.949          44.000    19181500.773 7  79694325.296 7        20.961          44.000
R18  19199794.680 8 102489922.145 8      -716.875          51.000    19199797.266 7  79714377.028 7      -557.566          47.000
R19  20566464.070 6 110016729.396 6      3074.023          40.000    20566467.633 7  85568563.347 7      2390.907          45.000
C27  25147030.414 6 130947165.622 6     -3028.812          36.000
C29  22703818.195 8 118224758.048 8      2160.344          51.000
C30  21689927.180 8 112945127.257 8      -905.090          51.000
E01  24544215.211 8 128980695.568 8     -1528.355          50.000    24544217.008 8  98829374.219 8     -1171.087          49.000
E26  23554930.938 6 123781997.472 6     -1350.594          36.000    23554934.094 6  94845967.715 6     -1035.182          39.000
E33  23956123.938 8 125890343.454 8      1496.777          51.000    23956125.773 8  96461432.451 8      1146.851          51.000
> 2020 05 01 12 14  0.0000000  0 15        .000000000000
G14  23904747.156 7 125620281.364 7     -2304.770          45.000    23904751.125 6  97885975.111 6     -1795.924          38.000
G18  22735011.227 7 119473325.396 7      3410.906          47.000    22735015.086 7  93096124.124 7      2657.849          45.000
G21  22644609.227 7 118998208.046 7      3074.094          46.000    22644606.023 6  92725826.461 6      2395.401          37.000
G25  20986574.531 7 110285187.152 7     -1795.938          46.000    20986576.703 7  85936510.079 7     -1399.432          46.000
G29  20223549.922 8 106275484.859 8      -292.859          51.000    20223548.375 8  82812060.996 8      -228.202          51.000
R15  21672102.750 8 115809091.621 8     -3372.012          48.000    21672106.906 7  90073751.244 7     -2622.679          44.000
R16  19181411.328 7 102463669.248 7        12.422          45.000    19181414.578 7  79693968.125 7         9.661          44.000
R18  19203896.406 8 102511816.765 8      -733.887          51.000    19203898.719 7  79731406.193 7      -570.801          46.000
R19  20549280.430 6 109924803.462 6      3063.223          40.000    20549282.742 7  85497065.449 7      2382.507          44.000
C27  25164495.430 6 131038104.124 6     -3024.988          36.000
C29  22691409.711 8 118160139.865 8      2156.152          51.000
C30  21695184.125 8 112972500.425 8      -911.133          51.000
E01  24552967.875 8 129026694.385 8     -1529.477          50.000    24552970.266 8  98864620.030 8     -1171.883          49.000
E26  23562682.977 5 123822731.041 5     -1355.945          35.000    23562685.086 6  94877179.113 6     -1039.085          40.000
E33  23947620.750 8 125845659.723 8      1490.902          51.000    23947622.797 8  96427194.274 8      1142.440          51.000
> 2020 05 01 12 14 30.0000000  0 15        .000000000000
G14  23917955.148 7 125689688.944 7     -2318.340          44.000    23917958.867 6  97940058.869 6     -1806.502          39.000
G18  22715586.250 8 119371243.974 8      3398.570          48.000    22715589.758 7  93016580.193 7      2648.240          44.000
G21  22627109.945 7 118906247.127 7      3060.668          47.000    22627107.023 6  92654168.692 6      2384.939          38.000
G25  20996881.469 8 110339351.482 8     -1810.996          48.000    20996883.547 8  85978716.053 8     -1411.163          48.000
G29  20225286.492 8 106284610.316 8      -311.559          51.000    20225284.703 8  82819171.737 8      -242.773          51.000
R15  21691090.133 7 115910560.739 7     -3388.613          44.000    21691096.328 7  90152671.702 7     -2635.585          44.000
R16  19181423.242 7 102463733.838 7       -12.957          45.000    19181426.195 7  79694018.392 7       -10.078          44.000
R18  19208110.883 8 102534313.799 8      -762.020          51.000    19208112.852 7  79748903.891 7      -592.679          46.000
R19  20532175.750 6 109833305.892 6      3040.809          37.000    20532177.297 7  85425900.735 7      2365.073          42.000
C27  25181957.039 6 131129027.811 6     -3032.684          36.000
C29  22679041.742 8 118095737.099 8      2141.230          50.000
C30  21700493.141 8 113000147.268 8      -928.086          51.000
E01  24561745.492 8 129072822.873 8     -1541.777          50.000    24561748.297 8  98899965.237 8     -1181.332          49.000
E26  23570481.641 5 123863715.696 5     -1372.094          34.000    23570483.352 6  94908579.882 6     -1051.377          41.000
E33  23939169.445 8 125801247.951 8      1473.809          51.000    23939171.664 8  96393164.486 8      1129.285          51.000
> 2020 05 01 12 15  0.0000000  0 15        .000000000000
G14  23931213.648 7 125759362.226 7     -2327.734          44.000    23931217.133 6  97994349.674 6     -1813.819          38.000
G18  22696205.656 8 119269396.273 8      3390.164          48.000    22696208.609 7  92937218.380 7      2641.689          43.000
G21  22609662.172 7 118814558.356 7      3050.848          46.000    22609659.328 6  92582722.999 6      2377.287          37.000
G25  21007246.891 8 110393823.548 8     -1821.707          48.000    21007249.219 8  86021161.818 8     -1419.512          48.000
G29  20227103.906 8 106294160.845 8      -326.262          51.000    20227102.180 8  82826613.721 8      -254.230          51.000
R15  21710143.672 7 116012384.840 7     -3400.824          45.000    21710152.141 7  90231868.205 7     -2645.089          44.000
R16  19181552.305 7 102464423.600 7       -34.398          45.000    19181555.438 7  79694554.874 7       -26.754          44.000
R18  19212456.430 8 102557510.454 8      -785.734          51.000    19212458.742 7  79766945.774 7      -611.124          46.000
R19  20515168.281 5 109742338.702 5      3022.594          35.000    20515170.711 6  85355148.490 6      2350.906          41.000
C27  25199433.367 6 131220032.263 6     -3035.703          36.000
C29  22666732.273 7 118031647.733 7      2130.230          46.000
C30  21705873.438 8 113028163.749 8      -940.875          51.000
E01  24570566.445 8 129119179.270 8     -1549.820          50.000    24570569.953 8  98935485.054 8     -1187.546          50.000
E26  23578345.570 5 123905041.403 5     -1383.750          32.000    23578347.844 6  94940244.222 6     -1060.653          41.000
