     3.02           OBSERVATION DATA    M (MIXED)           RINEX VERSION / TYPE
SAVERINEX           SC600               20200510 225931 LCL PGM / RUN BY / DATE
       G = GPS       R = GLONASS       C = COMPASS          COMMENT
       S = SBAS      J = QZSS          E = GALILEO          COMMENT
BEAN                                                        MARKER NAME
1                                                           MARKER NUMBER
GEODETIC                                                    MARKER TYPE
Unige DICCA         GTER                                    OBSERVER / AGENCY
SC60291900056       SC600               2.12(191226)        REC # / TYPE / VERS
                    HEMA45          NONE                    ANT # / TYPE
  4509407.8091   693652.4678  4442337.6214                  APPROX POSITION XYZ
        0.0000        0.0000        0.0000                  ANTENNA: DELTA H/E/N
G    8 C1C L1C D1C S1C C2Y L2Y D2Y S2Y                      SYS / # / OBS TYPES
R    8 C1C L1C D1C S1C C2P L2P D2P S2P                      SYS / # / OBS TYPES
C    8 C1I L1I D1I S1I C7I L7I D7I S7I                      SYS / # / OBS TYPES
E    8 C1C L1C D1C S1C C7Q L7Q D7Q S7Q                      SYS / # / OBS TYPES
DBHZ                                                        COMMENT
     30.000                                                 INTERVAL
  2020    05    10    20    00    0.0000000     GPS         TIME OF FIRST OBS
  2020    05    10    20    59   30.0000000     GPS         TIME OF LAST OBS
     0                                                      RCV CLOCK OFFS APPL
G L1C  0.00000                                              SYS / PHASE SHIFT
G L2Y  0.00000                                              SYS / PHASE SHIFT
R L1C  0.00000                                              SYS / PHASE SHIFT
R L2P  0.25000                                              SYS / PHASE SHIFT
C L1I  0.00000                                              SYS / PHASE SHIFT
C L7I  0.00000                                              SYS / PHASE SHIFT
E L1C  0.50000                                              SYS / PHASE SHIFT
E L7Q -0.25000                                              SYS / PHASE SHIFT
 13 R01  1 R02 -4 R06 -4 R07  5 R08  6 R09 -2 R10 -5 R11  0 GLONASS SLOT / FRQ #
    R12 -1 R20  2 R21  4 R22 -3 R23  3                      GLONASS SLOT / FRQ #
 C1C   71.950 C2C   71.950 C2P   71.950                     GLONASS COD/PHS/BIS
    18                                                      LEAP SECONDS
*** Above antenna height is from mark to ANTENNA BOTTOM.    COMMENT
    17     4        0.0000        ANT MEASURE TYPE/HEIGT    COMMENT
    0.0000    0.0000    0.0458    0.0405    0.0000          COMMENT
                    BASE STATION                            COMMENT
                                                            END OF HEADER
> 2020 05 10 20 00  0.0000000  0 18        .000000000000
G01  20266889.500 8 106503213.807 8        -5.188          51.000    20266891.742 8  82989535.131 8        -4.042          51.000
G03  20906101.992 6 109862302.501 6      1580.566          37.000    20906103.469 6  85607029.790 6      1231.610          38.000
G08  23405253.719 6 122995433.996 6     -3585.629          39.000    23405250.562 6  95840588.336 6     -2793.997          38.000
G11  20636439.930 8 108445223.165 8     -2168.434          51.000    20636439.297 7  84502767.984 7     -1689.689          45.000
G14  22127951.703 5 116283173.656 5     -1180.391          32.000
G22  20610624.164 8 108309561.273 8       -75.844          51.000    20610621.109 8  84397051.099 8       -59.096          51.000
R01  19814698.266 8 105920907.083 8      2091.328          48.000    19814702.156 6  82382969.430 6      1626.589          41.000
R08  19457407.656 8 104193531.812 8     -1364.520          49.000    19457408.883 7  81039472.319 7     -1061.293          47.000
R22  22524502.406 8 120237307.640 8     -3776.477          48.000    22524506.453 7  93517884.050 7     -2937.260          47.000
R23  19064678.977 8 101983142.820 8      -159.809          50.000    19064683.219 7  79320256.217 7      -124.296          42.000
C05                                                                  39681947.672 6 159782775.119 6       -25.421          38.000
C19  22091192.484 8 115034628.936 8      1568.496          51.000
C20  22337890.148 8 116319370.098 8     -1383.824          51.000
C29  22103366.133 8 115098047.580 8     -1749.035          51.000
C30  25880612.250 5 134767143.856 5     -3388.699          34.000
E03  23603767.453 8 124038706.645 8       172.836          51.000    23603769.383 8  95042683.757 8       132.391          51.000
E08  23466779.445 7 123318764.238 7      2616.613          47.000    23466783.359 8  94491001.397 8      2005.009          51.000
E15  23003847.875 8 120886038.419 8      -195.875          51.000    23003850.359 8  92626986.326 8      -150.053          51.000
> 2020 05 10 20 00 30.0000000  0 18        .000000000000
G01  20266962.508 8 106503597.828 8       -19.695          51.000    20266964.797 8  82989834.368 8       -15.347          51.000
G03  20897117.461 6 109815092.776 6      1567.219          37.000    20897119.492 6  85570243.005 6      1221.209          37.000
G08  23425743.516 6 123103113.668 6     -3592.199          39.000    23425744.203 6  95924494.548 6     -2799.116          38.000
G11  20648870.586 8 108510545.419 8     -2185.641          51.000    20648869.430 7  84553668.402 7     -1703.097          46.000
G14  22134742.516 5 116318855.709 5     -1198.121          35.000
G22  20611095.648 8 108312039.200 8       -88.652          51.000    20611092.492 8  84398981.955 8       -69.080          51.000
R01  19803022.344 7 105858495.418 7      2070.098          47.000    19803026.703 6  82334427.052 6      1610.076          41.000
R08  19465113.758 8 104234796.919 8     -1385.809          49.000    19465114.641 7  81071567.407 7     -1077.851          46.000
R22  22545758.578 7 120350775.991 7     -3787.363          47.000    22545763.727 8  93606137.191 8     -2945.730          48.000
R23  19065644.219 8 101988305.475 8      -183.676          50.000    19065648.641 7  79324271.612 7      -142.859          42.000
C05                                                                  39682140.711 6 159783536.147 6       -26.146          38.000
C19  22082194.828 8 114987775.192 8      1555.723          51.000
C20  22345898.172 8 116361070.417 8     -1395.562          51.000
C29  22113487.742 8 115150751.852 8     -1763.832          51.000
C30  25900146.500 5 134868872.480 5     -3392.590          35.000
E03  23602822.938 8 124033743.354 8       158.680          51.000    23602824.812 8  95038880.722 8       121.592          51.000
E08  23451866.844 8 123240399.684 8      2608.156          48.000    23451870.203 8  94430955.867 8      1998.526          51.000
E15  23004999.023 8 120892086.921 8      -206.789          51.000    23005001.438 8  92631620.897 8      -158.470          51.000
> 2020 05 10 20 01  0.0000000  0 18        .000000000000
G01  20267107.766 8 106504361.560 8       -32.980          51.000    20267110.055 8  82990429.474 8       -25.699          51.000
G03  20888198.516 6 109768227.084 6      1555.301          38.000    20888202.062 6  85533724.310 6      1211.923          39.000
G08  23446260.805 6 123210938.161 6     -3597.809          38.000    23446263.992 6  96008513.619 6     -2803.487          38.000
G11  20661389.031 8 108576328.297 8     -2201.656          51.000    20661387.531 7  84604927.745 7     -1715.576          47.000
G14  22141629.383 6 116355041.201 6     -1215.555          36.000
G22  20611629.133 8 108314842.643 8      -100.051          51.000    20611626.008 8  84401166.480 8       -77.962          51.000
R01  19791454.547 7 105796661.963 7      2050.258          47.000    19791459.086 6  82286334.409 6      1594.645          41.000
R08  19472928.641 8 104276644.548 8     -1405.914          48.000    19472929.422 7  81104115.561 7     -1093.489          47.000
R22  22567064.570 7 120464513.140 7     -3796.953          46.000    22567071.242 8  93694599.423 8     -2953.186          48.000
R23  19066733.000 8 101994130.003 8      -206.484          50.000    19066737.836 7  79328801.796 7      -160.599          43.000
C05                                                                  39682330.117 6 159784299.107 6       -26.010          37.000
C19  22073260.227 8 114941251.785 8      1543.953          51.000
C20  22353963.352 8 116403069.038 8     -1406.047          51.000
C29  22123684.336 8 115203848.143 8     -1777.633          51.000
C30  25919692.703 6 134970662.449 6     -3395.246          36.000
E03  23601949.680 8 124029154.535 8       145.465          51.000    23601951.445 8  95035364.630 8       111.415          51.000
E08  23436993.453 8 123162237.985 8      2600.812          50.000    23436995.812 8  94371065.787 8      1992.815          50.000
E15  23006203.086 8 120898413.801 8      -216.816          51.000    23006205.344 8  92636468.762 8      -166.090          51.000
> 2020 05 10 20 01 30.0000000  0 19        .000000000000
G01  20267324.711 8 106505501.531 8       -46.129          51.000    20267326.961 8  82991317.773 8       -35.945          51.000
G03  20879344.906 6 109721701.620 6      1543.328          40.000    20879349.477 6  85497470.710 6      1202.590          40.000
G08  23466803.969 6 123318900.764 6     -3603.141          36.000    23466808.938 5  96092640.330 5     -2807.642          35.000
G11  20673993.984 8 108642566.287 8     -2217.398          51.000    20673992.156 8  84656541.741 8     -1727.843          48.000
G14  22148608.609 5 116391722.480 5     -1232.227          32.000
G22  20612223.719 8 108317966.833 8      -111.367          51.000    20612220.695 8  84403600.922 8       -86.780          51.000
G32  23195995.039 5 121895744.726 5     -2583.012          31.000
R01  19779994.664 7 105735403.807 7      2030.359          47.000    19779999.453 7  82238689.203 7      1579.168          42.000
R08  19480850.891 7 104319067.638 7     -1425.617          47.000    19480851.773 7  81137111.304 7     -1108.813          47.000
R22  22588419.602 7 120578512.788 7     -3806.367          46.000    22588427.391 7  93783265.820 7     -2960.508          47.000
R23  19067944.945 8 102000613.062 8      -229.129          50.000    19067949.773 7  79333844.196 7      -178.211          43.000
C05                                                                  39682515.398 6 159785044.916 6       -26.070          37.000
C19  22064388.359 8 114895054.906 8      1532.625          51.000
C20  22362085.070 8 116445360.440 8     -1416.469          51.000
C29  22133955.195 8 115257331.508 8     -1791.070          51.000
C30  25939249.617 5 135072508.121 5     -3398.074          34.000
E03  23601146.891 8 124024935.763 8       132.500          51.000    23601148.641 8  95032132.078 8       101.532          51.000
E08  23422158.516 8 123084276.224 8      2593.414          51.000    23422160.172 8  94311328.909 8      1987.173          50.000
E15  23007459.281 8 120905015.594 8      -226.602          51.000    23007461.672 8  92641527.277 8      -173.606          51.000
> 2020 05 10 20 02  0.0000000  0 19        .000000000000
G01  20267629.000 8 106507100.699 8       -58.793          51.000    20267631.219 8  82992563.884 8       -45.813          51.000
G03  20870571.914 6 109675598.881 6      1531.977          40.000    20870576.281 6  85461546.496 6      1193.751          40.000
G08  23487388.039 5 123427081.611 5     -3607.148          32.000    23487395.422 5  96176937.135 5     -2810.768          32.000
G11  20686700.547 8 108709340.221 8     -2232.461          50.000    20686699.062 8  84708573.359 8     -1739.580          49.000
G14  22155695.000 6 116428962.861 6     -1248.648          36.000
G22  20612894.797 8 108321493.124 8      -122.047          51.000    20612891.812 8  84406348.683 8       -95.101          51.000
G32  23210778.422 5 121973420.285 5     -2593.992          32.000    23210786.383 5  95044294.979 5     -2021.283          32.000
R01  19768658.227 7 105674805.190 7      2011.188          46.000    19768663.086 6  82191556.978 6      1564.257          41.000
R08  19488895.781 8 104362147.605 8     -1444.676          48.000    19488896.711 7  81170617.930 7     -1123.640          46.000
R22  22609839.391 7 120692856.359 7     -3814.918          46.000    22609847.094 7  93872199.702 7     -2967.158          43.000
R23  19069295.562 8 102007839.719 8      -250.953          51.000    19069300.977 7  79339464.927 7      -195.186          44.000
C05                                                                  39682711.992 6 159785836.641 6       -25.602          37.000
C19  22055595.219 8 114849266.430 8      1521.691          51.000
C20  22370278.492 8 116488024.777 8     -1426.238          51.000
C29  22144315.602 8 115311282.706 8     -1803.926          51.000
C30  25958832.477 5 135174489.424 5     -3399.676          32.000
E03  23600430.148 8 124021169.019 8       120.309          51.000    23600431.789 8  95029245.887 8        92.146          51.000
E08  23407377.477 8 123006597.862 8      2586.773          51.000    23407379.000 8  94251809.180 8      1982.064          50.000
E15  23008783.492 8 120911975.331 8      -235.703          51.000    23008786.055 8  92646860.057 8      -180.598          51.000
> 2020 05 10 20 02 30.0000000  0 19        .000000000000
G01  20267981.531 8 106508953.856 8       -69.844          50.000    20267983.688 8  82994007.926 8       -54.424          50.000
G03  20861840.289 7 109629713.263 7      1521.832          42.000    20861843.797 7  85425791.483 7      1185.843          42.000
G08  23507974.508 5 123535271.833 5     -3610.383          34.000    23507982.641 5  96261241.155 5     -2813.288          34.000
G11  20699469.500 8 108776442.998 8     -2246.203          50.000    20699468.695 8  84760861.241 8     -1750.291          50.000
G22  20613603.031 8 108325215.028 8      -131.188          51.000    20613600.086 8  84409248.878 8      -102.224          51.000
G32  23225603.961 5 122051324.896 5     -2604.965          31.000    23225609.930 5  95104999.854 5     -2029.840          30.000
R01  19757406.336 8 105614658.338 8      1993.406          48.000    19757410.742 6  82144776.118 6      1550.430          40.000
R08  19497023.492 7 104405672.121 7     -1462.125          47.000    19497024.594 7  81204470.342 7     -1137.208          46.000
R22  22631284.633 7 120807332.497 7     -3822.008          47.000    22631289.133 6  93961236.651 6     -2972.676          38.000
R23  19070746.375 8 102015601.684 8      -271.652          51.000    19070752.195 7  79345501.995 7      -211.288          43.000
C05                                                                  39682880.859 6 159786516.649 6       -23.974          37.000
C19  22046841.336 8 114803682.678 8      1512.188          51.000
C20  22378503.891 8 116530856.603 8     -1434.418          51.000
C29  22154726.586 8 115365496.883 8     -1815.371          51.000
C30  25978402.062 5 135276401.090 5     -3400.059          33.000
E03  23599760.125 8 124017648.124 8       109.422          51.000    23599761.523 8  95026548.069 8        83.876          51.000
E05  26249444.578 5 137941760.207 5     -2349.785          35.000
E08  23392611.391 8 122928998.316 8      2581.406          51.000    23392612.820 8  94192349.821 8      1978.012          50.000
E15  23010136.758 8 120919087.824 8      -243.461          51.000    23010139.594 8  92652309.879 8      -186.575          51.000
> 2020 05 10 20 03  0.0000000  0 19        .000000000000
G01  20268434.297 8 106511334.220 8       -94.762          49.000    20268436.445 8  82995862.764 8       -73.837          49.000
G03  20853202.008 7 109584317.431 7      1498.312          44.000    20853204.570 7  85390418.150 7      1167.516          44.000
G08  23528615.438 5 123643741.618 5     -3626.867          34.000    23528622.922 5  96345763.094 5     -2826.130          34.000
G11  20712352.867 8 108844145.952 8     -2273.324          51.000    20712352.562 8  84813616.792 8     -1771.421          49.000
G14  22170124.398 5 116504791.912 5     -1291.832          33.000
G22  20614400.250 8 108329404.644 8      -154.078          51.000    20614397.266 8  84412513.512 8      -120.061          51.000
R01  19746291.438 8 105555241.163 8      1961.645          49.000    19746294.992 6  82098562.755 6      1525.724          41.000
R08  19505285.578 7 104449915.857 7     -1493.520          47.000    19505286.758 7  81238882.146 7     -1161.626          45.000
R22  22652806.797 8 120922216.364 8     -3843.004          48.000    22652807.219 6  94050590.602 6     -2989.009          39.000
R23  19072349.453 8 102024177.069 8      -306.105          51.000    19072355.250 7  79352171.738 7      -238.082          43.000
C05                                                                  39683073.758 6 159787293.726 6       -32.746          37.000
C19  22038178.328 8 114758573.969 8      1489.148          51.000
C20  22386813.102 8 116574124.499 8     -1456.145          51.000
C29  22165239.859 8 115420243.258 8     -1840.277          51.000
C30  25998010.750 5 135378511.527 5     -3413.957          33.000
E03  23599188.625 8 124014645.259 8        84.691          51.000    23599189.750 8  95024247.174 8        64.932          51.000
E05  26262894.336 5 138012433.368 5     -2367.953          35.000
E08  23377912.328 8 122851751.281 8      2562.277          51.000    23377913.758 8  94133160.578 8      1963.297          51.000
E15  23011571.164 8 120926626.273 8      -265.098          51.000    23011574.297 8  92658086.091 8      -203.157          51.000
> 2020 05 10 20 03 30.0000000  0 18        .000000000000
G01  20268960.664 8 106514101.127 8       -90.344          49.000    20268962.805 8  82998018.805 8       -70.398          49.000
G03  20844630.406 7 109539270.439 7      1504.078          45.000    20844631.758 7  85355316.577 7      1172.009          46.000
G08  23549282.422 5 123752347.328 5     -3614.066          34.000    23549289.188 5  96430390.860 5     -2816.159          34.000
G11  20725323.438 8 108912306.495 8     -2271.344          51.000    20725323.336 8  84866728.897 8     -1769.881          49.000
G14  22177493.750 6 116543510.430 6     -1290.203          37.000
G22  20615259.508 8 108333920.364 8      -147.703          51.000    20615256.438 8  84416032.249 8      -115.093          51.000
R01  19735286.430 7 105496411.341 7      1959.551          47.000    19735289.820 7  82052806.247 7      1524.095          42.000
R08  19513654.414 7 104494732.392 7     -1494.965          46.000    19513655.766 7  81273739.464 7     -1162.747          45.000
R22  22674378.500 8 121037361.770 8     -3834.105          48.000    22674378.984 7  94140148.088 7     -2982.082          42.000
R23  19074078.141 8 102033423.611 8      -310.910          51.000    19074083.969 7  79359363.469 7      -241.819          43.000
C05                                                                  39683263.977 6 159788059.749 6       -19.042          37.000
C19  22029579.711 8 114713800.577 8      1495.094          51.000
C20  22395178.906 8 116617687.055 8     -1448.762          51.000
C29  22175828.398 8 115475380.987 8     -1836.137          51.000
E03  23598688.727 8 124012018.758 8        89.645          51.000    23598689.773 8  95022234.683 8        68.671          51.000
E05  26276379.078 5 138083302.368 5     -2356.719          34.000
E08  23363253.492 8 122774716.661 8      2572.527          51.000    23363255.133 8  94074134.098 8      1971.199          51.000
E15  23013059.734 8 120934450.081 8      -257.316          51.000    23013063.242 8  92664080.949 8      -197.111          51.000
> 2020 05 10 20 04  0.0000000  0 17        .000000000000
G01  20269570.562 8 106517306.116 8      -118.504          50.000    20269572.523 8  83000516.221 8       -92.341          50.000
G03  20836134.633 7 109494623.249 7      1477.117          43.000    20836135.844 7  85320526.569 7      1151.003          43.000
G08  23569984.727 5 123861137.986 5     -3633.441          34.000    23569990.906 5  96515162.763 5     -2831.253          33.000
G11  20738390.523 8 108980973.962 8     -2301.723          51.000    20738390.555 8  84920235.998 8     -1793.550          49.000
G14  22184965.000 5 116582772.124 5     -1322.266          35.000
G22  20616190.312 8 108338811.735 8      -173.754          51.000    20616187.203 8  84419843.702 8      -135.393          51.000
R01  19724401.039 8 105438221.123 8      1924.555          48.000    19724404.742 7  82007547.195 7      1496.876          43.000
R08  19522139.852 7 104540171.203 7     -1529.332          46.000    19522141.164 7  81309080.784 7     -1189.480          45.000
R22  22696008.383 7 121152818.364 7     -3858.266          46.000    22696009.641 7  94229947.661 7     -3000.873          44.000
R23  19075941.969 8 102043393.607 8      -348.855          51.000    19075947.461 6  79367117.888 6      -271.332          41.000
C05                                                                  39683461.109 6 159788853.633 6       -30.224          37.000
C19  22021055.570 8 114669413.183 8      1468.789          51.000
C20  22403610.617 8 116661593.261 8     -1473.629          51.000
C29  22186501.766 8 115530959.576 8     -1864.375          51.000
E03  23598270.086 8 124009819.179 8        61.895          51.000    23598271.375 8  95020549.317 8        47.426          51.000
E08  23348644.695 8 122697946.505 8      2550.273          51.000    23348646.445 8  94015310.244 8      1954.088          51.000
E15  23014612.461 8 120942610.797 8      -282.020          51.000    23014616.406 8  92670333.966 8      -216.081          51.000
> 2020 05 10 20 04 30.0000000  0 17        .000000000000
G01  20270218.203 8 106520709.008 8      -121.664          50.000    20270219.898 8  83003167.838 8       -94.803          50.000
G03  20827668.492 7 109450135.343 7      1475.332          42.000    20827670.977 7  85285860.674 7      1149.612          42.000
G11  20751508.047 8 109049906.384 8     -2307.059          51.000    20751508.094 8  84973949.555 8     -1797.708          49.000
G22  20617146.688 8 108343837.419 8      -174.680          51.000    20617143.672 8  84423759.834 8      -136.114          51.000
G32  23285669.172 5 122366989.924 5     -2651.223          33.000    23285671.914 5  95350944.513 5     -2065.888          33.000
R01  19713589.375 8 105380426.872 8      1914.875          48.000    19713593.766 7  81962596.113 7      1489.347          44.000
R08  19530694.828 7 104585983.538 7     -1538.238          46.000    19530696.422 7  81344712.604 7     -1196.411          45.000
R22  22717649.594 7 121268339.448 7     -3856.789          44.000    22717652.281 7  94319797.406 7     -2999.722          45.000
R23  19077895.859 8 102053843.457 8      -361.266          51.000    19077900.570 6  79375245.545 6      -280.984          41.000
C05                                                                  39683619.352 6 159789491.057 6       -22.334          37.000
C19  22012559.898 8 114625173.466 8      1467.391          51.000
C20  22412062.297 8 116705603.110 8     -1473.574          51.000
C29  22197213.945 8 115586739.547 8     -1867.551          51.000
E03  23597886.805 8 124007805.394 8        59.047          51.000    23597888.414 8  95019006.297 8        45.253          51.000
E05  26303434.789 5 138225482.474 5     -2373.824          32.000
E08  23334040.047 8 122621201.302 8      2552.875          49.000    23334042.219 8  93956505.490 8      1956.060          51.000
E15  23016183.688 8 120950868.347 8      -281.742          51.000    23016188.102 8  92676661.169 8      -215.901          51.000
> 2020 05 10 20 05  0.0000000  0 18        .000000000000
G01  20270996.188 8 106524796.877 8      -145.199          50.000    20270997.820 8  83006353.176 8      -113.142          50.000
G03  20819325.289 6 109406293.385 6      1453.152          41.000    20819328.281 6  85251698.068 6      1132.327          41.000
G11  20764768.148 8 109119588.647 8     -2332.719          51.000    20764768.164 7  85028247.415 7     -1817.703          47.000
G14  22200196.898 6 116662829.349 6     -1355.477          39.000
G22  20618221.188 8 108349483.303 8      -196.062          51.000    20618218.109 8  84428159.222 8      -152.776          51.000
G32  23300887.375 5 122446956.176 5     -2673.414          34.000    23300889.156 5  95413255.834 5     -2083.183          32.000
R01  19702944.055 7 105323524.129 7      1884.363          47.000    19702949.492 7  81918338.472 7      1465.619          44.000
R07  22877541.320 5 122465260.496 5     -3954.512          33.000    22877543.109 5  95250754.151 5     -3075.728          32.000
R08  19539411.977 7 104632662.662 7     -1567.746          45.000    19539413.469 7  81381018.597 7     -1219.358          45.000
R22  22739394.375 7 121384417.059 7     -3875.973          45.000    22739398.883 7  94410080.013 7     -3014.642          46.000
R23  19080031.945 8 102065268.873 8      -394.551          51.000    19080036.297 6  79384131.959 6      -306.873          40.000
C05                                                                  39683831.266 6 159790344.697 6       -30.079          37.000
C19  22004185.273 8 114581563.622 8      1445.691          51.000
C20  22420626.125 8 116750197.076 8     -1493.688          51.000
C29  22208057.352 8 115643201.957 8     -1891.070          51.000
E03  23597631.297 8 124006463.354 8        36.113          51.000    23597632.977 8  95017977.996 8        27.617          51.000
E08  23319532.445 8 122544968.571 8      2535.020          49.000    23319535.367 8  93898093.395 8      1942.415          51.000
E15  23017865.961 8 120959709.759 8      -301.938          51.000    23017870.742 8  92683435.754 8      -231.370          51.000
> 2020 05 10 20 05 30.0000000  0 17        .000000000000
G01  20271828.461 8 106529170.234 8      -148.973          51.000    20271830.297 8  83009760.976 8      -116.083          51.000
G03  20811029.062 7 109362697.395 7      1450.457          43.000    20811031.609 7  85217727.142 7      1130.226          42.000
G11  20778094.383 8 109189619.159 8     -2338.609          51.000    20778094.203 7  85082816.629 7     -1822.293          45.000
G22  20619337.422 8 108355348.464 8      -197.586          51.000    20619334.172 8  84432729.472 8      -153.963          51.000
G32  23316150.109 5 122527164.357 5     -2676.543          33.000    23316151.891 5  95475755.710 5     -2085.621          32.000
R01  19692388.969 7 105267106.932 7      1873.996          45.000    19692395.828 7  81874458.498 7      1457.553          43.000
R07  22899679.031 5 122583761.274 5     -3948.094          32.000    22899680.172 5  95342921.412 5     -3070.743          31.000
R08  19548213.969 7 104679798.402 7     -1577.090          46.000    19548216.031 7  81417679.738 7     -1226.625          44.000
R22  22761166.773 7 121500642.493 7     -3875.020          44.000    22761172.602 7  94500477.563 7     -3013.904          45.000
R23  19082274.625 8 102077263.764 8      -407.824          51.000    19082278.008 6  79393461.309 6      -317.197          39.000
C05                                                                  39684020.812 6 159791108.114 6       -23.035          38.000
C19  21995855.516 8 114538187.454 8      1443.414          51.000
C20  22429225.727 8 116794977.315 8     -1494.297          51.000
C29  22218955.383 8 115699949.490 8     -1894.789          51.000
E03  23597427.266 8 124005392.668 8        32.684          51.000    23597429.258 8  95017157.599 8        25.016          51.000
E08  23305046.844 8 122468849.375 8      2536.887          50.000    23305049.625 8  93839768.302 8      1943.887          51.000
E15  23019583.508 8 120968735.624 8      -302.516          51.000    23019588.352 8  92690351.676 8      -231.792          51.000
> 2020 05 10 20 06  0.0000000  0 17        .000000000000
G01  20272720.617 8 106533858.275 8      -165.938          51.000    20272722.703 8  83013413.981 8      -129.302          51.000
G03  20802785.320 7 109319376.061 7      1435.219          43.000    20802787.484 7  85183970.296 7      1118.355          43.000
G11  20791492.109 8 109260025.321 8     -2357.492          50.000    20791491.867 7  85137678.535 7     -1837.007          45.000
G22  20620500.617 8 108361460.981 8      -212.336          51.000    20620497.266 8  84437492.476 8      -165.457          51.000
G32  23331462.789 5 122607640.663 5     -2691.316          31.000    23331464.523 4  95538464.521 4     -2097.133          27.000
R01  19681930.906 7 105211205.103 7      1850.367          47.000    19681938.328 7  81830979.317 7      1439.174          43.000
R07  22921817.664 5 122702273.341 5     -3954.930          30.000    22921819.922 5  95435097.469 5     -3076.056          32.000
R08  19557106.430 7 104727416.758 7     -1599.902          46.000    19557108.602 7  81454716.231 7     -1244.368          44.000
R22  22782971.984 7 121617042.395 7     -3887.379          44.000    22782978.594 7  94591010.755 7     -3023.520          44.000
R23  19084629.078 8 102089857.887 8      -434.312          51.000    19084631.906 6  79403256.736 6      -337.802          39.000
C05                                                                  39684193.477 6 159791803.162 6       -25.424          37.000
C19  21987576.117 8 114495073.495 8      1428.344          51.000
C20  22437866.328 8 116839970.710 8     -1507.664          51.000
C29  22229912.711 8 115757009.530 8     -1911.605          51.000
E03  23597280.086 8 124004621.484 8        16.199          51.000    23597282.766 8  95016566.688 8        12.466          51.000
E08  23290589.164 8 122392873.434 8      2525.664          51.000    23290590.773 8  93781553.007 8      1935.267          50.000
E15  23021341.750 8 120977975.162 8      -315.988          51.000    23021346.570 8  92697431.326 8      -242.124          51.000
> 2020 05 10 20 06 30.0000000  0 15        .000000000000
G01  20273731.258 8 106539168.888 8      -196.109          51.000    20273733.609 8  83017552.104 8      -152.816          51.000
G03  20794652.547 7 109276636.939 7      1406.156          45.000    20794654.203 7  85150667.143 7      1095.706          45.000
G11  20805019.633 8 109331112.790 8     -2389.656          51.000    20805019.109 7  85193071.318 7     -1862.070          45.000
G22  20621769.305 8 108368127.299 8      -240.195          51.000    20621765.750 8  84442687.001 8      -187.165          51.000
R01  19671629.000 8 105156132.385 8      1813.039          48.000    19671635.672 7  81788144.980 7      1410.141          43.000
R08  19566147.250 7 104775828.583 7     -1635.809          45.000    19566149.008 7  81492369.883 7     -1272.293          44.000
R22  22804868.578 7 121733926.940 7     -3913.012          45.000    22804875.148 7  94681920.884 7     -3043.457          42.000
R23  19087154.156 8 102103365.101 8      -474.391          51.000    19087156.680 6  79413762.327 6      -368.970          39.000
C05                                                                  39684407.594 6 159792664.332 6       -38.144          37.000
C19  21979405.641 8 114452526.541 8      1400.137          51.000
C20  22446606.008 8 116885480.268 8     -1534.219          51.000
C29  22240988.586 8 115814685.573 8     -1941.441          51.000
E03  23597248.203 8 124004456.651 8       -13.391          50.000    23597251.523 8  95016440.389 8       -10.266          51.000
E08  23276217.719 8 122317349.204 8      2501.055          50.000    23276218.141 8  93723683.840 8      1916.494          50.000
E15  23023199.250 8 120987736.344 8      -342.879          51.000    23023204.297 8  92704910.661 8      -262.686          51.000
> 2020 05 10 20 07  0.0000000  0 15        .000000000000
G01  20274810.047 8 106544837.504 8      -190.777          51.000    20274812.375 8  83021969.183 8      -148.661          51.000
G03  20786580.344 7 109234215.016 7      1413.070          45.000    20786581.766 7  85117611.147 7      1101.097          45.000
G11  20818626.031 8 109402615.042 8     -2386.172          51.000    20818625.461 7  85248787.319 7     -1859.355          45.000
G22  20623092.758 8 108375081.445 8      -232.418          51.000    20623089.000 8  84448105.815 8      -181.105          51.000
R01  19661432.164 8 105101619.617 8      1812.039          49.000    19661437.445 7  81745746.166 7      1409.364          43.000
R08  19575284.836 7 104824760.380 7     -1635.445          46.000    19575286.273 7  81530427.923 7     -1272.016          44.000
R22  22826805.508 7 121851024.563 7     -3902.500          45.000    22826810.516 6  94772996.754 6     -3035.281          40.000
R23  19089799.609 8 102117516.233 8      -478.188          51.000    19089801.672 6  79424768.758 6      -371.924          40.000
C05                                                                  39684612.789 6 159793490.591 6       -24.010          37.000
C19  21971293.312 8 114410283.982 8      1407.215          51.000
C20  22455393.930 8 116931241.787 8     -1525.359          51.000
C29  22252132.883 8 115872713.899 8     -1935.938          51.000
E03  23597281.391 8 124004632.572 8        -7.336          51.000    23597284.992 8  95016575.172 8        -5.600          51.000
E08  23261881.797 8 122242012.638 8      2512.332          50.000    23261881.891 8  93665958.471 8      1925.013          51.000
E15  23025105.773 8 120997754.579 8      -334.023          51.000    23025110.812 8  92712586.961 8      -255.943          51.000
> 2020 05 10 20 07 30.0000000  0 15        .000000000000
G01  20275948.898 8 106550821.709 8      -202.684          51.000    20275951.102 8  83026632.189 8      -157.935          51.000
G03  20778559.859 7 109192067.435 7      1402.426          42.000    20778561.867 7  85084768.914 7      1092.802          42.000
G11  20832303.023 8 109474487.857 8     -2399.859          51.000    20832302.461 7  85304792.098 7     -1870.020          45.000
G22  20624462.609 8 108382280.151 8      -241.934          51.000    20624458.703 8  84453715.192 8      -188.520          51.000
R01  19651332.141 8 105047623.740 8      1793.211          50.000    19651336.016 7  81703749.377 7      1394.720          42.000
R08  19584511.258 7 104874166.023 7     -1652.707          45.000    19584512.531 7  81568854.559 7     -1285.439          43.000
R22  22848772.656 6 121968289.195 6     -3909.414          41.000    22848776.969 6  94864202.498 6     -3040.658          39.000
R23  19092557.328 8 102132268.563 8      -499.664          51.000    19092559.367 6  79436242.779 6      -388.628          39.000
C05                                                                  39684800.922 6 159794247.949 6       -22.536          37.000
C19  21963231.117 8 114368303.350 8      1397.035          51.000
C20  22464221.789 8 116977211.197 8     -1533.684          51.000
C29  22263336.516 8 115931050.987 8     -1947.691          51.000
E03  23597371.531 8 124005105.848 8       -18.676          51.000    23597375.180 8  95016937.806 8       -14.355          51.000
E08  23247573.359 8 122166821.941 8      2505.922          50.000    23247573.977 8  93608344.855 8      1920.230          51.000
E15  23027053.250 8 121007987.531 8      -342.688          51.000    23027058.008 8  92720427.801 8      -262.585          51.000
> 2020 05 10 20 08  0.0000000  0 15        .000000000000
G01  20277142.344 8 106557093.029 8      -220.867          51.000    20277144.398 8  83031518.905 8      -172.104          51.000
G03  20770585.570 7 109150165.320 7      1385.578          43.000    20770588.414 7  85052117.905 7      1079.668          43.000
G11  20846044.742 8 109546700.120 8     -2419.801          51.000    20846043.906 7  85361061.387 7     -1885.559          45.000
G22  20625873.320 8 108389693.408 8      -257.699          51.000    20625869.422 8  84459491.755 8      -200.805          51.000
R01  19641322.891 8 104994116.469 8      1768.250          49.000    19641326.031 6  81662132.625 6      1375.306          41.000
R08  19593820.062 7 104924012.660 7     -1676.180          45.000    19593820.914 7  81607624.149 7     -1303.698          43.000
R22  22870762.828 6 122085689.028 6     -3922.559          37.000    22870770.211 6  94955513.550 6     -3050.876          41.000
R23  19095421.727 8 102147592.919 8      -527.559          51.000    19095423.961 6  79448161.722 6      -410.323          40.000
C05                                                                  39684966.273 6 159794914.185 6       -26.107          37.000
C19  21955213.820 8 114326556.140 8      1380.723          51.000
C20  22473083.984 8 117023358.272 8     -1548.219          51.000
C29  22274593.023 8 115989667.040 8     -1965.500          51.000
E03  23597512.812 8 124005846.926 8       -36.230          51.000    23597516.406 8  95017505.643 8       -27.785          51.000
E08  23233287.359 8 122091749.122 8      2493.430          50.000    23233288.844 8  93550821.558 8      1910.517          51.000
E15  23029036.164 8 121018406.758 8      -357.465          51.000    23029040.406 8  92728411.364 8      -273.908          51.000
> 2020 05 10 20 08 30.0000000  0 16        .000000000000
G01  20278457.250 8 106564002.728 8      -230.992          51.000    20278459.211 8  83036903.070 8      -179.994          51.000
G03  20762725.102 7 109108859.478 7      1376.855          45.000    20762727.977 7  85019931.493 7      1072.874          46.000
G08  23757436.797 5 124846178.989 5     -3665.445          34.000    23757436.719 5  97282737.986 5     -2856.185          34.000
G11  20859917.688 8 109619601.351 8     -2431.418          51.000    20859916.336 7  85417867.534 7     -1894.611          44.000
G22  20627391.398 8 108397671.126 8      -265.285          51.000    20627387.719 8  84465708.168 8      -206.713          51.000
R01  19631471.148 8 104941454.592 8      1751.441          48.000    19631474.109 6  81621173.416 6      1362.235          41.000
R08  19603277.555 7 104974654.962 7     -1691.070          44.000    19603278.289 7  81647012.630 7     -1315.277          43.000
R22  22892847.758 7 122203578.418 7     -3927.656          42.000    22892855.602 7  95047205.314 7     -3054.844          42.000
R23  19098460.078 8 102163847.310 8      -547.039          51.000    19098462.703 6  79460804.014 6      -425.478          40.000
C05                                                                  39685175.805 6 159795758.105 6       -23.479          37.000
C19  21947308.203 8 114285390.010 8      1372.445          51.000
C20  22482046.742 8 117070029.058 8     -1554.461          51.000
C29  22285968.891 8 116048908.598 8     -1975.203          51.000
E03  23597771.828 8 124007206.069 8       -45.488          51.000    23597775.234 8  95018547.068 8       -34.807          51.000
E08  23219090.789 8 122017146.040 8      2489.074          50.000    23219093.125 8  93493658.191 8      1907.135          51.000
E15  23031121.352 8 121029363.594 8      -364.109          51.000    23031125.359 8  92736806.864 8      -278.993          51.000
> 2020 05 10 20 09  0.0000000  0 15        .000000000000
G01  20279825.969 8 106571195.101 8      -250.445          51.000    20279828.008 8  83042507.490 8      -195.152          51.000
G03  20754910.680 7 109067793.691 7      1359.043          45.000    20754912.883 7  84987932.204 7      1058.995          45.000
G11  20873853.578 8 109692833.883 8     -2452.562          51.000    20873851.609 7  85474931.804 7     -1911.088          45.000
G22  20628948.922 8 108405856.334 8      -282.219          51.000    20628945.391 8  84472086.266 8      -219.908          51.000
R01  19621709.617 7 104889276.986 7      1725.109          47.000    19621712.773 6  81580590.861 6      1341.755          40.000
R08  19612814.680 7 105025727.188 7     -1715.625          46.000    19612815.516 7  81686735.458 7     -1334.375          42.000
R22  22914957.375 7 122321593.028 7     -3941.895          44.000    22914964.164 7  95138994.422 7     -3065.918          42.000
R23  19101604.578 8 102180669.824 8      -576.273          51.000    19101607.352 6  79473888.181 6      -448.213          40.000
C05                                                                  39685361.820 6 159796505.742 6       -27.841          37.000
C19  21939446.375 8 114244452.067 8      1354.840          51.000
C20  22491041.859 8 117116869.047 8     -1570.016          51.000
C29  22297396.797 8 116108421.556 8     -1994.180          51.000
E03  23598080.664 8 124008826.536 8       -64.320          51.000    23598083.750 8  95019788.743 8       -49.272          51.000
E08  23204916.148 8 121942657.541 8      2475.121          50.000    23204919.078 8  93436582.616 8      1896.521          51.000
E15  23033241.062 8 121040502.378 8      -380.352          51.000    23033244.977 8  92745341.769 8      -291.363          51.000
> 2020 05 10 20 09 30.0000000  0 16        .000000000000
G01  20281276.305 8 106578816.232 8      -245.055          51.000    20281278.484 8  83048446.018 8      -190.952          51.000
G03  20747169.742 7 109027113.704 7      1365.559          45.000    20747171.914 7  84956233.561 7      1064.075          45.000
G11  20887879.875 8 109766541.734 8     -2448.766          51.000    20887877.336 7  85532366.461 7     -1908.129          46.000
G22  20630573.617 8 108414393.817 8      -274.363          51.000    20630569.805 8  84478738.849 8      -213.790          51.000
G32  23440674.039 5 123181570.742 5     -2756.520          33.000
R01  19612066.203 8 104837732.151 8      1723.895          48.000    19612070.062 6  81540500.465 6      1340.810          41.000
R08  19622459.945 7 105077374.935 7     -1714.816          45.000    19622460.703 7  81726905.925 7     -1333.746          42.000
R22  22937117.648 7 122439878.328 7     -3931.027          44.000    22937123.148 6  95230994.085 6     -3057.466          41.000
R23  19104883.156 8 102198208.839 8      -580.199          51.000    19104886.219 6  79487529.632 6      -451.266          40.000
C05                                                                  39685551.805 6 159797270.625 6       -13.429          37.000
C19  21931656.062 8 114203886.681 8      1361.938          51.000
C20  22500096.805 8 117164021.020 8     -1561.055          51.000
C29  22308904.992 8 116168349.111 8     -1988.574          51.000
E03  23598466.789 8 124010853.369 8       -58.285          51.000    23598469.516 8  95021341.778 8       -44.627          51.000
E08  23190790.961 8 121868430.263 8      2485.961          49.000    23190794.484 8  93379707.184 8      1904.839          51.000
E15  23035423.172 8 121051969.220 8      -371.586          51.000    23035427.125 8  92754128.050 8      -284.713          51.000
> 2020 05 10 20 10  0.0000000  0 17        .000000000000
G01  20282780.031 8 106586717.968 8      -276.605          51.000    20282782.336 8  83054603.205 8      -215.537          51.000
G03  20739473.938 7 108986670.856 7      1335.605          45.000    20739476.719 7  84924719.676 7      1040.735          45.000
G08  23820323.453 5 125176645.497 5     -3682.285          31.000    23820328.484 5  97540254.129 5     -2869.313          31.000
G11  20901967.891 8 109840574.402 8     -2481.805          51.000    20901965.625 7  85590054.232 7     -1933.877          47.000
G22  20632236.898 8 108423134.149 8      -303.289          51.000    20632232.852 8  84485549.494 8      -236.326          51.000
G32  23456508.609 5 123264780.149 5     -2785.852          34.000    23456508.859 5  96050468.477 5     -2170.790          33.000
R01  19602513.516 8 104786669.671 8      1685.312          48.000    19602518.055 7  81500785.198 7      1310.799          42.000
R08  19632183.148 7 105129443.428 7     -1751.488          45.000    19632183.547 6  81767403.656 6     -1362.269          40.000
R22  22959299.422 7 122558281.142 7     -3957.379          43.000    22959304.305 6  95323085.134 6     -3077.961          39.000
R23  19108267.562 8 102216314.160 8      -621.707          51.000    19108270.820 6  79501611.539 6      -483.550          40.000
C05                                                                  39685717.484 6 159797937.858 6       -27.143          37.000
C19  21923909.070 8 114163546.599 8      1332.309          51.000
C20  22509183.156 8 117211336.085 8     -1588.371          51.000
C29  22320464.734 8 116228542.868 8     -2019.406          51.000
E03  23598901.641 8 124013137.318 8       -88.980          51.000    23598904.297 8  95023091.837 8       -68.144          51.000
E08  23176686.852 7 121794316.558 7      2459.973          47.000    23176691.164 8  93322918.780 8      1884.848          51.000
E15  23037639.586 8 121063615.979 8      -399.801          51.000    23037643.250 8  92763052.196 8      -306.365          51.000
> 2020 05 10 20 10 30.0000000  0 18        .000000000000
G01  20284387.695 8 106595165.928 8      -287.836          51.000    20284390.023 8  83061186.012 8      -224.288          51.000
G03  20731873.766 7 108946730.413 7      1325.914          46.000    20731876.398 7  84893597.247 7      1033.180          46.000
G08  23841343.180 5 125287094.872 5     -3684.207          31.000
G11  20916167.797 8 109915195.785 8     -2494.273          51.000    20916165.992 8  85648200.747 8     -1943.590          48.000
G22  20633988.945 8 108432341.931 8      -311.852          51.000    20633985.102 8  84492724.397 8      -243.001          51.000
G32  23472433.648 5 123348462.935 5     -2794.418          34.000    23472433.445 5  96115675.840 5     -2177.469          34.000
R01  19593101.719 8 104736359.551 8      1667.398          48.000    19593107.477 7  81461655.123 7      1296.865          43.000
R07  23122001.555 5 123773888.330 5     -3980.855          31.000
R08  19642035.203 7 105182199.994 7     -1766.941          44.000    19642035.320 7  81808436.501 7     -1374.288          42.000
R22  22981553.055 7 122677068.344 7     -3963.008          43.000    22981557.430 6  95415475.193 6     -3082.336          37.000
R23  19111808.398 8 102235256.242 8      -642.469          50.000    19111812.164 6  79516344.260 6      -499.698          41.000
C05                                                                  39685909.391 6 159798710.599 6       -25.397          37.000
C19  21916256.008 8 114123694.680 8      1323.098          51.000
C20  22518351.008 8 117259075.501 8     -1595.520          51.000
C29  22332126.242 8 116289264.473 8     -2030.043          51.000
E03  23599435.758 8 124015943.042 8       -99.371          51.000    23599438.430 8  95025241.699 8       -76.144          51.000
E08  23162654.781 7 121720582.688 7      2454.336          46.000    23162660.156 8  93266421.386 8      1880.568          51.000
E15  23039940.695 8 121075708.404 8      -407.691          51.000    23039943.961 8  92772317.828 8      -312.381          51.000
> 2020 05 10 20 11  0.0000000  0 17        .000000000000
G01  20286070.680 8 106604009.506 8      -301.590          51.000    20286072.836 8  83068077.104 8      -235.005          51.000
G03  20724340.227 7 108907141.306 7      1313.691          45.000    20724342.320 7  84862748.591 7      1023.656          44.000
G11  20930450.508 8 109990252.856 8     -2509.328          51.000    20930448.992 8  85706686.790 8     -1955.321          48.000
G22  20635801.039 8 108441865.125 8      -322.836          51.000    20635797.406 8  84500145.070 8      -251.560          51.000
G32  23488418.406 5 123432464.941 5     -2804.996          35.000    23488418.398 5  96181131.999 5     -2185.708          34.000
R01  19583802.773 8 104686648.754 8      1646.852          49.000    19583808.492 7  81422991.184 7      1280.885          42.000
R07  23144317.688 5 123893351.621 5     -3983.008          30.000
R08  19651986.516 7 105235488.224 7     -1785.340          43.000    19651987.312 6  81849882.923 6     -1388.598          41.000
R22  23003849.742 7 122796084.230 7     -3971.320          45.000    23003853.922 6  95508043.099 6     -3088.805          38.000
R23  19115477.109 8 102254881.484 8      -665.742          50.000    19115481.211 6  79531608.331 6      -517.799          40.000
C05                                                                  39686098.688 6 159799473.090 6       -25.690          37.000
C19  21908668.078 8 114084181.334 8      1311.258          51.000
C20  22527571.055 8 117307088.025 8     -1605.156          51.000
C29  22343860.078 8 116350363.091 8     -2043.078          51.000
E03  23600040.188 8 124019118.870 8      -112.297          51.000    23600042.852 8  95027675.141 8       -86.013          51.000
E08  23148667.297 8 121647078.531 8      2446.215          48.000    23148672.953 8  93210100.025 8      1874.289          51.000
E15  23042297.766 8 121088095.905 8      -418.008          51.000    23042300.852 8  92781809.554 8      -320.277          51.000
> 2020 05 10 20 11 30.0000000  0 18        .000000000000
G01  20287833.781 8 106613273.982 8      -315.180          51.000    20287835.828 8  83075296.176 8      -245.595          51.000
G03  20716877.984 7 108867928.354 7      1301.582          44.000    20716880.195 7  84832193.081 7      1014.223          44.000
G11  20944820.469 8 110065768.934 8     -2524.168          51.000    20944819.547 8  85765530.486 8     -1966.884          48.000
G22  20637677.828 8 108451727.654 8      -333.773          51.000    20637674.031 8  84507830.153 8      -260.083          51.000
G32  23504468.219 5 123516808.550 5     -2816.375          32.000    23504470.500 5  96246854.326 5     -2194.575          32.000
R01  19574621.203 8 104637563.227 8      1626.371          50.000    19574625.891 7  81384813.558 7      1264.955          42.000
R07  23166649.500 5 124012897.316 5     -3985.988          31.000    23166648.680 4  96454464.379 4     -3100.216          25.000
R08  19662040.906 7 105289329.931 7     -1803.398          43.000    19662041.820 6  81891759.788 6     -1402.643          41.000
R22  23026193.617 7 122915351.545 7     -3979.211          46.000    23026196.891 6  95600806.501 6     -3094.945          38.000
R23  19119278.273 8 102275215.945 8      -688.996          51.000    19119282.656 6  79547424.021 6      -535.886          41.000
C05                                                                  39686290.211 6 159800244.282 6       -25.059          37.000
C19  21901149.734 8 114045031.155 8      1299.535          51.000
C20  22536847.914 8 117355396.716 8     -1614.574          51.000
C22  26080361.734 6 135807292.139 6      3034.242          38.000
C29  22355670.516 8 116411862.180 8     -2056.023          51.000
E03  23600719.555 8 124022689.012 8      -124.914          51.000    23600722.211 8  95030410.724 8       -95.743          51.000
E08  23134729.273 8 121573829.929 8      2437.918          49.000    23134734.078 8  93153974.474 8      1868.060          51.000
E15  23044715.797 8 121100803.833 8      -428.340          51.000    23044719.117 8  92791546.788 8      -328.211          51.000
> 2020 05 10 20 12  0.0000000  0 18        .000000000000
G01  20289686.453 8 106623009.497 8      -328.211          51.000    20289688.398 8  83082882.294 8      -255.749          51.000
G03  20709497.141 7 108829141.307 7      1290.086          46.000    20709499.297 7  84801969.450 7      1005.262          46.000
G08  23904543.320 5 125619202.250 5     -3693.188          34.000    23904542.797 5  97885117.315 5     -2877.790          34.000
G11  20959287.039 8 110141792.178 8     -2538.281          51.000    20959286.812 8  85824769.375 8     -1977.881          49.000
G22  20639628.609 8 108461978.874 8      -344.016          51.000    20639624.727 8  84515818.128 8      -268.064          51.000
G32  23520591.719 5 123601541.086 5     -2827.137          31.000    23520595.680 4  96312879.711 4     -2202.952          29.000
R01  19565565.594 8 104589153.861 8      1606.621          49.000    19565569.547 7  81347161.884 7      1249.597          42.000
R08  19672207.586 7 105343772.900 7     -1820.422          42.000    19672208.883 6  81934104.319 6     -1415.887          41.000
R22  23048592.781 7 123034918.579 7     -3986.262          44.000    23048595.453 6  95693803.008 6     -3100.426          36.000
R23  19123221.641 8 102296310.264 8      -711.566          50.000    19123226.078 6  79563830.714 6      -553.441          41.000
C05                                                                  39686493.352 6 159801062.426 6       -24.953          37.000
C19  21893710.469 8 114006293.478 8      1288.562          51.000
C20  22546191.062 8 117404049.333 8     -1623.270          51.000
C22  26062904.898 6 135716402.522 6      3030.609          37.000
C29  22367566.789 8 116473809.899 8     -2068.320          51.000
E03  23601483.234 8 124026702.658 8      -137.027          51.000    23601485.898 8  95033486.137 8      -105.022          51.000
E08  23120849.875 8 121500887.635 8      2430.484          51.000    23120853.391 8  93098083.655 8      1862.253          51.000
E15  23047204.508 8 121113882.413 8      -438.055          51.000    23047207.852 8  92801568.041 8      -335.673          51.000
> 2020 05 10 20 12 30.0000000  0 18        .000000000000
G01  20291621.086 8 106633176.739 8      -341.914          51.000    20291623.039 8  83090804.830 8      -266.427          51.000
G03  20702189.867 7 108790740.351 7      1277.781          46.000    20702191.297 7  84772046.625 7       995.677          46.000
G08  23925664.758 5 125730175.567 5     -3697.430          34.000    23925663.312 5  97971590.005 5     -2881.120          32.000
G11  20973842.188 8 110218281.013 8     -2553.074          50.000    20973842.539 8  85884371.056 8     -1989.408          48.000
G22  20641645.539 8 108472577.639 8      -354.910          51.000    20641641.875 8  84524076.902 8      -276.553          51.000
G32  23536781.195 5 123686621.080 5     -2837.324          31.000    23536787.594 5  96379174.990 5     -2210.899          32.000
R01  19556628.812 8 104541380.688 8      1586.094          49.000    19556632.164 7  81310004.988 7      1233.628          42.000
R08  19682478.820 7 105398774.049 7     -1838.531          42.000    19682479.727 6  81976882.995 6     -1429.969          40.000
R22  23071038.938 7 123154742.387 7     -3994.121          42.000    23071042.242 6  95786999.220 6     -3106.539          36.000
R23  19127299.203 8 102318124.653 8      -734.891          49.000    19127303.938 6  79580797.456 6      -571.582          41.000
C05                                                                  39686700.641 6 159801896.729 6       -24.889          37.000
C19  21886342.875 8 113967928.842 8      1276.730          51.000
C20  22555592.383 8 117453004.829 8     -1632.754          51.000
C22  26045474.586 5 135625654.926 5      3026.152          34.000
C29  22379540.938 8 116536165.549 8     -2081.215          49.000
E03  23602323.625 8 124031119.264 8      -149.887          51.000    23602326.125 8  95036870.311 8      -114.821          51.000
E08  23107021.195 8 121428212.775 8      2422.145          51.000    23107023.352 8  93042397.763 8      1856.022          49.000
E15  23049756.258 8 121127292.268 8      -448.316          51.000    23049759.391 8  92811843.123 8      -343.521          51.000
> 2020 05 10 20 13  0.0000000  0 19        .000000000000
G01  20293580.500 8 106643474.489 8      -358.430          51.000    20293582.531 8  83098829.061 8      -279.296          51.000
G03  20694898.477 7 108752423.881 7      1262.797          45.000    20694899.859 7  84742189.653 7       983.998          45.000
G08  23946747.273 6 125840971.328 6     -3702.617          36.000    23946746.141 5  98057924.333 5     -2885.153          35.000
G11  20988428.227 8 110294932.043 8     -2570.676          51.000    20988428.602 7  85944099.134 7     -2003.124          47.000
G22  20643671.047 8 108483221.526 8      -368.516          51.000    20643667.516 8  84532370.842 8      -287.155          51.000
G32  23552978.562 5 123771742.406 5     -2851.094          33.000    23552985.305 5  96445503.318 5     -2221.631          33.000
R01  19547753.203 8 104493937.432 8      1562.738          48.000    19547756.688 6  81273104.696 6      1215.463          41.000
R07  23233711.617 4 124371811.966 4     -3993.672          29.000    23233707.297 4  96733660.208 4     -3106.189          25.000
R08  19692795.867 6 105454022.402 6     -1858.871          41.000    19692797.078 6  82019853.956 6     -1445.789          40.000
R22  23093474.625 7 123274514.157 7     -4004.625          42.000    23093480.000 5  95880154.950 5     -3114.711          35.000
R23  19131454.070 8 102340352.540 8      -760.984          50.000    19131459.367 7  79598085.813 7      -591.877          42.000
C05                                                                  39686854.500 6 159802516.304 6       -27.134          37.000
C19  21878989.625 8 113929638.398 8      1262.281          51.000
C20  22564994.172 8 117501962.831 8     -1644.895          51.000
C22  26028017.359 6 135534751.174 6      3019.656          39.000
C29  22391535.617 8 116598629.138 8     -2096.707          49.000
E03  23603183.125 8 124035636.650 8      -165.207          51.000    23603185.578 8  95040331.704 8      -126.572          51.000
E08  23093185.812 8 121355504.743 8      2411.203          51.000    23093186.211 8  92986686.495 8      1847.584          48.000
E15  23052313.734 8 121140732.334 8      -461.488          51.000    23052316.742 8  92822141.342 8      -353.581          51.000
> 2020 05 10 20 13 30.0000000  0 18        .000000000000
G01  20295678.805 8 106654502.337 8      -385.926          51.000    20295680.844 8  83107422.201 8      -300.721          51.000
G03  20687737.281 7 108714791.027 7      1236.906          46.000    20687738.727 7  84712865.373 7       963.823          46.000
G08  23967910.102 6 125952186.189 6     -3720.004          36.000    23967906.648 5  98144585.200 5     -2898.707          35.000
G11  21003158.906 8 110372342.721 8     -2599.195          51.000    21003158.891 7  86004419.132 7     -2025.344          46.000
G22  20645818.961 8 108494509.167 8      -393.090          51.000    20645815.406 8  84541166.417 8      -306.301          51.000
G32  23569298.227 5 123857502.717 5     -2875.406          35.000    23569304.820 6  96512329.545 6     -2240.576          36.000
R01  19539053.398 8 104447433.737 8      1528.160          49.000    19539057.031 6  81236935.183 6      1188.569          41.000
R08  19703272.680 6 105510126.034 6     -1890.445          40.000    19703273.844 6  82063490.094 6     -1470.346          39.000
R22  23116014.609 6 123394840.268 6     -4026.562          39.000    23116021.781 5  95973741.865 5     -3131.771          34.000
R23  19135800.375 8 102363604.204 8      -798.445          49.000    19135806.383 7  79616170.435 7      -621.013          42.000
C05                                                                  39687069.000 6 159803380.070 6       -37.594          37.000
C19  21871764.484 8 113892015.871 8      1236.754          51.000
C20  22574510.398 8 117551515.489 8     -1667.824          51.000
C22  26010645.750 7 135444286.114 7      3002.094          42.000
C29  22403665.602 8 116661793.097 8     -2123.258          50.000
E03  23604175.672 8 124040853.340 8      -191.699          51.000    23604178.078 8  95044328.920 8      -146.916          51.000
E08  23079457.953 8 121283363.719 8      2389.020          51.000    23079456.078 7  92931409.698 7      1830.532          47.000
