     3.04           OBSERVATION DATA    M (MIXED)           RINEX VERSION / TYPE
Convert 2.6.2       NovAtel             20200515 161353 UTC PGM / RUN BY / DATE 
Rinex Version 3.04 Observation File                         COMMENT             
                                                            MARKER NAME         
                                                            MARKER NUMBER       
                                                            MARKER TYPE         
                                                            OBSERVER / AGENCY   
                    NovAtel GPSCard                         REC # / TYPE / VERS 
                                                            ANT # / TYPE        
        0.0000        0.0000        0.0000                  APPROX POSITION XYZ 
        0.0000        0.0000        0.0000                  ANTENNA: DELTA H/E/N
G    8 C1C L1C D1C S1C C2W L2W D2W S2W                      SYS / # / OBS TYPES 
R    8 C1C L1C D1C S1C C2P L2P D2P S2P                      SYS / # / OBS TYPES 
E    8 C1C L1C D1C S1C C7Q L7Q D7Q S7Q                      SYS / # / OBS TYPES 
C    4 C2I L2I D2I S2I                                      SYS / # / OBS TYPES 
DBHZ                                                        SIGNAL STRENGTH UNIT
    30.000                                                  INTERVAL            
  2020    05    13    23    00    0.0000000     GPS         TIME OF FIRST OBS   
  2020    05    13    23    59   30.0000000     GPS         TIME OF LAST OBS    
G L1C  0.00000  08 G17 G04 G19 G09 G03 G07 G22 G06          SYS / PHASE SHIFT   
G L2W  0.00000  07 G17 G04 G19 G09 G03 G07 G06              SYS / PHASE SHIFT   
R L1C  0.00000  07 R20 R05 R15 R14 R04 R21 R16              SYS / PHASE SHIFT   
R L2P  0.25000  07 R20 R05 R15 R14 R04 R21 R16              SYS / PHASE SHIFT   
E L1C  0.50000  04 E13 E26 E07 E08                          SYS / PHASE SHIFT   
E L7Q -0.25000  04 E26 E07 E13 E08                          SYS / PHASE SHIFT   
C L2I  0.00000  06 C27 C24 C25 C23 C30 C05                  SYS / PHASE SHIFT   
  7 R20  2 R05  1 R15  0 R14 -7 R04  6 R21  4 R16 -1        GLONASS SLOT / FRQ #
 C1C  -71.950 C2C  -71.950 C2P  -71.950                     GLONASS COD/PHS/BIS 
    18    18  1929     7GPS                                 LEAP SECONDS        
                                                            END OF HEADER       
> 2020 05 13 23 00  0.0000000  0 14      -0.000000000000
G17  23926379.031 8 125733964.031 8     -2832.367          48.000    23926380.922 8  97974511.771 8     -2207.043          48.000  
G04  20526499.828 8 107867491.091 8     -1188.555          51.000    20526499.750 8  84052613.977 8      -926.147          50.000  
G19  23287511.922 7 122376693.809 7     -2584.207          44.000    23287507.812 7  95358442.584 7     -2013.668          42.000  
G09  20536804.742 8 107921726.711 8      1156.176          51.000    20536806.141 8  84094858.330 8       900.916          51.000  
R20  20442743.648 6 109316153.096 6     -2361.883          40.000    20442748.383 7  85023672.067 7     -1837.020          47.000  
R05  19631077.508 5 104938976.002 5       -13.062          34.000    19631080.539 4  81619210.680 4       -10.163          28.000  
R15  22626991.016 7 120911392.745 7      3730.414          47.000    22626994.164 6  94042196.857 6      2901.434          41.000  
E13  26793740.977 6 140802054.616 6     -3219.645          38.000                                                                  
E26  23131366.758 8 121556168.301 8     -1457.461          51.000    23131368.953 8  93140425.722 8     -1116.798          51.000  
E07  23446814.352 8 123213938.933 8      -404.395          51.000    23446817.281 8  94410694.506 8      -309.885          51.000  
C27  24194894.594 6 125989114.575 6     -2868.090          39.000  
C24  25600866.266 6 133310396.568 6     -1269.461          36.000  
C25  23982694.039 5 124884171.652 5      1521.500          34.000  
C23  25713514.945 5 133897010.011 5      3186.734          34.000  
> 2020 05 13 23 00 30.0000000  0 16      -0.000000000000
G17  23942520.602 7 125818788.453 7     -2833.648          47.000    23942521.352 7  98040608.621 7     -2208.044          47.000  
G04  20533278.844 8 107903116.195 8     -1197.648          51.000    20533278.875 8  84080373.761 8      -933.239          50.000  
G19  23302256.344 7 122454176.854 7     -2592.613          43.000    23302252.094 7  95418818.945 7     -2020.225          42.000  
G09  20530200.656 8 107887022.687 8      1146.051          51.000    20530202.406 8  84067816.226 8       893.021          51.000  
R20  20456017.820 6 109387132.927 6     -2381.660          40.000    20456021.555 7  85078878.542 7     -1852.409          46.000  
R05  19631135.812 5 104939301.066 5       -20.438          34.000                                                                  
R14  21754708.672 6 115964377.598 6       806.844          36.000    21754701.672 4  90194580.155 4       627.533          25.000  
R15  22606032.117 7 120799387.550 7      3725.066          47.000    22606032.969 6  93955081.716 6      2897.271          39.000  
E13  26812085.023 6 140898451.858 6     -3218.250          39.000                                                                  
E26  23139680.539 8 121599858.918 8     -1466.523          51.000    23139683.180 8  93173902.914 8     -1123.661          51.000  
E07  23449098.484 8 123225942.058 8      -407.180          51.000    23449101.469 8  94419891.658 8      -311.971          51.000  
E08  24186865.438 5 127102837.693 5     -2233.852          32.000                                                                  
C27  24211391.875 5 126075030.711 5     -2870.895          35.000  
C24  25608179.898 5 133348470.364 5     -1280.477          35.000  
C25  23973928.680 5 124838516.125 5      1510.961          34.000  
C23  25695115.867 5 133801202.007 5      3189.770          35.000  
> 2020 05 13 23 01  0.0000000  0 13      -0.000000000000
G17  23958735.391 7 125903998.145 7     -2849.969          45.000    23958735.305 7  98107005.781 7     -2220.756          45.000  
G04  20540175.062 8 107939356.536 8     -1221.500          51.000    20540175.094 8  84108613.010 8      -951.818          50.000  
G19  23317111.820 7 122532243.374 7     -2615.348          42.000    23317108.047 7  95479650.032 7     -2037.934          42.000  
G09  20523719.469 8 107852963.653 8      1121.098          51.000    20523720.672 8  84041276.769 8       873.583          51.000  
R20  20469466.266 6 109459045.573 6     -2416.113          39.000    20469469.375 7  85134810.602 7     -1879.197          47.000  
R14  21750255.359 4 115940716.40624       770.832          29.000                                                                  
R15  22585167.344 7 120687892.819 7      3704.504          46.000    22585168.203 6  93868363.667 6      2881.284          40.000  
R04  21574698.172 5 115531137.011 5     -2670.676          34.000                                                                  
E13  26830484.984 6 140995147.838 6     -3231.488          39.000                                                                  
E26  23148110.453 8 121644161.463 8     -1490.367          51.000    23148113.945 8  93207849.024 8     -1141.964          51.000  
E07  23451463.430 8 123238369.583 8      -424.734          51.000    23451466.547 8  94429414.051 8      -325.434          51.000  
C27  24227973.828 5 126161382.299 5     -2889.027          34.000  
C23  25676768.297 6 133705657.630 6      3177.203          36.000  
> 2020 05 13 23 01 30.0000000  0 15      -0.000000000000
G17  23974975.602 7 125989342.692 7     -2845.148          43.000    23974975.570 7  98173508.024 7     -2216.987          43.000  
G04  20547141.125 8 107975963.477 8     -1224.648          51.000    20547141.258 8  84137137.905 8      -954.263          50.000  
G19  23332030.719 7 122610643.141 7     -2617.012          44.000    23332027.172 7  95540740.793 7     -2039.218          42.000  
G09  20517314.180 8 107819302.556 8      1117.141          51.000    20517314.422 8  84015047.351 8       870.512          51.000  
G03  22167539.422 5 116491171.619 5     -2374.828          30.000    22167527.547 5  90772317.332 5     -1850.516          30.000  
R20  20483040.617 6 109531636.515 6     -2429.102          37.000    20483044.570 7  85191270.237 7     -1889.292          46.000  
R05  19631518.758 6 104941388.432 6       -43.094          36.000                                                                  
R14  21745940.312 5 115917744.117 5       755.336          35.000                                                                  
R15  22564352.375 7 120576661.680 7      3704.938          47.000    22564353.047 6  93781850.555 6      2881.631          40.000  
R04  21589634.109 5 115611023.787 5     -2665.445          32.000                                                                  
E13  26848894.156 6 141091893.747 6     -3224.090          40.000                                                                  
E26  23156609.727 8 121688827.902 8     -1493.254          51.000    23156613.820 8  93242073.958 8     -1144.251          51.000  
E07  23453861.977 8 123250973.809 8      -421.465          51.000    23453865.164 8  94439071.856 8      -322.974          51.000  
C27  24244593.883 6 126247922.004 6     -2885.965          36.000  
C23  25658424.219 5 133610134.383 5      3185.754          30.000  
> 2020 05 13 23 02  0.0000000  0 13      -0.000000000000
G17  23991238.453 7 126074806.312 7     -2850.055          42.000    23991238.969 7  98240103.096 7     -2220.823          42.000  
G04  20554174.062 8 108012922.229 8     -1236.977          51.000    20554174.375 8  84165936.951 8      -963.878          51.000  
G19  23347010.188 7 122689359.751 7     -2628.301          43.000    23347006.672 7  95602078.409 7     -2048.027          43.000  
G09  20510981.898 8 107786026.243 8      1103.688          51.000    20510982.211 8  83989117.774 8       860.016          51.000  
R20  20496738.469 6 109604888.984 6     -2451.703          36.000    20496743.508 7  85248244.378 7     -1906.881          47.000  
R05  19631794.109 5 104942867.876 5       -53.324          33.000                                                                  
R14  21741767.648 5 115895498.771 5       730.031          31.000    21741780.891 5  90140982.657 5       567.808          33.000  
R15  22543585.398 8 120465685.591 8      3695.801          49.000    22543586.188 7  93695535.833 7      2874.512          42.000  
R04  21604569.602 5 115691052.673 5     -2668.082          32.000                                                                  
E13  26867310.992 6 141188674.714 6     -3225.723          40.000    26867316.492 5 108183547.578 5     -2471.428          31.000  
E26  23165176.148 8 121733844.225 8     -1505.473          51.000    23165180.055 8  93276566.990 8     -1153.530          51.000  
E07  23456291.477 8 123263740.935 8      -427.426          51.000    23456294.625 8  94448854.503 8      -327.493          51.000  
C27  24261248.031 6 126334634.477 6     -2892.375          38.000  
> 2020 05 13 23 02 30.0000000  0 15      -0.000000000000
G17  24007519.555 7 126160364.707 7     -2855.320          42.000    24007520.539 6  98306771.995 6     -2224.926          41.000  
G04  20561269.695 8 108050210.313 8     -1250.211          51.000    20561269.984 8  84194992.611 8      -974.191          50.000  
G19  23362045.445 7 122768369.274 7     -2640.422          46.000    23362042.141 7  95663644.215 7     -2057.475          43.000  
G09  20504718.484 8 107753113.879 8      1089.137          50.000    20504719.445 8  83963471.766 8       848.675          50.000  
R20  20510555.438 6 109678778.460 6     -2475.383          37.000    20510561.242 7  85305713.972 7     -1925.298          45.000  
R05  19632121.297 5 104944617.053 5       -64.629          32.000                                                                  
R14  21737724.961 5 115873929.231 5       704.523          30.000    21737737.906 5  90124231.248 5       547.963          33.000  
R15  22522863.289 8 120354947.664 8      3685.379          49.000    22522863.852 7  93609406.370 7      2866.406          43.000  
R04  21619525.711 5 115771153.692 5     -2672.754          34.000                                                                  
E13  26885730.438 6 141285468.133 6     -3228.414          40.000    26885739.578 5 108257729.945 5     -2473.524          30.000  
E26  23173805.375 8 121779188.566 8     -1518.727          51.000    23173808.742 8  93311311.326 8     -1163.739          51.000  
E07  23458747.781 8 123276649.411 8      -434.469          51.000    23458750.906 8  94458745.423 8      -332.887          51.000  
C27  24277931.352 6 126421496.397 6     -2899.625          38.000  
C24  25638419.312 4 133505973.27424     -1340.609          28.000  
C23  25621736.688 5 133419112.859 5      3182.312          35.000  
> 2020 05 13 23 03  0.0000000  0 15      -0.000000000000
G17  24023843.531 7 126246147.064 7     -2862.879          42.000    24023844.453 7  98373615.379 7     -2230.815          42.000  
G04  20568452.898 8 108087958.511 8     -1265.879          50.000    20568453.016 8  84224406.789 8      -986.396          50.000  
G19  23377160.914 7 122847800.479 7     -2654.703          46.000    23377157.805 7  95725538.649 7     -2068.597          42.000  
G09  20498550.016 8 107720697.725 8      1072.379          51.000    20498550.430 8  83938212.378 8       835.617          51.000  
G03  22208401.297 5 116705976.410 5     -2398.531          32.000    22208405.750 5  90939718.387 5     -1868.986          32.000  
R20  20524517.180 6 109753436.209 6     -2501.312          39.000    20524522.172 7  85363781.126 7     -1945.466          44.000  
R05  19632525.352 4 104946713.734 4       -78.344          28.000    19632537.719 5  81625271.064 5       -60.928          30.000  
R21  21301336.328 5 113987349.20825      1976.496          30.000                                                                  
R15  22502211.461 8 120244587.299 8      3672.383          49.000    22502211.789 7  93523570.588 7      2856.298          43.000  
E13  26904176.734 6 141382404.732 6     -3233.457          38.000                                                                  
E26  23182522.102 8 121824992.335 8     -1534.277          51.000    23182525.164 8  93346407.681 8     -1175.625          51.000  
E07  23461256.078 8 123289830.947 8      -443.777          51.000    23461259.219 8  94468845.568 8      -340.019          51.000  
C27  24294667.930 6 126508636.447 6     -2909.262          39.000  
C24  25646199.984 5 133546470.075 5     -1358.668          33.000  
C23  25603415.695 6 133323718.044 6      3178.027          39.000  
> 2020 05 13 23 03 30.0000000  0 17      -0.000000000000
G17  24040193.922 6 126332067.967 6     -2865.828          41.000    24040194.477 6  98440566.681 6     -2233.116          41.000  
G04  20575707.477 8 108126082.359 8     -1276.672          49.000    20575707.805 8  84254113.707 8      -994.810          49.000  
G19  23392340.234 7 122927567.522 7     -2664.078          46.000    23392337.500 7  95787694.784 7     -2075.903          44.000  
G09  20492460.641 8 107688694.975 8      1060.227          51.000    20492460.219 8  83913275.160 8       826.151          51.000  
G03  22222111.930 4 116778020.027 4     -2404.336          29.000    22222114.148 4  90995843.062 4     -1873.509          28.000  
R20  20538607.031 6 109828774.627 6     -2522.129          41.000    20538610.328 7  85422377.662 7     -1961.656          44.000  
R05  19632984.164 5 104949247.095 5       -87.402          31.000    19632996.508 4  81627168.331 4       -67.983          29.000  
R15  22481615.047 8 120134524.990 8      3664.219          48.000    22481614.852 6  93437966.626 6      2849.948          41.000  
R04  21649539.680 5 115931929.458 5     -2681.641          35.000    21649519.094 4  90169271.380 4     -2085.712          25.000  
E13  26922633.875 6 141479399.998 6     -3233.672          37.000    26922628.367 5 108406264.190 5     -2477.816          32.000  
E26  23191310.305 8 121871171.816 8     -1545.219          51.000    23191313.047 8  93381791.943 8     -1183.988          51.000  
E07  23463800.570 8 123303202.108 8      -448.430          51.000    23463803.617 8  94479091.013 8      -343.611          51.000  
E08  24263603.922 6 127506078.593 6     -2243.250          36.000    24263597.242 5  97699463.203 5     -1719.262          33.000  
C27  24311441.922 6 126595970.072 6     -2913.719          39.000  
C24  25654061.703 6 133587405.000 6     -1371.676          36.000  
C25  23923233.609 5 124574601.455 5      1424.754          31.000  
C23  25585103.992 6 133228369.454 6      3177.836          41.000  
> 2020 05 13 23 04  0.0000000  0 15      -0.000000000000
G17  24056574.812 6 126418149.017 6     -2872.977          39.000    24056574.609 6  98507642.798 6     -2238.684          39.000  
G04  20583037.938 8 108164604.976 8     -1291.734          50.000    20583038.609 8  84284131.333 8     -1006.547          50.000  
G19  23407587.531 7 123007691.669 7     -2677.648          47.000    23407585.258 7  95850129.168 7     -2086.480          43.000  
G09  20486454.414 8 107657130.266 8      1043.770          51.000    20486453.891 8  83888679.314 8       813.327          51.000  
R20  20552827.969 6 109904815.543 6     -2547.363          40.000    20552830.102 7  85481520.574 7     -1981.283          45.000  
R05  19633509.508 5 104951970.771 5      -100.406          34.000    19633514.766 5  81629357.463 5       -78.094          30.000  
R15  22461078.953 7 120024790.211 7      3651.102          46.000    22461078.391 6  93352617.392 6      2839.749          39.000  
R04  21664557.031 4 116012388.15024     -2688.168          28.000    21664563.836 4  90231852.57924     -2090.798          28.000  
E13  26941106.133 5 141576467.898 5     -3238.633          35.000    26941102.688 5 108480653.736 5     -2481.282          33.000  
E26  23200174.188 8 121917750.683 8     -1560.312          51.000    23200176.766 8  93417482.245 8     -1195.547          51.000  
E07  23466385.672 8 123316786.923 8      -457.371          51.000    23466388.570 8  94489500.165 8      -350.456          51.000  
E08  24276426.359 5 127573461.929 5     -2247.812          33.000    24276414.578 5  97751077.692 5     -1721.719          33.000  
C27  24328257.562 6 126683519.259 6     -2923.043          38.000  
C24  25662012.164 6 133628800.761 6     -1388.254          36.000  
C23  25566806.977 7 133133093.859 7      3173.668          44.000  
> 2020 05 13 23 04 30.0000000  0 14      -0.000000000000
G17  24072993.164 6 126504425.968 6     -2882.910          39.000    24072991.414 6  98574871.510 6     -2246.427          38.000  
G04  20590451.539 8 108203564.006 8     -1309.734          50.000    20590452.094 8  84314489.000 8     -1020.573          50.000  
G19  23422909.539 7 123088208.863 7     -2694.355          47.000    23422907.523 7  95912869.833 7     -2099.498          43.000  
G09  20480538.727 8 107626042.892 8      1024.438          51.000    20480538.289 8  83864455.387 8       798.263          51.000  
R20  20567185.781 6 109981595.467 6     -2575.602          38.000    20567188.703 7  85541238.297 7     -2003.243          45.000  
R05  19634112.414 5 104955168.173 5      -117.164          34.000    19634113.203 5  81631844.351 5       -91.131          33.000  
R14  21723079.391 6 115795852.380 6       592.539          36.000                                                                  
R15  22440612.211 7 119915427.686 7      3635.277          46.000    22440612.055 6  93267557.663 6      2827.438          39.000  
E13  26959601.906 5 141673662.994 5     -3245.812          35.000    26959599.016 5 108555128.610 5     -2487.059          33.000  
E26  23209121.078 8 121964767.292 8     -1578.406          51.000    23209123.477 8  93453507.961 8     -1209.351          51.000  
E07  23469018.680 8 123330624.045 8      -469.293          51.000    23469021.469 8  94500102.639 8      -359.597          51.000  
C27  24345123.242 6 126771320.388 6     -2934.516          36.000  
C25  23907007.930 6 124490100.111 6      1387.938          38.000  
C23  25548531.531 7 133037932.649 7      3166.434          45.000  
> 2020 05 13 23 05  0.0000000  0 13      -0.000000000000
G17  24089438.742 6 126590847.469 6     -2883.910          38.000    24089436.242 6  98642212.889 6     -2247.207          38.000  
G04  20597938.797 8 108242909.626 8     -1318.391          50.000    20597939.273 8  84345147.919 8     -1027.315          50.000  
G19  23438296.672 7 123169067.596 7     -2701.375          47.000    23438294.641 7  95975876.618 7     -2104.968          44.000  
G09  20474704.367 8 107595384.589 8      1014.379          51.000    20474704.297 8  83840565.778 8       790.425          51.000  
R20  20581672.070 6 110059061.585 6     -2594.238          40.000    20581675.445 7  85601489.714 7     -2017.744          45.000  
R05  19634774.141 5 104958698.327 5      -123.184          32.000    19634776.594 5  81634590.006 5       -95.809          34.000  
R15  22420207.523 7 119806392.957 7      3628.582          46.000    22420207.727 6  93182752.878 6      2822.231          38.000  
E13  26978111.258 5 141770930.434 5     -3243.777          34.000    26978109.875 5 108629656.607 5     -2485.514          33.000  
E26  23218141.500 8 122012172.449 8     -1587.129          51.000    23218144.250 8  93489831.407 8     -1216.094          51.000  
E07  23471690.469 8 123344664.612 8      -471.789          51.000    23471693.109 8  94510861.009 8      -361.561          51.000  
C27  24362029.383 4 126859323.323 4     -2937.926          28.000  
C25  23899024.742 6 124448546.983 6      1377.465          36.000  
C23  25530269.227 7 132942840.470 7      3168.043          44.000  
> 2020 05 13 23 05 30.0000000  0 15      -0.000000000000
G17  24105882.234 6 126677259.977 6     -2886.074          39.000    24105880.289 6  98709547.252 6     -2248.890          39.000  
G04  20605470.602 8 108282488.806 8     -1328.883          51.000    20605471.141 8  84375988.841 8     -1035.490          51.000  
G19  23453719.625 7 123250114.228 7     -2710.375          47.000    23453717.336 7  96039029.827 7     -2111.978          43.000  
G09  20468922.859 8 107565003.859 8      1002.293          51.000    20468923.148 8  83816892.506 8       781.011          51.000  
R20  20596257.719 6 110137056.594 6     -2614.453          40.000    20596260.703 7  85662152.472 7     -2033.467          45.000  
R05  19635465.695 5 104962434.950 5      -133.078          31.000    19635465.094 5  81637456.547 5      -103.505          31.000  
R14  21716617.445 5 115761389.366 5       547.332          33.000                                                                  
R15  22399836.273 7 119697536.596 7      3619.559          44.000    22399837.172 6  93098086.837 6      2815.213          40.000  
R04  21709838.406 5 116254744.120 5     -2699.000          30.000    21709830.227 4  90420362.686 4     -2099.210          29.000  
E13  26996604.281 5 141868111.993 5     -3243.852          32.000    26996603.195 5 108704120.347 5     -2485.017          32.000  
E26  23227206.711 8 122059813.767 8     -1597.770          50.000    23227210.031 8  93526335.787 8     -1224.281          51.000  
E07  23474372.203 8 123358756.580 8      -476.312          51.000    23474374.602 8  94521658.737 8      -364.979          51.000  
C24  25686377.734 5 133755707.274 5     -1432.332          34.000  
C25  23891099.023 6 124407287.588 6      1364.516          36.000  
C23  25511992.211 7 132847669.659 7      3167.945          44.000  
> 2020 05 13 23 06  0.0000000  0 15      -0.000000000000
G17  24122364.141 6 126763875.560 6     -2897.004          39.000    24122363.359 6  98777039.917 6     -2257.403          38.000  
G04  20613087.656 8 108322515.808 8     -1348.125          51.000    20613088.172 8  84407178.716 8     -1050.487          51.000  
G19  23469218.367 7 123331560.129 7     -2727.941          47.000    23469215.844 7  96102494.164 7     -2125.669          43.000  
G09  20463235.359 8 107535116.533 8       981.508          51.000    20463235.648 8  83793603.700 8       764.812          51.000  
R20  20610982.078 6 110215796.667 6     -2643.699          39.000    20610985.273 7  85723394.710 7     -2056.211          44.000  
R05  19636234.945 5 104966540.992 5      -149.699          33.000    19636229.906 4  81640650.062 4      -116.436          28.000  
R14  21713593.617 5 115745330.470 5       514.766          30.000                                                                  
R15  22379539.922 7 119589082.640 7      3601.934          42.000    22379542.273 6  93013733.730 6      2801.501          41.000  
E13                                                                  27015120.641 5 108778696.025 5     -2491.770          32.000  
E26  23236357.891 8 122107906.065 8     -1616.992          50.000    23236361.742 8  93563185.748 8     -1239.004          51.000  
E07  23477104.672 8 123373115.210 8      -489.492          51.000    23477106.898 8  94532660.804 8      -375.072          51.000  
E08  24327766.273 6 127843259.143 6     -2258.258          41.000                                                                  
C24  25694663.875 5 133798860.986 5     -1453.254          35.000  
C25  23883271.750 5 124366537.403 5      1343.527          35.000  
C23  25493741.789 7 132752636.631 7      3159.176          44.000  
> 2020 05 13 23 06 30.0000000  0 16      -0.000000000000
G17  24138883.211 6 126850688.859 6     -2894.363          38.000    24138883.734 6  98844686.645 6     -2255.349          38.000  
G04  20620789.070 8 108362986.445 8     -1353.785          51.000    20620789.633 8  84438714.292 8     -1054.898          51.000  
G19  23484791.789 7 123413399.236 7     -2731.957          46.000    23484789.430 7  96166264.875 7     -2128.798          44.000  
G09  20457641.172 8 107505719.987 8       974.285          51.000    20457641.758 8  83770697.309 8       759.183          51.000  
R20  20625844.391 6 110295275.648 6     -2658.707          39.000    20625848.164 7  85785211.663 7     -2067.887          45.000  
R05  19637075.344 5 104971041.184 5      -153.684          33.000    19637073.562 5  81644123.278 5      -119.535          30.000  
R21  21227158.883 5 113590431.571 5      1802.332          35.000                                                                  
R15  22359319.523 7 119481033.244 7      3597.527          42.000    22359322.789 6  92929695.332 6      2798.077          41.000  
E13                                                                  27033663.117 5 108853356.394 5     -2488.304          33.000  
E26  23245594.477 8 122156445.874 8     -1622.855          51.000    23245598.562 8  93600378.602 8     -1243.454          51.000  
E07  23479887.125 8 123387737.336 8      -489.188          51.000    23479889.422 8  94543864.775 8      -374.835          51.000  
E08  24340630.156 6 127910863.711 6     -2252.684          39.000                                                                  
C27  24412886.344 5 127124290.229 5     -2953.492          33.000  
C24  25703048.672 5 133842522.097 5     -1461.070          31.000  
C25  23875543.961 6 124326295.648 6      1335.418          38.000  
C23  25475517.500 6 132657741.253 6      3163.406          41.000  
> 2020 05 13 23 07  0.0000000  0 15      -0.000000000000
G17  24155430.711 6 126937649.815 6     -2903.758          39.000    24155431.500 6  98912448.467 6     -2262.666          39.000  
G04  20628565.656 8 108403852.185 8     -1371.465          51.000    20628566.109 8  84470557.723 8     -1068.674          51.000  
G19  23500430.266 7 123495581.561 7     -2747.918          45.000    23500428.500 7  96230303.044 7     -2141.235          43.000  
G09  20452131.398 8 107476767.174 8       954.984          51.000    20452132.539 8  83748136.708 8       744.144          51.000  
G03  22319272.680 5 117288578.471 5     -2461.176          35.000    22319273.703 5  91393689.264 5     -1917.794          34.000  
R20  20640835.719 6 110375442.045 6     -2686.531          40.000    20640840.188 7  85847563.297 7     -2089.525          47.000  
R05  19637981.867 5 104975887.374 5      -169.984          34.000    19637981.008 5  81647892.521 5      -132.213          32.000  
R15  22339167.211 6 119373345.169 6      3580.820          41.000    22339170.578 6  92845937.956 6      2785.083          41.000  
R04  21755303.508 5 116498237.64025     -2714.969          31.000                                                                  
E13                                                                  27052220.805 5 108928080.116 5     -2493.165          31.000  
E26  23254907.609 8 122205385.185 8     -1640.664          51.000    23254911.359 8  93637877.549 8     -1257.076          51.000  
E07  23482710.656 8 123402575.372 8      -500.902          51.000    23482713.047 8  94555234.182 8      -383.800          51.000  
C27  24429935.352 6 127213064.844 6     -2964.863          36.000  
C25  23867905.938 6 124286517.310 6      1315.535          37.000  
C23  25457310.906 6 132562939.456 6      3155.781          37.000  
> 2020 05 13 23 07 30.0000000  0 15      -0.000000000000
G17  24171994.031 6 127024691.874 6     -2902.629          37.000    24171994.445 6  98980273.430 6     -2261.792          36.000  
G04  20636405.039 8 108445047.657 8     -1378.656          51.000    20636405.250 8  84502658.080 8     -1074.281          51.000  
G19  23516121.312 7 123578040.562 7     -2753.383          45.000    23516120.062 7  96294556.839 7     -2145.494          44.000  
G09  20446694.195 8 107448194.343 8       946.164          51.000    20446695.539 8  83725872.178 8       737.271          51.000  
R20  20655942.969 6 110456227.653 6     -2703.035          41.000    20655947.711 8  85910396.552 8     -2102.358          48.000  
R05  19638939.086 5 104981005.983 5      -176.305          31.000    19638942.766 5  81651895.890 5      -137.126          34.000  
R15  22319071.156 6 119265958.400 6      3574.652          40.000    22319075.070 7  92762414.932 7      2780.286          42.000  
E13                                                                  27070779.711 5 109002811.275 5     -2491.072          31.000  
E26  23264284.633 8 122254659.297 8     -1647.980          51.000    23264287.656 8  93675633.024 8     -1262.697          51.000  
E07  23485563.086 8 123417565.014 8      -502.152          51.000    23485565.438 8  94566719.756 8      -384.757          51.000  
E08  24366362.414 6 128046099.142 6     -2254.816          37.000                                                                  
C27  24447011.320 6 127301980.388 6     -2966.113          36.000  
C24  25720071.328 5 133931148.325 5     -1490.461          33.000  
C25  23860344.477 5 124247140.802 5      1306.137          30.000  
C23  25439110.180 5 132468170.532 5      3158.641          33.000  
> 2020 05 13 23 08  0.0000000  0 17      -0.000000000000
G17  24188577.445 6 127111835.352 6     -2907.121          39.000    24188576.766 6  99048177.469 6     -2265.290          38.000  
G04  20644311.297 8 108486594.743 8     -1391.809          51.000    20644311.531 8  84535032.422 8     -1084.526          51.000  
G19  23531868.836 7 123660796.055 7     -2764.375          45.000    23531868.055 7  96359041.647 7     -2154.059          45.000  
G09  20441333.820 8 107420024.854 8       931.082          51.000    20441335.078 8  83703921.935 8       725.519          51.000  
G03  22347394.898 5 117436349.727 5     -2470.891          33.000    22347401.266 5  91508849.465 5     -1925.370          31.000  
R20  20671169.945 6 110537652.883 6     -2725.820          40.000    20671174.648 8  85973727.283 8     -2120.086          48.000  
R05  19639956.109 5 104986436.443 5      -186.840          35.000    19639959.414 5  81656119.551 5      -145.320          34.000  
R15  22299036.484 6 119158901.288 6      3562.086          40.000    22299041.055 7  92679148.322 7      2770.512          42.000  
R04  21785727.250 5 116661106.09725     -2718.355          34.000                                                                  
E13                                                                  27089345.516 5 109077566.374 5     -2492.868          33.000  
E26  23273729.750 8 122304290.626 8     -1661.234          51.000    23273731.984 8  93713662.204 8     -1272.927          51.000  
E07  23488448.727 8 123432729.089 8      -509.332          51.000    23488450.945 8  94578338.981 8      -390.232          51.000  
E08  24379241.438 6 128113770.268 6     -2256.742          37.000                                                                  
C27  24464117.625 6 127391057.601 6     -2972.863          36.000  
C24  25728702.125 5 133976081.566 5     -1505.594          34.000  
C25  23852863.812 4 124208190.810 4      1290.320          29.000  
C23  25420919.211 5 132373460.291 5      3154.590          33.000  
> 2020 05 13 23 08 30.0000000  0 18      -0.000000000000
G17  24205186.422 6 127199111.431 6     -2911.129          39.000    24205184.656 6  99116184.803 6     -2268.410          40.000  
G04  20652290.609 8 108528525.949 8     -1404.148          51.000    20652290.969 8  84567706.083 8     -1094.142          51.000  
G19  23547678.914 7 123743878.943 7     -2774.754          45.000    23547678.258 7  96423781.558 7     -2162.146          45.000  
G09  20436056.531 8 107392292.695 8       917.207          51.000    20436057.547 8  83682312.474 8       714.707          51.000  
G03  22361521.547 5 117510575.055 5     -2478.191          35.000    22361524.875 5  91566687.392 5     -1931.059          34.000  
R20  20686522.312 6 110619748.543 6     -2747.559          39.000    20686527.219 8  86037579.430 8     -2136.990          49.000  
R05  19641036.531 5 104992204.708 5      -197.395          32.000    19641038.023 5  81660606.004 5      -153.523          33.000  
R14  21700788.625 5 115676943.203 5       391.090          32.000                                                                  
R15  22279070.828 6 119052213.148 6      3550.297          40.000    22279075.961 7  92596168.671 7      2761.343          42.000  
R04  21800966.844 5 116742685.86825     -2722.168          33.000    21800967.922 4  90799941.67224     -2117.242          26.000  
E13                                                                  27107925.570 6 109152372.248 6     -2494.239          36.000  
E26  23283249.023 8 122354312.261 8     -1673.816          51.000    23283250.562 8  93751990.443 8     -1282.511          51.000  
E07  23491373.875 8 123448101.133 8      -515.785          51.000    23491375.977 8  94590117.564 8      -395.233          51.000  
E08  24392129.711 5 128181491.192 5     -2258.531          34.000                                                                  
C27  24481261.469 6 127480327.798 6     -2978.852          37.000  
C24  25737416.898 4 134021464.663 4     -1519.980          29.000  
C25  23845470.750 5 124169625.626 5      1275.832          31.000  
C23  25402748.445 6 132278844.915 6      3152.324          36.000  
> 2020 05 13 23 09  0.0000000  0 17      -0.000000000000
G17  24221819.242 6 127286513.930 6     -2915.715          40.000    24221817.289 6  99184290.642 6     -2271.989          40.000  
G04  20660342.047 8 108570836.495 8     -1416.633          51.000    20660342.523 8  84600675.339 8     -1103.870          51.000  
G19  23563550.016 7 123827282.894 7     -2785.422          44.000    23563549.133 7  96488771.631 7     -2170.459          44.000  
G09  20430862.102 8 107364994.656 8       902.664          51.000    20430862.609 8  83661041.299 8       703.378          51.000  
G03  22375689.695 6 117585023.422 6     -2485.660          37.000    22375691.898 6  91624699.186 6     -1936.873          37.000  
R20  20701999.203 6 110702508.028 6     -2769.562          40.000    20702003.555 8  86101947.904 8     -2154.104          48.000  
R05  19642177.422 6 104998307.139 6      -209.289          38.000    19642180.094 5  81665352.390 5      -162.783          33.000  
R14  21698671.117 5 115665628.750 5       363.406          31.000    21698677.164 4  89962259.38824       282.649          25.000  
R21  21178449.281 4 113329778.05424      1673.082          29.000                                                                  
R15  22259173.758 6 118945895.426 6      3537.617          37.000    22259179.867 6  92513477.073 6      2751.480          41.000  
E13                                                                  27126517.203 6 109227225.311 6     -2496.155          36.000  
E26  23292841.461 8 122404720.004 8     -1686.629          51.000    23292842.977 8  93790614.553 8     -1292.377          51.000  
E07  23494337.812 8 123463677.402 8      -522.539          51.000    23494339.852 8  94602052.637 8      -400.414          51.000  
E08  24405025.805 6 128249274.127 6     -2259.602          36.000                                                                  
C27  24498442.164 6 127569785.419 6     -2985.305          37.000  
C25  23838167.203 5 124131585.756 5      1260.582          33.000  
C23  25384597.219 6 132184323.740 6      3148.992          38.000  
> 2020 05 13 23 09 30.0000000  0 17      -0.000000000000
G17  24238474.383 6 127374034.441 6     -2919.246          38.000    24238472.672 6  99252488.422 6     -2274.735          38.000  
G04  20668464.320 8 108613519.504 8     -1428.695          51.000    20668464.836 8  84633934.823 8     -1113.269          51.000  
G19  23579480.719 7 123910999.248 7     -2795.477          45.000    23579479.133 7  96554005.136 7     -2178.294          45.000  
G09  20425749.297 8 107338125.326 8       888.711          51.000    20425749.648 8  83640104.165 8       692.502          51.000  
G03  22389898.258 5 117659689.191 5     -2492.363          35.000    22389899.461 5  91682880.365 5     -1942.093          34.000  
R20  20717598.523 6 110785921.927 6     -2791.121          39.000    20717602.117 8  86166825.397 8     -2170.872          48.000  
R05  19643380.797 6 105004737.876 6      -219.289          38.000    19643384.227 5  81670354.067 5      -170.555          33.000  
R14  21696704.695 5 115655106.303 5       337.648          35.000    21696699.281 5  89954075.264 5       262.619          33.000  
R15  22239346.578 6 118839947.400 6      3525.426          40.000    22239352.797 6  92431072.988 6      2741.998          40.000  
R04  21831514.805 5 116906272.247 5     -2729.938          34.000                                                                  
E13                                                                  27145117.500 5 109302120.220 5     -2497.265          35.000  
E26  23302505.781 8 122455507.507 8     -1699.121          51.000    23302508.102 8  93829529.667 8     -1301.919          51.000  
E07  23497339.578 8 123479452.015 8      -528.973          51.000    23497341.586 8  94614139.685 8      -405.308          51.000  
E08  24417930.234 6 128317081.148 6     -2260.867          38.000                                                                  
C27  24515657.969 6 127659422.731 6     -2990.676          37.000  
C25  23830955.375 6 124094014.475 6      1244.637          36.000  
C23  25366464.609 6 132089893.942 6      3146.332          39.000  
> 2020 05 13 23 10  0.0000000  0 15      -0.000000000000
G17  24255153.242 5 127461682.970 5     -2925.855          34.000    24255152.312 5  99320786.038 5     -2279.885          35.000  
G04  20676659.602 8 108656586.254 8     -1444.473          51.000    20676659.891 8  84667493.340 8     -1125.563          51.000  
G19  23595472.836 7 123995037.518 7     -2809.215          45.000    23595470.312 7  96619489.472 7     -2188.999          45.000  
G09  20420720.141 8 107311697.553 8       871.082          51.000    20420720.812 8  83619511.071 8       678.765          51.000  
G03  22404149.266 5 117734584.721 5     -2502.449          34.000    22404149.297 5  91741240.562 5     -1949.961          34.000  
R20  20733321.320 6 110869999.882 6     -2816.164          37.000    20733325.141 8  86232219.395 8     -2190.347          48.000  
R05  19644648.000 5 105011509.457 5      -234.012          35.000    19644650.742 5  81675620.857 5      -182.006          30.000  
R14  21694884.891 5 115645390.090 5       307.184          35.000    21694874.773 5  89946518.283 5       238.918          31.000  
R15  22219594.797 7 118734396.579 7      3509.445          43.000    22219596.695 6  92348978.189 6      2729.569          37.000  
E13                                                                  27163728.914 5 109377065.665 5     -2500.938          35.000  
E26  23312244.773 8 122506686.693 8     -1715.035          51.000    23312247.883 8  93868744.910 8     -1314.122          51.000  
E07  23500381.578 8 123495437.325 8      -538.824          51.000    23500383.594 8  94626388.179 8      -412.860          51.000  
C27  24532910.398 6 127749250.138 6     -2999.969          38.000  
C25  23823833.148 6 124056914.190 6      1226.285          38.000  
C23  25348352.789 6 131995570.946 6      3139.863          39.000  
> 2020 05 13 23 10 30.0000000  0 16      -0.000000000000
G04  20684921.016 8 108700000.481 8     -1452.129          51.000    20684921.102 8  84701322.603 8     -1131.529          51.000  
G19  23611518.922 7 124079360.033 7     -2814.789          45.000    23611515.891 7  96685195.302 7     -2193.343          44.000  
G07  23803539.008 6 125088455.035 6      3358.727          37.000    23803537.641 6  97471506.394 6      2617.190          37.000  
G09  20415768.359 8 107285676.488 8       861.262          51.000    20415769.188 8  83599234.914 8       671.116          51.000  
G03  22418437.703 5 117809674.901 5     -2505.262          35.000    22418440.719 5  91799752.300 5     -1952.156          34.000  
R20  20749160.484 6 110954702.995 6     -2832.922          38.000    20749164.867 8  86298099.622 8     -2203.384          48.000  
R05  19645971.828 6 105018586.074 6      -240.156          38.000    19645972.859 5  81681124.891 5      -186.791          30.000  
R14  21693195.961 4 115636509.547 4       285.258          29.000    21693202.883 4  89939573.89024       221.870          26.000  
R15  22199909.445 7 118629192.645 7      3501.574          44.000    22199907.711 6  92267152.901 6      2723.447          36.000  
R04  21862120.883 5 117070261.009 5     -2736.441          31.000                                                                  
E13                                                                  27182346.438 5 109452033.776 5     -2499.118          35.000  
E26  23322051.914 8 122558221.809 8     -1723.074          51.000    23322055.156 8  93908232.867 8     -1320.234          51.000  
E07  23503456.922 8 123511598.055 8      -540.898          51.000    23503459.117 8  94638771.087 8      -414.452          51.000  
C27  24550191.836 6 127839230.715 6     -3001.082          40.000  
C25  23816793.242 6 124020251.823 6      1215.312          37.000  
C23  25330254.406 6 131901322.750 6      3140.773          38.000  
> 2020 05 13 23 11  0.0000000  0 15      -0.000000000000
G04  20693255.438 8 108743798.140 8     -1471.215          51.000    20693255.719 8  84735450.654 8     -1146.401          51.000  
G19  23627625.492 7 124164000.608 7     -2831.492          45.000    23627622.148 7  96751149.009 7     -2206.358          45.000  
G07  23784388.031 6 124987806.944 6      3347.848          38.000    23784384.492 6  97393079.335 6      2608.713          37.000  
G09  20410901.141 8 107260099.583 8       840.328          51.000    20410901.828 8  83579304.865 8       654.801          51.000  
G03  22432771.289 5 117884996.951 5     -2519.258          35.000    22432777.094 5  91858444.587 5     -1963.062          33.000  
R20  20765124.234 6 111040065.909 6     -2861.121          40.000    20765128.352 8  86364492.967 8     -2225.317          48.000  
R05  19647359.453 6 105026005.288 6      -257.676          36.000    19647361.438 5  81686895.414 5      -200.415          33.000  
R15  22180296.609 7 118524388.345 7      3481.633          42.000    22180295.344 6  92185638.537 6      2707.940          37.000  
E13                                                                  27200977.336 5 109527051.950 5     -2504.951          35.000  
E26  23331933.891 8 122610149.376 8     -1742.371          51.000    23331936.977 8  93948021.531 8     -1335.046          51.000  
E07  23506572.492 8 123527971.200 8      -554.195          51.000    23506575.031 8  94651316.745 8      -424.616          51.000  
E08  24456701.125 6 128520832.036 6     -2270.125          39.000                                                                  
C27  24567508.938 6 127929399.226 6     -3013.516          40.000  
C25  23809842.945 5 123984066.114 5      1193.633          33.000  
C23  25312177.672 6 131807189.077 6      3130.969          38.000  
> 2020 05 13 23 11 30.0000000  0 16      -0.000000000000
G04  20701607.688 8 108787689.387 8     -1476.512          51.000    20701608.070 8  84769651.647 8     -1150.529          51.000  
G19  23643737.094 7 124248668.236 7     -2834.582          44.000    23643733.844 7  96817123.764 7     -2208.766          43.000  
G07  23765207.539 6 124887012.939 6      3350.449          38.000    23765203.172 6  97314538.586 6      2610.743          39.000  
G09  20406063.492 8 107234678.519 8       832.938          51.000    20406063.906 8  83559496.247 8       649.042          51.000  
G03  22447094.812 6 117960262.137 6     -2520.055          37.000    22447099.828 6  91917092.742 6     -1963.680          38.000  
R20  20781155.906 6 111125791.328 6     -2875.441          38.000    20781159.469 8  86431168.283 8     -2236.458          48.000  
R05  19648755.492 5 105033473.837 5      -261.996          33.000    19648758.562 5  81692704.279 5      -203.778          31.000  
R15  22160704.422 7 118419695.250 7      3475.902          43.000    22160704.391 6  92104210.544 6      2703.480          40.000  
R04  21892801.680 6 117234580.434 6     -2743.793          37.000    21892804.477 4  91182433.915 4     -2134.059          27.000  
E13                                                                  27219566.281 6 109601898.202 6     -2501.150          37.000  
E26  23341835.250 8 122662180.118 8     -1748.043          51.000    23341838.258 8  93987889.237 8     -1339.395          51.000  
E07  23509673.422 8 123544267.969 8      -553.898          51.000    23509676.352 8  94663803.884 8      -424.404          51.000  
E08  24469585.609 5 128588529.705 5     -2264.715          35.000                                                                  
C27  24584805.320 6 128019467.650 6     -3012.359          38.000  
C25  23802928.484 5 123948072.942 5      1184.863          32.000  
C23  25294068.219 5 131712886.889 5      3133.859          35.000  
> 2020 05 13 23 12  0.0000000  0 16      -0.000000000000
G22  24765471.297 5 130143459.07425     -2957.191          32.000                                                                  
G04  20710132.062 8 108832485.103 8     -1493.652          51.000    20710132.273 8  84804557.414 8     -1163.885          51.000  
G19  23660007.812 7 124334171.769 7     -2849.453          44.000    23660004.469 7  96883749.857 7     -2220.354          43.000  
G07  23746154.414 6 124786888.432 6      3341.113          40.000    23746149.844 6  97236519.492 6      2603.469          40.000  
G09  20401410.125 8 107210225.556 8       813.570          51.000    20401410.461 8  83540442.012 8       633.951          51.000  
G03  22461561.117 6 118036282.530 6     -2532.121          36.000    22461563.031 6  91976329.528 6     -1973.082          37.000  
R20  20797408.258 6 111212702.216 6     -2901.340          38.000    20797411.883 8  86498765.653 8     -2256.598          48.000  
R05  19650315.547 5 105041817.387 5      -277.684          34.000    19650317.688 5  81699193.603 5      -215.976          31.000  
R14  21689061.445 5 115614480.960 5       200.844          33.000    21689045.945 4  89922362.31524       156.212          26.000  
R15  22141289.336 7 118315943.930 7      3457.570          44.000    22141290.148 6  92023515.111 6      2689.222          40.000  
E13                                                                  27238266.391 5 109677193.749 5     -2505.906          35.000  
E26  23351910.383 8 122715125.368 8     -1765.469          51.000    23351913.500 8  94028457.659 8     -1352.769          51.000  
E07  23512914.461 8 123561300.270 8      -565.406          51.000    23512917.680 8  94676854.609 8      -433.231          51.000  
C27  24602234.273 5 128110238.553 5     -3023.203          34.000  
C25  23796206.930 5 123913078.907 5      1164.172          35.000  
C23  25276082.000 5 131619223.672 5      3125.590          30.000  
> 2020 05 13 23 12 30.0000000  0 15      -0.000000000000
G22  24782347.062 4 130232112.72324     -3067.008          28.000                                                                  
G04  20718665.328 8 108877327.683 8     -1498.938          51.000    20718665.523 8  84839499.694 8     -1168.004          51.000  
G19  23676274.180 7 124419651.718 7     -2852.375          44.000    23676270.562 7  96950357.604 7     -2222.631          43.000  
G07  23727066.156 6 124686579.582 6      3343.539          38.000    23727062.594 6  97158356.763 6      2605.359          38.000  
G09  20396778.039 8 107185884.616 8       806.078          51.000    20396778.562 8  83521475.058 8       628.116          51.000  
G03  22476008.633 6 118112201.604 6     -2532.031          39.000    22476011.023 6  92035487.192 6     -1973.012          39.000  
R20  20813718.930 6 111299923.981 6     -2916.227          38.000    20813722.055 7  86566604.795 7     -2268.177          46.000  
R05  19651876.781 6 105050164.392 6      -282.012          36.000    19651879.070 5  81705685.781 5      -219.346          30.000  
R14  21687951.898 5 115608641.81025       181.879          31.000                                                                  
R15  22121888.031 7 118212268.721 7      3450.941          44.000    22121890.008 6  91942878.929 6      2684.069          39.000  
E13                                                                  27256914.289 5 109752281.526 5     -2501.719          34.000  
E26  23361996.141 8 122768128.040 8     -1771.023          51.000    23361999.211 8  94069070.091 8     -1357.019          51.000  
E07  23516132.609 8 123578211.523 8      -565.090          51.000    23516136.008 8  94689812.578 8      -432.967          51.000  
E08  24495506.680 5 128724770.664 5     -2264.656          33.000                                                                  
C25  23789516.867 6 123878237.168 6      1155.281          38.000  
> 2020 05 13 23 13  0.0000000  0 13      -0.000000000000
G04  20727268.023 8 108922535.381 8     -1514.699          51.000    20727268.305 8  84874726.481 8     -1180.286          51.000  
G19  23692596.148 7 124505424.581 7     -2865.566          42.000    23692592.805 7  97017193.547 7     -2232.913          42.000  
G07  23708004.125 6 124586408.927 6      3334.961          38.000    23708001.680 6  97080301.747 6      2598.672          37.000  
G09  20392228.047 8 107161975.357 8       788.020          51.000    20392228.633 8  83502844.467 8       614.041          51.000  
G03  22490497.992 6 118188338.677 6     -2543.227          38.000    22490499.641 6  92094814.811 6     -1981.733          38.000  
R20  20830148.469 6 111387778.109 6     -2940.656          39.000    20830150.883 7  86634935.771 7     -2287.177          47.000  
R05  19653500.508 5 105058840.009 5      -296.355          35.000    19653502.508 4  81712437.56624      -230.493          28.000  
R14  21687043.336 5 115603675.079 5       151.273          34.000    21687041.172 4  89914020.27324       117.660          27.000  
R15  22102562.000 6 118108999.325 6      3433.598          41.000    22102565.125 6  91862558.415 6      2670.580          36.000  
E13                                                                  27275570.141 5 109827405.246 5     -2506.008          33.000  
E26  23372153.039 8 122821506.884 8     -1787.336          51.000    23372156.250 8  94109970.765 8     -1369.440          51.000  
E07  23519388.469 8 123595321.028 8      -575.359          51.000    23519391.977 8  94702922.459 8      -440.863          51.000  
C25  23782917.789 6 123843866.096 6      1135.965          37.000  
> 2020 05 13 23 13 30.0000000  0 14      -0.000000000000
G04  20735938.883 8 108968101.098 8     -1523.852          51.000    20735938.812 8  84910232.239 8     -1187.417          50.000  
G19  23708972.078 7 124591482.140 7     -2872.371          42.000    23708969.258 7  97084251.337 7     -2238.212          42.000  
G07  23688967.492 6 124486373.499 6      3332.844          39.000    23688966.258 6  97002352.081 6      2597.022          40.000  
G09  20387759.289 8 107138492.135 8       776.676          51.000    20387759.852 8  83484545.860 8       605.202          51.000  
R20  20846694.102 6 111476255.370 6     -2958.926          38.000    20846696.953 7  86703751.392 7     -2301.387          46.000  
R05  19655183.766 5 105067838.138 5      -304.453          31.000    19655186.406 4  81719436.157 4      -236.806          28.000  
R14  21686258.570 5 115599491.155 5       127.562          35.000    21686243.742 5  89910725.66025        99.212          30.000  
R15  22083312.461 6 118006134.949 6      3422.859          41.000    22083314.812 5  91782552.842 5      2662.224          32.000  
E13  27294229.195 5 143432146.745 5     -3269.336          32.000    27294233.797 5 109902559.521 5     -2505.029          34.000  
E26  23382380.023 8 122875255.318 8     -1796.715          51.000    23382383.500 8  94151154.664 8     -1376.773          51.000  
E07  23522680.945 8 123612622.758 8      -578.996          51.000    23522684.445 8  94716179.642 8      -443.629          51.000  
C30  23873288.680 5 124314538.814 5      -895.488          35.000  
C25  23776407.227 5 123809961.636 5      1122.996          34.000  
C23  25222059.508 5 131337859.179 5      3120.777          35.000  
> 2020 05 13 23 14  0.0000000  0 16      -0.000000000000
G04  20744682.695 8 109014050.415 8     -1536.770          51.000    20744682.305 8  84946036.891 8     -1197.483          50.000  
G19  23725406.711 7 124677847.896 7     -2882.965          43.000    23725404.648 7  97151549.315 7     -2246.470          43.000  
G07  23669962.250 6 124386502.933 6      3327.445          40.000    23669961.875 6  96924530.839 6      2592.815          40.000  
G09  20383376.898 8 107115461.904 8       761.445          51.000    20383377.438 8  83466600.235 8       593.334          51.000  
G03  22519610.258 5 118341356.332 5     -2555.520          31.000    22519614.125 4  92214040.968 4     -1991.315          29.000  
R20  20863360.266 6 111565379.306 6     -2979.984          38.000    20863363.867 7  86773069.989 7     -2317.766          45.000  
R05  19656934.102 4 105077185.979 4      -316.219          29.000    19656934.961 4  81726706.621 4      -245.954          29.000  
R14  21685611.430 5 115596115.349 5       100.066          34.000                                                                  
R15  22064144.938 6 117903707.712 6      3407.840          39.000    22064145.656 5  91702887.248 5      2650.543          30.000  
E13  27312902.930 5 143530266.710 5     -3271.016          34.000    27312910.641 5 109977763.816 5     -2506.559          35.000  
E26  23392682.695 8 122929399.331 8     -1809.973          51.000    23392686.148 8  94192641.643 8     -1386.905          51.000  
E07  23526015.148 8 123630143.272 8      -586.270          51.000    23526018.539 8  94729604.465 8      -449.253          51.000  
C27  24672030.008 5 128473724.280 5     -3039.246          30.000  
C30  23878505.680 6 124341695.329 6      -912.586          36.000  
C25  23769989.617 5 123776551.965 5      1106.688          31.000  
C23  25204102.656 6 131244351.264 6      3116.016          40.000  
> 2020 05 13 23 14 30.0000000  0 16      -0.000000000000
G04  20753483.781 8 109060300.918 8     -1549.520          51.000    20753483.453 8  84982076.231 8     -1207.418          50.000  
G19  23741884.203 7 124764437.989 7     -2893.062          44.000    23741882.781 7  97219022.125 7     -2254.335          42.000  
G07  23650973.352 6 124286718.778 6      3321.691          40.000    23650973.406 6  96846776.956 6      2588.335          40.000  
G09  20379065.305 8 107092803.846 8       746.281          51.000    20379065.844 8  83448944.620 8       581.518          51.000  
R20  20880131.047 6 111655064.031 6     -3001.891          38.000    20880134.789 7  86842824.785 7     -2334.804          45.000  
R05  19658734.141 5 105086800.878 5      -327.402          33.000    19658732.375 4  81734184.831 4      -254.643          29.000  
R14  21685134.664 5 115593554.032 5        72.090          32.000    21685120.016 4  89906062.193 4        56.055          29.000  
R15  22045045.703 6 117801685.88926      3393.359          41.000    22045041.469 4  91623501.63824      2639.280          26.000  
R04  21985481.695 5 117730835.359 5     -2767.445          31.000    21985475.758 4  91568435.801 4     -2152.464          28.000  
E13  27331577.742 5 143628409.829 5     -3273.590          31.000    27331584.375 5 110052955.181 5     -2508.812          33.000  
E26  23403046.008 8 122983857.228 8     -1823.379          51.000    23403048.555 8  94234369.104 8     -1397.099          51.000  
E07  23529375.602 8 123647801.428 8      -593.742          51.000    23529378.898 8  94743134.746 8      -454.967          51.000  
C27  24689555.734 5 128564955.111 5     -3045.219          32.000  
C30  23883799.680 4 124369211.68024      -929.512          28.000  
C25  23763653.211 5 123743575.696 5      1089.711          33.000  
C23  25186158.383 7 131150905.249 7      3110.797          43.000  
> 2020 05 13 23 15  0.0000000  0 15      -0.000000000000
G04  20762370.547 8 109107001.954 8     -1561.805          51.000    20762370.445 8  85018466.636 8     -1216.991          50.000  
G19  23758432.555 7 124851399.853 7     -2902.520          43.000    23758430.977 6  97286784.622 6     -2261.704          40.000  
G07  23632030.164 6 124187175.068 6      3316.340          40.000    23632030.547 6  96769210.445 6      2584.165          40.000  
G09  20374853.414 8 107070668.600 8       731.543          51.000    20374853.875 8  83431696.386 8       570.034          51.000  
G03  22548868.680 5 118495133.570 5     -2572.023          35.000    22548875.898 5  92333875.195 5     -2004.175          32.000  
