     3.02           OBSERVATION DATA    M (MIXED)           RINEX VERSION / TYPE
SAVERINEX           SC600               20200510 095931 LCL PGM / RUN BY / DATE
       G = GPS       R = GLONASS       C = COMPASS          COMMENT
       S = SBAS      J = QZSS          E = GALILEO          COMMENT
BEAN                                                        MARKER NAME
1                                                           MARKER NUMBER
GEODETIC                                                    MARKER TYPE
Unige DICCA         GTER                                    OBSERVER / AGENCY
SC60291900056       SC600               2.12(191226)        REC # / TYPE / VERS
                    HEMA45          NONE                    ANT # / TYPE
  4509407.8091   693652.4678  4442337.6214                  APPROX POSITION XYZ
        0.0000        0.0000        0.0000                  ANTENNA: DELTA H/E/N
G    8 C1C L1C D1C S1C C2Y L2Y D2Y S2Y                      SYS / # / OBS TYPES
R    8 C1C L1C D1C S1C C2P L2P D2P S2P                      SYS / # / OBS TYPES
C    8 C1I L1I D1I S1I C7I L7I D7I S7I                      SYS / # / OBS TYPES
E    8 C1C L1C D1C S1C C7Q L7Q D7Q S7Q                      SYS / # / OBS TYPES
DBHZ                                                        COMMENT
     30.000                                                 INTERVAL
  2020    05    10    07    00    0.0000000     GPS         TIME OF FIRST OBS
  2020    05    10    07    59   30.0000000     GPS         TIME OF LAST OBS
     0                                                      RCV CLOCK OFFS APPL
G L1C  0.00000                                              SYS / PHASE SHIFT
G L2Y  0.00000                                              SYS / PHASE SHIFT
R L1C  0.00000                                              SYS / PHASE SHIFT
R L2P  0.25000                                              SYS / PHASE SHIFT
C L1I  0.00000                                              SYS / PHASE SHIFT
C L7I  0.00000                                              SYS / PHASE SHIFT
E L1C  0.50000                                              SYS / PHASE SHIFT
E L7Q -0.25000                                              SYS / PHASE SHIFT
 12 R02 -4 R03  5 R04  6 R05  1 R10 -5 R12 -1 R13 -2 R14 -7 GLONASS SLOT / FRQ #
    R15  0 R17  4 R22 -3 R23  3                             GLONASS SLOT / FRQ #
 C1C   71.950 C2C   71.950 C2P   71.950                     GLONASS COD/PHS/BIS
    18                                                      LEAP SECONDS
*** Above antenna height is from mark to ANTENNA BOTTOM.    COMMENT
    17     4        0.0000        ANT MEASURE TYPE/HEIGT    COMMENT
    0.0000    0.0000    0.0458    0.0405    0.0000          COMMENT
                    BASE STATION                            COMMENT
                                                            END OF HEADER
> 2020 05 10 07 00  0.0000000  0 15        .000000000000
G12  22005520.141 8 115639828.277 8      2964.066          50.000    22005518.906 8  90108926.367 8      2309.662          50.000
G13  22539165.727 8 118444105.018 8     -3285.152          48.000    22539164.859 7  92294082.243 7     -2559.862          43.000
G15  21291111.555 8 111885530.525 8     -2392.504          51.000    21291110.539 8  87183535.890 8     -1864.289          51.000
G19  21778411.844 6 114446316.519 6      1272.996          41.000    21778411.922 6  89178945.710 6       991.939          37.000
G28  24289792.789 5 127643722.079 5     -3123.527          33.000
R04  22326348.422 5 119556522.470 5     -4350.809          34.000    22326344.266 5  92988430.808 5     -3383.962          32.000
R05  20041035.977 7 107130830.058 7     -1426.141          45.000    20041039.781 7  83323988.309 7     -1109.217          45.000
R14  21009463.789 4 111992295.239 4     -2474.191          28.000    21009466.500 4  87105096.666 4     -1924.371          27.000
R17  23137942.586 7 123815811.266 7      3973.379          42.000    23137949.531 5  96301201.248 5      3090.406          35.000
C11  25323224.367 7 131864699.914 7      3101.719          47.000    25323226.375 7 101966170.290 7      2398.509          47.000
C23  23762786.219 6 123739112.541 6      2039.332          37.000
C25  21862687.477 8 113844734.213 8      -230.172          51.000
E09  22736910.836 8 119483264.937 8     -2195.285          51.000    22736911.570 8  91552100.388 8     -1682.096          51.000
E24  22211156.281 8 116720446.348 8      1068.293          48.000    22211168.961 8  89435138.814 8       818.613          48.000
E31  24040178.422 8 126331988.163 8     -1307.316          51.000    24040181.250 8  96799845.546 8     -1001.686          51.000
> 2020 05 10 07 00 30.0000000  0 16        .000000000000
G12  21988610.047 8 115550966.884 8      2963.109          49.000    21988609.094 8  90039683.752 8      2308.916          49.000
G13  22557927.297 8 118542695.657 8     -3284.406          50.000    22557926.977 7  92370906.054 7     -2559.281          44.000
G15  21304791.594 8 111957420.437 8     -2396.984          51.000    21304791.234 8  87239553.991 8     -1867.780          51.000
G17  22468228.711 6 118071337.334 6      -711.398          41.000    22468224.742 6  92003634.435 6      -554.343          38.000
G19  21771182.672 6 114408325.925 6      1262.664          39.000    21771181.734 5  89149342.624 5       983.894          33.000
G28  24307618.312 5 127737398.770 5     -3114.918          32.000
R04  22350727.391 5 119687065.448 5     -4348.449          31.000    22350720.797 5  93089964.067 5     -3382.130          30.000
R05  20049093.094 7 107173905.594 7     -1442.484          45.000    20049098.023 7  83357491.532 7     -1121.932          45.000
R17  23115664.727 7 123696597.497 7      3977.473          44.000    23115670.133 6  96208479.504 6      3093.593          37.000
R23  22629848.727 4 121054400.974 4     -1244.133          29.000
C11  25305346.031 7 131771601.534 7      3107.922          47.000    25305347.008 7 101894180.772 7      2403.206          47.000
C23  23751024.547 6 123677897.970 6      2044.426          37.000
C25  21864016.266 8 113851653.660 8      -228.094          51.000
E09  22749453.109 8 119549172.501 8     -2195.391          51.000    22749453.227 8  91602600.956 8     -1682.191          51.000
E24  22205058.641 7 116688405.666 7      1070.812          47.000    22205071.648 8  89410588.164 8       820.547          48.000
E31  24047638.078 8 126371188.983 8     -1302.883          51.000    24047641.000 8  96829882.538 8      -998.358          51.000
> 2020 05 10 07 01  0.0000000  0 16        .000000000000
G12  21971754.016 8 115462387.778 8      2946.633          51.000    21971753.250 8  89970661.076 8      2296.081          51.000
G13  22576733.148 8 118641518.141 8     -3299.254          51.000    22576732.906 7  92447910.555 7     -2570.847          46.000
G15  21318545.578 8 112029700.329 8     -2417.121          49.000    21318545.898 8  87295875.985 8     -1883.471          49.000
G17  22472372.305 5 118093098.028 5      -735.219          31.000    22472370.781 5  92020590.866 5      -572.886          31.000
G19  21764061.086 6 114370900.664 6      1236.863          39.000    21764059.445 4  89120180.158 4       963.799          26.000
G28  24325436.484 5 127831016.534 5     -3121.586          33.000
R05  20057291.586 7 107217731.790 7     -1474.680          46.000    20057296.734 7  83391578.543 7     -1146.976          45.000
R14  21037335.352 4 112140846.197 4     -2481.891          29.000    21037344.266 5  87220680.193 5     -1930.372          30.000
R17  23093411.984 7 123577518.753 7      3965.445          43.000    23093416.180 6  96115862.791 6      3084.238          38.000
R23  22636929.109 5 121092290.990 5     -1276.195          32.000
C11  25287481.078 7 131678571.940 7      3098.484          47.000    25287480.859 7 101822244.444 7      2395.939          46.000
C23  23739286.039 5 123616788.564 5      2033.637          33.000
C25  21865382.125 8 113858766.320 8      -241.641          51.000
E09  22762044.328 8 119615339.140 8     -2211.180          51.000    22762044.539 8  91653300.022 8     -1694.301          51.000
E24  22198996.023 7 116656548.291 7      1057.590          47.000    22199008.680 7  89386177.977 7       810.325          47.000
E31  24055121.242 8 126410513.014 8     -1314.172          51.000    24055124.008 8  96860013.918 8     -1006.927          51.000
> 2020 05 10 07 01 30.0000000  0 14        .000000000000
G12  21954981.578 8 115374247.675 8      2934.020          50.000    21954981.094 8  89901980.514 8      2286.252          50.000
G13  22595612.469 8 118740725.461 8     -3309.961          51.000    22595612.258 7  92525214.951 7     -2579.190          47.000
G15  21332402.523 7 112102523.410 7     -2432.984          46.000    21332403.641 7  87352621.241 7     -1895.832          46.000
G17  22476639.328 6 118115523.589 6      -755.250          40.000    22476638.445 6  92038065.343 6      -588.513          39.000
G19  21757076.297 6 114334197.610 6      1215.023          37.000    21757075.609 4  89091580.514 4       946.796          27.000
G28  24343279.016 5 127924777.395 5     -3124.617          34.000    24343284.602 5  99681679.971 5     -2434.767          30.000
R05  20065660.062 7 107262464.362 7     -1502.762          46.000    20065665.055 7  83426370.525 7     -1168.815          45.000
R14  21051338.156 5 112215500.744 5     -2489.348          30.000    21051344.109 5  87278743.264 5     -1936.153          30.000
R17  23071214.594 7 123458737.137 7      3957.891          43.000    23071218.711 6  96023477.165 6      3078.362          39.000
C11  25269659.336 7 131585767.395 7      3093.016          46.000    25269658.383 7 101750482.138 7      2391.755          47.000
C25  21866814.539 8 113866225.655 8      -251.070          51.000
E09  22774713.750 8 119681918.615 8     -2222.777          51.000    22774714.750 8  91704315.430 8     -1703.176          51.000
E24  22192997.867 7 116625029.066 7      1048.426          47.000    22193010.383 8  89362026.880 8       803.321          48.000
E31  24062657.141 8 126450114.425 8     -1321.281          51.000    24062659.703 8  96890357.835 8     -1012.383          51.000
> 2020 05 10 07 02  0.0000000  0 16        .000000000000
G12  21938215.016 8 115286138.871 8      2928.312          49.000    21938214.594 8  89833324.321 8      2281.802          49.000
G13  22614486.734 8 118839907.015 8     -3313.742          51.000    22614486.562 7  92602499.268 7     -2582.137          47.000
G15  21346284.695 7 112175478.726 7     -2442.090          47.000    21346286.266 7  87409469.581 7     -1902.924          47.000
G17  22480955.344 5 118138204.448 5      -768.270          32.000    22480950.047 5  92055738.697 5      -598.649          31.000
G19  21750151.805 6 114297809.284 6      1199.734          39.000    21750150.352 5  89063231.974 5       934.846          31.000
G28  24361070.000 5 128018270.242 5     -3119.789          32.000
R05  20074119.320 7 107307685.499 7     -1523.754          47.000    20074124.562 7  83461542.508 7     -1185.145          44.000
R15  19639409.703 5 104947071.745 5       369.184          30.000    19639404.562 4  81625468.230 4       287.143          27.000
R17  23048995.883 7 123339840.983 7      3956.801          45.000    23049000.047 6  95931002.462 6      3077.515          39.000
R23  22651515.609 6 121170320.015 6     -1324.109          39.000
C11  25251802.938 7 131492785.383 7      3094.379          45.000    25251802.656 8 101678582.617 8      2392.800          49.000
C23  23715892.680 5 123494890.787 5      2027.496          31.000
C25  21868235.672 8 113873626.317 8      -253.695          51.000
E09  22787383.398 8 119748500.725 8     -2227.457          51.000    22787385.492 8  91755332.862 8     -1706.771          51.000
E24  22186986.312 7 116593438.800 7      1046.066          47.000    22186999.336 8  89337821.326 8       801.603          48.000
E31  24070167.852 8 126489583.408 8     -1321.488          51.000    24070170.203 8  96920600.285 8     -1012.542          51.000
> 2020 05 10 07 02 30.0000000  0 17        .000000000000
G12  21921578.852 8 115198715.111 8      2916.875          50.000    21921577.961 8  89765201.931 8      2272.890          50.000
G13  22633479.438 8 118939713.397 8     -3323.203          50.000    22633479.406 7  92680270.470 7     -2589.509          47.000
G15  21360316.578 8 112249216.801 8     -2456.812          49.000    21360318.250 8  87466927.857 8     -1914.396          49.000
G17  22485443.352 6 118161792.001 6      -786.715          38.000    22485439.430 6  92074118.656 6      -613.028          38.000
G19  21743412.758 6 114262390.049 6      1178.676          38.000    21743410.258 5  89035632.527 5       918.455          34.000
G24  20471144.672 5 107576594.933 5      1168.625          32.000
G28  24378933.578 4 128112160.577 4     -3121.223          28.000
R05  20082794.523 8 107354056.511 8     -1550.453          49.000    20082798.703 7  83497608.851 7     -1205.908          43.000
R17  23026880.562 7 123221499.308 7      3949.906          44.000    23026884.742 6  95838959.022 6      3072.152          38.000
R23  22659061.328 6 121210687.856 6     -1349.863          37.000    22659067.516 4  94275008.545 4     -1049.894          26.000
C11  25234036.797 7 131400274.947 7      3089.746          43.000    25234037.773 8 101607047.708 8      2389.185          49.000
C23  23704272.305 5 123434395.566 5      2022.051          35.000
C24  24772870.203 5 128998818.091 5     -2419.922          31.000
C25  21869769.758 8 113881614.583 8      -262.070          51.000
E09  22800177.391 8 119815736.613 8     -2237.969          51.000    22800180.562 8  91806851.253 8     -1714.792          51.000
E24  22181085.531 8 116562429.569 8      1038.117          48.000    22181098.852 8  89314061.015 8       795.476          48.000
E31  24077777.367 8 126529571.547 8     -1327.465          51.000    24077779.617 8  96951240.533 8     -1017.163          51.000
> 2020 05 10 07 03  0.0000000  0 16        .000000000000
G12  21904971.539 8 115111442.623 8      2903.945          50.000    21904970.133 8  89697197.424 8      2262.818          49.000
G13  22652488.062 7 119039607.597 7     -3333.875          45.000    22652488.891 7  92758110.093 7     -2597.825          45.000
G15  21374395.633 8 112323200.647 8     -2472.656          49.000    21374397.031 8  87524577.595 8     -1926.745          49.000
G17  22490002.570 5 118185750.742 5      -807.250          35.000    22490000.234 5  92092787.797 5      -629.026          35.000
G19  21736755.820 6 114227406.704 6      1156.426          37.000    21736753.805 5  89008372.781 5       901.114          35.000
G24  20464523.562 5 107541796.963 5      1154.914          31.000
R05  20091582.539 7 107401031.178 7     -1578.551          47.000    20091585.156 7  83534144.655 7     -1227.765          42.000
R17  23004767.930 7 123103171.838 7      3941.301          43.000    23004772.117 6  95746926.674 6      3065.462          39.000
R23  22666714.977 5 121251637.968 5     -1377.324          33.000    22666722.375 4  94306862.252 4     -1071.249          24.000
C11  25216259.484 7 131307708.473 7      3084.023          42.000    25216261.844 8 101535469.479 8      2384.760          48.000
C23  23692650.727 6 123373871.321 6      2015.812          36.000
C24  24786839.117 5 129071507.548 5     -2423.289          33.000
C25  21871314.984 8 113889660.126 8      -271.641          51.000
E09  22812993.836 8 119883089.902 8     -2249.484          51.000    22812997.680 8  91858459.616 8     -1723.631          51.000
E24  22175193.719 8 116531466.110 8      1028.934          49.000    22175206.602 8  89290335.784 8       788.389          48.000
E31  24085383.719 8 126569542.876 8     -1334.523          51.000    24085385.898 8  96981867.899 8     -1022.557          51.000
> 2020 05 10 07 03 30.0000000  0 16        .000000000000
G12  21888442.875 8 115024584.602 8      2889.438          49.000    21888441.727 8  89629515.884 8      2251.510          49.000
G13  22671562.297 6 119139849.000 6     -3345.789          41.000    22671564.117 6  92836220.259 6     -2607.108          41.000
G15  21388570.867 8 112397689.833 8     -2490.184          51.000    21388572.008 8  87582621.087 8     -1940.406          51.000
G17  22494681.344 5 118210340.856 5      -828.777          35.000    22494678.172 5  92111948.904 5      -645.804          35.000
G19  21730231.867 6 114193122.475 6      1132.109          38.000    21730229.445 5  88981657.746 5       882.163          35.000
R05  20100532.578 8 107448873.478 8     -1608.008          48.000    20100534.523 7  83571355.269 7     -1250.673          44.000
R14  21107600.297 5 112515402.419 5     -2512.301          34.000    21107610.500 5  87512017.785 5     -1954.012          32.000
R15  19633580.008 5 104915890.202 5       327.723          31.000    19633584.250 5  81601248.519 5       254.892          31.000
R17  22982707.906 6 122985129.376 6      3930.996          41.000    22982713.148 6  95655115.969 6      3057.444          41.000
R23  22674528.133 5 121293434.464 5     -1405.625          30.000
C11  25198522.219 7 131215347.700 7      3076.535          43.000    25198525.234 7 101464050.309 7      2378.975          47.000
C23  23681073.133 5 123313577.548 5      2007.008          35.000
C25  21872920.969 8 113898021.932 8      -282.793          51.000
E09  22825882.312 8 119950820.825 8     -2262.789          51.000    22825886.336 8  91910357.328 8     -1733.807          51.000
E24  22169360.641 8 116500809.729 8      1018.016          50.000    22169373.000 8  89266845.828 8       780.005          48.000
E31  24093036.453 8 126609758.117 8     -1343.309          51.000    24093038.672 8  97012682.160 8     -1029.276          51.000
> 2020 05 10 07 04  0.0000000  0 14        .000000000000
G12  21871971.891 7 114938032.503 7      2881.199          45.000    21871971.312 7  89562072.653 7      2245.090          45.000
G13  22690679.953 5 119240326.192 5     -3351.328          34.000    22690683.414 5  92914514.221 5     -2611.418          34.000
G15  21402820.867 8 112472572.441 8     -2501.359          51.000    21402821.945 8  87640971.147 8     -1949.111          51.000
G17  22499459.500 4 118235456.721 4      -844.738          29.000    22499457.562 5  92131515.734 5      -658.225          31.000
G19  21723820.047 6 114159428.945 6      1114.363          39.000    21723818.836 4  88955403.007 4       868.347          28.000
R05  20109623.148 8 107497469.451 8     -1631.125          48.000    20109626.117 7  83609152.156 7     -1268.653          46.000
R17  22960681.656 7 122867265.115 7      3927.105          44.000    22960687.695 7  95563443.866 7      3054.418          42.000
R23  22682479.766 5 121335934.345 5     -1428.438          31.000
C11  25180804.656 7 131123086.561 7      3075.023          44.000    25180807.898 7 101392708.201 7      2377.752          44.000
C23  23669516.664 5 123253405.709 5      2004.523          34.000
C25  21874566.656 8 113906591.176 8      -287.875          51.000
E09  22838821.711 8 120018818.395 8     -2269.746          51.000    22838825.539 8  91962459.370 8     -1739.198          51.000
E24  22163564.688 8 116470350.463 8      1013.258          49.000    22163577.062 7  89243506.924 7       776.464          47.000
E31  24100714.500 8 126650106.739 8     -1345.953          51.000    24100716.883 8  97043598.620 8     -1031.312          51.000
> 2020 05 10 07 04 30.0000000  0 16        .000000000000
G12  21855558.031 7 114851778.329 7      2868.922          47.000    21855557.188 7  89494861.565 7      2235.524          47.000
G13  22709841.367 6 119341027.654 6     -3361.664          40.000    22709845.141 6  92992982.917 6     -2619.482          40.000
G15  21417143.336 8 112547836.986 8     -2516.414          50.000    21417144.625 8  87699618.828 8     -1960.845          50.000
G17  22504335.180 5 118261078.586 5      -863.953          35.000    22504333.492 5  92151480.752 5      -673.216          33.000
G19  21717519.398 5 114126318.162 5      1092.938          32.000
R04  22547205.945 5 120739294.211 5     -4411.145          31.000
R05  20118852.547 8 107546807.100 8     -1658.098          48.000    20118856.891 7  83647525.900 7     -1289.632          47.000
R14  21135925.859 6 112666379.450 6     -2521.621          36.000    21135930.039 5  87629420.450 5     -1961.261          31.000
R17  22938688.555 7 122749573.673 7      3918.934          46.000    22938694.492 7  95471906.192 7      3048.062          42.000
R23  22690567.336 5 121379185.798 5     -1454.832          31.000
C11  25163105.125 7 131030918.171 7      3069.574          45.000    25163106.781 6 101321437.806 6      2373.768          38.000
C23  23657983.688 6 123193346.677 6      1998.621          36.000
C25  21876250.211 8 113915358.116 8      -296.719          51.000
E09  22851809.844 8 120087071.655 8     -2280.539          51.000    22851813.000 8  92014757.323 8     -1747.417          50.000
E24  22157803.977 8 116440078.428 8      1004.797          49.000    22157816.398 7  89220311.481 7       769.864          46.000
E31  24108415.883 8 126690578.215 8     -1352.219          51.000    24108418.500 8  97074609.222 8     -1036.077          51.000
> 2020 05 10 07 05  0.0000000  0 17        .000000000000
G12  21839210.352 8 114765868.878 8      2858.656          49.000    21839209.227 8  89427919.180 8      2227.527          48.000
G13  22729056.070 7 119441997.184 7     -3369.434          44.000    22729058.305 6  93071660.437 6     -2625.533          40.000
G15  21431546.852 8 112623527.289 8     -2529.258          51.000    21431547.992 8  87758598.265 8     -1970.850          51.000
G17  22509316.305 6 118287256.845 6      -881.090          36.000    22509313.234 6  92171879.337 6      -686.567          36.000
G19  21711338.023 6 114093837.568 6      1072.957          38.000
R04  22571930.781 4 120871714.499 4     -4416.242          29.000
R05  20128228.945 8 107596930.970 8     -1683.023          49.000    20128234.188 7  83686511.131 7     -1309.018          47.000
R14  21150135.250 6 112742104.102 6     -2526.035          38.000    21150135.180 5  87688317.359 5     -1964.694          30.000
R17  22916737.789 7 122632106.574 7      3912.586          47.000    22916742.820 7  95380542.992 7      3043.128          42.000
R23  22698797.250 5 121423203.741 5     -1479.105          34.000
C11  25145432.086 7 130938890.530 7      3066.027          43.000    25145428.008 6 101250276.417 6      2371.025          39.000
C23  23646482.242 5 123133446.103 5      1994.723          35.000
C24  24842860.289 5 129363283.764 5     -2434.836          32.000
C25  21877980.461 8 113924368.033 8      -303.566          51.000
E09  22864855.141 8 120155625.107 8     -2289.266          51.000    22864857.156 8  92067285.298 8     -1754.068          48.000
E24  22152087.703 8 116410039.170 8       998.352          50.000    22152099.773 7  89197294.381 7       764.956          47.000
E31  24116149.148 8 126731217.565 8     -1356.551          51.000    24116151.945 8  97105748.452 8     -1039.399          51.000
> 2020 05 10 07 05 30.0000000  0 16        .000000000000
G12  21822936.352 8 114680346.540 8      2843.656          49.000    21822935.352 8  89361278.429 8      2215.836          49.000
G13  22748329.422 7 119543273.942 7     -3381.609          47.000    22748330.594 6  93150577.299 6     -2635.023          38.000
G15  21446039.062 8 112699682.645 8     -2546.875          51.000    21446039.742 8  87817940.113 8     -1984.578          51.000
G17  22514410.430 5 118314031.315 5      -902.875          32.000    22514409.375 5  92192742.489 5      -703.539          33.000
G19  21705286.117 6 114062029.983 6      1048.227          38.000
R05  20137760.328 8 107647880.206 8     -1712.652          50.000    20137764.648 7  83726138.321 7     -1332.063          44.000
R14  21164389.812 5 112818042.043 5     -2534.996          30.000    21164376.852 4  87747366.190 4     -1971.667          28.000
R15  19626710.734 5 104879181.734 5       279.992          33.000    19626708.211 4  81572689.541 4       217.757          27.000
R17  22894837.398 7 122514910.216 7      3901.406          47.000    22894841.414 7  95289390.366 7      3034.430          42.000
R23  22707175.969 5 121468027.893 5     -1508.379          34.000
C11  25127793.883 7 130847046.966 7      3057.820          42.000    25127790.102 7 101179257.301 7      2364.419          46.000
C24  24856903.773 5 129436436.994 5     -2441.297          33.000
C25  21879765.211 8 113933661.552 8      -315.145          51.000
E09  22877965.258 8 120224518.555 8     -2302.723          51.000    22877965.453 7  92120073.773 7     -1764.415          47.000
E24  22146423.680 8 116380273.577 8       986.988          49.000    22146435.992 8  89174487.002 8       756.180          48.000
E31  24123921.984 8 126772065.068 8     -1365.648          51.000    24123924.875 8  97137047.167 8     -1046.388          51.000
> 2020 05 10 07 06  0.0000000  0 15        .000000000000
G12  21806700.781 8 114595027.506 8      2836.531          48.000    21806700.242 8  89294796.078 8      2210.284          48.000
G13  22767625.586 8 119644670.667 8     -3386.000          48.000    22767625.672 6  93229587.644 6     -2638.448          38.000
G15  21460584.195 8 112776115.504 8     -2556.426          51.000    21460584.445 8  87877498.169 8     -1992.023          51.000
G17  22519582.867 6 118341207.546 6      -917.547          37.000    22519582.469 6  92213925.103 6      -714.975          36.000
G19  21699326.898 6 114030711.473 6      1031.945          39.000    21699341.203 5  88855173.470 5       804.113          32.000
R05  20147410.805 8 107699464.167 8     -1734.121          50.000    20147412.438 7  83766259.139 7     -1348.764          43.000
R17  22872953.031 8 122397800.623 8      3898.066          48.000    22872956.180 7  95198305.193 7      3031.832          42.000
R23  22715669.359 4 121513467.853 4     -1529.750          28.000
C11  25110156.508 7 130755206.550 7      3057.324          44.000    25110154.820 8 101108240.502 8      2364.023          49.000
C23  23623555.805 5 123014060.807 5      1985.469          34.000
C24  24870937.867 5 129509532.534 5     -2438.781          34.000
C25  21881569.109 8 113943054.861 8      -318.852          51.000
E09  22891104.859 8 120293565.336 8     -2308.168          51.000    22891102.852 7  92172979.710 7     -1768.620          47.000
E24  22140776.203 8 116350596.021 8       983.793          49.000    22140789.547 8  89151747.072 8       753.750          49.000
E31  24131699.016 8 126812934.560 8     -1366.746          51.000    24131702.016 8  97168362.745 8     -1047.274          51.000
> 2020 05 10 07 06 30.0000000  0 16        .000000000000
G12  21790568.898 8 114510254.048 8      2824.121          49.000    21790568.188 8  89228738.797 8      2200.614          49.000
G13  22787008.719 8 119746525.840 8     -3395.344          49.000    22787008.211 6  93308955.264 6     -2645.722          39.000
G15  21475246.422 8 112853164.449 8     -2571.164          51.000    21475246.172 8  87937536.270 8     -2003.508          51.000
G17  22524898.203 5 118369141.449 5      -935.605          35.000    22524896.867 5  92235691.635 5      -729.049          33.000
G19  21693525.992 5 114000224.685 5      1009.984          35.000    21693536.672 4  88831405.429 4       786.976          27.000
R05  20157244.250 8 107752027.052 8     -1760.891          50.000    20157244.664 7  83807141.326 7     -1369.582          44.000
R14  21192943.750 4 112970305.109 4     -2543.340          28.000    21192947.875 4  87865831.547 4     -1978.153          29.000
R15  19623678.352 5 104862986.489 5       259.453          30.000
R17  22851150.266 8 122281129.322 8      3889.258          48.000    22851153.281 6  95107560.894 6      3024.978          41.000
C11  25092585.945 7 130663709.361 7      3051.496          47.000    25092585.547 8 101037489.056 8      2359.607          50.000
C23  23612157.188 5 122954705.872 5      1978.754          30.000
C24  24885026.883 5 129582907.662 5     -2442.996          34.000
C25  21883456.984 8 113952885.364 8      -327.609          51.000
E09  22904338.305 8 120363104.807 8     -2318.785          51.000    22904335.109 8  92226263.150 8     -1776.717          48.000
E24  22135210.203 8 116321346.937 8       975.273          49.000    22135224.297 8  89129335.425 8       747.234          49.000
E31  24139545.023 8 126854165.876 8     -1373.047          51.000    24139548.234 8  97199955.558 8     -1052.057          51.000
> 2020 05 10 07 07  0.0000000  0 15        .000000000000
G12  21774481.797 8 114425715.423 8      2814.305          50.000    21774480.211 8  89162864.597 8      2192.965          50.000
G13  22806419.195 8 119848526.141 8     -3402.176          49.000    22806419.047 6  93388435.979 6     -2651.046          41.000
G15  21489966.195 8 112930515.997 8     -2583.102          51.000    21489965.312 8  87997810.166 8     -2012.806          51.000
G17  22530296.508 5 118397507.358 5      -952.500          35.000    22530294.773 5  92257798.905 5      -742.211          35.000
G19  21687825.344 5 113970276.858 5       991.164          30.000
R05  20167200.258 8 107805249.353 8     -1784.703          49.000    20167201.984 7  83848536.452 7     -1388.102          45.000
R14  21207299.719 6 113046789.176 6     -2546.914          36.000    21207279.742 5  87925242.233 5     -1980.933          30.000
R17  22829371.047 7 122164583.738 7      3883.039          47.000    22829373.836 6  95016914.382 6      3020.145          41.000
R23  22733143.547 5 121606967.520 5     -1577.855          34.000
C11  25075023.141 8 130572249.334 8      3048.324          49.000    25075023.008 8 100966766.387 8      2357.312          51.000
C24  24899111.688 4 129656208.314 4     -2444.375          26.000
C25  21885369.508 8 113962844.274 8      -333.746          51.000
E09  22917605.586 8 120432824.086 8     -2326.512          51.000    22917602.812 8  92279684.381 8     -1782.703          50.000
E24  22129666.727 8 116292214.534 8       969.570          49.000    22129680.602 8  89107013.176 8       742.921          48.000
E31  24147400.516 8 126895446.702 8     -1376.504          51.000    24147403.977 8  97231586.311 8     -1054.640          51.000
> 2020 05 10 07 07 30.0000000  0 16        .000000000000
G12  21758434.891 8 114341388.510 8      2810.688          51.000    21758432.680 8  89097155.373 8      2190.146          51.000
G13  22825852.062 8 119950645.269 8     -3402.527          50.000    22825852.383 7  93468009.294 7     -2651.320          42.000
G15  21504738.203 8 113008143.407 8     -2588.703          51.000    21504737.117 8  88058299.032 8     -2017.171          51.000
G17  22535773.242 6 118426290.360 6      -963.246          36.000    22535774.148 6  92280227.148 6      -750.581          36.000
R05  20177274.812 8 107859103.707 8     -1802.098          51.000    20177277.578 7  83890423.185 7     -1401.632          45.000
R14  21221631.617 6 113123181.324 6     -2543.633          36.000    21221610.312 4  87984666.819 4     -1978.381          29.000
R15  19620867.297 5 104847960.290 5       245.828          33.000
R17  22807611.133 7 122048143.474 7      3882.945          47.000    22807613.664 6  94926349.815 6      3020.069          40.000
R23  22742046.336 5 121654624.420 5     -1595.203          35.000
C11  25057463.242 8 130480804.774 8      3051.266          50.000    25057463.195 8 100896055.712 8      2359.474          51.000
C23  23589402.383 5 122836251.293 5      1978.930          30.000
C24  24913190.562 5 129729527.746 5     -2438.492          32.000
C25  21887301.875 8 113972907.110 8      -333.715          51.000
E09  22930901.773 8 120502697.255 8     -2328.188          51.000    22930900.594 8  92333223.536 8     -1783.996          51.000
E24  22124140.875 8 116263173.982 8       969.965          49.000    22124154.023 8  89084761.332 8       743.265          48.000
E31  24155260.578 8 126936751.640 8     -1373.773          51.000    24155264.203 8  97263235.557 8     -1052.626          51.000
> 2020 05 10 07 08  0.0000000  0 16        .000000000000
G12  21742483.602 8 114257563.764 8      2787.855          51.000    21742482.078 8  89031837.409 8      2172.355          51.000
G13  22845362.297 8 120053170.113 8     -3422.215          51.000    22845362.500 7  93547898.763 7     -2666.661          43.000
G15  21519616.734 8 113086333.580 8     -2613.656          50.000    21519616.125 8  88119226.388 8     -2036.618          50.000
G19  21676755.367 5 113912106.721 5       944.816          33.000
G24  20401888.469 5 107212646.977 5      1038.504          30.000
R05  20187522.586 8 107913881.797 8     -1839.160          51.000    20187524.242 7  83933028.349 7     -1430.458          43.000
R15  19619582.250 4 104841090.133 4       221.391          28.000
R17  22785926.586 8 121932107.890 8      3863.176          48.000    22785929.125 6  94836099.959 6      3004.692          40.000
R23  22751122.062 5 121703188.177 5     -1631.613          35.000
C11  25039961.422 8 130389664.676 8      3034.910          49.000    25039961.227 8 100825580.484 8      2346.761          50.000
C23  23578068.734 4 122777191.606 4      1961.895          28.000
C24  24927307.750 5 129803050.605 5     -2453.512          32.000
C25  21889309.148 8 113983360.107 8      -352.859          51.000
E09  22944281.648 8 120573011.926 8     -2349.145          50.000    22944282.430 8  92387100.988 8     -1799.946          51.000
E24  22118687.312 8 116234513.993 8       951.047          49.000    22118699.703 8  89062801.107 8       728.706          48.000
E31  24163180.125 8 126978368.834 8     -1390.355          51.000    24163183.641 8  97295124.051 8     -1065.346          51.000
> 2020 05 10 07 08 30.0000000  0 14        .000000000000
G12  21726601.977 8 114174104.294 8      2773.266          51.000    21726601.055 8  88966804.061 8      2160.986          51.000
G13  22864922.562 8 120155960.328 8     -3433.383          50.000    22864922.914 7  93627994.997 7     -2675.366          44.000
G15  21534575.898 8 113164946.201 8     -2630.051          51.000    21534575.875 8  88180482.958 8     -2049.390          51.000
G17  22547100.938 6 118485870.056 6     -1013.258          38.000
G19  21671427.617 6 113884079.533 6       920.570          37.000    21671422.578 5  88740845.043 5       717.328          35.000
R05  20197916.023 8 107969440.137 8     -1867.570          50.000    20197916.273 7  83976240.355 7     -1452.555          43.000
R17  22764292.859 7 121816340.530 7      3851.672          47.000    22764294.984 6  94746058.752 6      2995.748          40.000
R23  22760342.609 5 121752515.975 5     -1659.754          34.000    22760353.742 4  94696424.427 4     -1290.923          26.000
C11  25022491.820 8 130298694.582 8      3026.812          48.000    25022490.922 8 100755236.686 8      2340.653          49.000
C24  24941460.508 5 129876727.988 5     -2457.289          31.000
C25  21891365.062 8 113994066.058 8      -363.684          51.000
E09  22957718.758 8 120643628.441 8     -2361.445          50.000    22957721.328 8  92441209.736 8     -1809.434          51.000
E24  22113279.562 8 116206096.001 8       940.676          48.000    22113291.562 7  89041026.301 7       720.840          47.000
E31  24171132.672 8 127020159.219 8     -1398.461          51.000    24171135.891 8  97327145.253 8     -1071.533          51.000
> 2020 05 10 07 09  0.0000000  0 16        .000000000000
G12  21710781.406 8 114090966.120 8      2763.434          51.000    21710780.547 8  88902021.075 8      2153.325          51.000
G13  22884524.367 8 120258969.046 8     -3439.828          49.000    22884524.969 7  93708261.502 7     -2680.386          44.000
G15  21549606.742 8 113243934.313 8     -2641.789          51.000    21549607.180 8  88242032.148 8     -2058.537          51.000
G17  22552916.102 6 118516427.898 6     -1029.543          37.000    22552917.719 5  92350408.107 5      -802.235          34.000
G19  21666209.539 5 113856660.498 5       901.219          35.000    21666206.492 5  88719479.581 5       702.248          34.000
G24  20390130.758 5 107150861.285 5      1015.801          35.000
R04  22770996.695 5 121937651.718 5     -4467.188          30.000    22771004.625 5  94840422.188 5     -3474.479          32.000
R05  20208446.078 8 108025730.765 8     -1891.117          51.000    20208446.852 7  84020021.926 7     -1470.872          45.000
R14  21264918.422 5 113353921.405 5     -2572.688          32.000
R17  22742701.531 8 121700800.478 8      3844.980          48.000    22742703.375 6  94656194.310 6      2990.543          39.000
C11  25005046.109 7 130207852.750 7      3023.309          46.000    25005045.016 8 100684992.086 8      2337.883          49.000
C24  24955600.320 6 129950395.490 6     -2458.586          37.000
C25  21893461.062 8 114004980.457 8      -369.891          51.000
E09  22971204.680 8 120714500.585 8     -2369.176          49.000    22971208.273 8  92495514.376 8     -1815.384          51.000
E24  22107908.938 8 116177874.934 8       934.875          48.000    22107921.172 7  89019402.384 7       716.375          47.000
E31  24179109.555 8 127062077.128 8     -1401.957          51.000    24179112.461 8  97359264.172 8     -1074.251          51.000
> 2020 05 10 07 09 30.0000000  0 16        .000000000000
G12  21694999.391 8 114008031.830 8      2758.809          50.000    21694998.656 8  88837396.963 8      2149.721          50.000
G13  22904144.695 8 120362075.518 8     -3440.840          49.000    22904145.508 7  93788604.205 7     -2681.171          43.000
G15  21564686.188 8 113323177.036 8     -2648.012          51.000    21564686.875 8  88303779.730 8     -2063.386          51.000
G19  21661084.484 5 113829768.459 5       886.699          31.000    21661079.797 5  88698502.744 5       690.928          32.000
G24  20384323.414 5 107120357.539 5      1010.773          34.000    20384321.047 5  83470380.178 5       787.619          35.000
R04  22795996.578 5 122071529.367 5     -4465.078          33.000    22796004.562 5  94944549.104 5     -3472.839          31.000
R05  20219090.133 8 108082630.110 8     -1909.055          51.000    20219091.508 7  84064276.983 7     -1484.820          45.000
R15  19616096.461 4 104822476.404 4       192.633          27.000    19616095.461 5  81528606.893 5       149.832          30.000
R17  22721130.625 7 121585371.638 7      3843.312          46.000    22721132.195 6  94566416.372 6      2989.243          38.000
R23  22779165.805 5 121853125.278 5     -1699.953          31.000
C11  24987602.273 7 130117024.122 7      3025.059          45.000    24987602.328 8 100614757.676 8      2339.225          50.000
C24  24969730.891 5 130023994.889 5     -2454.660          32.000
C25  21895574.430 8 114015985.480 8      -370.574          51.000
E09  22984716.617 8 120785508.235 8     -2371.484          49.000    22984720.453 8  92549922.849 8     -1817.072          51.000
E24  22102553.016 7 116149731.727 7       934.531          47.000    22102565.766 7  88997838.119 7       716.004          47.000
E31  24187087.898 8 127104003.033 8     -1399.977          51.000    24187090.641 8  97391389.212 8     -1072.679          51.000
> 2020 05 10 07 10  0.0000000  0 17        .000000000000
G12  21679303.094 8 113925548.196 8      2742.855          50.000    21679302.484 8  88773123.991 8      2137.287          50.000
G13  22923830.047 8 120465523.091 8     -3453.047          49.000    22923830.969 7  93869212.693 7     -2690.686          43.000
G15  21579860.344 8 113402917.426 8     -2665.316          51.000    21579860.953 8  88365915.107 8     -2076.870          51.000
G19  21656100.945 5 113803577.752 5       861.844          33.000    21656095.805 5  88678094.467 5       671.560          33.000
G24  20378602.539 5 107090298.474 5       995.324          31.000    20378603.000 5  83446957.628 5       775.583          32.000
G25  24334235.750 5 127877247.080 5      3550.906          35.000
R04  22821046.078 5 122205663.906 5     -4474.191          34.000    22821052.555 5  95048875.958 5     -3479.930          31.000
R05  20229894.070 8 108140385.018 8     -1938.438          51.000    20229895.742 7  84109197.495 7     -1507.674          45.000
R14  21293864.633 4 113508279.715 4     -2579.309          29.000
R17  22699627.750 7 121470308.201 7      3830.273          43.000    22699629.492 6  94476922.667 6      2979.105          37.000
R23  22788792.016 5 121904602.952 5     -1729.371          32.000
C11  24970208.242 7 130026454.278 7      3015.605          45.000    24970209.844 8 100544723.357 8      2331.894          51.000
C24  24983900.836 5 130097768.546 5     -2461.332          34.000
C25  21897751.867 8 114027323.971 8      -382.566          51.000
E09  22998301.234 8 120856895.267 8     -2384.949          50.000    22998304.461 8  92604621.997 8     -1827.378          51.000
E24  22097258.328 7 116121911.321 7       922.996          46.000    22097271.953 8  88976521.225 8       707.204          48.000
E31  24195114.242 8 127146181.323 8     -1409.145          51.000    24195116.836 8  97423707.632 8     -1079.743          51.000
> 2020 05 10 07 10 30.0000000  0 17        .000000000000
G12  21663674.461 8 113843420.333 8      2734.121          50.000    21663673.961 8  88709128.250 8      2130.484          50.000
G13  22943561.750 7 120569213.667 7     -3457.898          47.000    22943562.750 7  93950010.531 7     -2694.466          43.000
G15  21595110.578 8 113483057.474 8     -2675.371          51.000    21595110.922 8  88428361.892 8     -2084.705          51.000
G25  24313972.945 6 127770762.172 6      3549.117          37.000    24313958.289 5  99561583.541 5      2765.540          35.000
R04  22846121.875 5 122339953.766 5     -4477.289          32.000    22846128.289 4  95153323.610 4     -3482.339          29.000
R05  20240839.047 8 108198895.276 8     -1960.336          51.000    20240841.219 7  84154705.449 7     -1524.709          46.000
R14  21308388.484 5 113585695.053 5     -2582.719          31.000
R15  19614096.711 5 104811804.874 5       168.852          32.000    19614089.078 4  81520236.703 4       131.323          29.000
R17  22678175.641 7 121355517.328 7      3824.391          42.000    22678179.391 6  94387640.919 6      2974.526          38.000
R23  22798554.773 5 121956821.168 5     -1750.523          32.000    22798554.297 4  94855359.313 4     -1361.521          27.000
C11  24952847.031 7 129936050.774 7      3013.137          47.000    24952849.492 8 100474817.676 8      2329.825          51.000
C23  23521852.625 5 122484451.243 5      1940.508          33.000
C24  24998081.078 5 130171621.531 5     -2460.508          30.000
C25  21899975.062 8 114038900.687 8      -387.398          51.000
E09  23011939.953 8 120928564.252 8     -2391.227          51.000    23011942.188 8  92659537.166 8     -1832.203          51.000
E24  22092006.484 7 116094317.491 7       918.547          45.000    22092020.945 8  88955377.917 8       703.789          48.000
E31  24203170.156 8 127188515.193 8     -1411.285          51.000    24203172.562 8  97456145.256 8     -1081.344          51.000
> 2020 05 10 07 11  0.0000000  0 16        .000000000000
G12  21648111.914 8 113761638.818 8      2718.938          50.000    21648110.969 8  88645402.396 8      2118.653          50.000
G13  22963337.055 7 120673134.747 7     -3469.059          46.000    22963338.039 6  94030987.994 6     -2703.159          41.000
G15  21610434.336 8 113563584.534 8     -2692.082          50.000    21610434.305 8  88491110.230 8     -2097.726          50.000
G17  22577175.750 6 118643876.610 6     -1098.879          37.000
G19  21646497.359 5 113753118.337 5       818.465          33.000
G25  24293735.719 6 127664414.451 6      3541.562          38.000    24293723.555 5  99478715.255 5      2759.656          32.000
R04  22871224.133 5 122474365.801 5     -4484.332          30.000    22871229.945 4  95257880.241 4     -3487.817          28.000
R05  20251923.445 8 108258147.448 8     -1988.734          51.000    20251925.711 7  84200790.441 7     -1546.793          47.000
R14  21322958.164 5 113663294.288 5     -2590.500          35.000
R17  22656773.344 6 121240992.752 6      3811.398          41.000    22656778.984 6  94298566.258 6      2964.421          40.000
C11  24935516.875 8 129845805.669 8      3004.348          48.000    24935519.391 8 100405034.452 8      2323.004          51.000
C23  23510698.648 5 122426364.149 5      1933.223          33.000
C25  21902242.023 8 114050705.004 8      -398.625          51.000
E09  23025630.094 8 121000503.216 8     -2403.734          51.000    23025631.523 8  92714659.186 8     -1841.891          51.000
E24  22086795.867 7 116066939.298 7       907.730          45.000    22086810.492 7  88934399.811 7       695.561          47.000
E31  24211253.547 8 127230993.248 8     -1419.680          51.000    24211255.734 8  97488693.366 8     -1087.768          51.000
> 2020 05 10 07 11 30.0000000  0 15        .000000000000
G12  21632619.898 8 113680227.495 8      2708.641          51.000    21632618.430 8  88581965.048 8      2110.629          50.000
G13  22983160.086 7 120777306.954 7     -3475.453          45.000    22983160.617 6  94112161.129 6     -2708.145          39.000
G15  21625835.477 8 113644518.749 8     -2703.512          49.000    21625834.656 8  88554175.800 8     -2106.636          49.000
G19  21641879.523 6 113728846.119 6       798.762          37.000
G25  24273528.484 6 127558228.135 6      3537.961          40.000    24273519.398 5  99395972.732 5      2756.859          32.000
R05  20263151.000 8 108318161.555 8     -2012.035          51.000    20263153.141 7  84247468.080 7     -1564.916          47.000
R15  19612347.758 5 104802402.666 5       144.316          34.000    19612349.211 4  81513003.747 4       112.243          27.000
R17  22635426.672 7 121126762.295 7      3803.953          42.000    22635433.234 6  94209720.302 6      2958.627          40.000
R23  22818491.477 5 122063548.276 5     -1800.980          33.000
C11  24918221.742 7 129755743.973 7      2999.988          47.000    24918224.180 8 100335393.010 8      2319.706          51.000
C24  25026486.812 5 130319489.821 5     -2467.531          32.000
C25  21904556.953 8 114062759.160 8      -404.879          51.000
E09  23039375.469 8 121072733.335 8     -2411.496          51.000    23039376.516 8  92770004.283 8     -1847.764          50.000
E24  22081631.344 7 116039799.085 7       901.770          47.000    22081645.117 7  88913604.038 7       690.954          47.000
E31  24219368.430 8 127273637.261 8     -1423.203          51.000    24219370.633 8  97521368.638 8     -1090.488          51.000
> 2020 05 10 07 12  0.0000000  0 15        .000000000000
G12  21617191.969 8 113599152.859 8      2697.242          51.000    21617189.789 8  88518790.029 8      2101.747          51.000
G13  23003023.859 7 120881693.220 7     -3482.621          44.000    23003024.211 6  94193501.018 6     -2713.734          40.000
G15  21641307.289 8 113725823.391 8     -2715.938          51.000    21641305.484 8  88617530.012 8     -2116.318          51.000
G19  21637381.812 5 113705212.746 5       778.055          34.000
G25  24253345.508 6 127452169.532 6      3533.391          40.000    24253339.336 6  99313329.648 6      2753.288          36.000
R05  20274513.539 8 108378899.437 8     -2036.270          51.000    20274515.984 7  84294708.659 7     -1583.765          47.000
R14  21352150.227 5 113818949.811 5     -2598.375          34.000    21352165.836 4  88525935.200 4     -2020.961          26.000
R17  22614130.000 7 121012795.094 7      3794.902          43.000    22614136.172 6  94121079.123 6      2951.591          40.000
R23  22828660.617 5 122117953.076 5     -1824.918          34.000    22828660.734 4  94980620.852 4     -1419.381          25.000
C11  24900954.891 7 129665833.870 7      2994.879          44.000    24900958.156 8 100265868.833 8      2315.710          51.000
C24  25040715.688 5 130393556.744 5     -2469.359          31.000
C25  21906913.148 8 114075028.577 8      -412.207          51.000
E09  23053169.133 8 121145218.361 8     -2420.086          51.000    23053170.352 8  92825544.729 8     -1854.319          51.000
E24  22076505.953 8 116012861.721 8       894.859          48.000    22076518.742 8  88892963.719 8       685.785          48.000
E31  24227508.047 8 127316411.689 8     -1427.660          51.000    24227510.492 8  97554143.842 8     -1093.963          51.000
> 2020 05 10 07 12 30.0000000  0 16        .000000000000
G12  21601832.875 8 113518439.782 8      2678.258          51.000    21601830.258 8  88455896.743 8      2086.954          51.000
G13  23022932.336 7 120986315.606 7     -3497.492          44.000    23022933.648 7  94275024.887 7     -2725.319          43.000
G15  21656853.875 8 113807520.122 8     -2735.906          51.000    21656851.578 8  88681189.777 8     -2131.875          51.000
G17  22596425.914 5 118745018.972 5     -1157.449          35.000
G19  21633007.898 6 113682228.104 6       749.469          36.000
G24  20350988.812 5 106945138.850 5       931.914          32.000    20350987.469 5  83333890.784 5       726.173          31.000
G25  24233190.961 6 127346263.976 6      3521.305          40.000    24233187.742 5  99230805.882 5      2743.877          34.000
R05  20286015.516 8 108440382.483 8     -2068.113          51.000    20286017.766 7  84342528.777 7     -1608.536          46.000
R15  19610875.070 5 104794545.610 5       114.516          35.000    19610867.109 5  81506860.625 5        89.065          30.000
R17  22592888.133 7 120899120.137 7      3777.988          44.000    22592893.133 6  94032665.296 6      2938.435          38.000
C11  24883721.602 7 129576101.513 7      2981.961          43.000    24883726.078 8 100196482.094 8      2305.866          51.000
C24  25054960.148 5 130467702.435 5     -2478.848          34.000
C25  21909315.367 8 114087536.683 8      -427.000          51.000
E09  23067015.398 8 121217980.655 8     -2436.121          51.000    23067017.383 8  92881297.633 8     -1866.638          51.000
E24  22071423.734 8 115986150.735 8       880.430          48.000    22071435.938 8  88872496.865 8       674.702          48.000
E31  24235676.844 8 127359339.479 8     -1439.582          51.000    24235679.594 8  97587036.554 8     -1103.023          51.000
> 2020 05 10 07 13  0.0000000  0 17        .000000000000
G12  21586545.828 8 113438105.752 8      2676.293          50.000    21586543.164 8  88393298.844 8      2085.423          50.000
G13  23042888.812 7 121091188.060 7     -3495.000          45.000    23042891.000 7  94356743.664 7     -2723.377          44.000
G15  21672477.672 8 113889622.962 8     -2738.688          51.000    21672475.211 8  88745166.016 8     -2134.042          51.000
G24  20345669.812 5 106917184.771 5       930.621          31.000    20345670.570 5  83312108.497 5       725.159          30.000
G25  24213068.484 6 127240528.839 6      3526.289          38.000    24213067.758 5  99148414.876 5      2747.764          30.000
R04  22971917.211 5 123013559.034 5     -4497.625          31.000
R05  20297659.133 8 108502624.574 8     -2082.574          51.000    20297660.969 7  84390939.258 7     -1619.780          46.000
R14  21381467.484 5 113975228.576 5     -2605.480          32.000    21381481.492 4  88647476.682 4     -2026.488          28.000
R15  19610224.555 5 104791118.683 5       112.594          30.000    19610219.664 4  81504166.130 4        87.570          26.000
R17  22571704.484 7 120785758.688 7      3778.379          44.000    22571707.539 6  93944495.327 6      2938.742          37.000
R23  22849411.711 5 122228935.043 5     -1870.051          30.000
C11  24866526.102 7 129486565.514 7      2986.031          43.000    24866531.398 8 100127247.162 8      2308.946          51.000
C24  25069218.320 5 130541942.767 5     -2471.492          34.000
C25  21911766.625 8 114100299.375 8      -424.879          51.000
E09  23080917.047 8 121291034.957 8     -2435.160          51.000    23080920.250 8  92937274.304 8     -1865.920          51.000
E24  22066387.453 8 115959682.004 8       883.031          48.000    22066399.234 8  88852215.634 8       676.572          48.000
E31  24243877.852 8 127402436.045 8     -1434.527          51.000    24243880.812 8  97620058.598 8     -1099.165          51.000
> 2020 05 10 07 13 30.0000000  0 14        .000000000000
G12  21571352.359 8 113358264.653 8      2655.391          48.000    21571350.578 8  88331085.029 8      2069.136          49.000
G13  23062914.336 7 121196421.590 7     -3511.648          45.000    23062916.648 7  94438743.811 7     -2736.349          45.000
G15  21688199.656 8 113972242.524 8     -2760.289          51.000    21688197.094 8  88809544.878 8     -2150.878          51.000
G25  24192984.391 6 127135000.501 6      3512.988          38.000    24192986.367 6  99066244.875 6      2737.393          36.000
R04  22997178.703 5 123148823.501 5     -4510.680          34.000
R05  20309465.062 8 108565737.514 8     -2115.938          51.000    20309468.008 8  84440027.100 8     -1645.729          48.000
R15  19609664.055 5 104788116.248 5        92.848          31.000    19609670.805 4  81501880.617 4        72.215          28.000
R17  22550600.945 7 120672830.513 7      3759.328          42.000    22550603.398 6  93856662.353 6      2923.922          38.000
C11  24849390.445 7 129397340.522 7      2971.188          42.000    24849396.352 8 100058252.705 8      2297.532          51.000
C23  23455419.000 4 122138516.678 4      1903.133          29.000
C25  21914288.203 8 114113428.504 8      -441.543          51.000
E09  23094895.586 8 121364492.837 8     -2453.000          51.000    23094899.523 8  92993560.224 8     -1879.580          51.000
E24  22061418.539 8 115933568.219 8       866.859          48.000    22061429.812 8  88832206.356 8       664.223          48.000
E31  24252132.391 8 127445813.597 8     -1448.340          51.000    24252135.523 8  97653295.937 8     -1109.725          51.000
> 2020 05 10 07 14  0.0000000  0 14        .000000000000
G12  21556190.516 8 113278590.066 8      2651.500          48.000    21556190.109 8  88269000.933 8      2066.104          48.000
G13  23082945.992 8 121301686.427 8     -3510.801          48.000    23082947.938 7  94520768.310 7     -2735.689          44.000
G15  21703957.305 8 114055048.840 8     -2764.703          51.000    21703954.758 8  88874069.274 8     -2154.314          51.000
G19  21620655.250 5 113617287.433 5       693.930          35.000
G25  24172909.242 6 127029508.617 6      3515.195          37.000    24172912.406 6  98984043.388 6      2739.116          37.000
R04  23022420.164 5 123284013.364 5     -4506.301          32.000
R05  20321372.000 8 108629384.888 8     -2131.992          51.000    20321375.000 8  84489530.607 8     -1658.216          48.000
R15  19609147.445 5 104785317.085 5        89.625          32.000    19609148.828 4  81499703.464 4        69.711          27.000
R17  22529515.500 6 120560006.387 6      3757.504          40.000    22529519.211 6  93768910.237 6      2922.503          38.000
C11  24832253.227 7 129308104.233 7      2973.195          44.000    24832259.445 8  99989249.573 8      2299.130          51.000
C25  21916817.641 8 114126599.104 8      -441.121          51.000
E09  23108888.492 8 121438025.071 8     -2453.727          51.000    23108892.625 8  93049903.101 8     -1880.122          51.000
E24  22056454.234 7 115907481.271 7       867.711          47.000    22056465.516 8  88812217.650 8       664.926          48.000
E31  24260377.922 8 127489143.548 8     -1444.949          51.000    24260381.125 8  97686496.797 8     -1107.175          51.000
> 2020 05 10 07 14 30.0000000  0 18        .000000000000
G12  21541101.250 8 113199295.032 8      2637.090          51.000    21541101.727 8  88207212.569 8      2054.875          51.000
G13  23103023.742 8 121407192.446 8     -3520.664          48.000    23103024.922 7  94602980.744 7     -2743.378          44.000
G15  21719790.656 8 114138251.727 8     -2779.746          51.000    21719788.055 8  88938902.692 8     -2166.036          51.000
G19  21616766.383 5 113596868.584 5       669.410          32.000
G20  24050690.508 5 126387233.404 5     -2082.500          35.000
G24  20330119.531 6 106835465.344 6       891.805          37.000    20330122.070 6  83248445.397 6       694.910          37.000
G25  24152867.062 6 126924188.336 6      3507.820          38.000    24152868.133 6  98901975.622 6      2733.370          37.000
R04  23047691.117 5 123419340.566 5     -4513.105          34.000
R05  20333418.664 8 108693779.429 8     -2158.746          51.000    20333420.602 7  84539615.205 7     -1679.025          46.000
R15  19608684.312 4 104782863.960 4        74.625          29.000    19608688.516 4  81497799.433 4        58.042          27.000
R17  22508491.836 7 120447506.923 7      3744.871          42.000    22508496.039 6  93681410.643 6      2912.678          39.000
C11  24815155.906 8 129219069.333 8      2964.613          48.000    24815161.172 8  99920402.196 8      2292.403          50.000
C23  23433483.758 4 122024298.402 4      1897.492          29.000
C25  21919395.305 8 114140021.057 8      -451.363          51.000
E09  23122935.773 8 121511842.120 8     -2465.066          51.000    23122939.711 8  93106464.211 8     -1888.808          51.000
E24  22051535.039 7 115881632.740 7       857.953          47.000    22051546.891 8  88792411.665 8       657.444          48.000
E25  27568436.359 6 144873115.536 6      2364.383          40.000    27568439.359 6 111006680.391 6      1811.847          38.000
E31  24268654.562 8 127532637.054 8     -1452.273          51.000    24268657.836 8  97719822.973 8     -1112.808          51.000
> 2020 05 10 07 15  0.0000000  0 20        .000000000000
G12  21526069.242 8 113120299.022 8      2631.273          51.000    21526069.570 8  88145657.228 8      2050.340          51.000
G13  23123130.977 7 121512855.608 7     -3521.758          46.000    23123131.531 7  94685315.622 7     -2744.227          44.000
G15  21735683.359 8 114221766.819 8     -2785.973          51.000    21735680.938 8  89003979.355 8     -2170.891          51.000
G17  22630544.086 5 118924311.452 5     -1233.125          32.000
G19  21612989.188 6 113577035.188 6       654.234          39.000    21612990.844 5  88501583.219 5       509.796          32.000
G20  24062600.039 5 126449802.346 5     -2087.164          35.000
G24  20325049.016 6 106808813.762 6       886.676          38.000    20325049.875 6  83227677.835 6       690.913          38.000
G25  24132842.523 7 126818959.001 7      3509.441          43.000    24132843.141 6  98819978.732 6      2734.627          37.000
R04  23072970.906 5 123554717.515 5     -4510.195          31.000
R05  20345588.570 8 108758834.852 8     -2176.418          51.000    20345589.469 7  84590213.807 7     -1692.773          46.000
R14  21440405.555 5 114289435.368 5     -2621.812          34.000    21440417.188 5  88891817.052 5     -2039.187          31.000
R15  19608283.883 5 104780704.992 5        70.488          34.000    19608292.000 4  81496131.687 4        54.818          27.000
R17  22487515.656 7 120335253.450 7      3740.742          44.000    22487519.516 6  93594102.423 6      2909.466          41.000
C11  24798082.930 8 129130157.298 8      2964.648          48.000    24798085.812 8  99851649.800 8      2292.587          48.000
