     3.02           OBSERVATION DATA    M (MIXED)           RINEX VERSION / TYPE
SAVERINEX           SC600               20200508 035931 LCL PGM / RUN BY / DATE
       G = GPS       R = GLONASS       C = COMPASS          COMMENT
       S = SBAS      J = QZSS          E = GALILEO          COMMENT
BEAN                                                        MARKER NAME
1                                                           MARKER NUMBER
GEODETIC                                                    MARKER TYPE
Unige DICCA         GTER                                    OBSERVER / AGENCY
SC60291900056       SC600               2.12(191226)        REC # / TYPE / VERS
                    HEMA45          NONE                    ANT # / TYPE
  4509407.8091   693652.4678  4442337.6214                  APPROX POSITION XYZ
        0.0000        0.0000        0.0000                  ANTENNA: DELTA H/E/N
G    8 C1C L1C D1C S1C C2Y L2Y D2Y S2Y                      SYS / # / OBS TYPES
R    8 C1C L1C D1C S1C C2P L2P D2P S2P                      SYS / # / OBS TYPES
C    8 C1I L1I D1I S1I C7I L7I D7I S7I                      SYS / # / OBS TYPES
E    8 C1C L1C D1C S1C C7Q L7Q D7Q S7Q                      SYS / # / OBS TYPES
DBHZ                                                        COMMENT
     30.000                                                 INTERVAL
  2020    05    08    01    00    0.0000000     GPS         TIME OF FIRST OBS
  2020    05    08    01    59   30.0000000     GPS         TIME OF LAST OBS
     0                                                      RCV CLOCK OFFS APPL
G L1C  0.00000                                              SYS / PHASE SHIFT
G L2Y  0.00000                                              SYS / PHASE SHIFT
R L1C  0.00000                                              SYS / PHASE SHIFT
R L2P  0.25000                                              SYS / PHASE SHIFT
C L1I  0.00000                                              SYS / PHASE SHIFT
C L7I  0.00000                                              SYS / PHASE SHIFT
E L1C  0.50000                                              SYS / PHASE SHIFT
E L7Q -0.25000                                              SYS / PHASE SHIFT
 13 R05  1 R06 -4 R07  5 R08  6 R09 -2 R10 -7 R11  0 R15  0 GLONASS SLOT / FRQ #
    R16 -1 R20  2 R21  4 R22 -3 R23  3                      GLONASS SLOT / FRQ #
 C1C   71.950 C2C   71.950 C2P   71.950                     GLONASS COD/PHS/BIS
    18                                                      LEAP SECONDS
*** Above antenna height is from mark to ANTENNA BOTTOM.    COMMENT
    17     4        0.0000        ANT MEASURE TYPE/HEIGT    COMMENT
    0.0000    0.0000    0.0458    0.0405    0.0000          COMMENT
                    BASE STATION                            COMMENT
                                                            END OF HEADER
> 2020 05 08 01 00  0.0000000  0 17        .000000000000
G06  21572777.078 8 113365714.131 8     -1836.484          48.000    21572779.094 8  88336925.810 8     -1431.030          48.000
G07  21239044.984 8 111611934.260 8      1602.770          50.000    21239044.438 8  86970327.183 8      1248.911          51.000
G09  20672123.922 8 108632837.579 8     -1263.477          51.000    20672124.789 8  84648943.983 8      -984.527          51.000
G30  22816835.586 7 119903299.645 7      3296.398          45.000    22816836.711 7  93431183.715 7      2568.622          45.000
R07  20501490.930 5 109746131.907 5     -1695.203          32.000    20501491.156 5  85358058.410 5     -1318.500          34.000
R09  20302089.023 5 108412010.212 5       610.227          33.000    20302086.203 5  84320443.979 5       474.627          33.000
R10  21051268.664 8 112215122.917 8      3460.121          48.000
R23  21494553.359 6 114981391.896 6     -2149.539          36.000
C05  39777493.469 6 207131846.048 6       -19.188          36.000    39777489.453 6 160167465.583 6       -14.752          37.000
C24  23833537.461 5 124107609.938 5     -1269.688          32.000
C25  22906932.969 8 119282407.320 8      1928.582          51.000
C27  25371831.945 7 132117948.096 7     -2506.508          44.000
E02  25681872.117 7 134959128.448 7      2231.594          45.000    25681870.555 7 103410256.301 7      1709.964          42.000
E07                                                                  25493088.312 6 102650095.630 6      1402.130          37.000
E08  21528620.273 8 113133663.457 8      -121.004          51.000    21528621.133 8  86686921.232 8       -92.675          51.000
E13  25378818.398 8 133366584.271 8     -2318.234          48.000    25378819.500 8 102190005.974 8     -1776.235          51.000
E25  26308002.344 5 138249476.207 5      -264.605          35.000    26308006.945 5 105931455.252 5      -202.645          35.000
> 2020 05 08 01 00 30.0000000  0 16        .000000000000
G06  21583296.828 8 113420996.952 8     -1851.312          48.000    21583299.172 8  88380003.300 8     -1442.581          48.000
G07  21229925.266 8 111564011.433 8      1589.977          50.000    21229925.336 8  86932984.723 8      1238.943          50.000
G09  20679352.023 8 108670821.748 8     -1270.781          51.000    20679352.695 8  84678542.043 8      -990.219          51.000
G30  22798026.086 7 119804453.544 7      3291.016          46.000    22798027.617 7  93354160.789 7      2564.431          46.000
R07  20511006.047 6 109797067.056 6     -1702.410          38.000    20511006.969 5  85397674.493 5     -1324.100          33.000
R10  21031831.031 8 112111506.559 8      3445.594          48.000
R23  21506654.359 5 115046104.034 5     -2169.598          33.000
C05  39777590.859 6 207132353.522 6       -16.730          36.000    39777586.844 6 160167857.617 6       -13.061          37.000
C24  23840880.875 5 124145719.898 5     -1283.090          32.000
C25  22895848.812 8 119224689.741 8      1917.242          51.000
C27  25386279.023 7 132193174.876 7     -2510.812          44.000
E02  25669146.703 7 134892257.588 7      2224.395          42.000    25669146.523 7 103359017.687 7      1704.436          44.000
E07                                                                  25482639.219 5 102608019.472 5      1401.361          34.000
E08  21529313.422 8 113137305.784 8      -124.020          51.000    21529314.305 8  86689712.112 8       -95.061          51.000
E13  25392067.281 7 133436204.584 7     -2325.402          47.000    25392067.711 8 102243351.386 8     -1781.742          51.000
E25  26309538.922 5 138257561.441 5      -277.062          31.000    26309540.789 5 105937624.358 5      -212.624          32.000
> 2020 05 08 01 01  0.0000000  0 17        .000000000000
G04  22875226.375 5 120210125.254 5     -2763.664          32.000
G06  21593939.203 8 113476923.039 8     -1870.758          50.000    21593941.734 8  88423582.050 8     -1457.736          50.000
G07  21220916.656 8 111516671.346 8      1572.434          51.000    21220916.828 8  86896096.336 8      1225.273          51.000
G09  20686660.172 8 108709226.330 8     -1282.906          51.000    20686660.430 8  84708467.691 8      -999.667          51.000
G30  22779286.125 7 119705973.784 7      3280.660          46.000    22779288.055 7  93277423.313 7      2556.359          46.000
R07  20520598.820 5 109848416.167 5     -1714.438          33.000    20520597.891 5  85437612.757 5     -1333.451          32.000
R09  20295530.617 6 108376985.619 6       556.824          36.000    20295546.055 4  84293293.462 4       433.092          26.000
R10  21012512.203 7 112008525.400 7      3426.254          47.000
C05  39777711.359 5 207132980.371 5       -18.621          35.000    39777707.289 6 160168342.708 6       -14.272          37.000
C24  23848340.438 6 124184551.011 6     -1299.973          37.000
C25  22884868.391 8 119167512.194 8      1900.992          51.000
C27  25400787.711 7 132268724.980 7     -2519.672          42.000
E02  25656498.625 6 134825798.583 6      2212.551          38.000    25656500.531 7 103308094.589 7      1695.400          44.000
E03  25907405.367 5 136144254.839 5     -1984.379          33.000    25907401.008 5 104318350.245 5     -1520.899          33.000
E07                                                                  25472232.719 5 102566111.331 5      1397.619          34.000
E08  21530061.617 8 113141236.723 8      -131.730          51.000    21530062.133 8  86692724.128 8      -100.897          51.000
E13  25405393.406 7 133506233.256 7     -2336.840          46.000    25405393.766 8 102297009.719 8     -1790.643          51.000
> 2020 05 08 01 01 30.0000000  0 18        .000000000000
G02  22414056.523 5 117786621.263 5       442.727          34.000
G04  22891031.820 5 120293156.236 5     -2759.148          34.000
G06  21604654.797 8 113533232.935 8     -1879.633          51.000    21604657.461 8  88467459.887 8     -1464.649          51.000
G07  21211970.062 8 111469657.580 8      1565.363          50.000    21211970.031 8  86859462.254 8      1219.764          50.000
G09  20693999.133 8 108747792.899 8     -1284.473          51.000    20693999.164 8  84738519.569 8     -1000.888          51.000
G30  22760567.164 7 119607605.124 7      3280.766          45.000    22760569.227 7  93200772.422 7      2556.444          44.000
R07  20530219.695 6 109899917.297 6     -1715.480          37.000    20530219.648 4  85477668.992 4     -1334.263          28.000
R09  20292463.305 6 108360618.643 6       538.289          39.000    20292476.102 5  84280509.459 5       418.675          31.000
R10  20993264.016 7 111905922.830 7      3417.469          46.000
C05  39777805.953 6 207133473.040 6       -10.758          36.000    39777801.938 6 160168723.645 6        -7.769          37.000
C24  23855863.281 5 124223713.695 5     -1307.121          34.000
C25  22873942.227 8 119110621.182 8      1895.234          51.000
C27  25415308.359 7 132344340.741 7     -2517.797          42.000
E02  25643878.469 6 134759495.947 6      2211.551          38.000    25643884.000 7 103257291.193 7      1694.460          45.000
E03  25918729.789 5 136203757.783 5     -1978.500          34.000
E07                                                                  25461818.633 5 102524174.131 5      1401.648          34.000
E08  21530815.742 8 113145198.789 8      -128.711          51.000    21530815.805 8  86695760.003 8       -98.611          51.000
E13  25418747.352 7 133576411.014 7     -2337.785          46.000    25418748.414 8 102350782.306 8     -1791.323          51.000
> 2020 05 08 01 02  0.0000000  0 16        .000000000000
G04  22906852.750 5 120376303.932 5     -2779.082          33.000
G06  21615494.461 8 113590193.848 8     -1913.309          51.000    21615496.633 8  88511845.024 8     -1490.890          51.000
G07  21203137.094 8 111423240.305 8      1533.477          51.000    21203136.805 8  86823292.947 8      1194.917          51.000
G09  20701419.938 8 108786789.660 8     -1310.781          51.000    20701420.094 8  84768906.670 8     -1021.388          51.000
G30  22741920.898 7 119509619.024 7      3255.875          45.000    22741922.562 7  93124419.623 7      2537.045          44.000
R07  20539921.227 6 109951844.428 6     -1741.781          36.000    20539920.750 5  85518064.756 5     -1354.725          32.000
R09  20289576.406 7 108345204.052 7       494.145          43.000    20289587.984 5  84268520.438 5       384.335          32.000
R10  20974138.172 7 111803976.302 7      3383.453          44.000
R23  21543771.234 5 115244597.462 5     -2247.238          34.000
C05  39777925.992 5 207134097.731 5       -26.629          35.000    39777921.938 6 160169206.739 6       -20.673          37.000
C25  22863122.383 8 119054285.152 8      1864.781          48.000
C27  25429892.391 6 132420286.464 6     -2540.891          41.000
E02  25631341.977 7 134693620.513 7      2184.969          42.000    25631348.266 7 103206815.216 7      1674.182          45.000
E07                                                                  25451448.000 5 102482414.168 5      1385.877          32.000
E08  21531626.898 8 113149461.166 8      -150.832          51.000    21531626.703 8  86699025.982 8      -115.638          51.000
E13  25432180.555 7 133647005.251 7     -2363.941          47.000    25432182.188 8 102404874.002 8     -1811.290          51.000
> 2020 05 08 01 02 30.0000000  0 17        .000000000000
G02  22409305.242 5 117761727.577 5       394.113          34.000
G06  21626406.055 8 113647533.059 8     -1927.160          51.000    21626407.820 8  88556524.917 8     -1501.683          51.000
G07  21194366.383 8 111377149.898 8      1521.332          50.000    21194366.148 8  86787378.342 8      1185.454          50.000
G09  20708870.938 8 108825945.065 8     -1317.266          51.000    20708871.359 8  84799417.379 8     -1026.441          51.000
G30  22723296.391 7 119411746.999 7      3251.152          45.000    22723297.367 7  93048155.723 7      2533.365          45.000
R07  20549649.711 5 110003921.779 5     -1748.449          32.000    20549653.211 4  85558569.384 4     -1359.905          24.000
R09  20286817.172 7 108330467.553 7       470.109          43.000    20286821.945 5  84257058.532 5       365.638          33.000
R10  20955084.711 7 111702414.847 7      3369.168          47.000
C05  39778019.836 5 207134586.359 5       -23.527          35.000    39778015.734 6 160169584.562 6       -18.114          37.000
C24  23871203.266 5 124303690.920 5     -1350.832          34.000
C25  22852358.547 8 118998237.393 8      1853.996          51.000
C27  25444487.750 6 132496291.386 6     -2543.988          41.000
E02  25618837.312 7 134627903.583 7      2178.227          45.000    25618842.148 7 103156460.676 7      1669.138          45.000
E03  25941431.688 5 136323115.624 5     -1996.363          35.000
E07                                                                  25441070.367 5 102440624.094 5      1386.183          35.000
E08  21532443.570 8 113153753.140 8      -153.113          51.000    21532443.375 8  86702314.635 8      -117.324          51.000
E13  25445641.609 8 133717743.433 8     -2369.781          48.000    25445643.461 8 102459075.988 8     -1815.878          51.000
> 2020 05 08 01 03  0.0000000  0 15        .000000000000
G06  21637442.008 8 113705526.932 8     -1937.523          51.000    21637443.523 8  88601714.932 8     -1509.759          51.000
G07  21185710.914 8 111331666.096 8      1512.480          48.000    21185711.125 8  86751936.424 8      1178.556          48.000
G09  20716404.914 8 108865536.564 8     -1320.570          51.000    20716405.422 8  84830267.902 8     -1029.016          51.000
G30  22704747.188 8 119314269.665 8      3249.035          48.000    22704748.227 8  92972199.381 8      2531.719          48.000
R07  20559462.289 5 110056426.306 5     -1751.191          35.000
R09  20284237.039 6 108316692.687 6       449.734          40.000    20284248.234 6  84246344.940 6       349.803          37.000
R10  20936158.633 8 111601525.395 8      3358.176          49.000
R23  21569148.008 6 115380346.360 6     -2281.617          37.000
C05  39778140.469 5 207135214.750 5       -16.730          35.000    39778136.453 6 160170070.507 6       -13.058          37.000
C25  22841703.938 8 118942755.406 8      1846.359          51.000
C27  25459147.438 6 132572628.864 6     -2543.816          41.000
E02  25606416.648 7 134562625.460 7      2175.082          44.000    25606419.531 7 103106442.371 7      1666.651          44.000
E07  25430729.000 5 133639387.700 5      1812.434          35.000    25430738.000 5 102399017.526 5      1388.553          35.000
E08  21533318.766 8 113158353.087 8      -152.035          51.000    21533318.766 8  86705839.268 8      -116.471          51.000
E13  25459183.031 8 133788902.148 8     -2372.414          49.000    25459185.039 8 102513600.194 8     -1817.890          51.000
> 2020 05 08 01 03 30.0000000  0 16        .000000000000
G06  21648550.094 8 113763900.877 8     -1941.910          51.000    21648551.648 8  88647201.103 8     -1513.177          51.000
G07  21177119.188 8 111286516.971 8      1509.496          48.000    21177119.688 8  86716755.290 8      1176.231          48.000
G09  20723969.781 8 108905290.702 8     -1317.652          51.000    20723970.250 8  84861245.138 8     -1026.745          51.000
G30  22686221.836 8 119216916.687 8      3253.246          49.000    22686223.688 8  92896339.931 8      2534.997          49.000
R07  20569290.844 5 110109093.962 5     -1748.105          30.000    20569299.445 4  85640386.781 4     -1359.644          26.000
R09  20281785.969 6 108303603.509 6       435.336          41.000    20281795.414 4  84236164.480 4       338.586          25.000
R10  20917307.812 8 111501035.545 8      3353.277          51.000
R23  21581995.031 6 115449117.442 6     -2290.527          38.000
C05  39778236.148 6 207135712.989 6        -4.352          36.000    39778232.258 6 160170455.740 6        -3.096          37.000
C24  23886909.953 5 124385397.820 5     -1362.574          33.000
C25  22831107.133 8 118887570.705 8      1844.652          51.000
C27  25473819.047 6 132649026.251 6     -2537.477          40.000
E02  25594027.281 7 134497515.553 7      2177.828          42.000    25594029.195 7 103056552.955 7      1668.743          44.000
E07  25420389.203 5 133585045.517 5      1821.547          33.000    25420399.562 5 102357385.525 5      1395.901          31.000
E08  21534200.641 8 113162988.428 8      -144.879          51.000    21534200.938 8  86709391.029 8      -110.996          51.000
E13  25472752.273 8 133860207.041 8     -2369.008          49.000    25472754.508 8 102568236.385 8     -1815.244          51.000
> 2020 05 08 01 04  0.0000000  0 17        .000000000000
G04  22970273.078 5 120709596.951 5     -2788.070          33.000
G06  21659753.352 8 113822774.707 8     -1975.918          51.000    21659755.055 8  88693076.805 8     -1539.676          51.000
G07  21168614.773 8 111241825.378 8      1477.012          49.000    21168615.086 8  86681930.652 8      1150.918          49.000
G09  20731588.602 8 108945328.440 8     -1344.281          51.000    20731589.070 8  84892443.353 8     -1047.492          51.000
G30  22667743.812 8 119119812.214 8      3227.629          49.000    22667746.219 8  92820674.117 8      2515.036          49.000
R07  20579182.477 5 110162042.159 5     -1774.551          35.000    20579182.922 5  85681527.818 5     -1380.203          30.000
R09  20279486.641 6 108291324.224 6       390.688          41.000    20279492.688 5  84226622.907 5       303.871          33.000
R10  20898555.789 8 111401073.522 8      3318.066          51.000
R23  21594959.922 5 115518537.854 5     -2330.172          30.000
C05  39778330.086 6 207136201.806 6       -20.789          36.000    39778326.180 6 160170833.747 6       -16.166          37.000
C14  25270043.992 5 131587760.576 5     -2614.098          32.000    25270020.758 4 101751904.759 4     -2021.205          28.000
C24  23894877.328 5 124426868.216 5     -1395.051          35.000
C25  22820591.070 8 118832805.720 8      1813.445          51.000
C27  25488524.891 5 132725601.850 5     -2559.918          35.000
E02  25581693.000 7 134432697.615 7      2150.793          42.000    25581694.133 7 103006887.277 7      1647.902          44.000
E08  21535112.539 8 113167781.082 8      -167.402          51.000    21535113.094 8  86713063.332 8      -128.248          51.000
E13  25486371.914 8 133931778.141 8     -2395.164          48.000    25486374.438 8 102623076.545 8     -1835.259          51.000
> 2020 05 08 01 04 30.0000000  0 15        .000000000000
G06  21671097.336 8 113882387.678 8     -1999.465          51.000    21671099.383 8  88739528.449 8     -1558.025          51.000
G07  21160243.570 8 111197833.957 8      1454.695          49.000    21160243.680 8  86647651.603 8      1133.529          49.000
G09  20739307.156 8 108985890.204 8     -1360.676          51.000    20739307.688 8  84924049.896 8     -1060.270          51.000
G30  22649359.250 8 119023199.742 8      3212.215          50.000    22649361.477 8  92745391.675 8      2503.025          50.000
R07  20589169.391 6 110215516.515 6     -1791.031          37.000    20589177.961 5  85723118.988 5     -1393.021          33.000
R09  20277385.383 5 108280101.025 5       356.820          35.000    20277390.781 5  84217893.744 5       277.527          34.000
R10  20879949.156 8 111301887.887 8      3293.242          51.000
C05  39778468.016 6 207136920.418 6       -27.672          36.000    39778464.148 6 160171389.428 6       -21.479          37.000
C14  25285122.758 5 131666312.275 5     -2624.121          30.000    25285116.133 5 101812695.017 5     -2029.004          34.000
C25  22810201.477 8 118778701.071 8      1792.512          51.000
C27  25503310.859 4 132802431.892 4     -2573.281          28.000
E02  25569461.070 7 134368414.835 7      2133.930          43.000    25569460.422 7 102957631.610 7      1635.113          43.000
E08  21536100.406 8 113172972.339 8      -179.582          51.000    21536101.141 8  86717041.056 8      -137.647          51.000
E13  25500087.453 7 134003854.868 7     -2410.828          47.000    25500090.422 8 102678304.163 8     -1847.309          51.000
E25                                                                  26325035.500 5 106000004.598 5      -312.333          35.000
> 2020 05 08 01 05  0.0000000  0 14        .000000000000
G06  21682521.266 8 113942420.588 8     -2005.668          51.000    21682523.688 8  88786307.315 8     -1562.858          51.000
G07  21151945.406 8 111154226.539 8      1449.641          49.000    21151945.297 8  86613671.802 8      1129.590          50.000
G09  20747064.922 8 109026657.966 8     -1360.035          51.000    20747065.586 8  84955816.972 8     -1059.768          51.000
G30  22631008.305 8 118926764.450 8      3213.855          51.000    22631009.969 8  92670247.305 8      2504.303          51.000
R07  20599194.320 5 110269194.408 5     -1790.027          30.000    20599206.008 5  85764868.524 5     -1392.243          33.000
R09  20275421.742 5 108269612.130 5       340.438          32.000    20275426.406 6  84209735.707 6       264.779          36.000
R10  20861428.148 8 111203161.506 8      3285.695          49.000
C05  39778589.805 5 207137554.753 5       -17.586          35.000    39778585.938 6 160171879.918 6       -13.303          37.000
C25  22799878.383 8 118724944.170 8      1788.422          51.000
C27  25518116.727 4 132879522.084 4     -2569.078          29.000
E02  25557270.391 7 134304351.819 7      2134.082          42.000    25557269.773 7 102908544.427 7      1635.200          44.000
E08  21537103.852 8 113178245.131 8      -174.711          51.000    21537104.727 8  86721081.247 8      -133.875          51.000
E13  25513838.203 8 134076118.354 8     -2409.449          48.000    25513841.781 8 102733674.865 8     -1846.258          51.000
E25                                                                  26327368.969 5 106009396.829 5      -315.670          34.000
> 2020 05 08 01 05 30.0000000  0 13        .000000000000
G06  21694019.961 8 114002846.367 8     -2023.363          51.000    21694022.680 8  88833392.350 8     -1576.647          51.000
G07  21143715.719 8 111110978.554 8      1432.816          50.000    21143715.156 8  86579972.076 8      1116.483          50.000
G09  20754857.031 8 109067605.903 8     -1370.648          51.000    20754857.852 8  84987724.445 8     -1068.038          51.000
G30  22612686.820 8 118830483.571 8      3204.117          51.000    22612687.883 8  92595223.262 8      2496.715          51.000
R07  20609253.664 5 110323050.338 5     -1800.648          31.000    20609265.438 5  85806756.502 5     -1400.498          33.000
R10  20842989.516 8 111104873.100 8      3266.305          49.000
C05  39778690.695 5 207138079.998 5       -18.711          35.000    39778686.891 6 160172286.092 6       -14.360          37.000
C25  22789617.312 8 118671511.840 8      1773.086          51.000
C27  25532935.602 5 132956681.704 5     -2575.871          33.000
E02  25545117.031 7 134240485.638 7      2122.984          42.000    25545117.039 7 102859608.052 7      1626.675          43.000
E08  21538117.977 8 113183574.519 8      -181.250          51.000    21538119.039 8  86725164.805 8      -138.898          51.000
E13  25527619.836 8 134148541.795 8     -2419.328          50.000    25527623.516 8 102789168.141 8     -1853.825          51.000
E25                                                                  26329769.852 5 106019047.753 5      -328.068          33.000
> 2020 05 08 01 06  0.0000000  0 15        .000000000000
G06  21705619.297 8 114063801.559 8     -2040.340          50.000    21705621.945 8  88880889.954 8     -1589.872          50.000
G07  21135580.953 8 111068230.372 8      1416.934          49.000    21135580.016 8  86546661.807 8      1104.101          49.000
G09  20762709.727 8 109108871.797 8     -1380.461          51.000    20762710.555 8  85019879.682 8     -1075.684          51.000
G30  22594421.562 8 118734498.001 8      3194.957          51.000    22594422.242 8  92520429.343 8      2489.577          51.000
R07  20619375.703 6 110377225.388 6     -1810.660          38.000    20619386.391 6  85848892.676 6     -1408.285          37.000
R09  20271915.859 5 108250850.075 5       284.242          31.000    20271921.055 6  84195152.792 6       221.077          40.000
R10  20824660.055 8 111007167.782 8      3247.445          48.000
R23  21648190.164 6 115803130.160 6     -2413.914          37.000
C05  39778797.031 5 207138633.816 5       -18.789          35.000    39778793.320 6 160172714.312 6       -14.339          37.000
C24  23927697.031 5 124597800.089 5     -1453.383          33.000
C25  22779444.812 8 118618543.037 8      1758.246          51.000
C27  25547792.820 6 133034047.154 6     -2582.141          36.000
E02  25533027.727 7 134176956.837 7      2112.316          42.000    25533028.164 7 102810930.140 7      1618.612          43.000
E08  21539169.234 8 113189099.209 8      -187.043          51.000    21539170.336 8  86729398.006 8      -143.364          51.000
E13  25541458.367 8 134221262.033 8     -2428.523          51.000    25541462.008 8 102844888.839 8     -1860.829          51.000
> 2020 05 08 01 06 30.0000000  0 16        .000000000000
G06  21717302.281 8 114125196.664 8     -2056.840          50.000    21717304.828 8  88928730.316 8     -1602.732          50.000
G07  21127524.766 8 111025895.458 8      1401.156          49.000    21127523.516 8  86513673.581 8      1091.810          50.000
G09  20770606.117 8 109150367.328 8     -1390.129          51.000    20770606.891 8  85052213.851 8     -1083.217          51.000
G30  22576196.062 8 118638722.516 8      3185.914          49.000    22576196.531 8  92445799.131 8      2482.533          49.000
R07  20629540.156 5 110431630.942 5     -1820.305          32.000    20629549.961 6  85891208.144 6     -1415.799          36.000
R09  20270388.047 6 108242684.651 6       256.477          36.000    20270389.266 6  84188801.356 6       199.479          41.000
R10  20806423.977 8 110909960.478 8      3228.707          48.000
R23  21661774.867 6 115875794.953 6     -2435.102          37.000
C05                                                                  39778888.539 6 160173097.677 6       -14.496          37.000
C14  25345547.703 5 131980920.186 5     -2629.637          33.000    25345537.188 4 102055977.861 4     -2033.789          29.000
C24  23936106.289 5 124641554.752 5     -1468.316          33.000
C25  22769345.023 8 118565952.657 8      1743.609          51.000
C27  25562672.102 6 133111529.240 6     -2587.180          37.000
E02  25520986.562 7 134113679.918 7      2101.965          42.000    25520987.078 7 102762445.194 7      1610.462          43.000
E08  21540241.031 8 113194731.793 8      -192.676          51.000    21540242.000 8  86733713.875 8      -147.653          51.000
E13  25555336.352 8 134294189.796 8     -2437.445          51.000    25555340.180 8 102900768.552 8     -1867.740          51.000
> 2020 05 08 01 07  0.0000000  0 16        .000000000000
G06  21729091.984 8 114187152.498 8     -2074.590          49.000    21729094.227 8  88977007.605 8     -1616.560          49.000
G07  21119570.938 8 110984097.519 8      1384.148          50.000    21119569.211 8  86481103.775 8      1078.557          50.000
G09  20778569.438 8 109192214.612 8     -1400.852          51.000    20778570.141 8  85084822.121 8     -1091.573          51.000
G30  22558033.969 7 118543282.407 7      3175.613          47.000    22558034.461 7  92371430.230 7      2474.504          47.000
R07  20639772.250 6 110486392.029 6     -1831.449          38.000    20639779.477 6  85933800.082 6     -1424.461          38.000
R09  20269024.203 6 108235407.329 6       227.461          40.000    20269027.727 7  84183141.237 7       176.914          43.000
R10  20788305.828 8 110813380.479 8      3208.637          48.000
R23  21675488.016 6 115949161.266 6     -2457.559          37.000
C05  39778999.680 5 207139689.700 5       -20.078          35.000    39778995.961 6 160173530.431 6       -15.453          37.000
C14  25360708.234 5 132059873.141 5     -2634.887          30.000
C25  22759341.797 8 118513864.131 8      1727.805          51.000
C27  25577598.266 6 133189247.550 6     -2594.844          36.000
E02  25509017.289 7 134050779.612 7      2090.102          43.000    25509018.695 7 102714248.868 7      1601.560          45.000
E08  21541356.836 8 113200595.307 8      -199.516          51.000    21541357.508 8  86738206.691 8      -152.861          51.000
E13  25569276.438 8 134367446.240 8     -2447.508          50.000    25569280.500 8 102956900.099 8     -1875.402          50.000
E25  26337472.328 5 138404317.005 5      -474.617          32.000    26337478.000 5 106050101.469 5      -363.910          32.000
> 2020 05 08 01 07 30.0000000  0 16        .000000000000
G06  21740930.445 7 114249365.013 7     -2088.953          47.000    21740932.523 7  89025484.903 7     -1627.753          47.000
G07  21111662.094 8 110942535.492 8      1370.633          51.000    21111659.766 8  86448717.810 8      1068.026          51.000
G09  20786542.031 8 109234110.868 8     -1408.336          51.000    20786542.820 8  85117468.556 8     -1097.405          51.000
G30  22539877.984 7 118447877.979 7      3168.457          45.000    22539879.258 7  92297089.086 7      2468.925          45.000
R07  20650014.188 6 110541201.228 6     -1839.074          40.000    20650018.133 6  85976429.436 6     -1430.388          37.000
R09  20267771.156 6 108228711.792 6       202.406          39.000    20267774.031 6  84177933.565 6       157.430          41.000
R10  20770248.484 7 110717125.581 7      3191.812          47.000
R23  21689275.047 5 116022917.965 5     -2476.598          32.000
C05  39779062.047 5 207140013.621 5       -17.527          35.000    39779058.281 6 160173781.290 6       -13.493          37.000
C24  23953146.227 5 124730243.884 5     -1496.867          35.000
C25  22749377.984 8 118461979.828 8      1715.152          51.000
C27  25592511.922 6 133266900.284 6     -2598.266          36.000
E02  25497063.172 7 133987955.871 7      2082.094          46.000    25497065.422 7 102666111.231 7      1595.397          45.000
E08  21542459.195 8 113206387.885 8      -202.762          51.000    21542459.547 8  86742645.155 8      -155.297          51.000
E13  25583221.094 8 134440727.587 8     -2453.859          50.000    25583225.086 8 103013050.741 8     -1880.257          50.000
E25                                                                  26340182.766 5 106061001.031 5      -373.027          30.000
> 2020 05 08 01 08  0.0000000  0 19        .000000000000
G04  23098146.844 5 121381603.931 5     -2815.922          33.000
G06  21752930.617 8 114312426.801 8     -2109.344          48.000    21752932.656 8  89074623.951 8     -1643.644          48.000
G07  21103911.562 8 110901804.900 8      1350.820          51.000    21103908.867 8  86416979.722 8      1052.587          51.000
G09  20794636.938 8 109276649.974 8     -1421.637          51.000    20794637.977 8  85150615.923 8     -1107.766          51.000
G30  22521842.734 7 118353106.119 7      3155.684          46.000    22521844.383 7  92223240.884 7      2458.974          46.000
R07  20660376.953 6 110596664.226 6     -1852.547          40.000    20660378.805 6  86019567.312 6     -1440.870          39.000
R09  20266739.266 6 108223202.686 6       171.113          39.000    20266740.844 6  84173648.613 6       133.082          40.000
R10  20752365.680 7 110621803.129 7      3168.871          46.000
R23  21703246.469 5 116097666.914 5     -2501.129          34.000
C05  39779192.367 5 207140692.274 5       -21.039          35.000    39779188.672 6 160174306.099 6       -16.692          37.000
C24  23961849.133 5 124775531.191 5     -1515.723          32.000
C25  22739566.633 8 118410890.590 8      1696.578          51.000
C27  25607524.469 6 133345074.334 6     -2607.520          37.000
E02  25485237.133 7 133925805.390 7      2067.309          46.000    25485239.562 7 102618489.446 7      1584.042          44.000
E03  26067336.500 5 136984756.964 5     -2021.000          34.000
E07  25328278.219 5 133100996.795 5      1774.363          33.000
E08  21543661.266 8 113212704.348 8      -212.289          51.000    21543661.406 8  86747485.046 8      -162.714          51.000
E13  25597283.586 8 134514626.790 8     -2466.758          51.000    25597286.711 8 103069674.796 8     -1890.068          49.000
E25  26343026.039 5 138433535.033 5      -505.613          34.000
> 2020 05 08 01 08 30.0000000  0 16        .000000000000
G06  21765013.984 8 114375924.295 8     -2133.062          50.000    21765015.516 8  89124102.484 8     -1662.127          50.000
G07  21096241.188 8 110861495.678 8      1327.348          51.000    21096238.617 8  86385569.961 8      1034.297          51.000
G09  20802775.773 8 109319419.733 8     -1438.742          51.000    20802777.047 8  85183943.016 8     -1121.098          51.000
G30  22503850.922 7 118258557.703 7      3138.621          47.000    22503852.086 7  92149566.805 7      2445.679          47.000
R07  20670783.508 6 110652362.308 6     -1869.973          39.000    20670784.109 6  86062888.026 6     -1454.426          39.000
R09  20265851.781 5 108218462.539 5       135.637          34.000    20265854.000 6  84169961.791 6       105.495          40.000
R10  20734580.188 7 110527000.185 7      3142.070          47.000
R23  21717324.773 6 116172985.346 6     -2529.703          38.000
C05  39779312.602 6 207141317.702 6       -28.906          36.000    39779308.859 6 160174789.716 6       -22.660          38.000
C14                                                                  25406299.836 5 102300686.027 5     -2052.806          32.000
C24  23970622.125 4 124821319.196 4     -1538.125          27.000
C25  22729829.305 7 118360190.306 7      1674.324          47.000
C27  25622556.758 6 133423359.572 6     -2619.980          37.000
E02  25473460.695 7 133863918.574 7      2049.133          43.000    25473462.523 7 102571069.688 7      1570.169          42.000
E08  21544884.758 8 113219133.371 8      -225.414          51.000    21544884.867 8  86752411.176 8      -172.690          51.000
E13  25611385.320 8 134588730.590 8     -2482.766          51.000    25611386.391 8 103126455.610 8     -1902.376          49.000
> 2020 05 08 01 09  0.0000000  0 16        .000000000000
G06  21777184.961 8 114439880.366 8     -2136.238          51.000    21777185.484 8  89173938.363 8     -1664.601          51.000
G07  21088655.695 8 110821633.661 8      1324.582          51.000    21088653.398 8  86354508.663 8      1032.142          51.000
G09  20810963.172 8 109362444.348 8     -1435.211          51.000    20810964.484 8  85217468.700 8     -1118.346          51.000
G30  22485907.039 7 118164260.015 7      3142.387          47.000    22485907.883 7  92076088.123 7      2448.613          47.000
R07  20681237.570 6 110708321.031 6     -1866.273          39.000    20681236.773 6  86106411.449 6     -1451.546          38.000
R09  20265112.195 5 108214516.969 5       121.816          35.000    20265114.492 6  84166892.885 6        94.737          39.000
R10  20716897.961 7 110432745.979 7      3135.867          47.000
R23  21731513.898 6 116248894.934 6     -2536.344          36.000    21731527.031 4  90415875.467 4     -1972.706          27.000
C05                                                                  39779423.555 6 160175251.407 6       -12.572          37.000
C14                                                                  25421555.227 5 102362108.588 5     -2045.937          35.000
C25  22720171.227 8 118309905.296 8      1672.434          48.000
C27  25637613.820 6 133501778.443 6     -2612.941          37.000
E02  25461740.367 7 133802322.420 7      2051.695          45.000    25461741.789 7 102523872.668 7      1572.051          43.000
E08  21546134.422 8 113225700.077 8      -217.879          51.000    21546134.617 8  86757442.819 8      -166.970          51.000
E13  25625530.312 8 134663062.246 8     -2478.156          51.000    25625529.469 8 103183411.015 8     -1898.916          48.000
E25  26348951.406 6 138464675.046 6      -529.918          36.000
> 2020 05 08 01 09 30.0000000  0 15        .000000000000
G06  21789433.906 8 114504246.791 8     -2153.969          51.000    21789433.898 8  89224093.991 8     -1678.417          51.000
G07  21081146.633 8 110782173.235 8      1307.004          51.000    21081144.445 8  86323760.267 8      1018.442          51.000
G09  20819190.164 8 109405676.924 8     -1446.203          51.000    20819191.344 8  85251156.428 8     -1126.912          51.000
G30  22468002.398 7 118070169.251 7      3131.141          46.000    22468003.102 7  92002770.669 7      2439.850          46.000
R07  20691731.805 6 110764493.440 6     -1877.723          39.000    20691730.906 6  86150101.050 6     -1460.451          39.000
R10  20699311.008 7 110338997.685 7      3114.711          47.000
R23  21745802.109 6 116325344.799 6     -2558.770          37.000    21745813.930 4  90475336.546 4     -1990.151          26.000
C05  39779527.656 5 207142437.973 5       -18.059          35.000    39779524.047 6 160175655.953 6       -13.762          37.000
C14                                                                  25436819.703 6 102423558.836 6     -2049.837          37.000
C25  22710585.281 8 118259991.436 8      1655.867          50.000
C27  25652687.148 5 133580282.775 5     -2620.191          35.000
E02  25450066.070 7 133740972.791 7      2039.023          42.000    25450067.688 7 102476864.515 7      1562.539          43.000
E08  21547401.570 8 113232358.532 8      -225.168          51.000    21547401.766 8  86762544.751 8      -172.534          51.000
E13  25639709.289 8 134737573.871 8     -2488.363          50.000    25639708.008 8 103240504.323 8     -1906.659          49.000
E25  26352027.062 5 138480835.707 5      -546.734          35.000
> 2020 05 08 01 10  0.0000000  0 16        .000000000000
G04  23162526.586 5 121719894.671 5     -2827.633          33.000
G06  21801758.188 8 114569010.844 8     -2171.836          51.000    21801757.992 8  89274559.483 8     -1692.340          51.000
G07  21073712.492 8 110743105.492 8      1289.234          51.000    21073710.203 8  86293317.848 8      1004.598          51.000
G09  20827454.562 8 109449106.164 8     -1457.387          51.000    20827455.453 8  85284997.394 8     -1135.626          51.000
G30  22450135.055 7 117976277.148 7      3119.949          46.000    22450136.305 7  91929607.999 7      2431.129          45.000
R07  20702263.641 6 110820868.943 6     -1889.008          37.000    20702262.930 6  86193948.660 6     -1469.231          37.000
R10  20681818.062 7 110245749.238 7      3093.285          46.000
R23  21760190.977 6 116402320.935 6     -2581.418          39.000
C05                                                                  39779608.445 6 160175995.521 6       -15.332          37.000
C14                                                                  25452088.195 5 102485028.718 5     -2054.422          35.000
C25  22701069.562 8 118210439.765 8      1639.137          50.000
C27  25667774.766 5 133658859.749 5     -2627.055          31.000
E02  25438435.484 6 133679860.970 6      2026.680          37.000    25438437.750 6 102430038.572 6      1552.836          41.000
E08  21548684.180 8 113239098.331 8      -232.562          51.000    21548684.250 8  86767709.018 8      -178.173          51.000
E13  25653920.031 8 134812253.121 8     -2498.684          49.000    25653919.242 8 103297726.089 8     -1914.579          50.000
E25  26355171.672 5 138497360.559 5      -562.855          31.000    26355167.117 5 106121334.895 5      -431.449          34.000
> 2020 05 08 01 10 30.0000000  0 16        .000000000000
G06  21814191.672 8 114634350.423 8     -2181.289          51.000    21814191.906 8  89325473.434 8     -1699.706          51.000
G07  21066387.422 8 110704611.118 8      1279.887          51.000    21066385.258 8  86263322.228 8       997.314          51.000
G09  20835790.453 8 109492911.329 8     -1460.156          51.000    20835791.062 8  85319131.283 8     -1137.784          51.000
G30  22432340.141 7 117882766.016 7      3117.012          46.000    22432342.164 7  91856742.170 7      2428.840          46.000
R07  20712866.828 5 110877631.051 5     -1892.230          33.000    20712866.383 6  86238097.038 6     -1471.729          36.000
R10  20664453.375 7 110153187.293 7      3080.195          44.000
R23  21774713.344 5 116480002.542 5     -2594.961          35.000
C05  39779714.438 5 207143410.699 5       -13.309          35.000    39779710.891 6 160176408.126 6       -10.237          38.000
C14                                                                  25467392.688 5 102546655.876 5     -2052.280          30.000
C24  24006477.266 5 125008038.591 5     -1580.570          31.000
C25  22691658.320 8 118161430.185 8      1630.859          51.000
C27  25682911.836 5 133737685.376 5     -2625.309          30.000
E02  25426883.773 6 133619168.939 6      2022.418          37.000    25426886.875 6 102383534.245 6      1549.564          39.000
E08  21550016.531 8 113246099.627 8      -231.430          51.000    21550016.398 8  86773073.649 8      -177.335          51.000
E13  25668196.695 8 134887278.247 8     -2500.297          49.000    25668196.367 8 103355212.866 8     -1915.809          50.000
E25                                                                  26358417.477 5 106134406.079 5      -437.795          35.000
> 2020 05 08 01 11  0.0000000  0 16        .000000000000
G06  21826712.117 8 114700147.398 8     -2202.988          50.000    21826713.133 8  89376743.796 8     -1716.614          50.000
G07  21059149.477 8 110666574.969 8      1258.141          51.000    21059147.438 8  86233683.680 8       980.369          51.000
G09  20844175.609 8 109536975.679 8     -1475.250          51.000    20844176.031 8  85353467.124 8     -1149.545          51.000
G30  22414596.625 8 117789522.142 8      3101.504          48.000    22414598.766 8  91784084.604 8      2416.756          48.000
R07  20723519.828 4 110934661.978 4     -1908.043          27.000    20723520.719 6  86282454.318 6     -1484.036          37.000
R10  20647195.977 7 110061198.459 7      3054.473          45.000
R23  21789343.148 4 116558267.252 4     -2620.496          28.000
C05  39779813.062 5 207143925.500 5       -19.012          35.000    39779809.492 6 160176808.034 6       -14.390          37.000
C14                                                                  25482713.539 4 102608329.407 4     -2059.394          27.000
C24  24015653.711 5 125055819.836 5     -1601.984          34.000
C25  22682329.445 8 118112849.394 8      1610.086          51.000
C27  25698075.180 5 133816642.399 5     -2636.391          35.000
E02  25415389.664 6 133558782.582 6      2005.594          36.000    25415393.188 6 102337264.179 6      1536.652          37.000
E08  21551376.609 8 113253246.665 8      -242.766          51.000    21551376.258 8  86778549.945 8      -186.018          51.000
E13  25682517.141 8 134962531.555 8     -2514.328          50.000    25682517.070 8 103412874.478 8     -1926.575          50.000
E25  26361746.609 5 138531917.233 5      -591.836          35.000    26361748.070 5 106147801.214 5      -453.305          33.000
> 2020 05 08 01 11 30.0000000  0 13        .000000000000
G04  23211013.164 5 121974709.516 5     -2836.922          33.000
G06  21839342.047 8 114766519.668 8     -2219.074          49.000    21839343.773 8  89428462.461 8     -1729.149          49.000
G07  21052021.859 8 110629117.815 8      1241.801          51.000    21052019.711 8  86204496.295 8       967.637          51.000
G09  20852632.742 8 109581418.574 8     -1484.812          51.000    20852633.141 8  85388097.935 8     -1156.997          51.000
G30  22396927.773 8 117696667.888 8      3091.430          50.000    22396929.414 8  91711730.651 8      2408.906          50.000
R10  20630071.094 8 109969908.291 8      3034.336          49.000
C05  39779930.719 6 207144537.252 6       -19.500          36.000    39779926.977 6 160177281.477 6       -14.946          37.000
C24  24024933.805 5 125104137.871 5     -1616.996          32.000
C25  22673106.094 8 118064817.901 8      1594.781          51.000
C27  25713286.719 6 133895847.370 6     -2641.340          37.000
E02  25403978.625 6 133498823.949 6      1994.582          38.000    25403980.875 6 102291321.821 6      1528.466          37.000
E08  21552787.305 8 113260659.688 8      -248.621          51.000    21552786.797 8  86784230.050 8      -190.511          51.000
E13  25696903.648 8 135038131.358 8     -2522.891          49.000    25696903.805 8 103470801.570 8     -1933.094          51.000
> 2020 05 08 01 12  0.0000000  0 13        .000000000000
G06  21852053.953 8 114833323.763 8     -2245.441          49.000    21852056.586 8  89480517.601 8     -1749.695          48.000
G07  21044977.547 8 110592099.634 8      1215.172          51.000    21044975.297 8  86175650.983 8       946.890          51.000
G09  20861134.945 8 109626097.953 8     -1504.762          50.000    20861135.383 8  85422913.027 8     -1172.542          51.000
G30  22379306.820 8 117604064.238 8      3071.188          51.000    22379307.648 8  91639571.991 8      2393.133          51.000
R09  20263847.141 4 108207822.635 4       -56.348          29.000    20263845.148 7  84161624.272 7       -43.826          46.000
R10  20613051.070 8 109879177.418 8      3003.406          50.000
C05  39780040.383 5 207145108.566 5       -29.676          35.000    39780036.758 6 160177723.255 6       -22.905          37.000
C24  24034293.766 4 125152851.448 4     -1641.809          29.000
C25  22663961.320 8 118017197.160 8      1569.156          51.000
C27  25728518.234 6 133975157.887 6     -2657.105          38.000
E02  25392623.516 6 133439153.557 6      1972.680          41.000    25392625.039 6 102245600.385 6      1511.582          39.000
E08  21554221.742 8 113268197.561 8      -264.715          51.000    21554221.141 8  86790005.817 8      -202.818          51.000
E13  25711328.711 8 135113934.523 8     -2541.492          49.000    25711328.875 8 103528884.494 8     -1947.440          50.000
> 2020 05 08 01 12 30.0000000  0 15        .000000000000
G06  21864854.000 8 114900590.162 8     -2246.613          49.000    21864857.039 8  89532933.001 8     -1750.608          49.000
G07  21038022.992 8 110555553.905 8      1213.543          51.000    21038020.906 8  86147173.820 8       945.618          51.000
G09  20869688.211 8 109671045.767 8     -1499.500          50.000    20869688.828 8  85457937.288 8     -1168.442          49.000
G30  22361740.148 8 117511746.158 8      3075.801          51.000    22361740.016 8  91567635.857 8      2396.728          51.000
R07  20755857.969 5 111107695.237 5     -1933.062          35.000    20755855.172 5  86417089.643 5     -1503.493          31.000
R09  20264185.773 5 108209610.382 5       -70.453          31.000    20264181.719 7  84163014.669 7       -54.803          46.000
R10  20596142.742 8 109789043.277 8      2997.750          50.000
R23  21833948.828 6 116796883.463 6     -2676.359          36.000
C05  39780148.469 6 207145671.627 6       -15.273          36.000    39780144.891 6 160178158.637 6       -11.623          37.000
C25  22654901.398 8 117970021.051 8      1568.328          51.000
C27  25743775.750 6 134054603.915 6     -2647.020          38.000
E02  25381330.875 7 133379806.068 7      1976.090          42.000    25381332.789 6 102200126.437 6      1514.081          40.000
E08  21555686.133 8 113275893.186 8      -255.926          51.000    21555685.531 8  86795902.459 8      -196.069          51.000
E13  25725798.422 8 135189971.995 8     -2535.203          49.000    25725798.297 8 103587146.987 8     -1942.570          49.000
E25  26372270.180 5 138587209.844 5      -632.613          35.000
> 2020 05 08 01 13  0.0000000  0 16        .000000000000
G02  22383909.195 5 117628235.274 5        25.930          31.000
G06  21877727.523 8 114968239.935 8     -2264.531          51.000    21877730.484 8  89585647.098 8     -1764.570          51.000
G07  21031143.859 8 110519404.526 8      1195.203          51.000    21031142.227 8  86119005.491 8       931.330          51.000
G09  20878277.742 8 109716184.530 8     -1511.004          49.000    20878278.664 8  85493110.353 8     -1177.406          49.000
G30  22344213.242 8 117419639.207 8      3063.559          51.000    22344212.406 8  91495864.235 8      2387.192          51.000
R09  20264665.133 5 108212191.867 5       -99.695          33.000    20264654.992 7  84164997.196 7       -77.544          45.000
R10  20579332.227 8 109699432.379 8      2975.168          48.000
R23  21849018.039 6 116877517.326 6     -2698.680          36.000
C05  39780240.367 6 207146149.566 6       -18.074          36.000    39780236.867 6 160178528.993 6       -13.734          38.000
C24  24053207.492 4 125251366.295 4     -1658.355          29.000
C25  22645912.633 8 117923215.052 8      1550.859          51.000
C27  25759044.672 6 134134107.180 6     -2654.090          37.000
E02  25370086.078 7 133320706.577 7      1962.609          45.000    25370087.680 6 102154842.457 6      1503.850          41.000
E08  21557165.945 8 113283669.987 8      -263.754          51.000    21557165.461 8  86801861.310 8      -202.082          51.000
E13  25740297.531 8 135266165.236 8     -2545.523          48.000    25740298.078 8 103645528.832 8     -1950.499          50.000
E25  26375931.039 5 138606449.517 5      -649.859          32.000
> 2020 05 08 01 13 30.0000000  0 16        .000000000000
G02  22383815.492 5 117627689.543 5         6.961          34.000
G06  21890701.305 8 115036415.024 8     -2279.840          51.000    21890703.656 8  89638770.530 8     -1776.499          51.000
G07  21024367.578 8 110483796.563 8      1179.328          51.000    21024366.234 8  86091259.038 8       918.957          51.000
G09  20886930.938 8 109761657.689 8     -1519.801          49.000    20886932.133 8  85528544.005 8     -1184.260          49.000
G30  22326753.836 8 117327889.829 8      3053.602          50.000    22326753.117 8  91424371.221 8      2379.430          50.000
R07  20777635.742 5 111224330.336 5     -1954.492          31.000    20777659.102 4  86507856.845 4     -1520.158          28.000
R10  20562647.555 7 109610495.043 7      2954.758          47.000
R23  21864203.961 5 116958767.607 5     -2717.641          35.000
C05  39780343.695 6 207146687.427 6       -17.219          36.000    39780340.094 6 160178944.909 6       -13.451          37.000
C24  24062802.938 5 125301332.101 5     -1673.047          32.000
C25  22637022.906 8 117876923.450 8      1535.812          51.000
C27  25774351.828 6 134213808.183 6     -2658.559          39.000
E02  25358919.523 7 133262021.202 7      1951.730          45.000    25358918.219 6 102109855.411 6      1495.338          41.000
E08  21558688.594 8 113291672.374 8      -269.129          51.000    21558688.359 8  86807993.010 8      -206.210          51.000
E13  25754853.008 7 135342656.681 7     -2553.238          47.000    25754854.781 8 103704139.153 8     -1956.401          50.000
E25                                                                  26379676.461 5 106220020.351 5      -508.725          34.000
> 2020 05 08 01 14  0.0000000  0 17        .000000000000
G02  22383804.531 5 117627685.743 5        -3.742          31.000
G04  23292144.555 5 122401023.748 5     -2842.539          34.000
G06  21903743.492 8 115104949.636 8     -2288.066          51.000    21903745.047 8  89692174.102 8     -1782.912          51.000
G07  21017663.547 8 110448567.567 8      1170.223          51.000    21017661.984 8  86063807.854 8       911.862          51.000
G09  20895616.594 8 109807301.021 8     -1522.020          49.000    20895617.891 8  85564110.249 8     -1185.989          49.000
G30  22309331.359 8 117236336.726 8      3050.727          49.000    22309331.125 8  91353031.139 8      2377.190          49.000
R07  20788600.906 5 111282992.980 5     -1956.855          32.000    20788632.688 4  86553488.906 4     -1522.008          25.000
R09  20266066.266 5 108219651.148 5      -147.363          34.000    20266065.156 7  84170849.007 7      -114.616          43.000
R10  20546058.742 8 109522068.758 8      2941.320          49.000
C05  39780427.156 5 207147122.449 5       -10.492          35.000    39780423.672 6 160179281.292 6        -8.092          38.000
C24  24072464.953 5 125351639.123 5     -1679.727          34.000
C25  22628201.047 8 117830985.596 8      1527.613          51.000
C27  25789665.125 6 134293542.429 6     -2656.355          39.000
E02  25347790.008 7 133203548.204 7      1947.570          43.000    25347792.375 7 102065051.430 7      1492.228          43.000
E08  21560223.070 8 113299736.983 8      -267.625          51.000    21560223.180 8  86814172.382 8      -205.042          51.000
E13  25769434.078 7 135419280.953 7     -2554.160          46.000    25769436.344 8 103762851.296 8     -1957.018          49.000
E25                                                                  26383493.711 5 106235385.064 5      -514.601          34.000
> 2020 05 08 01 14 30.0000000  0 18        .000000000000
G04  23308428.656 4 122486618.913 4     -2850.324          29.000
G06  21916893.688 8 115174052.141 8     -2307.602          51.000    21916894.406 8  89746020.204 8     -1798.131          51.000
G07  21011071.922 8 110413928.641 8      1150.023          51.000    21011070.289 8  86036816.476 8       896.122          51.000
G09  20904374.539 8 109853324.401 8     -1535.199          49.000    20904375.852 8  85599972.639 8     -1196.256          49.000
G30  22291986.781 8 117145192.745 8      3036.504          50.000    22291986.742 8  91282009.869 8      2366.110          49.000
R09  20267010.000 6 108224709.937 6      -178.688          37.000    20267014.484 7  84174783.619 7      -138.979          43.000
R10  20529607.398 8 109434371.467 8      2916.137          51.000
R23  21894886.328 5 117122881.919 5     -2753.055          32.000
C05  39780530.984 5 207147663.412 5       -14.609          35.000    39780527.586 6 160179699.624 6       -11.662          38.000
C24  24082230.641 4 125402480.781 4     -1698.203          28.000
C25  22619487.508 8 117785611.718 8      1508.145          51.000
C27  25805024.789 6 134373516.300 6     -2664.656          40.000
E02  25336746.461 7 133145520.129 7      1932.102          43.000    25336752.242 7 102020588.436 7      1480.328          45.000
E03  26218173.320 5 137777431.538 5     -2044.500          35.000    26218170.492 5 105569707.018 5     -1566.646          35.000
E07  25197895.594 5 132415828.056 5      1738.535          35.000    25197893.828 5 101461479.464 5      1332.346          34.000
E08  21561809.523 8 113308074.636 8      -277.238          51.000    21561810.086 8  86820560.974 8      -212.393          51.000
E13  25784080.609 7 135496246.962 7     -2566.000          47.000    25784082.820 8 103821825.251 8     -1966.132          50.000
E25                                                                  26387414.445 5 106251168.725 5      -528.980          35.000
> 2020 05 08 01 15  0.0000000  0 18        .000000000000
G02  22384147.844 6 117629471.913 6       -43.230          36.000
G06  21930140.438 8 115243662.096 8     -2322.414          51.000    21930140.602 8  89800261.705 8     -1809.673          51.000
G07  21004581.727 8 110379822.512 8      1134.227          51.000    21004580.125 8  86010240.281 8       883.813          51.000
G09  20913193.664 8 109899668.943 8     -1543.934          48.000    20913194.812 8  85636085.278 8     -1203.065          49.000
G30  22274709.422 8 117054401.992 8      3026.883          49.000    22274709.570 8  91211263.824 8      2358.610          49.000
R07  20810740.648 5 111401509.459 5     -1979.859          32.000    20810737.977 4  86645608.942 4     -1539.894          25.000
R09  20268120.477 6 108230641.012 6      -205.785          40.000    20268124.820 7  84179396.737 7      -160.052          42.000
R10  20513282.523 8 109347348.459 8      2895.844          50.000
R23  21910420.664 5 117205911.796 5     -2771.453          35.000
C05  39780644.219 5 207148252.954 5       -14.297          35.000    39780640.805 6 160180155.472 6       -11.067          38.000
C25  22610871.617 8 117740745.554 8      1493.355          51.000
C27  25820419.477 6 134453669.735 6     -2668.719          40.000
E02  25325777.297 6 133087880.747 6      1920.992          38.000    25325784.547 7 101976423.231 7      1471.938          43.000
E03  26229879.148 5 137838945.326 5     -2046.844          33.000    26229876.992 5 105616847.842 5     -1567.969          33.000
E07  25188003.094 5 132363868.346 5      1735.445          34.000    25188005.734 5 101421673.100 5      1329.553          32.000
E08  21563437.016 8 113316627.355 8      -282.445          51.000    21563437.992 8  86827114.362 8      -216.434          51.000
E13  25798781.102 7 135573494.726 7     -2573.363          47.000    25798782.758 8 103881015.068 8     -1971.789          50.000
E25                                                                  26391426.617 5 106267341.463 5      -540.219          32.000
> 2020 05 08 01 15 30.0000000  0 18        .000000000000
G02  22384441.492 5 117631005.486 5       -60.113          35.000
G06  21943437.906 8 115313539.648 8     -2336.746          51.000    21943438.016 8  89854711.731 8     -1820.841          51.000
G07  20998147.891 8 110346012.286 8      1118.867          51.000    20998145.969 8  85983894.654 8       871.845          51.000
G09  20922028.555 8 109946096.340 8     -1552.137          49.000    20922029.609 8  85672262.474 8     -1209.457          49.000
G30  22257454.188 7 116963729.162 7      3017.160          47.000    22257455.195 7  91140609.642 7      2351.034          47.000
R09  20269349.453 6 108237203.295 6      -232.590          41.000    20269353.984 7  84184500.656 7      -180.903          42.000
R10  20497039.086 8 109260762.223 8      2875.609          50.000
R23  21926020.719 5 117289316.824 5     -2789.328          32.000
C05  39780721.609 6 207148655.904 6       -13.602          36.000    39780718.242 6 160180467.058 6       -10.530          38.000
C24  24102003.242 4 125505417.001 4     -1725.668          29.000
C25  22602308.141 8 117696153.139 8      1478.707          51.000
C27  25835802.906 6 134533764.988 6     -2672.176          39.000
