     3.04           OBSERVATION DATA    M (MIXED)           RINEX VERSION / TYPE
Convert 2.6.2       NovAtel             20200515 153214 UTC PGM / RUN BY / DATE 
Rinex Version 3.04 Observation File                         COMMENT             
                                                            MARKER NAME         
                                                            MARKER NUMBER       
                                                            MARKER TYPE         
                                                            OBSERVER / AGENCY   
                    NovAtel GPSCard                         REC # / TYPE / VERS 
                                                            ANT # / TYPE        
        0.0000        0.0000        0.0000                  APPROX POSITION XYZ 
        0.0000        0.0000        0.0000                  ANTENNA: DELTA H/E/N
G    8 C1C L1C D1C S1C C2W L2W D2W S2W                      SYS / # / OBS TYPES 
R    8 C1C L1C D1C S1C C2P L2P D2P S2P                      SYS / # / OBS TYPES 
E    8 C1C L1C D1C S1C C7Q L7Q D7Q S7Q                      SYS / # / OBS TYPES 
C    8 C2I L2I D2I S2I C7I L7I D7I S7I                      SYS / # / OBS TYPES 
DBHZ                                                        SIGNAL STRENGTH UNIT
    30.000                                                  INTERVAL            
  2020    05    08    22    00    0.0000000     GPS         TIME OF FIRST OBS   
  2020    05    08    22    59   30.0000000     GPS         TIME OF LAST OBS    
G L1C  0.00000  08 G09 G17 G03 G04 G01 G31 G19 G22          SYS / PHASE SHIFT   
G L2W  0.00000  08 G09 G03 G04 G01 G31 G22 G17 G19          SYS / PHASE SHIFT   
R L1C  0.00000  08 R21 R07 R08 R22 R06 R01 R23 R10          SYS / PHASE SHIFT   
R L2P  0.25000  05 R21 R07 R22 R08 R01                      SYS / PHASE SHIFT   
E L1C  0.50000  05 E04 E09 E05 E11 E36                      SYS / PHASE SHIFT   
E L7Q -0.25000  05 E04 E09 E05 E11 E36                      SYS / PHASE SHIFT   
C L2I  0.00000  05 C21 C11 C14 C12 C26                      SYS / PHASE SHIFT   
C L7I  0.00000  04 C11 C14 C12 C05                          SYS / PHASE SHIFT   
  8 R21  4 R07  5 R08  6 R22 -3 R06 -4 R01  1 R23  3 R10 -7 GLONASS SLOT / FRQ #
 C1C  -71.950 C2C  -71.950 C2P  -71.950                     GLONASS COD/PHS/BIS 
    18    18  1929     7GPS                                 LEAP SECONDS        
                                                            END OF HEADER       
> 2020 05 08 22 00  0.0000000  0 17      -0.000000000000
G09  22578049.172 8 118648542.345 8      3167.648          51.000    22578049.430 8  92453386.344 8      2468.301          51.000  
G17  22123117.438 5 116257762.370 5      -750.969          34.000                                                                  
G03  20564397.102 8 108066670.049 8      -950.684          51.000    20564399.422 8  84207858.192 8      -740.793          51.000  
G04  20580318.570 8 108150314.965 8      1405.594          51.000    20580319.469 8  84273015.142 8      1095.268          50.000  
G01  22218559.594 8 116759323.288 8     -2946.406          48.000    22218564.586 7  90981304.060 7     -2295.902          47.000  
R21  23321497.578 5 124797652.807 5     -4577.566          32.000    23321496.391 5  97064854.643 5     -3560.330          32.000  
R07  19592229.867 6 104878371.298 6     -1150.156          37.000    19592230.891 5  81572075.502 5      -894.566          33.000  
R08  20608154.273 4 110355355.830 4      2052.172          29.000                                                                  
R22  19733678.961 8 105339332.281 8     -2029.137          51.000    19733682.672 8  81930588.722 8     -1578.221          51.000  
E04  24404150.352 8 128244724.975 8     -1627.398          51.000    24404151.383 8  98265469.662 8     -1246.971          51.000  
E09  21748797.172 8 114290766.356 8       975.582          51.000    21748799.188 8  87573458.931 8       747.578          51.000  
E05  27205565.195 8 142966217.688 8      2623.766          48.000    27205568.812 7 109545569.174 7      2010.428          45.000  
E11  23538525.492 8 123695785.113 8     -2093.977          51.000    23538523.891 8  94779885.731 8     -1604.497          48.000  
C21  22451670.266 8 116911876.667 8     -1512.758          51.000                                                                  
C11  22582230.484 8 117591626.182 8     -1350.539          49.000    22582229.594 8  90929276.217 8     -1044.147          51.000  
C14                                                                  23573809.383 6  94921912.684 6      1662.897          36.000  
C12                                                                  24907324.180 6 100291469.890 6     -2681.515          38.000  
> 2020 05 08 22 00 30.0000000  0 18      -0.000000000000
G09  22559983.938 8 118553610.332 8      3160.152          50.000    22559985.805 8  92379413.379 8      2462.457          50.000  
G17  22127451.344 5 116280536.324 5      -767.703          34.000                                                                  
G03  20569843.469 8 108095291.136 8      -958.488          51.000    20569845.836 8  84230160.335 8      -746.874          51.000  
G04  20572333.641 8 108108354.789 8      1390.699          49.000    20572334.227 8  84240318.931 8      1083.665          49.000  
G01  22235400.711 8 116847823.782 8     -2954.852          48.000    22235405.438 8  91050265.520 8     -2302.482          48.000  
R06  22444129.633 5 119765771.643 5     -3393.246          32.000                                                                  
R21  23347162.516 5 124934990.238 5     -4579.258          31.000    23347160.711 5  97171672.633 5     -3561.649          32.000  
R07  19598706.125 5 104913031.421 5     -1161.828          35.000    19598706.914 4  81599033.508 4      -903.638          29.000  
R22  19745142.430 8 105400523.452 8     -2051.438          51.000    19745146.000 8  81978181.844 8     -1595.563          50.000  
E04  24413451.492 8 128293602.850 8     -1632.188          51.000    24413452.570 8  98302921.542 8     -1250.593          51.000  
E09  21743247.094 8 114261598.287 8       967.918          51.000    21743248.961 8  87551109.392 8       741.673          51.000  
E05  27190589.898 7 142887522.277 7      2621.625          47.000    27190593.500 7 109485270.171 7      2008.683          46.000  
E11  23550500.141 8 123758710.281 8     -2102.359          51.000    23550498.211 8  94828101.096 8     -1610.870          48.000  
C21  22460395.875 8 116957312.249 8     -1517.367          51.000                                                                  
C05                                                                  39722331.055 5 159945366.102 5       -25.122          34.000  
C11  22590048.391 8 117632338.657 8     -1364.734          49.000    22590047.414 8  90960757.697 8     -1055.248          51.000  
C14  23561424.328 5 122690515.970 5      2146.145          32.000    23561432.938 4  94872123.93524      1659.421          28.000  
C12                                                                  24927304.789 6 100371923.850 6     -2682.835          37.000  
> 2020 05 08 22 01  0.0000000  0 17      -0.000000000000
G09  22541975.477 8 118458977.823 8      3142.449          50.000    22541978.602 8  92305673.777 8      2448.666          50.000  
G03  20575349.727 8 108124226.187 8      -976.566          51.000    20575352.031 8  84252707.132 8      -760.958          51.000  
G04  20564448.992 8 108066921.301 8      1365.398          50.000    20564449.625 8  84208033.114 8      1063.947          49.000  
G01  22252304.398 8 116936651.889 8     -2973.191          49.000    22252309.156 8  91119482.256 8     -2316.773          49.000  
R06  22463218.406 5 119867634.962 5     -3403.484          33.000                                                                  
R21  23372857.289 5 125072481.530 5     -4592.684          33.000    23372853.906 5  97278610.339 5     -3572.085          31.000  
R07  19605259.148 6 104948111.842 6     -1183.180          39.000                                                                  
R22  19756745.812 8 105462461.531 8     -2084.008          51.000    19756748.977 8  82026355.887 8     -1620.895          49.000  
E04  24422794.250 8 128342699.913 8     -1647.035          51.000    24422795.516 8  98340541.379 8     -1262.018          51.000  
E09  21737755.586 8 114232738.982 8       949.949          51.000    21737757.055 8  87528996.435 8       727.866          51.000  
E05  27175642.062 8 142808971.208 8      2609.023          48.000    27175645.922 7 109425081.764 7      1999.183          47.000  
E11  23562536.453 8 123821962.184 8     -2120.953          50.000    23562534.664 8  94876566.811 8     -1625.033          48.000  
C21  22469162.734 8 117002963.065 8     -1532.133          51.000                                                                  
C05                                                                  39722523.258 5 159946139.942 5       -31.233          34.000  
C11  22597963.805 8 117673558.403 8     -1389.277          49.000    22597963.016 8  90992631.404 8     -1074.214          51.000  
C14  23549077.781 5 122626242.166 5      2132.277          31.000                                                                  
C12                                                                  24947309.508 6 100452475.918 6     -2691.870          38.000  
> 2020 05 08 22 01 30.0000000  0 19      -0.000000000000
G09  22524029.180 8 118364672.970 8      3144.672          49.000    22524033.250 8  92232189.503 8      2450.395          49.000  
G17  22136449.734 5 116327807.392 5      -801.082          34.000                                                                  
G03  20580920.773 8 108153501.202 8      -974.887          51.000    20580922.766 8  84275518.836 8      -759.652          51.000  
G04  20556669.789 8 108026041.494 8      1360.086          48.000    20556670.555 8  84176178.739 8      1059.807          48.000  
G01  22269275.266 8 117025832.578 8     -2972.191          50.000    22269280.258 8  91188973.703 8     -2315.994          51.000  
R06  22482323.203 5 119969596.525 5     -3393.969          33.000                                                                  
R21  23398584.484 5 125210150.019 5     -4585.453          34.000    23398580.391 5  97385685.821 5     -3566.467          31.000  
R07  19611896.328 6 104983637.564 6     -1184.914          39.000    19611901.219 4  81653926.457 4      -921.597          28.000  
R08  20573985.383 5 110172368.212 5      2018.340          32.000                                                                  
R22  19768493.281 8 105525170.844 8     -2096.406          51.000    19768496.414 8  82075129.788 8     -1630.539          49.000  
E04  24432183.562 8 128392041.481 8     -1642.199          51.000    24432184.789 8  98378348.565 8     -1258.282          51.000  
E09  21732327.633 8 114204214.690 8       951.848          51.000    21732328.586 8  87507140.176 8       729.329          51.000  
E05  27160726.781 8 142730591.512 8      2616.344          48.000    27160731.211 8 109365024.679 8      2004.798          48.000  
E11  23574639.594 8 123885566.329 8     -2119.508          50.000    23574637.977 8  94925302.434 8     -1623.938          48.000  
C21  22477975.758 8 117048854.420 8     -1527.145          51.000                                                                  
C05                                                                  39722723.945 5 159946948.49525       -22.473          34.000  
C11  22605982.008 8 117715310.447 8     -1394.098          50.000    22605981.219 8  91024916.727 8     -1077.908          51.000  
C14  23536776.250 4 122562204.087 4      2137.758          29.000    23536787.984 5  94772877.675 5      1652.470          31.000  
C12                                                                  24967344.031 6 100533144.682 6     -2685.798          38.000  
> 2020 05 08 22 02  0.0000000  0 19      -0.000000000000
G09  22506118.047 8 118270552.088 8      3128.926          49.000    22506122.211 8  92158848.584 8      2438.125          49.000  
G17  22141086.180 5 116352186.906 5      -825.488          35.000                                                                  
G03  20586528.727 8 108182970.314 8      -990.832          51.000    20586530.500 8  84298481.779 8      -772.077          51.000  
G04  20548968.016 7 107985570.532 7      1336.895          47.000    20548968.898 7  84144642.954 7      1041.736          47.000  
G01  22286285.312 8 117115218.961 8     -2988.277          51.000    22286290.102 8  91258625.400 8     -2328.529          51.000  
R06  22501418.609 5 120071506.487 5     -3401.902          31.000                                                                  
R21  23424315.422 5 125347844.327 5     -4595.258          32.000    23424312.586 5  97492781.323 5     -3574.093          30.000  
R07  19618588.211 6 105019458.629 6     -1204.316          38.000    19618596.039 4  81681787.443 4      -936.688          29.000  
R08  20562725.195 5 110112092.898 5      1998.738          34.000                                                                  
R22  19780356.961 8 105588501.968 8     -2126.863          51.000    19780360.297 8  82124387.331 8     -1654.227          48.000  
E04  24441591.625 8 128441480.934 8     -1655.000          51.000    24441592.414 8  98416230.753 8     -1268.136          51.000  
E09  21726935.180 8 114175879.837 8       935.918          51.000    21726936.172 8  87485429.064 8       717.165          51.000  
E05  27145816.555 8 142652238.372 8      2605.973          48.000    27145821.617 8 109304987.944 8      1996.812          48.000  
E11  23586781.938 8 123949376.536 8     -2135.852          49.000    23586780.836 8  94974195.964 8     -1636.536          48.000  
C21  22486807.148 8 117094841.374 8     -1539.859          51.000                                                                  
C05                                                                  39722905.812 5 159947679.861 5       -27.143          34.000  
C11  22614074.781 8 117757449.531 8     -1416.410          50.000    22614073.844 8  91057501.356 8     -1095.237          51.000  
C14                                                                  23524502.242 5  94723425.766 5      1642.856          34.000  
C12                                                                  24987379.539 6 100613816.925 6     -2693.021          37.000  
> 2020 05 08 22 02 30.0000000  0 19      -0.000000000000
G09  22488283.094 8 118176829.488 8      3117.672          49.000    22488286.227 8  92085818.000 8      2429.355          49.000  
G17  22145849.008 5 116377221.48425      -845.168          31.000                                                                  
G03  20592213.914 8 108212845.709 8     -1002.434          51.000    20592215.664 8  84321761.309 8      -781.117          51.000  
G04  20541385.109 8 107945721.654 8      1318.012          49.000    20541385.961 8  84113591.883 8      1027.022          48.000  
G01  22303374.672 8 117205022.157 8     -3000.082          50.000    22303378.680 8  91328601.856 8     -2337.730          50.000  
R21  23450090.953 5 125485777.127 5     -4601.332          31.000    23450088.742 4  97600062.354 4     -3578.814          29.000  
R07  19625374.516 5 105055789.550 5     -1219.441          33.000                                                                  
R08  20551563.680 6 110052327.594 6      1983.879          37.000                                                                  
R22  19792377.273 8 105652668.297 8     -2152.641          51.000    19792380.719 8  82174294.448 8     -1674.276          48.000  
E04  24451058.531 8 128491229.708 8     -1663.457          51.000    24451058.898 8  98454349.934 8     -1274.604          51.000  
E09  21721619.086 8 114147946.821 8       924.477          51.000    21721620.383 8  87464025.848 8       708.381          51.000  
E05  27130951.961 8 142574125.002 8      2599.855          48.000    27130957.516 8 109245134.925 8      1992.071          48.000  
E36  23554954.312 6 123782117.320 6       627.250          41.000    23554957.148 6  94846049.092 6       480.680          37.000  
E11  23599004.000 8 124013604.501 8     -2147.836          49.000    23599003.297 8  95023409.589 8     -1645.584          48.000  
C21  22495697.070 8 117141133.695 8     -1548.000          49.000                                                                  
C05                                                                  39723109.273 5 159948499.95125       -28.871          34.000  
C11  22622281.867 8 117800185.158 8     -1434.367          50.000    22622281.078 8  91090547.257 8     -1109.111          51.000  
C14                                                                  23512272.086 5  94674203.169 5      1637.183          33.000  
C12                                                                  25007456.102 6 100694653.850 6     -2697.146          37.000  
> 2020 05 08 22 03  0.0000000  0 19      -0.000000000000
G09  22470486.344 8 118083305.968 8      3109.031          49.000    22470488.281 8  92012942.566 8      2422.623          49.000  
G03  20597938.094 8 108242926.112 8     -1010.973          51.000    20597939.883 8  84345200.580 8      -787.771          51.000  
G04  20533882.414 8 107906294.542 8      1302.090          48.000    20533883.367 8  84082869.446 8      1014.616          48.000  
G01  22320504.633 8 117295039.858 8     -3009.305          50.000    22320507.312 8  91398745.485 8     -2344.914          50.000  
G31  23450329.703 5 123232312.066 5     -1089.438          34.000                                                                  
R21  23475873.578 5 125623740.625 5     -4604.574          30.000    23475870.648 4  97707367.281 4     -3581.336          28.000  
R07  19632215.852 6 105092423.849 6     -1231.277          39.000    19632223.898 4  81738554.106 4      -957.657          28.000  
R08  20540457.422 5 109992868.435 5      1971.738          31.000                                                                  
R22  19804516.031 8 105717463.869 8     -2175.488          51.000    19804518.906 7  82224690.995 7     -1692.050          47.000  
E04  24460545.758 8 128541085.774 8     -1668.816          51.000    24460546.102 8  98492551.329 8     -1278.659          51.000  
E09  21716341.508 8 114120214.578 8       915.984          51.000    21716343.000 8  87442776.481 8       701.853          51.000  
E05  27116094.953 8 142496051.161 8      2596.566          49.000    27116100.562 8 109185312.198 8      1989.635          49.000  
E36  23551382.305 6 123763352.863 6       615.410          40.000    23551388.094 6  94831671.110 6       471.399          39.000  
E11  23611267.398 8 124078048.440 8     -2156.719          49.000    23611266.750 8  95072788.735 8     -1652.510          49.000  
C21  22504607.031 8 117187531.540 8     -1553.383          48.000                                                                  
C05                                                                  39723296.125 5 159949252.42425       -27.886          34.000  
C11  22630565.016 8 117843317.179 8     -1449.430          50.000    22630564.438 8  91123899.666 8     -1120.773          51.000  
C14  23500066.938 5 122371021.512 5      2111.766          31.000    23500060.695 5  94625056.210 5      1633.072          34.000  
C12                                                                  25027534.797 5 100775499.756 5     -2698.766          35.000  
> 2020 05 08 22 03 30.0000000  0 19      -0.000000000000
G09  22452769.047 8 117990199.500 8      3099.496          50.000    22452770.531 8  91940392.105 8      2415.196          50.000  
G03  20603742.352 8 108273427.306 8     -1020.855          51.000    20603744.195 8  84368967.744 8      -795.472          51.000  
G04  20526501.047 8 107867505.978 8      1285.238          49.000    20526502.281 8  84052644.623 8      1001.485          49.000  
G01  22337715.945 8 117385486.777 8     -3019.238          49.000    22337718.164 8  91469223.582 8     -2352.654          49.000  
G31  23456611.758 5 123265311.043 5     -1109.047          35.000    23456615.398 5  96050918.768 5      -864.193          33.000  
R21  23501702.320 5 125761951.267 5     -4608.457          31.000    23501698.727 4  97814864.392 4     -3584.359          27.000  
R07  19639156.648 6 105129579.968 6     -1244.133          39.000    19639165.109 4  81767469.30924      -967.662          25.000  
R08  20529445.961 5 109933883.330 5      1958.438          34.000    20529470.102 4  85504189.626 4      1523.236          26.000  
R22  19816813.422 8 105783106.038 8     -2199.277          51.000    19816815.812 8  82275745.999 8     -1710.549          48.000  
E04  24470094.266 8 128591264.230 8     -1675.152          51.000    24470095.016 8  98530999.756 8     -1283.586          51.000  
E09  21711143.273 8 114092899.162 8       906.352          51.000    21711145.078 8  87421846.507 8       694.496          51.000  
E05  27101286.812 8 142418233.664 8      2592.406          49.000    27101291.961 8 109125685.889 8      1986.462          48.000  
E36  23547909.562 7 123745104.065 7       602.449          42.000    23547915.508 6  94817688.253 6       461.548          39.000  
E11  23623612.969 8 124142923.739 8     -2166.730          50.000    23623612.234 8  95122498.400 8     -1660.256          49.000  
C21  22513578.234 7 117234248.281 7     -1559.703          47.000                                                                  
C05                                                                  39723507.344 5 159950103.42725       -27.744          34.000  
C11  22638965.273 8 117887058.585 8     -1465.340          50.000    22638964.766 8  91157723.278 8     -1133.172          51.000  
C14                                                                  23487911.141 5  94576150.644 5      1628.726          31.000  
C12                                                                  25047653.711 4 100856518.864 4     -2701.028          29.000  
> 2020 05 08 22 04  0.0000000  0 17      -0.000000000000
G09  22435082.938 8 117897258.824 8      3092.641          48.000    22435084.859 7  91867970.838 7      2409.851          47.000  
G03  20609578.492 8 108304095.952 8     -1027.695          51.000    20609580.305 8  84392865.380 8      -800.802          51.000  
G04  20519193.656 8 107829103.644 8      1271.035          50.000    20519194.828 8  84022720.736 8       990.417          50.000  
G01  22354960.641 8 117476108.450 8     -3025.992          49.000    22354962.859 8  91539837.891 8     -2357.917          49.000  
R21  23527527.086 5 125900148.337 5     -4609.500          32.000    23527524.070 4  97922351.043 4     -3585.164          25.000  
R07  19646146.688 6 105166998.246 6     -1253.980          36.000    19646151.891 5  81796547.314 5      -975.315          30.000  
R08  20518496.805 5 109875219.117 5      1948.523          33.000    20518511.008 4  85458561.801 4      1515.516          29.000  
R22  19829220.859 8 105849335.368 8     -2220.152          51.000    19829222.867 8  82327257.689 8     -1726.786          49.000  
E04  24479655.859 8 128641510.967 8     -1678.535          51.000    24479657.125 8  98569500.505 8     -1286.169          51.000  
E09  21705976.203 8 114065747.426 8       899.770          51.000    21705978.211 8  87401041.933 8       689.428          51.000  
E05  27086479.383 8 142340420.183 8      2591.129          50.000    27086483.898 7 109066062.653 7      1985.415          47.000  
E36  23544487.227 7 123727118.991 7       592.383          42.000    23544492.094 6  94803907.478 6       454.108          38.000  
E11  23635992.195 8 124207976.557 8     -2173.785          50.000    23635991.406 8  95172344.067 8     -1665.709          49.000  
C21  22522562.570 7 117281032.534 7     -1563.188          46.000                                                                  
C11  22647434.141 8 117931157.609 8     -1478.449          50.000    22647433.781 8  91191823.421 8     -1143.207          51.000  
C14  23475783.234 5 122244549.709 5      2101.969          33.000    23475776.094 5  94527292.846 5      1625.847          33.000  
C12  25067770.758 4 130534459.71224     -3492.844          28.000                                                                  
> 2020 05 08 22 04 30.0000000  0 18      -0.000000000000
G09  22417457.031 7 117804636.417 7      3082.852          47.000    22417459.641 8  91795797.515 8      2402.223          48.000  
G03  20615475.062 8 108335082.345 8     -1037.578          51.000    20615476.703 8  84417010.618 8      -808.503          51.000  
G04  20511988.203 8 107791238.686 8      1253.738          49.000    20511989.250 8  83993215.584 8       976.939          48.000  
G01  22372267.273 8 117567054.211 8     -3036.098          51.000    22372269.031 8  91610704.725 8     -2365.791          51.000  
R21  23553376.938 5 126038481.779 5     -4612.648          31.000    23553374.953 4  98029943.714 4     -3587.619          25.000  
R07  19653213.062 5 105204830.633 5     -1267.031          31.000    19653223.141 5  81825972.526 5      -985.466          32.000  
R08  20507623.102 5 109816976.879 5      1934.742          33.000    20507632.742 4  85413262.260 4      1504.800          27.000  
R22  19841766.023 8 105916302.853 8     -2243.793          51.000    19841768.328 8  82379343.504 8     -1745.173          50.000  
E04  24489258.977 8 128691975.594 8     -1685.145          51.000    24489260.484 8  98608168.198 8     -1291.191          51.000  
E09  21700869.219 8 114038909.929 8       890.039          51.000    21700870.961 8  87380478.131 8       681.972          51.000  
E05  27071701.492 8 142262762.057 8      2586.629          49.000    27071705.547 7 109006558.453 7      1981.964          47.000  
E36  23541143.797 7 123709549.385 7       579.426          42.000    23541148.477 6  94790445.059 6       444.000          39.000  
E11  23648433.547 8 124273356.727 8     -2183.953          50.000    23648432.883 8  95222440.555 8     -1673.468          49.000  
C21  22531588.508 7 117328032.750 7     -1569.613          47.000                                                                  
C05                                                                  39723887.570 5 159951634.20225       -25.738          34.000  
C11  22655999.758 8 117975762.330 8     -1494.609          49.000    22655999.859 8  91226314.646 8     -1155.700          51.000  
C14  23463692.469 5 122181577.026 5      2095.934          35.000    23463683.508 5  94478598.499 5      1621.011          34.000  
C12  25087907.844 5 130639312.273 5     -3496.898          30.000                                                                  
> 2020 05 08 22 05  0.0000000  0 17      -0.000000000000
G09  22399880.945 8 117712273.968 8      3077.980          49.000    22399883.773 8  91723826.792 8      2398.430          49.000  
G03  20621420.523 8 108366326.133 8     -1042.223          51.000    20621422.117 8  84441356.437 8      -812.122          51.000  
G04  20504873.453 8 107753851.752 8      1241.707          49.000    20504874.586 8  83964082.884 8       967.561          49.000  
G01  22389623.992 8 117658262.623 8     -3041.012          51.000    22389625.281 8  91681776.207 8     -2369.620          51.000  
G19  22160188.039 5 116452567.000 5       214.867          34.000                                                                  
R07  19660346.367 5 105243013.900 5     -1274.898          35.000    19660353.328 4  81855670.609 4      -991.591          27.000  
R08  20496816.297 5 109759096.381 5      1927.098          33.000                                                                  
R22  19854437.375 8 105983945.015 8     -2262.402          51.000    19854440.422 8  82431954.062 8     -1759.647          51.000  
E04  24498891.906 8 128742597.012 8     -1686.391          51.000    24498893.336 8  98646956.040 8     -1292.176          51.000  
E09  21695810.805 8 114012326.493 8       885.445          51.000    21695812.242 8  87360109.024 8       678.473          51.000  
E05  27056941.836 8 142185199.919 8      2587.473          48.000    27056945.742 7 108947127.791 7      1982.562          47.000  
E36  23537868.625 7 123692336.255 7       571.426          43.000    23537872.039 6  94777255.781 6       437.783          38.000  
E11  23660925.531 8 124339003.435 8     -2189.059          49.000    23660925.008 8  95272741.254 8     -1677.323          49.000  
C21  22540644.477 7 117375188.745 7     -1571.023          45.000                                                                  
C11  22664650.609 8 118020812.201 8     -1505.566          48.000    22664651.555 8  91261150.088 8     -1164.130          51.000  
C14  23451630.039 5 122118756.614 5      2094.848          32.000    23451621.586 5  94430021.924 5      1620.374          34.000  
C12  25108058.938 5 130744233.394 5     -3494.613          31.000                                                                  
> 2020 05 08 22 05 30.0000000  0 18      -0.000000000000
G09  22382358.836 8 117620193.130 8      3059.199          50.000    22382361.453 8  91652075.529 8      2383.792          50.000  
G17  22176547.383 5 116538542.88025      -953.508          34.000                                                                  
G03  20627418.664 8 108397846.942 8     -1060.832          51.000    20627420.375 8  84465918.110 8      -826.623          51.000  
G04  20497853.766 8 107716963.299 8      1215.754          50.000    20497854.953 8  83935338.643 8       947.341          49.000  
G01  22407034.117 8 117749752.198 8     -3059.801          50.000    22407034.664 8  91753066.781 8     -2384.261          50.000  
R07  19667552.117 5 105281566.647 5     -1296.469          31.000    19667549.180 4  81885648.959 4     -1008.365          27.000  
R08  20486078.906 5 109701597.783 5      1904.723          34.000                                                                  
R22  19867238.859 8 106052280.111 8     -2294.930          51.000    19867241.914 8  82485103.594 8     -1784.946          51.000  
E04  24508558.297 8 128793394.104 8     -1701.559          51.000    24508559.531 8  98685878.499 8     -1303.876          51.000  
E09  21690804.609 8 113986016.970 8       866.980          51.000    21690805.820 8  87339949.807 8       664.253          51.000  
E05  27042204.367 8 142107754.445 8      2574.117          48.000    27042208.383 8 108887786.516 8      1972.416          48.000  
E36  23534665.383 7 123675500.612 7       549.555          44.000    23534666.047 6  94764355.765 6       420.896          38.000  
E11  23673471.992 8 124404935.779 8     -2207.957          49.000    23673471.516 8  95323260.821 8     -1691.830          49.000  
C21  22549733.930 7 117422519.539 7     -1585.957          45.000                                                                  
C05                                                                  39724257.688 5 159953123.79525       -28.581          34.000  
C11  22673390.617 7 118066325.751 7     -1530.270          47.000    22673392.477 8  91296344.044 8     -1183.293          51.000  
C14  23439601.336 4 122056108.498 4      2080.320          29.000    23439592.398 5  94381578.550 5      1608.183          35.000  
C12  25128223.578 5 130849228.740 5     -3507.367          31.000                                                                  
> 2020 05 08 22 06  0.0000000  0 20      -0.000000000000
G22  22206045.297 5 116693572.815 5     -2093.434          35.000                                                                  
G09  22364902.289 8 117528456.432 8      3049.746          50.000    22364904.750 8  91580592.438 8      2376.429          50.000  
G17  22182021.070 6 116567324.565 6      -971.719          37.000                                                                  
G03  20633480.992 8 108429705.140 8     -1069.879          51.000    20633482.844 8  84490742.696 8      -833.672          51.000  
G04  20490940.664 8 107680634.618 8      1199.254          50.000    20490941.773 8  83907030.608 8       934.484          50.000  
G01  22424508.734 8 117841582.247 8     -3069.133          49.000    22424509.703 8  91824622.625 8     -2391.533          49.000  
R06  22654593.117 5 120888842.231 5     -3414.074          34.000                                                                  
R07  19674827.930 5 105320503.671 5     -1308.887          33.000    19674832.586 4  81915964.413 4     -1018.023          27.000  
R08  20475424.773 5 109644543.161 5      1891.773          30.000                                                                  
R22  19880181.383 8 106121367.286 8     -2317.824          51.000    19880183.945 8  82538838.078 8     -1802.753          50.000  
E04  24518269.477 8 128844426.520 8     -1707.445          51.000    24518270.648 8  98724981.253 8     -1308.222          51.000  
E09  21685862.102 8 113960041.928 8       857.891          51.000    21685863.156 8  87320046.865 8       657.312          51.000  
E05  27027500.875 8 142030486.982 8      2570.145          48.000    27027505.109 8 108828581.648 8      1969.384          49.000  
E36  23531545.703 7 123659104.247 7       536.789          44.000    23531544.297 6  94751792.303 6       411.234          38.000  
E11  23686084.188 8 124471213.579 8     -2217.539          49.000    23686083.711 8  95374045.105 8     -1699.068          49.000  
C21  22558868.297 7 117470084.530 7     -1591.652          45.000                                                                  
C05                                                                  39724450.547 5 159953900.33225       -27.705          33.000  
C11  22682231.180 8 118112362.088 8     -1545.625          48.000    22682233.500 8  91331942.238 8     -1195.173          51.000  
C14                                                                  23427607.281 5  94333315.228 5      1603.694          32.000  
C12  25148413.781 5 130954356.254 5     -3508.539          34.000                                                                  
> 2020 05 08 22 06 30.0000000  0 19      -0.000000000000
G22  22218001.633 5 116756379.43125     -2095.641          30.000                                                                  
G09  22347509.336 8 117437054.848 8      3043.449          49.000    22347511.688 8  91509370.449 8      2371.520          49.000  
G17  22187607.453 6 116596680.248 6      -986.246          37.000                                                                  
G03  20639605.445 8 108461889.636 8     -1076.117          51.000    20639607.523 8  84515821.518 8      -838.533          51.000  
G04  20484132.273 8 107644855.532 8      1185.680          50.000    20484132.977 8  83879150.804 8       923.907          49.000  
G01  22442045.570 8 117933740.469 8     -3075.137          49.000    22442047.406 8  91896434.199 8     -2396.211          49.000  
R06  22673778.859 5 120991222.538 5     -3411.656          35.000                                                                  
R07  19682202.164 5 105359902.620 5     -1317.270          33.000    19682192.938 4  81946607.898 4     -1024.546          27.000  
R22  19893262.562 8 106191193.380 8     -2337.609          51.000    19893264.414 8  82593147.270 8     -1818.141          49.000  
E04  24528023.203 8 128895682.417 8     -1710.074          51.000    24528024.453 8  98764255.266 8     -1310.320          51.000  
E09  21680981.039 8 113934390.463 8       851.848          51.000    21680982.172 8  87300391.848 8       652.748          51.000  
E05  27012829.359 8 141953387.432 8      2569.332          48.000    27012833.844 8 108769505.434 8      1968.725          50.000  
E36  23528507.711 7 123643137.338 7       527.270          45.000    23528505.102 6  94739557.933 6       403.973          39.000  
E11  23698759.805 8 124537825.226 8     -2223.863          49.000    23698759.320 8  95425085.210 8     -1703.940          49.000  
C21  22568045.109 7 117517872.327 7     -1594.637          43.000                                                                  
C05                                                                  39724650.359 5 159954705.15225       -25.469          34.000  
C11  22691170.203 8 118158909.225 8     -1557.949          48.000    22691172.203 8  91367935.431 8     -1204.672          51.000  
C14                                                                  23415663.422 5  94285223.842 5      1602.048          35.000  
C12  25168626.680 5 131059603.197 5     -3508.109          34.000                                                                  
> 2020 05 08 22 07  0.0000000  0 21      -0.000000000000
G22  22229969.836 5 116819275.06825     -2088.703          35.000                                                                  
G09  22330141.867 8 117345788.772 8      3045.840          48.000    22330143.953 8  91438254.066 8      2373.385          48.000  
G17  22193264.031 5 116626407.660 5      -990.836          34.000                                                                  
G03  20645753.672 8 108494198.764 8     -1073.082          51.000    20645755.773 8  84540997.454 8      -836.171          51.000  
G04  20477390.094 8 107609425.167 8      1181.164          50.000    20477390.555 8  83851542.742 8       920.388          50.000  
G01  22459606.531 8 118026024.149 8     -3072.328          49.000    22459609.070 8  91968343.558 8     -2394.023          49.000  
G31  23503481.086 6 123511592.663 6     -1228.117          39.000    23503485.516 6  96242832.638 6      -956.972          37.000  
R06  22692938.773 5 121093470.046 5     -3400.328          32.000                                                                  
R07  19689596.344 5 105399511.382 5     -1318.016          32.000    19689594.602 5  81977414.863 5     -1025.117          30.000  
R08  20454322.148 5 109531566.143 5      1882.367          32.000    20454331.844 4  85191254.529 4      1464.061          28.000  
R22  19906443.359 8 106261551.479 8     -2348.105          51.000    19906444.758 8  82647870.231 8     -1826.308          50.000  
E04  24537780.891 8 128946959.450 8     -1703.562          51.000    24537782.398 8  98803545.456 8     -1305.310          51.000  
E09  21676123.164 8 113908861.080 8       855.004          51.000    21676124.656 8  87280830.382 8       655.133          51.000  
E05  26998151.438 7 141876255.147 7      2577.496          47.000    26998156.477 8 108710404.117 8      1975.160          51.000  
E36  23525513.359 7 123627399.610 7       526.746          46.000    23525510.516 6  94727499.151 6       403.632          40.000  
E11  23711460.461 8 124604568.539 8     -2221.125          48.000    23711459.508 8  95476226.223 8     -1701.836          48.000  
C21  22577226.188 7 117565682.639 7     -1588.055          42.000                                                                  
C05                                                                  39724818.844 5 159955383.99325       -15.982          33.000  
C11  22700168.688 8 118205766.463 8     -1561.195          49.000    22700170.289 8  91404168.394 8     -1207.083          51.000  
C14  23403736.891 5 121869379.035 5      2077.934          33.000    23403725.336 5  94237150.360 5      1606.815          35.000  
C12  25188823.938 5 131164767.897 5     -3498.395          33.000                                                                  
> 2020 05 08 22 07 30.0000000  0 18      -0.000000000000
G22  22242001.352 5 116882541.569 5     -2116.977          32.000                                                                  
G09  22312879.539 8 117255075.552 8      3015.352          48.000    22312880.867 8  91367568.501 8      2349.628          48.000  
G03  20652004.727 8 108527047.818 8     -1103.055          51.000    20652006.516 8  84566594.120 8      -859.523          51.000  
G04  20470793.516 8 107574759.694 8      1143.547          51.000    20470793.711 8  83824530.719 8       891.076          49.000  
G01  22477270.445 8 118118847.446 8     -3102.305          50.000    22477272.578 8  92040673.395 8     -2417.381          49.000  
G31  23510643.172 6 123549233.500 6     -1267.863          36.000    23510645.305 6  96272163.176 6      -987.943          37.000  
R07  19697110.914 6 105439751.316 6     -1350.914          38.000    19697110.414 4  82008712.663 4     -1050.708          29.000  
R22  19919801.914 8 106332861.227 8     -2391.934          51.000    19919803.609 8  82703333.348 8     -1860.393          50.000  
E04  24547621.398 8 128998672.193 8     -1730.309          51.000    24547623.258 8  98843169.506 8     -1325.783          51.000  
E09  21671367.500 8 113883869.306 8       824.910          51.000    21671369.422 8  87261680.857 8       632.095          51.000  
E05  26983546.328 7 141799506.419 7      2552.723          45.000    26983552.234 8 108651596.697 8      1955.995          51.000  
E36  23522641.781 7 123612307.720 7       493.129          46.000    23522639.734 6  94715935.247 6       377.762          41.000  
E11  23724265.180 8 124671858.295 8     -2251.480          48.000    23724263.523 8  95527785.917 8     -1725.128          48.000  
C21  22586490.867 6 117613926.664 6     -1614.629          41.000                                                                  
C05                                                                  39725035.211 5 159956255.43525       -31.961          33.000  
C11  22709305.758 8 118253344.360 8     -1597.070          49.000    22709306.445 8  91440958.643 8     -1234.959          51.000  
C14  23391883.797 5 121807644.602 5      2051.570          35.000    23391871.914 6  94189413.489 6      1586.233          37.000  
C12  25209082.766 5 131270260.263 5     -3521.660          31.000    25209091.469 5 101506562.943 5     -2723.084          30.000  
> 2020 05 08 22 08  0.0000000  0 17      -0.000000000000
G09  22295657.391 7 117164573.926 7      3017.789          47.000    22295658.164 7  91297047.802 7      2351.528          47.000  
G03  20658293.172 8 108560093.483 8     -1100.250          51.000    20658294.875 8  84592343.990 8      -857.341          51.000  
G04  20464277.359 8 107540516.592 8      1138.875          51.000    20464277.297 8  83797847.803 8       887.435          49.000  
G01  22494971.781 8 118211865.941 8     -3099.391          51.000    22494972.180 8  92113155.316 8     -2415.110          51.000  
G31  23517896.656 5 123587355.054 5     -1274.156          35.000    23517894.797 5  96301868.213 5      -992.849          31.000  
R07  19704680.969 6 105480271.327 6     -1350.664          37.000    19704677.539 4  82040228.253 4     -1050.517          29.000  
R22  19933272.445 8 106404771.880 8     -2402.402          51.000    19933275.008 8  82759263.859 8     -1868.536          49.000  
E04  24557479.352 8 129050476.535 8     -1723.918          51.000    24557481.359 8  98882863.744 8     -1320.952          51.000  
E09  21666648.594 8 113859071.948 8       827.801          51.000    21666650.797 8  87242680.306 8       634.274          51.000  
E05  26968949.109 7 141722798.872 7      2560.543          45.000    26968955.953 8 108592820.810 8      1962.059          51.000  
E36  23519827.828 7 123597519.617 7       492.211          46.000    23519826.953 7  94704604.117 7       377.152          43.000  
E11  23737108.516 8 124739350.612 8     -2248.887          49.000    23737106.508 8  95579500.793 8     -1723.000          48.000  
C21  22595773.984 7 117662263.736 7     -1608.207          42.000                                                                  
C05                                                                  39725234.164 5 159957055.75025       -22.564          33.000  
C11  22718515.938 8 118301301.833 8     -1600.383          50.000    22718515.336 8  91478042.389 8     -1237.639          50.000  
C14  23380048.281 5 121746005.774 5      2057.371          30.000    23380035.727 5  94141750.449 5      1591.093          33.000  
C12  25229338.820 5 131375737.975 5     -3510.918          31.000    25229347.609 5 101588124.968 5     -2714.968          31.000  
> 2020 05 08 22 08 30.0000000  0 17      -0.000000000000
G22  22266143.086 5 117009376.124 5     -2120.254          34.000                                                                  
G09  22278480.305 7 117074309.177 7      3002.152          47.000    22278481.547 7  91226711.642 7      2339.340          47.000  
G03  20664623.469 8 108593358.971 8     -1115.148          51.000    20664625.211 8  84618265.138 8      -868.950          51.000  
G04  20457845.859 8 107506719.848 8      1116.516          50.000    20457845.758 8  83771512.701 8       870.012          48.000  
G01  22512714.375 8 118305101.711 8     -3114.051          50.000    22512712.812 8  92185806.542 8     -2426.534          50.000  
G31  23525245.289 5 123625979.441 5     -1298.215          32.000    23525239.250 5  96331965.003 5     -1011.608          33.000  
R07  19712306.484 6 105521093.748 6     -1368.457          37.000    19712303.188 5  82071979.029 5     -1064.356          31.000  
R22  19946859.688 8 106477304.653 8     -2430.680          51.000    19946863.023 8  82815678.245 8     -1890.529          49.000  
E04  24567359.125 8 129102395.005 8     -1735.062          51.000    24567360.734 8  98922645.435 8     -1329.464          50.000  
E09  21661970.977 8 113834492.416 8       813.199          51.000    21661973.242 8  87223846.662 8       623.026          51.000  
E05  26954364.656 7 141646156.668 7      2551.141          45.000    26954372.125 8 108534095.013 8      1954.756          51.000  
E36  23517075.984 7 123583059.937 7       473.820          45.000    23517076.570 7  94693524.603 7       363.078          44.000  
E11  23749995.023 8 124807068.164 8     -2263.586          50.000    23749992.461 7  95631388.243 7     -1734.389          47.000  
C21  22605079.383 6 117710716.522 6     -1619.418          40.000                                                                  
C11  22727803.383 8 118349660.998 8     -1621.207          50.000    22727801.414 8  91515436.765 8     -1253.587          50.000  
C14  23368235.539 5 121684533.72625      2046.820          31.000                                                                  
C12  25249596.477 4 131481222.583 4     -3518.781          29.000    25249601.734 5 101669692.389 5     -2721.513          30.000  
> 2020 05 08 22 09  0.0000000  0 17      -0.000000000000
G22  22278263.656 6 117073062.700 6     -2126.562          38.000    22278260.312 5  91225744.570 5     -1657.056          30.000  
G09  22261363.695 8 116984360.572 8      2992.008          48.000    22261365.578 8  91156621.852 8      2331.435          48.000  
G17  22217006.961 6 116751159.24926     -1074.898          37.000    22217009.148 5  90974938.59425      -837.583          30.000  
G03  20671010.289 8 108626921.592 8     -1124.504          51.000    20671012.023 8  84644417.823 8      -876.240          51.000  
G04  20451514.320 8 107473447.580 8      1099.473          51.000    20451514.273 8  83745586.257 8       856.732          49.000  
G01  22530512.461 8 118398630.871 8     -3123.375          49.000    22530510.617 8  92258686.380 8     -2433.800          50.000  
R07  19720004.172 6 105562296.099 6     -1380.562          40.000    19720000.734 5  82104025.270 5     -1073.771          32.000  
R22  19960578.812 8 106550536.173 8     -2453.590          51.000    19960581.867 8  82872636.103 8     -1908.348          49.000  
E04  24577275.195 8 129154504.181 8     -1740.938          51.000    24577276.164 8  98962573.239 8     -1333.909          50.000  
E09  21657349.477 8 113810208.145 8       803.719          51.000    21657352.062 8  87205239.243 8       615.870          51.000  
E05  26939807.773 7 141569658.124 7      2546.793          45.000    26939815.391 8 108475479.296 8      1951.383          51.000  
E36  23514401.766 7 123569007.180 7       460.848          46.000    23514402.930 7  94682756.903 7       353.066          44.000  
E11  23762939.273 8 124875087.704 8     -2273.094          50.000    23762935.945 7  95683507.075 7     -1741.731          47.000  
C21  22614421.047 6 117759361.156 6     -1625.152          37.000                                                                  
C11  22737182.320 8 118398497.436 8     -1636.629          49.000    22737179.891 8  91553200.210 8     -1265.546          51.000  
C14  23356456.766 5 121623210.382 5      2039.848          33.000    23356453.930 5  94046772.928 5      1577.835          30.000  
C12  25269869.125 5 131586839.753 5     -3521.312          30.000                                                                  
> 2020 05 08 22 09 30.0000000  0 17      -0.000000000000
G22  22290426.672 6 117136972.866 6     -2133.094          41.000    22290420.805 5  91275544.701 5     -1662.158          32.000  
G09  22244313.867 8 116894760.909 8      2981.941          50.000    22244315.531 8  91086803.941 8      2323.591          50.000  
G17  22223197.594 6 116783689.823 6     -1092.934          39.000                                                                  
G03  20677459.453 8 108660812.065 8     -1134.113          51.000    20677461.086 8  84670825.972 8      -883.728          51.000  
G04  20445288.758 8 107440731.261 8      1082.355          51.000    20445289.164 8  83720093.045 8       843.397          50.000  
G01  22548371.039 7 118492483.059 7     -3132.477          46.000    22548370.844 7  92331817.937 7     -2440.892          46.000  
R07  19727777.781 6 105603907.803 6     -1392.594          37.000    19727775.117 5  82136389.933 5     -1083.126          34.000  
R22  19974434.477 8 106624495.307 8     -2476.320          51.000    19974436.344 8  82930159.853 8     -1926.027          48.000  
E04  24587233.234 8 129206834.104 8     -1746.930          51.000    24587233.836 8  99002670.169 8     -1338.497          50.000  
E09  21652789.867 8 113786250.038 8       794.238          51.000    21652793.250 8  87186881.746 8       608.602          51.000  
E05  26925284.359 7 141493334.925 7      2542.242          46.000    26925291.438 8 108416997.937 8      1947.905          50.000  
E36  23511811.062 7 123555393.433 7       447.473          46.000    23511811.898 7  94672325.595 7       343.033          44.000  
E11  23775946.859 8 124943439.406 8     -2282.727          51.000    23775942.781 7  95735880.434 7     -1749.121          47.000  
C21  22623804.688 5 117808227.797 5     -1631.691          30.000                                                                  
C11  22746658.086 8 118447840.559 8     -1652.016          48.000    22746656.375 8  91591355.453 8     -1277.507          51.000  
C14                                                                  23344720.352 4  93999530.302 4      1573.166          28.000  
C12  25290162.367 4 131692511.09524     -3523.168          29.000    25290163.688 5 101832998.721 5     -2724.652          30.000  
> 2020 05 08 22 10  0.0000000  0 17      -0.000000000000
G22  22302619.125 6 117201045.748 6     -2138.789          38.000    22302615.070 6  91325471.594 6     -1666.595          37.000  
G09  22227319.336 8 116805451.127 8      2971.625          50.000    22227320.109 8  91017211.935 8      2315.553          50.000  
G17  22229484.414 6 116816728.359 6     -1110.074          38.000                                                                  
G03  20683959.359 8 108694969.311 8     -1143.723          51.000    20683960.789 8  84697442.015 8      -891.213          51.000  
G04  20439157.594 8 107408510.566 8      1065.230          51.000    20439158.312 8  83694986.028 8       830.050          51.000  
G01  22566278.961 7 118586595.972 7     -3141.969          46.000    22566281.031 7  92405152.738 7     -2448.285          46.000  
R07  19735613.594 6 105645865.432 6     -1405.109          37.000    19735614.227 5  82169023.677 5     -1092.866          34.000  
R08  20392854.008 5 109202442.003 5      1789.859          31.000                                                                  
R22  19988413.883 8 106699117.832 8     -2498.977          51.000    19988414.984 8  82988199.550 8     -1943.649          48.000  
E04  24597221.500 8 129259322.948 8     -1752.762          51.000    24597222.102 8  99042888.880 8     -1342.999          50.000  
E09  21648280.875 8 113762557.151 8       784.875          51.000    21648284.773 8  87168727.476 8       601.386          51.000  
E05  26910783.039 7 141417127.009 7      2537.867          46.000    26910788.664 8 108358604.894 8      1944.631          49.000  
E36  23509292.398 7 123542158.870 7       434.398          46.000    23509293.016 7  94662184.871 7       332.803          45.000  
E11  23789005.664 8 125012061.537 8     -2292.184          50.000    23789000.820 7  95788461.010 7     -1756.284          47.000  
C21  22633213.555 5 117857095.453 5     -1637.480          30.000                                                                  
C11  22756218.961 7 118497629.054 7     -1667.523          47.000    22756218.258 8  91629855.062 8     -1289.459          51.000  
C12                                                                  25310474.938 5 101914751.452 5     -2726.253          33.000  
> 2020 05 08 22 10 30.0000000  0 17      -0.000000000000
G22  22314850.977 6 117265323.700 6     -2142.270          41.000    22314847.086 6  91375558.284 6     -1669.298          38.000  
G09  22210388.062 8 116716475.602 8      2963.773          50.000    22210388.578 8  90947880.377 8      2309.435          50.000  
G17  22235875.242 5 116850316.577 5     -1125.348          35.000                                                                  
G03  20690518.102 8 108729435.700 8     -1150.578          51.000    20690519.273 8  84724298.956 8      -896.555          51.000  
G04  20433128.875 8 107376828.580 8      1050.598          51.000    20433129.719 8  83670298.762 8       818.648          51.000  
G01  22584245.086 8 118681010.961 8     -3148.730          48.000    22584248.852 8  92478722.884 8     -2453.557          48.000  
R06  22827411.164 4 121811035.71824     -3416.461          29.000                                                                  
R07  19743524.188 6 105688209.973 6     -1414.191          36.000    19743525.789 5  82201958.228 5     -1099.933          34.000  
R22  20002524.898 8 106774444.640 8     -2519.082          51.000    20002526.141 8  83046787.037 8     -1959.286          48.000  
E04  24607248.078 8 129312012.374 8     -1756.125          51.000    24607248.617 8  99083261.299 8     -1345.606          49.000  
E09  21643830.820 8 113739172.035 8       777.879          51.000    21643834.352 8  87150809.021 8       596.016          51.000  
E05  26896311.953 7 141341077.709 7      2535.883          46.000    26896315.164 7 108300333.411 7      1943.074          47.000  
E36  23506854.094 7 123529347.199 7       423.461          46.000    23506855.414 7  94652368.138 7       324.524          45.000  
E11  23802123.094 8 125080995.935 8     -2299.305          48.000    23802118.117 7  95841280.901 7     -1761.845          46.000  
C21  22642674.422 4 117906334.714 4     -1640.809          29.000                                                                  
C11  22765873.312 8 118547903.772 8     -1680.391          48.000    22765873.273 8  91668730.639 8     -1299.391          51.000  
C14  23321358.211 4 121440428.899 4      2024.090          29.000    23321360.648 5  93905433.745 5      1564.941          33.000  
> 2020 05 08 22 11  0.0000000  0 17      -0.000000000000
G22  22327108.547 7 117329735.521 7     -2151.578          42.000    22327105.602 6  91425749.256 6     -1676.558          36.000  
G09  22193506.727 8 116627765.379 8      2950.281          48.000    22193507.812 8  90878755.526 8      2298.921          48.000  
G17  22242357.391 6 116884382.178 6     -1145.848          36.000                                                                  
G03  20697122.156 8 108764140.311 8     -1163.027          51.000    20697123.344 8  84751341.514 8      -906.255          51.000  
G04  20427189.227 8 107345615.022 8      1030.395          51.000    20427190.242 8  83645976.521 8       802.905          51.000  
G01  22602255.648 8 118775655.805 8     -3161.121          49.000    22602260.469 8  92552472.115 8     -2463.212          49.000  
R06  22846635.992 5 121913603.358 5     -3420.910          32.000                                                                  
R07  19751491.930 5 105730868.039 5     -1430.195          32.000    19751495.719 5  82235136.805 5     -1112.365          34.000  
R22  20016753.281 8 106850401.022 8     -2544.746          51.000    20016755.820 8  83105864.217 8     -1979.247          48.000  
E04  24617299.375 8 129364830.725 8     -1764.926          51.000    24617299.586 8  99123732.496 8     -1352.326          49.000  
E09  21639425.922 8 113716023.827 8       765.453          51.000    21639429.000 8  87133072.102 8       586.459          51.000  
E05  26881857.391 7 141265116.992 7      2528.133          45.000    26881857.797 8 108242129.794 8      1937.288          48.000  
E36  23504483.109 7 123516888.690 7       407.152          46.000    23504485.266 7  94642822.000 7       311.941          46.000  
E11  23815285.289 7 125150171.018 7     -2311.875          46.000    23815281.961 7  95894285.195 7     -1771.551          47.000  
C21  22652159.062 5 117955696.925 5     -1649.746          35.000                                                                  
C11  22775607.359 8 118598593.395 8     -1698.734          49.000    22775607.891 8  91707927.032 8     -1313.524          51.000  
C14  23309722.023 5 121379852.207 5      2014.879          31.000    23309723.586 5  93858592.020 5      1557.392          32.000  
> 2020 05 08 22 11 30.0000000  0 16      -0.000000000000
G22  22339408.859 6 117394373.992 6     -2158.137          41.000    22339406.125 6  91476116.855 6     -1681.669          37.000  
G09  22176693.453 8 116539414.982 8      2939.273          48.000    22176695.281 8  90809911.021 8      2290.341          48.000  
G17  22248948.695 6 116919016.898 6     -1163.426          37.000                                                                  
G03  20703789.102 8 108799175.581 8     -1173.031          51.000    20703790.492 8  84778641.725 8      -914.051          51.000  
G04  20421356.430 8 107314963.100 8      1012.637          51.000    20421357.141 8  83622091.915 8       789.071          51.000  
G01  22620327.453 8 118870621.807 8     -3170.469          49.000    22620332.398 8  92626471.591 8     -2470.496          49.000  
R07  19759530.109 5 105773938.771 5     -1441.773          30.000    19759536.617 5  82268645.585 5     -1121.383          32.000  
