     3.02           OBSERVATION DATA    M (MIXED)           RINEX VERSION / TYPE
SAVERINEX           SC600               20200506 235931 LCL PGM / RUN BY / DATE
       G = GPS       R = GLONASS       C = COMPASS          COMMENT
       S = SBAS      J = QZSS          E = GALILEO          COMMENT
BEAN                                                        MARKER NAME
1                                                           MARKER NUMBER
GEODETIC                                                    MARKER TYPE
Unige DICCA         GTER                                    OBSERVER / AGENCY
SC60291900056       SC600               2.12(191226)        REC # / TYPE / VERS
                    HEMA45          NONE                    ANT # / TYPE
  4509407.8091   693652.4678  4442337.6214                  APPROX POSITION XYZ
        0.0000        0.0000        0.0000                  ANTENNA: DELTA H/E/N
G    8 C1C L1C D1C S1C C2Y L2Y D2Y S2Y                      SYS / # / OBS TYPES
R    8 C1C L1C D1C S1C C2P L2P D2P S2P                      SYS / # / OBS TYPES
C    8 C1I L1I D1I S1I C7I L7I D7I S7I                      SYS / # / OBS TYPES
E    8 C1C L1C D1C S1C C7Q L7Q D7Q S7Q                      SYS / # / OBS TYPES
DBHZ                                                        COMMENT
     30.000                                                 INTERVAL
  2020    05    06    21    00    0.0000000     GPS         TIME OF FIRST OBS
  2020    05    06    21    59   30.0000000     GPS         TIME OF LAST OBS
     0                                                      RCV CLOCK OFFS APPL
G L1C  0.00000                                              SYS / PHASE SHIFT
G L2Y  0.00000                                              SYS / PHASE SHIFT
R L1C  0.00000                                              SYS / PHASE SHIFT
R L2P  0.25000                                              SYS / PHASE SHIFT
C L1I  0.00000                                              SYS / PHASE SHIFT
C L7I  0.00000                                              SYS / PHASE SHIFT
E L1C  0.50000                                              SYS / PHASE SHIFT
E L7Q -0.25000                                              SYS / PHASE SHIFT
 13 R03  5 R04  6 R05  1 R06 -4 R10 -5 R13 -2 R14 -7 R15  0 GLONASS SLOT / FRQ #
    R16 -1 R17  4 R18 -3 R19  3 R20  2                      GLONASS SLOT / FRQ #
 C1C   71.950 C2C   71.950 C2P   71.950                     GLONASS COD/PHS/BIS
    18                                                      LEAP SECONDS
*** Above antenna height is from mark to ANTENNA BOTTOM.    COMMENT
    17     4        0.0000        ANT MEASURE TYPE/HEIGT    COMMENT
    0.0000    0.0000    0.0458    0.0405    0.0000          COMMENT
                    BASE STATION                            COMMENT
                                                            END OF HEADER
> 2020 05 06 21 00  0.0000000  0 16        .000000000000
G01  20565275.844 8 108071245.345 8     -1208.754          51.000    20565277.492 8  84211366.182 8      -941.886          51.000
G03  20385360.805 7 107125804.594 7       541.109          44.000    20385363.320 7  83474673.418 7       421.644          44.000
G04  22475037.211 8 118107167.688 8      3293.168          50.000    22475037.344 7  92031561.021 7      2566.105          46.000
G11  22038504.016 8 115813139.010 8     -3353.453          48.000    22038504.273 7  90243974.360 7     -2613.080          46.000
G22  20872486.891 8 109685755.620 8      -961.434          51.000    20872483.219 8  85469365.963 8      -749.169          50.000
R04  20446269.492 5 109488898.186 5     -2766.461          35.000    20446270.695 5  85158082.268 5     -2151.692          33.000
R05  19392685.344 8 103665086.553 8       898.137          51.000    19392687.781 8  80628388.886 8       698.551          49.000
R06  23228665.336 6 123952600.940 6      3730.461          37.000
R19  20964506.062 7 112145945.297 7     -3382.633          42.000    20964503.711 7  87224632.108 7     -2630.934          42.000
C05                                                                  39693041.945 5 159827430.952 5       -25.841          34.000
C14  23262296.227 5 121132861.954 5     -2326.758          33.000    23262298.773 5  93667585.835 5     -1799.318          35.000
C28  22142742.180 8 115303096.912 8     -1757.297          51.000
E07  23439281.109 8 123174247.889 8       248.906          51.000    23439284.672 8  94380286.753 8       190.801          51.000
E08  23661112.016 5 124339980.417 5     -2239.770          35.000
E13  25270240.516 8 132796001.718 8     -2384.281          49.000    25270245.898 8 101752801.270 8     -1826.863          51.000
E26  22290193.250 8 117135753.482 8        49.371          51.000    22290196.727 8  89753377.492 8        37.839          51.000
> 2020 05 06 21 00 30.0000000  0 16        .000000000000
G01  20572218.820 8 108107730.680 8     -1223.457          51.000    20572220.336 8  84239796.280 8      -953.346          51.000
G03  20382306.867 7 107109756.862 7       528.938          44.000    20382309.109 7  83462168.703 7       412.159          43.000
G04  22456266.805 8 118008526.505 8      3282.949          49.000    22456266.844 7  91954697.799 7      2558.145          46.000
G11  22057680.289 8 115913914.004 8     -3364.734          48.000    22057681.625 7  90322500.334 7     -2621.871          46.000
G22  20878003.734 8 109714747.265 8      -971.238          51.000    20878000.234 8  85491956.856 8      -756.809          50.000
R04  20461800.320 6 109572072.023 6     -2778.559          37.000    20461803.203 5  85222772.961 5     -2161.101          33.000
R05  19387702.531 8 103638450.555 8       877.738          51.000    19387704.828 8  80607672.004 8       682.685          49.000
R06  23207713.641 6 123840801.923 6      3722.559          37.000
R19  20983522.406 6 112247671.663 6     -3399.082          41.000    20983521.719 7  87303752.592 7     -2643.730          44.000
C05                                                                  39693237.086 5 159828216.659 5       -26.354          34.000
C14  23275718.391 4 121202773.876 4     -2332.836          29.000    23275720.742 5  93721634.572 5     -1803.592          33.000
C28  22152910.031 8 115356041.979 8     -1772.219          51.000
E07  23437896.789 8 123166972.246 8       236.270          51.000    23437900.195 8  94374711.924 8       181.065          51.000
E08  23673918.750 5 124407282.326 5     -2246.395          34.000
E13  25283875.547 8 132867653.624 8     -2392.344          49.000    25283880.750 8 101807703.405 8     -1833.095          51.000
E26  22289945.773 8 117134453.164 8        37.438          51.000    22289949.133 8  89752381.133 8        28.716          51.000
> 2020 05 06 21 01  0.0000000  0 15        .000000000000
G01  20579241.711 8 108144635.547 8     -1234.211          51.000    20579243.172 8  84268553.291 8      -961.723          51.000
G03  20379320.000 7 107094060.841 7       520.574          45.000    20379321.930 7  83449938.011 7       405.642          45.000
G04  22437549.609 7 117910169.176 7      3276.734          47.000    22437550.211 7  91878055.741 7      2553.300          47.000
G11  22076916.484 7 116015002.391 7     -3371.789          47.000    22076918.367 7  90401270.475 7     -2627.368          45.000
G22  20883572.750 8 109744012.419 8      -977.008          51.000    20883569.180 8  85514760.874 8      -761.305          50.000
R04  20477396.383 5 109655582.435 5     -2786.219          35.000    20477398.195 5  85287725.457 5     -2167.062          32.000
R05  19382830.016 8 103612405.803 8       861.332          51.000    19382832.898 8  80587414.991 8       669.925          50.000
R06  23186801.852 6 123729216.920 6      3718.914          39.000
R19  21002627.445 7 112349871.236 7     -3411.617          42.000    21002627.812 7  87383241.125 7     -2653.480          44.000
C05                                                                  39693431.703 5 159829000.347 5       -23.485          34.000
C14                                                                  23289171.812 5  93775801.536 5     -1805.338          34.000
C28  22163159.164 8 115409412.521 8     -1783.168          51.000
E07  23436580.500 8 123160054.479 8       227.570          51.000    23436583.680 8  94369411.313 8       174.399          51.000
E13  25297552.516 8 132939523.493 8     -2396.367          51.000    25297556.570 8 101862772.543 8     -1836.106          51.000
E26  22289762.125 8 117133488.100 8        29.504          51.000    22289765.211 8  89751641.662 8        22.670          51.000
> 2020 05 06 21 01 30.0000000  0 15        .000000000000
G01  20586343.570 8 108181955.397 8     -1252.715          51.000    20586344.758 8  84297633.685 8      -976.141          51.000
G03  20376399.180 7 107078711.727 7       504.246          44.000    20376400.883 7  83437977.710 7       392.919          43.000
G04  22418885.133 7 117812093.698 7      3262.664          46.000    22418886.922 7  91801633.264 7      2542.333          46.000
G11  22096211.305 8 116116397.667 8     -3386.676          48.000    22096213.070 7  90480279.751 7     -2638.965          43.000
G22  20889192.812 8 109773546.014 8      -990.664          51.000    20889189.109 8  85537774.060 8      -771.946          50.000
R04  20493050.070 5 109739340.127 5     -2802.051          30.000    20493051.758 5  85352827.837 5     -2179.373          31.000
R05  19378067.438 8 103586947.344 8       837.094          51.000    19378070.234 8  80567613.984 8       651.073          48.000
R06  23165930.500 7 123617842.906 7      3707.137          42.000
R19  21021819.633 6 112452536.858 6     -3431.551          40.000    21021820.609 7  87463092.134 7     -2668.987          44.000
C05                                                                  39693624.961 5 159829778.676 5       -27.288          34.000
C14                                                                  23302651.867 6  93830082.115 6     -1812.526          36.000
C28  22173488.656 8 115463203.099 8     -1801.723          51.000
E07  23435331.211 8 123153489.765 8       211.281          51.000    23435334.453 8  94364381.240 8       161.888          51.000
E13  25311270.000 8 133011606.301 8     -2408.020          51.000    25311273.219 8 101918004.807 8     -1845.061          50.000
E26  22289641.656 8 117132854.645 8        13.879          51.000    22289644.469 8  89751156.292 8        10.658          51.000
> 2020 05 06 21 02  0.0000000  0 15        .000000000000
G01  20593528.578 8 108219712.101 8     -1264.711          51.000    20593529.656 8  84327054.479 8      -985.492          51.000
G03  20373548.523 7 107063731.258 7       494.273          45.000    20373550.047 7  83426304.649 7       385.151          45.000
G04  22400280.055 8 117714324.304 8      3254.875          49.000    22400281.953 8  91725449.319 8      2536.266          48.000
G11  22115568.461 7 116218119.245 7     -3395.027          46.000    22115570.062 7  90559543.256 7     -2645.476          43.000
G22  20894867.922 8 109803369.125 8      -997.805          51.000    20894864.125 8  85561012.846 8      -777.510          50.000
R04  20508777.961 6 109823527.758 6     -2810.785          38.000    20508777.320 5  85418307.402 5     -2186.169          32.000
R05  19373418.703 8 103562097.155 8       819.387          51.000    19373421.117 8  80548286.057 8       637.301          49.000
R06  23145103.742 7 123506704.491 7      3701.746          42.000
R19  21041101.984 5 112555688.195 5     -3445.059          35.000    21041103.914 7  87543320.972 7     -2679.487          44.000
C05                                                                  39693821.141 5 159830568.504 5       -25.802          34.000
C14                                                                  23316163.203 5  93884492.344 5     -1815.550          31.000
C28  22183902.219 8 115517434.403 8     -1813.930          51.000
E07  23434153.422 8 123147299.648 8       201.195          51.000    23434156.312 8  94359638.182 8       154.160          51.000
E13  25325031.797 8 133083923.328 8     -2413.336          51.000    25325033.672 8 101973416.557 8     -1849.236          49.000
E26  22289588.594 8 117132575.538 8         4.477          51.000    22289591.352 8  89750942.422 8         3.436          51.000
> 2020 05 06 21 02 30.0000000  0 15        .000000000000
G01  20600791.812 8 108257880.635 8     -1279.414          51.000    20600792.922 8  84356796.205 8      -996.946          51.000
G03  20370763.445 7 107049094.247 7       481.867          45.000    20370764.422 7  83414899.148 7       375.481          45.000
G04  22381729.727 8 117616838.385 8      3244.531          51.000    22381730.914 7  91649486.301 7      2528.209          47.000
G11  22134982.531 7 116320139.867 7     -3405.930          45.000    22134983.953 7  90639039.825 7     -2653.971          43.000
G22  20900593.180 8 109833456.289 8     -1007.469          51.000    20900589.430 8  85584457.392 8      -785.041          50.000
R04  20524566.055 6 109908035.703 6     -2822.312          36.000    20524560.484 5  85484035.717 5     -2195.135          33.000
R05  19368878.766 8 103537829.248 8       799.004          51.000    19368881.477 8  80529411.034 8       621.447          50.000
R06  23124316.828 7 123395777.532 7      3693.648          43.000
R19  21060468.500 5 112659297.331 5     -3461.570          33.000    21060472.695 7  87623905.930 7     -2692.329          45.000
R20  19413970.703 6 103815227.640 6       848.480          36.000    19413969.938 6  80745172.411 6       659.929          39.000
C14                                                                  23329701.344 4  93939011.878 4     -1819.447          29.000
C28  22194395.797 8 115572080.587 8     -1828.672          51.000
E07  23433042.008 8 123141458.741 8       188.680          51.000    23433044.305 8  94355162.689 8       144.534          51.000
E13  25338833.117 8 133156448.981 8     -2421.195          51.000    25338833.625 8 102028988.147 8     -1855.154          49.000
E26  22289598.297 8 117132626.528 8        -7.461          51.000    22289601.086 8  89750981.477 8        -5.690          51.000
> 2020 05 06 21 03  0.0000000  0 15        .000000000000
G01  20608137.242 8 108296481.585 8     -1293.766          51.000    20608138.398 8  84386874.862 8     -1008.129          51.000
G03  20368047.445 7 107034821.093 7       469.863          44.000    20368048.125 7  83403777.204 7       366.127          45.000
G04  22363237.844 8 117519659.113 8      3234.281          50.000    22363238.180 7  91573762.229 7      2520.222          47.000
G11  22154456.305 7 116422478.245 7     -3416.406          44.000    22154458.047 7  90718784.013 7     -2662.135          43.000
G22  20906372.484 8 109863827.362 8     -1016.938          51.000    20906368.938 8  85608123.158 8      -792.419          50.000
R04  20540412.430 5 109992881.682 5     -2833.996          30.000    20540402.117 5  85550027.003 5     -2204.216          30.000
R05  19364452.023 8 103514164.129 8       778.914          51.000    19364454.586 8  80511004.829 8       605.822          50.000
R06  23103573.492 7 123285085.191 7      3685.871          43.000
R19  21079925.078 5 112763383.032 5     -3477.547          35.000    21079930.703 7  87704861.504 7     -2704.759          46.000
R20  19409279.781 6 103790148.616 6       823.977          36.000    19409280.500 6  80725666.499 6       640.871          40.000
C14                                                                  23343270.680 4  93993680.717 4     -1823.536          29.000
C28  22204973.297 8 115627161.105 8     -1843.160          51.000
E07  23432000.875 8 123135987.369 8       176.359          51.000    23432002.938 8  94350970.349 8       135.144          51.000
E13  25352677.734 8 133229203.392 8     -2428.875          51.000    25352677.695 8 102084735.014 8     -1861.113          48.000
E26  22289674.906 8 117133029.105 8       -19.164          51.000    22289677.641 8  89751289.942 8       -14.672          51.000
> 2020 05 06 21 03 30.0000000  0 16        .000000000000
G01  20615561.547 8 108335497.852 8     -1306.855          51.000    20615562.828 8  84417277.142 8     -1018.332          51.000
G03  20365397.133 7 107020894.536 7       459.168          45.000    20365398.078 7  83392925.373 7       357.793          45.000
G04  22344801.312 8 117422771.908 8      3225.344          50.000    22344800.969 7  91498265.746 7      2513.258          46.000
G11  22173987.055 7 116525115.338 7     -3425.578          45.000    22173988.828 7  90798761.021 7     -2669.279          44.000
G22  20912202.500 8 109894464.554 8     -1025.039          51.000    20912199.156 8  85631996.292 8      -798.732          51.000
R04  20556313.336 5 110078045.293 5     -2843.586          30.000    20556304.508 5  85616265.392 5     -2211.675          31.000
R05  19360134.523 8 103491084.260 8       760.223          51.000    19360137.344 8  80493053.836 8       591.284          50.000
R06  23082870.453 6 123174611.965 6      3679.613          40.000
R19  21099467.648 6 112867925.218 6     -3491.625          36.000    21099474.023 7  87786172.109 7     -2715.708          46.000
R20  19404722.312 6 103765779.284 6       801.051          36.000    19404723.734 6  80706712.556 6       623.036          41.000
C05                                                                  39694407.008 5 159832928.112 5       -25.793          35.000
C14                                                                  23356868.867 4  94048430.869 4     -1825.615          29.000
C28  22215631.094 8 115682658.043 8     -1856.207          51.000
E07  23431026.875 8 123130868.143 8       165.344          51.000    23431028.875 8  94347047.839 8       126.713          51.000
E13  25366562.328 8 133302168.923 8     -2434.988          50.000    25366561.688 8 102140643.668 8     -1865.959          48.000
E26  22289815.336 8 117133767.053 8       -29.613          51.000    22289817.922 8  89751855.378 8       -22.697          51.000
> 2020 05 06 21 04  0.0000000  0 16        .000000000000
G01  20623067.766 8 108374944.645 8     -1322.031          51.000    20623069.219 8  84448014.857 8     -1030.154          51.000
G03  20362816.062 7 107007329.742 7       446.223          46.000    20362816.727 7  83382355.396 7       347.703          46.000
G04  22326423.273 8 117326194.484 8      3214.125          48.000    22326422.438 7  91423010.646 7      2504.513          45.000
G11  22193578.016 8 116628064.197 8     -3436.758          49.000    22193579.109 7  90878980.944 7     -2677.990          44.000
G22  20918086.086 8 109925382.681 8     -1035.191          51.000    20918082.688 8  85656088.332 8      -806.643          50.000
R04  20572265.906 4 110163558.343 4     -2855.523          29.000    20572280.445 5  85682794.866 5     -2220.963          33.000
R05  19355929.117 8 103468604.528 8       739.387          51.000    19355932.016 8  80475569.594 8       575.076          49.000
R06  23062210.531 6 123064374.681 6      3670.832          38.000
R19  21119098.797 6 112972937.010 6     -3507.977          37.000    21119105.180 7  87867847.958 7     -2728.426          45.000
R20  19400300.891 6 103742137.589 6       775.984          36.000    19400302.750 7  80688324.565 7       603.543          42.000
C05                                                                  39694603.969 5 159833721.187 5       -26.768          34.000
C14  23370497.469 5 121696304.857 5     -2367.793          30.000    23370499.086 5  94103306.225 5     -1831.181          31.000
C28  22226372.023 8 115738585.567 8     -1871.320          51.000
E07  23430122.680 8 123126116.018 8       152.402          51.000    23430124.547 8  94343406.620 8       116.725          51.000
E13  25380489.633 8 133375360.352 8     -2443.352          50.000    25380488.898 8 102196725.369 8     -1872.137          48.000
E26  22290022.578 8 117134856.477 8       -42.039          51.000    22290025.102 8  89752690.126 8       -32.230          51.000
> 2020 05 06 21 04 30.0000000  0 16        .000000000000
G01  20630650.703 8 108414793.859 8     -1335.797          51.000    20630652.117 8  84479066.156 8     -1040.881          51.000
G03  20360298.516 7 106994098.376 7       434.965          46.000    20360298.594 7  83372045.227 7       338.934          46.000
G04  22308098.641 7 117229901.202 7      3204.277          47.000    22308097.781 7  91347976.964 7      2496.839          44.000
G11  22213223.219 8 116731294.591 8     -3446.395          51.000    22213223.078 7  90959420.220 7     -2685.502          45.000
G22  20924017.641 8 109956552.906 8     -1043.953          51.000    20924014.070 8  85680376.819 8      -813.470          50.000
R04  20588293.180 5 110249351.182 5     -2865.180          33.000    20588302.305 5  85749522.625 5     -2228.473          32.000
R05  19351830.609 8 103446695.725 8       720.102          51.000    19351833.461 8  80458529.424 8       560.079          49.000
R06  23041590.797 6 122954346.977 6      3663.117          40.000
R19  21138811.883 6 113078387.027 6     -3522.992          38.000    21138818.281 7  87949864.624 7     -2740.108          44.000
R20  19396010.555 6 103719197.067 6       752.113          37.000    19396013.531 7  80670481.931 7       584.977          42.000
C05                                                                  39694797.453 5 159834499.957 5       -26.451          34.000
C14  23384154.672 4 121767428.594 4     -2373.934          28.000    23384156.125 5  94158280.080 5     -1834.392          30.000
C28  22237190.258 8 115794914.803 8     -1885.000          51.000
E07  23429282.898 8 123121702.499 8       140.723          51.000    23429284.594 8  94340024.841 8       107.868          51.000
E13  25394454.820 8 133448748.985 8     -2450.293          51.000    25394454.219 7 102252958.166 7     -1877.449          47.000
E26  22290291.484 8 117136270.071 8       -53.215          51.000    22290293.969 8  89753773.264 8       -40.808          51.000
> 2020 05 06 21 05  0.0000000  0 16        .000000000000
G01  20638309.633 8 108455041.721 8     -1349.008          51.000    20638311.000 8  84510428.133 8     -1051.175          51.000
G03  20357843.156 7 106981196.564 7       423.762          45.000    20357843.805 7  83361991.896 7       330.204          45.000
G04  22289827.711 7 117133890.890 7      3194.711          47.000    22289827.219 7  91273163.766 7      2489.385          43.000
G11  22232921.023 8 116834800.772 8     -3455.742          51.000    22232919.781 7  91040074.358 7     -2692.789          46.000
G22  20929996.430 8 109987971.249 8     -1052.293          51.000    20929992.766 8  85704858.659 8      -819.969          51.000
R04  20604365.906 5 110335450.169 5     -2875.688          32.000    20604363.484 4  85816457.055 4     -2236.646          27.000
R05  19347837.992 8 103425353.934 8       701.066          51.000    19347841.312 8  80441930.292 8       545.274          49.000
R06  23021010.695 6 122844526.411 6      3656.336          41.000
R19  21158605.875 6 113184269.485 6     -3537.727          37.000    21158611.930 7  88032217.576 7     -2751.568          43.000
R20  19391851.398 6 103696956.206 6       728.938          37.000    19391854.648 7  80653183.477 7       566.951          43.000
C05                                                                  39694986.742 5 159835261.824 5       -25.732          34.000
C14                                                                  23397839.734 6  94213348.853 6     -1837.851          36.000
C28  22248084.539 8 115851641.034 8     -1898.285          51.000
E07  23428506.852 8 123117623.552 8       129.641          51.000    23428508.250 8  94336899.434 8        99.287          51.000
E13  25408456.930 8 133522330.620 8     -2456.727          51.000    25408455.812 7 102309338.896 7     -1882.421          47.000
E26  22290621.586 8 117138005.018 8       -64.043          51.000    22290624.047 8  89755102.633 8       -49.009          51.000
> 2020 05 06 21 05 30.0000000  0 16        .000000000000
G01  20646050.773 8 108495721.592 8     -1362.348          51.000    20646052.336 8  84542126.712 8     -1061.570          51.000
G03  20355457.047 7 106968657.487 7       412.828          46.000    20355458.320 7  83352221.183 7       321.684          45.000
G04  22271617.906 8 117038199.196 8      3185.184          48.000    22271617.945 7  91198598.830 7      2481.961          44.000
G11  22252677.062 8 116938613.947 8     -3464.723          51.000    22252675.047 7  91120967.699 7     -2699.787          46.000
G22  20936028.516 8 110019670.121 8     -1060.453          51.000    20936025.062 8  85729559.093 8      -826.327          50.000
R04  20620506.773 5 110421866.303 5     -2885.020          34.000    20620501.859 4  85883682.796 4     -2243.907          29.000
R05  19343957.820 8 103404612.306 8       682.211          51.000    19343961.023 8  80425797.903 8       530.609          48.000
R06  23000476.672 7 122734949.188 7      3649.406          42.000
R19  21178486.469 6 113290615.350 6     -3552.047          37.000    21178492.117 7  88114930.965 7     -2762.703          43.000
R20  19387830.070 6 103675451.352 6       705.199          38.000    19387833.422 7  80636457.463 7       548.488          44.000
C05                                                                  39695178.195 5 159836033.371 5       -25.225          34.000
C14                                                                  23411551.648 5  94268537.034 5     -1840.986          32.000
C28  22259060.781 8 115908796.246 8     -1911.566          51.000
E07  23427800.766 8 123113912.166 8       118.254          51.000    23427801.820 8  94334055.660 8        90.667          51.000
E13  25422502.406 8 133596137.989 8     -2463.246          51.000    25422501.539 8 102365892.594 8     -1887.518          49.000
E26  22291019.367 8 117140095.455 8       -74.895          51.000    22291021.562 8  89756704.394 8       -57.405          51.000
> 2020 05 06 21 06  0.0000000  0 15        .000000000000
G01  20653895.141 8 108536943.430 8     -1379.121          51.000    20653896.812 8  84574247.602 8     -1074.640          51.000
G03  20353160.789 7 106956590.974 7       398.270          44.000    20353161.836 7  83342818.709 7       310.340          44.000
G04  22253490.555 8 116942938.666 8      3172.168          48.000    22253491.328 7  91124369.881 7      2471.819          45.000
G11  22272511.688 8 117042841.984 8     -3477.164          51.000    22272509.320 7  91202184.308 7     -2709.478          46.000
G22  20942134.633 8 110051758.987 8     -1072.082          51.000    20942131.445 8  85754563.412 8      -835.389          50.000
R04  20636739.820 4 110508742.262 4     -2898.461          27.000    20636727.375 5  85951218.589 5     -2254.368          32.000
R05  19340210.680 8 103384582.394 8       659.922          51.000    19340214.047 8  80410219.113 8       513.273          48.000
R06  22980009.523 6 122625728.813 6      3638.664          41.000
R19  21198473.891 6 113397534.307 6     -3569.660          37.000    21198479.805 7  88198090.128 7     -2776.402          44.000
R20  19383967.414 6 103654796.322 6       678.332          37.000    19383970.859 7  80620392.448 7       527.592          44.000
C05                                                                  39695392.688 5 159836897.028 5       -27.236          34.000
C28  22270139.953 8 115966488.330 8     -1927.996          51.000
E07  23427185.406 8 123110678.002 8       103.781          51.000    23427186.328 8  94331577.556 8        79.581          51.000
E13  25436611.672 8 133670280.537 8     -2473.016          50.000    25436612.391 8 102422703.096 8     -1894.905          51.000
E26  22291505.789 8 117142652.174 8       -88.988          51.000    22291507.914 8  89758663.426 8       -68.204          51.000
> 2020 05 06 21 06 30.0000000  0 14        .000000000000
G01  20661800.523 8 108578485.840 8     -1391.395          51.000    20661802.023 8  84606618.295 8     -1084.204          51.000
G03  20350912.016 7 106944775.519 7       388.520          43.000    20350912.914 7  83333611.868 7       302.742          44.000
G04  22235403.633 8 116847890.470 8      3163.551          48.000    22235405.164 7  91050306.380 7      2465.108          46.000
G11  22292382.375 8 117147261.319 8     -3484.973          51.000    22292380.203 7  91283549.980 7     -2715.563          46.000
G22  20948272.703 8 110084015.983 8     -1079.148          50.000    20948269.672 8  85779698.739 8      -840.895          50.000
R05  19336554.742 8 103365038.280 8       642.141          51.000    19336557.734 8  80395018.149 8       499.443          48.000
R06  22959566.578 6 122516642.267 6      3632.570          38.000
R19  21218525.641 6 113504798.433 6     -3582.762          38.000    21218531.461 7  88281517.779 7     -2786.592          43.000
R20  19380222.242 6 103634768.252 6       655.871          38.000    19380225.672 7  80604815.058 7       510.122          45.000
C05                                                                  39695588.188 5 159837684.387 5       -25.723          34.000
C28  22281279.688 8 116024497.038 8     -1940.098          51.000
E07  23426618.484 8 123107699.402 8        93.875          51.000    23426619.391 8  94329295.280 8        71.990          51.000
E13  25450742.414 8 133744536.431 8     -2478.180          49.000    25450744.281 8 102479600.503 8     -1898.826          51.000
E26  22292038.938 8 117145454.732 8       -98.684          51.000    22292041.250 8  89760810.831 8       -75.567          51.000
> 2020 05 06 21 07  0.0000000  0 15        .000000000000
G01  20669778.227 8 108620409.097 8     -1402.547          51.000    20669779.523 8  84639285.742 8     -1092.894          51.000
G03  20348722.859 7 106933271.459 7       379.543          46.000    20348723.922 7  83324647.657 7       295.748          46.000
G04  22217369.086 8 116753117.432 8      3155.777          48.000    22217371.227 7  90976457.267 7      2459.047          46.000
G11  22312300.211 8 117251930.277 8     -3491.898          51.000    22312298.273 7  91365110.174 7     -2720.963          44.000
G22  20954454.133 8 110116500.931 8     -1085.461          50.000    20954451.539 8  85805011.688 8      -845.814          50.000
R04  20669309.641 6 110683086.528 6     -2913.449          36.000    20669273.789 4  86086800.074 4     -2266.028          25.000
R05  19333000.914 8 103346041.191 8       625.348          51.000    19333003.766 8  80380242.637 8       486.382          48.000
R06  22939159.656 6 122407752.653 6      3627.742          37.000
R19  21238653.672 6 113612466.764 6     -3594.355          40.000    21238657.898 6  88365259.810 6     -2795.613          41.000
R20  19376606.008 6 103615430.452 6       634.438          38.000    19376609.727 7  80589774.543 7       493.451          46.000
C05                                                                  39695776.320 5 159838441.918 5       -23.754          34.000
C28  22292491.828 8 116082881.103 8     -1951.230          51.000
E07  23426111.750 8 123105036.444 8        84.582          51.000    23426112.391 8  94327254.849 8        64.875          51.000
E13  25464905.891 8 133818965.572 8     -2482.715          49.000    25464908.766 8 102536630.661 8     -1902.478          51.000
E26  22292630.578 8 117148564.396 8      -107.699          51.000    22292632.898 8  89763193.553 8       -82.550          51.000
> 2020 05 06 21 07 30.0000000  0 15        .000000000000
G01  20677833.523 8 108662740.255 8     -1420.395          51.000    20677834.930 8  84672271.050 8     -1106.801          51.000
G03  20346598.211 7 106922105.553 7       363.840          44.000    20346599.391 7  83315946.963 7       283.512          44.000
G04  22199392.508 8 116658649.009 8      3141.203          48.000    22199395.211 7  90902845.525 7      2447.691          46.000
G11  22332269.578 8 117356873.548 8     -3505.340          49.000    22332267.648 7  91446884.152 7     -2731.434          43.000
G22  20960684.188 8 110149240.552 8     -1098.297          51.000    20960682.047 8  85830523.075 8      -855.816          51.000
R04  20685669.680 5 110770681.785 5     -2927.375          35.000
R05  19329554.539 8 103327617.984 8       601.898          51.000    19329557.500 8  80365913.468 8       468.143          48.000
R06  22918795.055 6 122299088.831 6      3615.508          37.000
R19  21258862.430 7 113720564.195 7     -3613.035          42.000    21258864.305 6  88449335.539 6     -2810.138          39.000
R20  19373124.422 6 103596812.651 6       605.535          38.000    19373128.227 7  80575294.027 7       470.972          46.000
C14  23466654.180 5 122197022.493 5     -2401.266          32.000    23466648.359 5  94490474.793 5     -1856.865          32.000
C28  22303780.781 8 116141666.216 8     -1968.844          51.000
E07  23425670.047 8 123102715.730 8        68.945          51.000    23425670.781 8  94325476.645 8        52.858          51.000
E13  25479107.641 8 133893594.378 8     -2493.594          51.000    25479111.258 8 102593813.810 8     -1910.724          51.000
E26  22293285.961 8 117152008.900 8      -123.074          51.000    22293288.141 8  89765832.854 8       -94.292          51.000
> 2020 05 06 21 08  0.0000000  0 16        .000000000000
G01  20685987.055 8 108705586.540 8     -1434.398          51.000    20685988.594 8  84705657.766 8     -1117.713          51.000
G03  20344557.875 7 106911385.013 7       352.426          43.000    20344559.391 7  83307593.298 7       274.617          43.000
G04  22181494.812 8 116564595.026 8      3130.715          48.000    22181497.664 7  90829556.733 7      2439.521          46.000
G11  22352310.625 7 117462196.786 7     -3514.559          46.000    22352309.062 7  91528954.247 7     -2738.617          44.000
G22  20966983.086 8 110182341.279 8     -1106.875          51.000    20966981.008 8  85856315.849 8      -862.500          51.000
R04  20702102.078 5 110858671.327 5     -2937.250          33.000    20702069.461 4  86223397.111 4     -2284.528          27.000
R05  19326236.086 8 103309877.089 8       582.484          51.000    19326238.508 8  80352115.004 8       453.046          48.000
R06  22898494.031 6 122190762.267 6      3607.770          39.000
R19  21279171.391 7 113829197.356 7     -3627.438          42.000    21279170.922 6  88533827.932 6     -2821.343          39.000
R20  19369798.148 6 103579026.434 6       581.418          38.000    19369802.078 7  80561460.309 7       452.214          47.000
C05                                                                  39696166.250 5 159840011.209 5       -26.750          34.000
C14                                                                  23480500.398 5  94546253.067 5     -1860.291          32.000
C28  22315166.297 8 116200957.670 8     -1982.422          50.000
E07  23425313.609 8 123100844.232 8        57.461          51.000    23425314.844 8  94324042.662 8        43.960          51.000
E13  25493367.406 8 133968529.665 8     -2500.562          49.000    25493371.148 8 102651231.780 8     -1915.959          50.000
E26  22294025.617 8 117155896.454 8      -134.484          51.000    22294027.758 8  89768811.625 8      -103.055          51.000
> 2020 05 06 21 08 30.0000000  0 16        .000000000000
G01  20694210.133 8 108748797.891 8     -1449.727          51.000    20694211.766 8  84739328.968 8     -1129.657          51.000
G03  20342573.938 7 106900959.698 7       339.359          45.000    20342575.758 7  83299469.673 7       264.436          45.000
G04  22163647.883 7 116470807.959 7      3118.566          47.000    22163650.297 7  90756475.950 7      2430.052          45.000
G11  22372394.969 7 117567747.740 7     -3525.289          45.000    22372394.148 7  91611201.788 7     -2746.975          44.000
G22  20973322.227 8 110215652.610 8     -1117.082          51.000    20973319.711 8  85882272.726 8      -870.454          51.000
R04  20718548.273 4 110946883.774 4     -2948.051          29.000
R05  19323016.586 8 103292665.560 8       561.605          51.000    19323018.516 7  80338728.282 7       436.804          47.000
R06  22878228.461 6 122082621.788 6      3598.145          41.000
R19  21299551.164 6 113938210.818 6     -3643.180          41.000    21299549.938 6  88618616.121 6     -2833.587          41.000
R20  19366599.133 6 103561920.959 6       555.711          39.000    19366603.602 8  80548156.038 8       432.220          48.000
C05                                                                  39696360.070 5 159840792.636 5       -27.747          34.000
C14                                                                  23494369.336 4  94602089.824 4     -1865.426          29.000
C28  22326620.258 8 116260605.793 8     -1997.383          50.000
E07  23425014.219 8 123099271.678 8        44.215          51.000    23425015.648 8  94322837.720 8        33.867          51.000
E13  25507656.336 8 134043620.942 8     -2508.906          49.000    25507659.977 7 102708769.263 7     -1922.382          47.000
E26  22294821.141 8 117160077.925 8      -147.531          51.000    22294823.469 8  89772015.598 8      -113.019          51.000
> 2020 05 06 21 09  0.0000000  0 15        .000000000000
G01  20702520.633 8 108792469.594 8     -1463.793          51.000    20702522.453 8  84773358.875 8     -1140.618          51.000
G03  20340664.758 7 106890924.741 7       327.605          46.000    20340666.773 7  83291650.246 7       255.280          46.000
G04  22145870.172 7 116377385.591 7      3107.633          46.000    22145871.406 7  90683679.337 7      2421.532          43.000
G11  22392541.383 7 117673619.726 7     -3534.688          47.000    22392541.094 7  91693699.465 7     -2754.299          44.000
G17  22367659.656 6 117542844.188 6      1447.844          36.000
G22  20979719.469 8 110249269.336 8     -1125.914          51.000    20979716.586 8  85908467.570 8      -877.336          51.000
R05  19319913.734 8 103276079.787 8       542.090          51.000    19319915.711 7  80325828.230 7       421.625          47.000
R06  22858016.930 7 121974766.191 7      3590.055          42.000
R19  21320019.016 6 114047699.489 6     -3657.676          39.000    21320018.609 7  88703773.924 7     -2844.859          44.000
R20  19363545.969 6 103545595.191 6       530.793          39.000    19363550.852 8  80535458.204 8       412.839          48.000
C05                                                                  39696561.727 5 159841603.865 5       -27.786          34.000
C28  22338161.195 8 116320703.933 8     -2011.086          51.000
E07  23424789.617 8 123098092.964 8        32.473          51.000    23424791.359 8  94321934.548 8        24.864          51.000
E13  25521992.531 7 134118962.907 7     -2515.836          46.000    25521995.289 7 102766498.771 7     -1927.695          43.000
E26  22295690.953 8 117164649.421 8      -159.152          51.000    22295693.609 8  89775518.416 8      -121.915          51.000
> 2020 05 06 21 09 30.0000000  0 16        .000000000000
G01  20710889.734 8 108836449.273 8     -1466.840          51.000    20710891.711 8  84807628.770 8     -1142.992          51.000
G03  20338800.695 7 106881127.818 7       326.961          47.000    20338802.750 7  83284016.300 7       254.772          47.000
G04  22128132.625 7 116284178.169 7      3107.715          44.000    22128132.898 7  90611050.193 7      2421.596          44.000
G11  22412720.031 8 117779658.156 8     -3532.910          48.000    22412720.102 7  91776326.833 7     -2752.917          46.000
G17  22359413.148 6 117499524.075 6      1441.414          36.000
G22  20986145.711 8 110283038.625 8     -1123.777          51.000    20986142.672 8  85934781.301 8      -875.668          51.000
R04  20751683.328 5 111124204.417 5     -2956.590          35.000    20751652.938 4  86429911.063 4     -2299.576          28.000
R05  19316898.914 8 103259964.134 8       533.875          51.000    19316901.094 7  80313293.854 7       415.239          47.000
R06  22837830.391 7 121867042.573 7      3593.074          43.000
R19  21340545.750 5 114157505.482 5     -3661.156          35.000    21340546.523 7  88789178.591 7     -2847.563          45.000
R20  19360610.352 6 103529896.539 6       517.301          40.000    19360615.008 8  80523248.138 8       402.345          48.000
C05                                                                  39696742.414 5 159842331.407 5       -19.168          34.000
C28  22349759.789 8 116381100.132 8     -2013.844          51.000
E07  23424610.805 8 123097155.554 8        31.695          51.000    23424613.055 8  94321216.272 8        24.274          51.000
E13  25536346.961 7 134194402.844 7     -2511.992          46.000    25536347.438 7 102824303.268 7     -1924.627          42.000
E26  22296606.203 8 117169459.536 8      -159.871          51.000    22296609.047 8  89779204.085 8      -122.493          51.000
> 2020 05 06 21 10  0.0000000  0 15        .000000000000
G01  20719351.414 8 108880916.100 8     -1492.676          51.000    20719353.609 8  84842278.258 8     -1163.124          51.000
G03  20337015.656 7 106871747.977 7       303.340          45.000    20337017.562 7  83276707.311 7       236.366          45.000
G04  22110470.219 7 116191367.371 7      3084.578          45.000    22110470.984 7  90538730.075 7      2403.567          44.000
G11  22432964.227 8 117886040.370 8     -3554.164          49.000    22432964.820 7  91859222.061 7     -2769.478          46.000
G17  22351280.719 5 117456785.662 5      1412.152          33.000
G22  20992634.945 8 110317139.238 8     -1144.609          51.000    20992631.812 8  85961353.202 8      -891.903          51.000
R05  19314006.211 8 103244500.208 8       502.176          51.000    19314008.102 7  80301266.364 7       390.581          46.000
R06  22817703.141 7 121759635.002 7      3572.609          43.000
R19  21361163.672 5 114267808.593 5     -3687.480          34.000    21361167.188 7  88874969.975 7     -2868.037          46.000
R20  19357826.570 6 103515009.065 6       480.137          40.000    19357830.852 8  80511668.987 8       373.440          49.000
C05                                                                  39696936.273 5 159843111.749 5       -28.701          34.000
C28  22361449.633 8 116441970.894 8     -2039.371          50.000
E07  23424511.977 8 123096638.258 8         7.926          51.000    23424514.656 8  94320819.903 8         6.043          51.000
E13  25550754.469 7 134270119.363 7     -2530.848          46.000    25550755.852 7 102882319.790 7     -1939.335          45.000
E26  22297601.188 8 117174688.294 8      -183.676          51.000    22297604.078 8  89783210.528 8      -140.718          51.000
> 2020 05 06 21 10 30.0000000  0 16        .000000000000
G01  20727898.055 8 108925830.596 8     -1503.750          51.000    20727900.695 8  84877276.568 8     -1171.753          51.000
G03  20335302.633 7 106862745.778 7       294.492          47.000    20335304.383 7  83269692.577 7       229.474          47.000
G04  22092877.281 8 116098916.214 8      3076.637          48.000    22092878.594 7  90466690.215 7      2397.382          45.000
G11  22453265.977 8 117992724.862 8     -3560.242          50.000    22453266.969 7  91942352.822 7     -2774.215          46.000
G17  22343250.641 5 117414591.761 5      1398.805          35.000
G22  20999179.633 8 110351531.348 8     -1150.355          51.000    20999176.453 8  85988152.251 8      -896.381          51.000
R04  20785016.266 4 111302783.058 4     -2984.082          29.000    20784996.164 4  86568788.937 4     -2320.953          29.000
R05  19311227.398 8 103229647.590 8       485.715          50.000    19311229.328 7  80289714.352 7       377.781          47.000
R06  22797627.672 7 121652504.851 7      3567.211          42.000
R19  21381868.094 6 114378566.283 6     -3698.461          37.000    21381872.672 7  88961114.906 7     -2876.581          45.000
R20  19355187.266 6 103500894.603 6       458.453          41.000    19355191.461 8  80500691.060 8       356.575          49.000
C05                                                                  39697135.656 5 159843914.899 5       -26.158          35.000
C28  22373222.711 8 116503276.165 8     -2049.918          50.000
E07  23424485.570 8 123096501.399 8         -.859          51.000    23424488.742 8  94320715.049 8         -.664          51.000
E13  25565206.906 7 134346072.672 7     -2534.680          44.000    25565211.094 8 102940517.762 8     -1942.160          48.000
E26  22298668.516 8 117180297.164 8      -192.383          51.000    22298671.539 8  89787508.230 8      -147.377          51.000
> 2020 05 06 21 11  0.0000000  0 17        .000000000000
G01  20736515.914 8 108971120.054 8     -1510.055          49.000    20736518.992 8  84912567.055 8     -1176.666          49.000
G03  20333647.734 7 106854048.358 7       290.711          46.000    20333649.273 7  83262915.387 7       226.528          46.000
G04  22075340.070 8 116006754.524 8      3073.125          49.000    22075341.570 7  90394875.924 7      2394.643          46.000
G11  22473611.102 8 118099636.763 8     -3561.594          51.000    22473611.656 7  92025660.783 7     -2775.268          45.000
G17  22335310.633 6 117372871.913 6      1388.449          36.000
G22  21005765.789 8 110386141.782 8     -1151.355          51.000    21005762.719 8  86015121.424 8      -897.160          51.000
R04  20801751.367 5 111392407.087 5     -2985.809          34.000    20801731.578 4  86638499.370 4     -2322.296          29.000
R05  19308549.281 8 103215331.587 8       474.215          51.000    19308551.320 7  80278579.701 7       368.837          47.000
R06  22777590.539 7 121545580.825 7      3566.602          42.000
R19  21402644.734 6 114489702.087 6     -3704.961          41.000    21402648.383 7  89047553.857 7     -2881.636          43.000
R20  19352679.000 6 103487481.351 6       441.379          41.000    19352682.898 8  80490258.529 8       343.295          48.000
C05                                                                  39697327.055 5 159844685.505 5       -20.812          34.000
C14  23564110.070 4 122704514.686 4     -2424.863          29.000    23564128.414 5  94882918.977 5     -1874.937          31.000
C28  22385065.109 8 116564942.809 8     -2055.688          50.000
E07  23424517.828 8 123096671.980 8        -4.984          51.000    23424521.398 8  94320845.761 8        -3.789          51.000
E13  25579691.219 7 134422189.528 7     -2534.082          44.000    25579697.125 8 102998841.091 8     -1941.753          50.000
E26  22299794.500 8 117186214.329 8      -196.480          51.000    22299797.789 8  89792042.155 8      -150.541          51.000
> 2020 05 06 21 11 30.0000000  0 15        .000000000000
G01  20745233.453 8 109016933.415 8     -1529.742          49.000    20745236.578 8  84948265.780 8     -1192.007          49.000
G03  20332079.008 7 106845804.711 7       273.512          46.000    20332080.453 7  83256491.796 7       213.126          46.000
G04  22057886.836 8 115915033.835 8      3056.086          50.000    22057888.422 7  90323405.288 7      2381.369          47.000
G11  22494027.578 8 118206923.187 8     -3576.309          51.000    22494027.359 7  92109260.560 7     -2786.734          45.000
G17  22327487.594 5 117331737.944 5      1365.453          31.000
G22  21012421.789 8 110421119.141 8     -1165.871          51.000    21012418.812 8  86042376.509 8      -908.468          51.000
R04  20818551.461 5 111482383.043 5     -3001.094          30.000    20818536.055 4  86708485.338 4     -2334.190          28.000
R05  19305999.375 8 103201703.090 8       449.055          50.000    19306001.914 8  80267979.772 8       349.265          48.000
R06  22757620.422 7 121439015.649 7      3552.375          42.000
R19  21423519.938 7 114601364.972 7     -3724.473          42.000    21423522.094 7  89134402.735 7     -2896.815          43.000
R20  19350330.672 6 103474922.819 6       410.590          41.000    19350334.211 8  80480490.774 8       319.348          49.000
C28  22397005.266 8 116627117.461 8     -2074.828          51.000
E07  23424636.953 8 123097298.651 8       -22.426          51.000    23424640.664 8  94321325.940 8       -17.156          51.000
E13  25594234.898 7 134498618.479 7     -2546.742          43.000    25594241.195 8 103057403.579 8     -1951.364          50.000
E26  22301007.711 8 117192589.693 8      -214.078          51.000    22301011.383 8  89796927.157 8      -164.025          51.000
> 2020 05 06 21 12  0.0000000  0 14        .000000000000
G01  20754019.883 8 109063107.402 8     -1545.879          50.000    20754022.859 8  84984245.515 8     -1204.581          50.000
G03  20330565.766 7 106837851.538 7       259.504          47.000    20330567.078 7  83250294.512 7       202.211          47.000
G04  22040486.891 8 115823593.413 8      3042.523          50.000    22040488.320 7  90252153.043 7      2370.797          47.000
G11  22514483.812 8 118314418.720 8     -3587.449          51.000    22514482.461 7  92193023.269 7     -2795.418          44.000
G22  21019116.430 8 110456299.838 8     -1176.805          51.000    21019113.562 8  86069790.041 8      -916.991          51.000
R05  19303547.297 8 103188595.440 8       427.516          50.000    19303550.133 8  80257784.924 8       332.512          48.000
R06  22737686.164 6 121332645.211 6      3541.695          41.000
R19  21444461.977 6 114713386.675 6     -3740.707          41.000    21444462.906 6  89221530.677 6     -2909.439          41.000
R20  19348111.250 6 103463054.682 6       383.281          41.000    19348114.891 8  80471259.997 8       298.108          49.000
C05                                                                  39697739.828 5 159846348.070 5       -26.768          34.000
C28  22409011.789 8 116689637.199 8     -2090.457          51.000
E07  23424811.844 8 123098217.833 8       -36.270          51.000    23424815.562 8  94322030.262 8       -27.815          51.000
E13  25608806.930 7 134575195.754 7     -2555.727          43.000    25608812.898 8 103116079.736 8     -1958.428          51.000
E26  22302277.438 8 117199260.822 8      -228.035          51.000    22302281.156 8  89802038.783 8      -174.749          51.000
> 2020 05 06 21 12 30.0000000  0 14        .000000000000
G01  20762881.789 8 109109676.434 8     -1557.910          51.000    20762884.500 8  85020533.043 8     -1213.959          51.000
G03  20329114.117 7 106830223.108 7       249.898          46.000    20329115.789 7  83244350.274 7       194.729          46.000
G04  22023146.969 8 115732470.115 8      3033.078          49.000    22023148.250 7  90181147.916 7      2363.438          47.000
G11  22534985.914 8 118422155.825 8     -3594.305          50.000    22534983.609 7  92276974.230 7     -2800.757          43.000
G22  21025856.172 8 110491717.702 8     -1183.602          51.000    21025853.461 8  86097388.365 8      -922.287          50.000
R05  19301199.148 8 103176043.013 8       410.117          50.000    19301202.148 8  80248021.940 8       318.980          48.000
R06  22717795.703 7 121226506.482 7      3535.152          42.000
R19  21465476.055 6 114825798.951 6     -3752.602          38.000    21465476.422 7  89308962.458 7     -2918.687          42.000
R20  19346027.891 6 103451914.350 6       360.289          41.000    19346031.609 8  80462595.290 8       280.225          49.000
C05                                                                  39697936.812 5 159847140.863 5       -25.536          34.000
C28  22421090.234 8 116752535.088 8     -2102.020          49.000
E07  23425049.188 8 123099463.676 8       -46.012          51.000    23425052.836 8  94322984.881 8       -35.244          51.000
E13  25623414.273 7 134651955.280 7     -2560.707          44.000    25623419.250 8 103174895.545 8     -1962.091          51.000
E26  22303610.203 8 117206262.967 8      -237.938          51.000    22303613.578 8  89807404.061 8      -182.334          51.000
> 2020 05 06 21 13  0.0000000  0 14        .000000000000
G01  20771820.094 8 109156645.569 8     -1573.352          51.000    20771822.328 8  85057132.315 8     -1225.988          51.000
G03  20327725.055 7 106822924.530 7       236.629          46.000    20327726.898 7  83238663.089 7       184.386          46.000
G04  22005868.555 8 115641671.657 8      3019.949          48.000    22005869.922 8  90110395.885 8      2353.210          48.000
G11  22555534.016 8 118530137.685 8     -3604.727          48.000    22555531.625 7  92361115.900 7     -2808.878          42.000
G22  21032641.992 8 110527377.539 8     -1193.855          50.000    21032639.289 8  86125175.257 8      -930.277          50.000
R05  19298955.906 8 103164050.552 8       389.145          51.000    19298958.680 8  80238694.486 8       302.668          48.000
R06  22697950.367 6 121120606.809 6      3524.762          40.000
R19  21486562.492 5 114938605.046 5     -3768.031          35.000    21486564.695 7  89396700.527 7     -2930.691          43.000
R20  19344081.969 6 103441508.258 6       333.254          41.000    19344085.633 8  80454501.656 8       259.197          49.000
C05                                                                  39698130.742 5 159847921.332 5       -26.714          34.000
C28  22433241.836 8 116815815.132 8     -2116.871          49.000
E07  23425349.531 8 123101040.990 8       -59.320          51.000    23425353.047 8  94324193.496 8       -45.492          51.000
E13  25638057.992 7 134728901.813 7     -2569.215          47.000    25638061.727 8 103233854.609 8     -1968.631          51.000
E26  22305006.859 8 117213602.204 8      -251.465          51.000    22305010.195 8  89813027.630 8      -192.699          51.000
> 2020 05 06 21 13 30.0000000  0 15        .000000000000
G01  20780838.477 8 109204035.335 8     -1581.715          51.000    20780840.328 8  85094059.388 8     -1232.505          51.000
G03  20326402.656 7 106815976.370 7       230.727          45.000    20326404.328 7  83233248.915 7       179.787          45.000
G04  21988656.000 7 115551221.109 7      3013.852          47.000    21988657.789 7  90039914.942 7      2348.456          47.000
G11  22576131.508 7 118638382.609 7     -3607.543          47.000    22576129.047 6  92445462.631 6     -2811.069          41.000
G22  21039477.656 8 110563299.502 8     -1196.879          49.000    21039474.961 8  86153166.402 8      -932.633          50.000
R04  20886255.461 5 111844882.327 5     -3032.949          31.000
R05  19296821.117 8 103152638.085 8       375.699          50.000    19296823.469 7  80229818.127 7       292.211          47.000
R06  22678153.406 5 121014967.965 5      3521.559          35.000
R19  21507725.227 5 115051823.057 5     -3775.492          33.000    21507729.984 7  89484758.992 7     -2936.494          42.000
R20  19342277.750 6 103431859.898 6       313.879          41.000    19342281.219 8  80446997.380 8       244.128          49.000
C05                                                                  39698325.469 5 159848705.514 5       -22.621          33.000
C28  22445471.070 8 116879496.674 8     -2124.570          50.000
E07  23425716.633 8 123102970.048 8       -65.328          51.000    23425719.844 8  94325671.618 8       -50.078          51.000
E13  25652741.469 8 134806055.425 8     -2570.410          51.000    25652744.414 8 103292972.326 8     -1969.520          51.000
E26  22306471.672 8 117221299.930 8      -257.730          51.000    22306475.352 8  89818925.892 8      -197.488          51.000
> 2020 05 06 21 14  0.0000000  0 14        .000000000000
G01  20789935.938 8 109251841.521 8     -1606.102          51.000    20789937.570 8  85131310.932 8     -1251.508          51.000
G03  20325146.180 7 106809374.401 7       208.695          45.000    20325147.773 7  83228104.515 7       162.620          45.000
G04  21971509.258 7 115461116.878 7      2992.008          46.000    21971511.477 7  89969703.845 7      2331.435          46.000
G11  22596777.891 7 118746884.774 7     -3626.859          47.000    22596776.242 7  92530009.782 7     -2826.124          42.000
G22  21046362.414 8 110599479.122 8     -1215.941          50.000    21046359.656 8  86181358.307 8      -947.487          50.000
R05  19294793.664 8 103141800.742 8       345.941          50.000    19294796.031 7  80221389.090 7       269.062          47.000
R06  22658402.148 4 120909588.842 4      3502.797          29.000
R19  21528964.562 5 115165446.146 5     -3799.934          34.000    21528971.117 7  89573132.502 7     -2955.504          42.000
R20  19340614.742 6 103422966.251 6       278.105          40.000    19340618.039 8  80440080.102 8       216.304          49.000
C05                                                                  39698520.438 5 159849490.560 5       -30.813          34.000
C28  22457777.047 8 116943574.532 8     -2148.059          51.000
E07  23426150.008 8 123105246.427 8       -87.324          51.000    23426152.875 8  94327415.875 8       -66.917          51.000
E13  25667463.539 8 134883411.487 8     -2587.445          51.000    25667465.969 8 103352245.170 8     -1982.681          51.000
E26  22308004.148 8 117229352.912 8      -280.047          51.000    22308008.133 8  89825096.357 8      -214.560          51.000
> 2020 05 06 21 14 30.0000000  0 15        .000000000000
G01  20799115.266 8 109300078.267 8     -1610.312          51.000    20799116.547 8  85168897.976 8     -1254.789          51.000
G03  20323958.430 7 106803132.876 7       206.836          46.000    20323960.148 7  83223240.973 7       161.171          46.000
G04  21954431.648 7 115371375.665 7      2990.016          46.000    21954433.711 7  89899775.633 7      2329.882          46.000
G11  22617476.219 8 118855656.159 8     -3625.391          49.000    22617475.250 7  92614766.695 7     -2824.980          42.000
G22  21053298.859 8 110635930.181 8     -1214.824          50.000    21053296.023 8  86209761.717 8      -946.616          50.000
R04  20920396.773 5 112027757.980 5     -3050.871          30.000
R05  19292876.602 8 103131552.508 8       336.562          50.000    19292878.570 7  80213418.240 7       261.771          46.000
R06  22638705.070 6 120804484.922 6      3503.383          36.000
R19  21550283.391 5 115279486.328 5     -3803.996          34.000    21550290.203 7  89661830.432 7     -2958.664          42.000
R20  19339095.766 6 103414844.154 6       262.727          40.000    19339099.273 8  80433762.907 8       204.343          49.000
C05                                                                  39698718.422 5 159850288.652 5       -23.379          34.000
C28  22470162.008 8 117008061.774 8     -2151.695          51.000
E07  23426652.008 8 123107884.055 8       -89.172          51.000    23426654.867 8  94329436.946 8       -68.318          51.000
E13  25682225.984 8 134960983.796 8     -2584.590          51.000    25682228.469 8 103411683.690 8     -1980.415          51.000
E26  22309606.977 8 117237776.249 8      -282.242          51.000    22309611.156 8  89831550.607 8      -216.255          51.000
> 2020 05 06 21 15  0.0000000  0 15        .000000000000
G01  20808375.148 8 109348739.108 8     -1633.703          51.000    20808376.523 8  85206815.547 8     -1273.015          51.000
G03  20322838.039 7 106797245.143 7       185.797          46.000    20322839.789 7  83218653.141 7       144.780          45.000
G04  21937422.492 7 115281993.431 7      2968.824          47.000    21937423.617 7  89830127.169 7      2313.370          44.000
