     3.02           OBSERVATION DATA    M (MIXED)           RINEX VERSION / TYPE
SAVERINEX           SC600               20200506 145931 LCL PGM / RUN BY / DATE
       G = GPS       R = GLONASS       C = COMPASS          COMMENT
       S = SBAS      J = QZSS          E = GALILEO          COMMENT
BEAN                                                        MARKER NAME
1                                                           MARKER NUMBER
GEODETIC                                                    MARKER TYPE
Unige DICCA         GTER                                    OBSERVER / AGENCY
SC60291900056       SC600               2.12(191226)        REC # / TYPE / VERS
                    HEMA45          NONE                    ANT # / TYPE
  4509407.8091   693652.4678  4442337.6214                  APPROX POSITION XYZ
        0.0000        0.0000        0.0000                  ANTENNA: DELTA H/E/N
G    8 C1C L1C D1C S1C C2Y L2Y D2Y S2Y                      SYS / # / OBS TYPES
R    8 C1C L1C D1C S1C C2P L2P D2P S2P                      SYS / # / OBS TYPES
C    8 C1I L1I D1I S1I C7I L7I D7I S7I                      SYS / # / OBS TYPES
E    8 C1C L1C D1C S1C C7Q L7Q D7Q S7Q                      SYS / # / OBS TYPES
DBHZ                                                        COMMENT
     30.000                                                 INTERVAL
  2020    05    06    12    00    0.0000000     GPS         TIME OF FIRST OBS
  2020    05    06    12    59   30.0000000     GPS         TIME OF LAST OBS
     0                                                      RCV CLOCK OFFS APPL
G L1C  0.00000                                              SYS / PHASE SHIFT
G L2Y  0.00000                                              SYS / PHASE SHIFT
R L1C  0.00000                                              SYS / PHASE SHIFT
R L2P  0.25000                                              SYS / PHASE SHIFT
C L1I  0.00000                                              SYS / PHASE SHIFT
C L7I  0.00000                                              SYS / PHASE SHIFT
E L1C  0.50000                                              SYS / PHASE SHIFT
E L7Q -0.25000                                              SYS / PHASE SHIFT
 13 R01  1 R02 -4 R07  5 R08  6 R10 -5 R11  0 R12 -1 R13 -2 GLONASS SLOT / FRQ #
    R14 -7 R17  4 R21  4 R22 -3 R23  3                      GLONASS SLOT / FRQ #
 C1C   71.950 C2C   71.950 C2P   71.950                     GLONASS COD/PHS/BIS
    18                                                      LEAP SECONDS
*** Above antenna height is from mark to ANTENNA BOTTOM.    COMMENT
    17     4        0.0000        ANT MEASURE TYPE/HEIGT    COMMENT
    0.0000    0.0000    0.0458    0.0405    0.0000          COMMENT
                    BASE STATION                            COMMENT
                                                            END OF HEADER
> 2020 05 06 12 00  0.0000000  0 15        .000000000000
G14  24079542.688 7 126538843.672 7     -2425.027          42.000    24079538.789 5  98601719.153 5     -1889.632          31.000
G18  22586776.023 8 118694365.559 8      3347.176          48.000    22586779.242 7  92489073.760 7      2608.189          47.000
G21  22399701.594 8 117711279.711 8      2926.641          51.000    22399698.727 6  91723017.486 6      2280.496          41.000
G25  21141042.211 8 111096907.324 8     -1954.445          49.000    21141044.023 8  86569024.077 8     -1522.947          49.000
G29  20254468.141 8 106437945.379 8      -495.934          51.000    20254467.461 8  82938659.389 8      -386.439          51.000
R12  21917259.219 7 117078031.395 7     -3522.527          46.000    21917262.867 7  91060691.189 7     -2739.747          47.000
R13  19177819.039 6 102408488.577 6      -303.953          39.000    19177822.469 7  79651052.095 7      -236.411          44.000
R23  19055993.789 8 101936712.833 8       364.410          50.000    19055998.844 6  79284147.796 6       283.433          41.000
R24  20832457.234 7 111400564.821 7      3233.961          47.000    20832460.336 7  86644838.233 7      2515.303          43.000
C12  23199511.109 7 120806070.753 7      2441.883          47.000    23199511.750 8  93414926.684 8      1888.255          50.000
C24  22236670.703 5 115792186.543 5       947.629          35.000
C26  22243934.898 8 115830001.456 8     -2026.195          51.000
E02  24365408.742 8 128041067.119 8     -1630.184          50.000    24365411.305 8  98109395.758 8     -1249.120          51.000
E30  22268103.055 7 117019668.273 7       822.531          43.000    22268101.031 6  89664429.833 6       630.449          38.000
E36  24496199.492 6 128728401.298 6     -1567.879          41.000    24496203.672 6  98636091.515 6     -1201.371          41.000
> 2020 05 06 12 00 30.0000000  0 16        .000000000000
G12  23466742.984 5 123318583.573 5     -2996.863          30.000
G14  24093403.898 6 126611683.167 6     -2428.910          41.000    24093398.227 5  98658477.163 5     -1892.654          30.000
G18  22567688.102 8 118594054.812 8      3342.168          49.000    22567690.602 8  92410909.562 8      2604.290          48.000
G21  22383018.562 8 117623608.451 8      2920.031          51.000    22383016.047 7  91654702.240 7      2275.349          42.000
G25  21152223.117 8 111155663.003 8     -1960.715          49.000    21152225.008 8  86614807.675 8     -1527.830          49.000
G29  20257333.586 8 106453003.306 8      -506.023          51.000    20257332.938 8  82950392.840 8      -394.304          51.000
R12  21937068.484 7 117183850.721 7     -3530.102          44.000    21937073.992 8  91142995.153 8     -2745.635          48.000
R13  19179582.023 6 102417903.407 6      -321.730          39.000    19179585.219 7  79658374.727 7      -250.235          44.000
R23  19054012.328 8 101926113.209 8       344.160          50.000    19054017.242 6  79275903.657 6       267.680          41.000
R24  20814353.562 8 111303754.753 8      3221.859          49.000    20814356.547 7  86569541.540 7      2505.894          44.000
C12  23185466.281 8 120732929.245 8      2436.105          48.000    23185465.273 8  93358369.066 8      1883.812          49.000
C24  22231244.266 6 115763929.117 6       938.203          36.000
C26  22255637.969 8 115890939.758 8     -2034.480          51.000
E02  24374731.961 8 128090063.025 8     -1634.164          49.000    24374734.977 8  98146938.076 8     -1252.167          51.000
E30  22263425.289 7 116995086.631 7       818.352          42.000    22263422.898 6  89645594.584 6       627.108          38.000
E36  24505176.156 7 128775575.966 7     -1574.984          44.000    24505180.242 6  98672238.310 6     -1206.833          41.000
> 2020 05 06 12 01  0.0000000  0 15        .000000000000
G14  24107293.875 6 126684674.888 6     -2436.531          40.000    24107287.961 4  98715353.791 4     -1898.596          27.000
G18  22548634.148 8 118493923.190 8      3333.488          49.000    22548635.977 7  92332884.953 7      2597.523          46.000
G21  22366379.172 8 117536167.601 8      2909.594          51.000    22366377.219 7  91586566.529 7      2267.219          43.000
G25  21163446.898 8 111214644.000 8     -1971.047          49.000    21163448.930 8  86660766.873 8     -1535.881          49.000
G29  20260262.789 8 106468396.182 8      -519.938          51.000    20260262.188 8  82962387.271 8      -405.146          51.000
R12  21956924.664 7 117289924.385 7     -3541.180          46.000    21956932.008 8  91225496.864 8     -2754.251          49.000
R13  19181451.906 6 102427888.057 6      -343.480          40.000    19181454.836 7  79666140.554 7      -267.151          44.000
R23  19052151.016 8 101916157.179 8       319.871          50.000    19052156.156 6  79268160.092 6       248.789          41.000
R24  20796324.359 8 111207343.006 8      3205.758          51.000    20796327.344 7  86494554.666 7      2493.370          44.000
C12  23171460.430 7 120659991.985 7      2426.586          47.000    23171458.242 8  93301969.378 8      1876.414          49.000
C24  22225881.594 6 115736003.731 6       924.430          38.000
C26  22267395.078 8 115952160.469 8     -2046.602          51.000
E02  24384084.070 8 128139211.309 8     -1642.133          49.000    24384087.719 8  98184597.144 8     -1258.219          51.000
E30  22258777.031 7 116970661.886 7       810.297          43.000    22258775.422 6  89626879.519 6       620.892          39.000
E36  24514200.391 7 128822997.604 7     -1586.055          44.000    24514204.664 6  98708574.346 6     -1215.387          41.000
> 2020 05 06 12 01 30.0000000  0 15        .000000000000
G14  24121228.812 6 126757902.774 6     -2445.293          40.000    24121223.141 5  98772414.373 5     -1905.435          32.000
G18  22529631.023 8 118394060.332 8      3324.043          48.000    22529632.289 7  92255069.765 7      2590.163          46.000
G21  22349800.570 8 117449046.462 8      2898.426          51.000    22349799.109 7  91518679.959 7      2258.517          43.000
G25  21174729.758 7 111273936.650 7     -1981.855          47.000    21174732.070 7  86706968.912 7     -1544.306          47.000
G29  20263272.023 8 106484209.616 8      -534.336          51.000    20263271.406 8  82974709.435 8      -416.366          51.000
R12  21976846.023 8 117396338.452 8     -3552.891          48.000    21976853.289 8  91308263.368 8     -2763.359          49.000
R13  19183445.172 6 102438531.077 6      -366.211          40.000    19183448.156 7  79674418.442 7      -284.831          44.000
R23  19050426.508 8 101906931.951 8       295.172          51.000    19050431.633 6  79260984.924 6       229.578          41.000
R24  20778386.406 8 111111420.320 8      3189.133          51.000    20778389.688 7  86419948.173 7      2480.437          45.000
C12  23157509.781 7 120587345.711 7      2416.422          46.000    23157507.617 8  93245794.660 8      1868.633          50.000
C24  22220599.430 6 115708497.758 6       909.703          38.000
C26  22279222.547 8 116013748.651 8     -2059.281          51.000
E02  24393482.219 8 128188598.650 8     -1650.391          51.000    24393486.203 8  98222439.383 8     -1264.585          51.000
E30  22254175.172 7 116946481.782 7       801.895          42.000    22254174.680 6  89608351.889 6       614.496          40.000
E36  24523288.195 7 128870751.412 7     -1597.539          42.000    24523292.344 6  98745164.940 6     -1224.082          41.000
> 2020 05 06 12 02  0.0000000  0 15        .000000000000
G14  24135209.148 6 126831369.437 6     -2452.289          39.000    24135204.336 5  98829661.092 5     -1910.875          35.000
G18  22510679.828 7 118294474.495 7      3315.098          47.000    22510681.242 7  92177470.398 7      2583.193          45.000
G21  22333284.234 8 117362252.744 8      2887.930          51.000    22333282.812 7  91451048.537 7      2250.338          43.000
G25  21186072.883 7 111333545.923 7     -1992.047          47.000    21186075.219 7  86753417.662 7     -1552.244          47.000
G29  20266362.117 8 106500447.893 8      -547.992          51.000    20266361.406 8  82987362.645 8      -427.007          51.000
R12  21996831.359 7 117503096.803 7     -3564.078          45.000    21996838.891 8  91391297.650 8     -2772.061          48.000
R13  19185563.281 6 102449839.717 6      -387.512          40.000    19185566.070 7  79683214.031 7      -301.398          43.000
R23  19048839.398 8 101898442.725 8       271.059          51.000    19048844.812 6  79254382.222 6       210.823          40.000
R24  20760541.430 8 111015994.548 8      3172.746          50.000    20760544.703 7  86345728.130 7      2467.691          44.000
C12  23143615.109 7 120514996.726 7      2406.984          44.000    23143614.281 8  93189849.850 8      1861.182          51.000
C24  22215398.273 5 115681417.959 5       895.918          35.000
C26  22291121.117 8 116075708.737 8     -2071.309          51.000
E02  24402927.391 8 128238230.610 8     -1658.223          51.000    24402931.211 8  98260469.030 8     -1270.502          51.000
E30  22249621.328 7 116922552.813 7       793.680          42.000    22249621.523 6  89590016.704 6       608.141          41.000
E36  24532439.484 7 128918841.476 7     -1608.359          44.000    24532442.805 6  98782013.181 6     -1232.221          40.000
> 2020 05 06 12 02 30.0000000  0 15        .000000000000
G14  24149233.016 6 126905066.537 6     -2460.449          38.000    24149228.727 6  98887087.281 6     -1917.242          36.000
G18  22491781.078 7 118195163.090 7      3305.746          47.000    22491782.633 7  92100084.881 7      2575.906          45.000
G21  22316829.422 8 117275783.547 8      2876.773          50.000    22316827.797 7  91383669.994 7      2241.645          43.000
G25  21197475.180 7 111393466.031 7     -2002.570          47.000    21197477.258 7  86800108.658 7     -1560.444          47.000
G29  20269531.648 8 106517104.365 8      -562.199          51.000    20269530.961 8  83000341.725 8      -438.074          51.000
R12  22016879.383 7 117610191.882 7     -3575.480          47.000    22016887.281 7  91474593.782 7     -2780.932          47.000
R13  19187804.953 6 102461808.988 6      -410.133          40.000    19187807.438 7  79692523.450 7      -318.992          42.000
R23  19047389.016 8 101890683.029 8       246.352          51.000    19047393.977 6  79248346.901 6       191.607          40.000
R24  20742788.867 8 110921062.493 8      3156.012          50.000    20742791.680 7  86271892.097 7      2454.676          44.000
C12  23129776.820 7 120442940.635 7      2396.918          45.000    23129777.195 8  93134131.535 8      1853.449          51.000
C24  22210279.102 6 115654760.257 6       881.234          37.000
C26  22303089.828 8 116138034.535 8     -2083.688          49.000
E02  24412418.172 8 128288101.839 8     -1666.445          51.000    24412421.344 8  98298682.004 8     -1276.923          51.000
E30  22245114.688 7 116898870.693 7       785.430          42.000    22245115.312 6  89571870.675 6       601.586          41.000
E36  24541653.500 7 128967261.114 7     -1619.555          46.000    24541655.484 6  98819113.899 6     -1241.098          41.000
> 2020 05 06 12 03  0.0000000  0 15        .000000000000
G14  24163298.555 6 126978982.506 6     -2466.875          40.000    24163295.273 5  98944684.112 5     -1922.243          31.000
G18  22472934.219 8 118096120.300 8      3297.379          49.000    22472934.883 7  92022908.683 7      2569.386          43.000
G21  22300434.805 8 117189632.658 8      2866.902          49.000    22300433.773 7  91316539.478 7      2233.950          44.000
G25  21208935.000 7 111453687.955 7     -2011.824          47.000    21208937.672 7  86847034.828 7     -1567.655          47.000
G29  20272778.789 8 106534169.482 8      -575.176          51.000    20272778.336 8  83013639.239 8      -448.186          51.000
R12  22036990.047 8 117717613.209 8     -3585.625          50.000    22036996.297 7  91558143.649 7     -2788.822          44.000
R13  19190168.734 6 102474431.498 6      -431.094          41.000    19190171.445 7  79702340.943 7      -335.295          43.000
R23  19046073.148 8 101883643.285 8       223.262          51.000    19046077.820 6  79242871.571 6       173.648          40.000
R24  20725127.242 8 110826617.873 8      3140.570          50.000    20725129.828 7  86198435.185 7      2442.666          44.000
C12  23115993.727 7 120371169.641 7      2388.008          46.000    23115994.547 8  93078633.691 8      1846.613          50.000
C24  22205239.891 6 115628517.408 6       868.453          39.000
C26  22315126.664 7 116200716.567 7     -2094.914          47.000
E02  24421952.664 8 128338203.683 8     -1673.387          51.000    24421955.148 8  98337071.695 8     -1282.289          51.000
E30  22240653.734 7 116875427.885 7       777.828          43.000    22240654.719 7  89553907.971 7       596.079          42.000
E36  24550928.398 7 129016000.198 7     -1629.480          44.000    24550929.945 6  98856459.366 6     -1248.413          40.000
> 2020 05 06 12 03 30.0000000  0 15        .000000000000
G14  24177404.984 6 127053113.002 6     -2474.270          40.000    24177403.055 5  99002448.098 5     -1928.005          33.000
G18  22454139.117 8 117997347.392 8      3288.223          50.000    22454138.109 7  91945942.825 7      2562.254          42.000
G21  22284100.922 8 117103800.737 8      2856.070          49.000    22284101.031 7  91249657.474 7      2225.509          46.000
G25  21220451.891 7 111514209.729 7     -2022.094          47.000    21220455.078 7  86894194.622 7     -1575.657          47.000
G29  20276103.375 8 106551640.468 8      -588.809          51.000    20276102.828 8  83027252.992 8      -458.812          51.000
R12  22057161.141 8 117825357.097 8     -3596.512          51.000    22057165.117 6  91641944.389 6     -2797.287          40.000
R13  19192654.648 6 102487705.994 6      -453.332          41.000    19192657.727 7  79712665.525 7      -352.595          44.000
R23  19044891.297 8 101877320.970 8       199.133          51.000    19044895.930 6  79237954.245 6       154.881          41.000
R24  20707556.961 8 110732661.288 8      3123.949          50.000    20707559.242 7  86125357.866 7      2429.738          44.000
C12  23102265.703 8 120299683.275 8      2378.391          48.000    23102266.055 8  93023355.924 8      1839.153          49.000
C24  22200280.617 6 115602689.191 6       854.406          40.000
C26  22327230.320 7 116263752.378 7     -2106.758          46.000
E02  24431530.414 8 128388534.637 8     -1681.164          51.000    24431532.586 8  98375636.944 8     -1288.192          51.000
E30  22236238.375 7 116852223.842 7       769.609          44.000    22236239.641 7  89536128.244 7       589.880          42.000
E36  24560263.406 7 129065055.669 7     -1639.980          44.000    24560265.961 6  98894047.356 6     -1256.794          40.000
> 2020 05 06 12 04  0.0000000  0 15        .000000000000
G14  24191553.578 6 127127464.916 6     -2481.895          40.000    24191553.445 6  99060384.600 6     -1933.947          36.000
G18  22435397.594 8 117898857.030 8      3278.488          50.000    22435394.750 6  91869197.152 6      2554.669          40.000
G21  22267830.422 8 117018299.991 8      2844.727          50.000    22267831.320 7  91183033.512 7      2216.670          47.000
G25  21232027.688 8 111575040.737 8     -2032.598          48.000    21232030.648 8  86941595.411 8     -1583.842          48.000
G29  20279506.812 8 106569525.863 8      -602.777          51.000    20279506.289 8  83041189.668 8      -469.697          51.000
R12  22077393.055 8 117933431.756 8     -3607.648          49.000    22077396.156 6  91726002.337 6     -2805.955          39.000
R13  19195264.805 6 102501644.021 6      -475.473          40.000    19195268.109 7  79723506.186 7      -369.815          43.000
R23  19043845.289 8 101871725.390 8       174.770          51.000    19043849.805 6  79233602.143 6       135.935          41.000
R24  20690080.625 8 110639205.273 8      3107.055          50.000    20690082.070 7  86052669.896 7      2416.601          43.000
C12  23088594.594 8 120228492.072 8      2368.469          50.000    23088593.977 8  92968306.413 8      1831.462          48.000
C24  22195402.766 6 115577286.779 6       839.828          40.000
C26  22339404.547 8 116327150.785 8     -2119.012          49.000
E02  24441153.523 8 128439104.531 8     -1689.309          51.000    24441155.828 8  98414385.275 8     -1294.408          51.000
E30  22231870.227 7 116829269.434 7       761.332          44.000    22231871.945 7  89518539.782 7       583.418          43.000
E36  24569660.148 7 129114436.057 7     -1651.133          45.000    24569664.062 6  98931884.257 6     -1265.106          40.000
> 2020 05 06 12 04 30.0000000  0 15        .000000000000
G14  24205743.500 6 127202032.722 6     -2489.281          40.000    24205744.234 5  99118489.326 5     -1939.700          35.000
G18  22416709.555 8 117800649.590 8      3268.703          49.000    22416705.281 6  91792671.964 6      2547.047          40.000
G21  22251623.289 8 116933130.309 8      2833.238          50.000    22251624.586 8  91116667.537 8      2207.718          48.000
G25  21243662.000 8 111636178.058 8     -2043.191          49.000    21243664.672 8  86989234.872 8     -1592.097          49.000
G29  20282988.500 8 106587822.108 8      -616.902          51.000    20282988.086 8  83055446.482 8      -480.703          51.000
R12  22097685.031 8 118041832.542 8     -3618.969          48.000    22097688.266 6  91810313.958 6     -2814.757          39.000
R13  19197998.570 6 102516243.206 6      -497.879          39.000    19198001.969 7  79734861.100 7      -387.239          44.000
R23  19042934.234 8 101866853.053 8       150.219          50.000    19042939.109 6  79229812.574 6       116.840          41.000
R24  20672697.914 8 110546249.416 8      3089.988          50.000    20672697.797 7  85980370.970 7      2403.327          42.000
C12  23074979.859 8 120157594.470 8      2358.082          50.000    23074978.328 8  92913483.884 8      1823.545          49.000
C24  22190606.000 6 115552308.935 6       825.254          40.000
C26  22351649.234 8 116390908.481 8     -2131.457          51.000
E02  24450821.578 8 128489910.950 8     -1697.555          51.000    24450824.141 8  98453314.816 8     -1300.700          51.000
E30  22227549.562 7 116806563.345 7       752.641          45.000    22227551.406 7  89501141.619 7       576.633          44.000
E36  24579117.992 7 129164137.471 7     -1662.141          44.000    24579122.258 6  98969967.129 6     -1273.543          40.000
> 2020 05 06 12 05  0.0000000  0 15        .000000000000
G14  24219975.805 6 127276822.279 6     -2496.281          39.000    24219976.852 5  99176766.865 5     -1945.151          34.000
G18  22398077.047 8 117702736.343 8      3259.152          48.000    22398073.359 7  91716375.975 7      2539.602          42.000
G21  22235481.422 8 116848302.613 8      2822.164          50.000    22235482.594 7  91050568.051 7      2199.092          47.000
G25  21255356.023 8 111697629.878 8     -2053.207          49.000    21255358.547 8  87037119.383 8     -1599.902          49.000
G29  20286549.773 8 106606536.642 8      -630.594          51.000    20286549.445 8  83070029.234 8      -491.372          51.000
R12  22118038.789 7 118150566.405 7     -3629.680          47.000    22118043.648 7  91894884.685 7     -2823.084          42.000
R13  19200857.820 6 102531512.868 6      -519.859          39.000    19200861.883 7  79746737.483 7      -404.338          44.000
R23  19042159.961 8 101862711.630 8       126.164          50.000    19042164.961 6  79226591.469 6        98.128          41.000
R24  20655410.523 8 110453804.735 8      3073.246          51.000    20655410.297 7  85908469.616 7      2390.306          44.000
C12  23061422.961 8 120086999.725 8      2348.355          49.000    23061421.789 8  92858895.551 8      1816.039          50.000
C24  22185892.938 6 115527765.353 6       810.906          40.000
C26  22363964.961 8 116455032.849 8     -2143.320          51.000
E02  24460536.070 8 128540962.334 8     -1705.480          51.000    24460538.695 8  98492432.075 8     -1306.785          51.000
E30  22223278.133 7 116784115.049 7       744.254          45.000    22223280.172 7  89483940.967 7       570.287          44.000
E36  24588638.172 7 129214166.910 7     -1672.793          44.000    24588641.492 6  99008301.396 6     -1281.930          40.000
> 2020 05 06 12 05 30.0000000  0 15        .000000000000
G14  24234242.859 6 127351795.029 6     -2505.238          38.000    24234243.961 6  99235187.165 6     -1952.125          36.000
G18  22379493.812 7 117605084.569 7      3247.637          47.000    22379492.188 7  91640283.718 7      2530.626          44.000
G21  22219398.289 8 116763783.394 8      2809.090          50.000    22219398.617 7  90984708.937 7      2188.904          46.000
G25  21267103.141 8 111759360.095 8     -2065.297          49.000    21267104.984 8  87085220.841 8     -1609.322          49.000
G29  20290183.586 8 106625632.807 8      -645.957          51.000    20290183.266 8  83084909.368 8      -503.340          51.000
R12  22138448.336 7 118259594.990 7     -3642.363          46.000    22138455.109 7  91979684.652 7     -2832.952          44.000
R13  19203836.305 6 102547418.562 6      -544.230          38.000    19203840.680 7  79759108.564 7      -423.290          44.000
R23  19041515.344 8 101859264.005 8       100.230          50.000    19041520.477 6  79223910.020 6        77.957          41.000
R24  20638212.031 8 110361837.159 8      3054.418          50.000    20638213.375 7  85836939.312 7      2375.658          46.000
C12  23047917.352 8 120016673.431 8      2336.711          48.000    23047916.984 8  92804514.794 8      1806.848          50.000
C24  22181257.250 7 115503622.041 7       795.102          43.000
C26  22376344.117 8 116519487.728 8     -2157.031          51.000
E02  24470290.633 8 128592223.153 8     -1715.234          51.000    24470292.977 8  98531709.809 8     -1314.196          51.000
E30  22219049.023 7 116761890.119 7       734.051          45.000    22219051.273 7  89466911.455 7       562.565          45.000
E36  24598213.727 7 129264487.395 7     -1685.160          45.000    24598216.062 6  99046858.620 6     -1291.146          40.000
> 2020 05 06 12 06  0.0000000  0 16        .000000000000
G12  23656641.766 6 124316478.357 6     -3047.609          36.000
G14  24248551.234 6 127426985.936 6     -2507.930          38.000    24248551.805 5  99293777.437 5     -1954.225          34.000
G18  22360967.836 7 117507734.750 7      3242.020          46.000    22360968.531 7  91564426.734 7      2526.249          45.000
G21  22203381.508 8 116679612.721 8      2801.887          50.000    22203380.328 7  90919121.438 7      2183.291          44.000
G25  21278910.117 8 111821406.057 8     -2071.398          48.000    21278911.617 8  87133568.292 8     -1614.080          48.000
G29  20293896.992 8 106645147.091 8      -655.348          51.000    20293896.477 8  83100115.304 8      -510.661          51.000
R12  22158920.539 7 118368954.821 7     -3648.559          46.000    22158928.297 7  92064742.280 7     -2837.768          45.000
R13  19206940.969 6 102563999.131 6      -561.562          38.000    19206945.602 7  79772004.560 7      -436.771          44.000
R23  19041007.594 8 101856547.292 8        80.520          49.000    19041012.469 6  79221797.025 6        62.626          41.000
R24  20621110.086 8 110270387.416 8      3041.738          49.000    20621113.125 7  85765811.732 7      2365.796          47.000
C12  23034470.695 7 119946653.764 7      2330.996          47.000    23034470.594 8  92750371.155 8      1802.347          48.000
C24  22176706.227 7 115479917.667 7       784.809          43.000
C26  22388793.164 8 116584309.530 8     -2164.750          51.000
E02  24480092.438 8 128643731.147 8     -1719.059          51.000    24480094.453 8  98571176.940 8     -1317.201          51.000
E30  22214869.570 7 116739927.252 7       729.770          46.000    22214872.070 7  89450082.758 7       559.141          45.000
E36  24607851.609 7 129315135.232 7     -1691.727          46.000    24607854.031 6  99085666.675 6     -1296.105          41.000
> 2020 05 06 12 06 30.0000000  0 15        .000000000000
G14  24262906.820 6 127502425.642 6     -2516.539          39.000    24262907.133 5  99352561.527 5     -1960.943          33.000
G18  22342506.352 7 117410723.562 7      3230.469          46.000    22342508.617 7  91488833.553 7      2517.248          45.000
G21  22187437.844 8 116595826.854 8      2788.699          50.000    22187435.305 7  90853833.813 7      2173.015          43.000
G25  21290783.438 7 111883801.015 7     -2083.430          47.000    21290784.656 7  87182187.646 7     -1623.455          47.000
G29  20297696.258 8 106665111.951 8      -670.672          51.000    20297695.555 8  83115672.334 8      -522.601          51.000
R12  22179461.016 7 118478678.326 7     -3661.129          46.000    22179469.242 7  92150082.747 7     -2847.548          45.000
R13  19210178.680 6 102581289.184 6      -586.156          39.000    19210183.211 7  79785452.359 7      -455.899          43.000
R23  19040642.227 8 101854595.044 8        54.660          49.000    19040647.586 7  79220278.610 7        42.513          42.000
R24  20604111.086 7 110179492.236 7      3022.945          47.000    20604115.875 7  85695115.461 7      2351.180          47.000
C12  23021089.359 7 119876975.085 7      2319.160          46.000    23021088.578 7  92696491.220 7      1793.337          47.000
C24  22172245.750 7 115456687.004 7       768.637          44.000
C26  22401318.539 8 116649530.721 8     -2178.406          51.000
E02  24489947.758 8 128695520.066 8     -1728.727          51.000    24489949.633 8  98610859.327 8     -1324.630          51.000
E30  22210746.805 7 116718261.334 7       719.496          47.000    22210749.570 7  89433481.587 7       551.266          46.000
E36  24617558.023 7 129366142.726 7     -1703.980          44.000    24617561.203 6  99124750.333 6     -1305.689          41.000
> 2020 05 06 12 07  0.0000000  0 15        .000000000000
G14  24277290.945 6 127578015.971 6     -2523.395          39.000    24277291.000 5  99411463.016 5     -1966.281          35.000
G18  22324092.539 7 117313958.196 7      3219.902          47.000    22324094.836 7  91413431.945 7      2509.018          45.000
G21  22171549.469 8 116512332.646 8      2776.773          48.000    22171546.570 7  90788773.446 7      2163.723          44.000
G25  21302704.945 7 111946448.952 7     -2093.883          47.000    21302706.055 7  87231004.164 7     -1631.600          47.000
G29  20301562.828 8 106685430.682 8      -684.605          51.000    20301562.117 8  83131505.117 8      -533.459          51.000
R12  22200051.477 7 118588666.335 7     -3672.066          47.000    22200059.062 7  92235628.911 7     -2856.055          43.000
R13  19213531.516 6 102599192.836 6      -608.570          39.000    19213535.727 7  79799377.410 7      -473.332          43.000
R23  19040401.445 8 101853308.813 8        30.395          48.000    19040407.039 6  79219278.196 6        23.640          41.000
R24  20587197.664 8 110089056.198 8      3005.383          48.000    20587203.656 7  85624776.324 7      2337.520          46.000
C12  23007755.359 7 119807543.531 7      2308.812          47.000    23007753.664 7  92642802.391 7      1785.399          46.000
C24  22167857.766 7 115433836.598 7       753.988          44.000
C26  22413901.906 8 116715055.649 8     -2190.613          51.000
E02  24499838.523 8 128747494.378 8     -1737.031          51.000    24499840.234 8  98650683.783 8     -1330.954          51.000
E30  22206662.641 7 116696797.855 7       710.496          47.000    22206665.414 7  89417035.549 7       544.439          46.000
E36  24627314.742 6 129417412.858 6     -1714.746          40.000    24627318.250 6  99164035.246 6     -1313.965          40.000
> 2020 05 06 12 07 30.0000000  0 16        .000000000000
G14  24291717.227 6 127653827.943 6     -2530.598          40.000    24291717.641 4  99470537.138 4     -1971.900          25.000
G18  22305740.766 8 117217515.540 8      3209.539          50.000    22305742.250 7  91338281.845 7      2500.940          44.000
G21  22155730.828 7 116429206.471 7      2764.820          47.000    22155728.484 7  90723999.856 7      2154.405          44.000
G25  21314688.586 7 112009423.595 7     -2104.422          46.000    21314689.812 7  87280075.281 7     -1639.809          46.000
G29  20305510.648 8 106706176.263 8      -698.402          51.000    20305509.867 8  83147670.517 8      -544.210          51.000
R12  22220705.953 8 118698992.208 8     -3682.957          50.000    22220711.773 7  92321437.851 7     -2864.525          43.000
R13  19217013.562 6 102617786.172 6      -631.152          40.000    19217017.242 7  79813838.865 7      -490.899          42.000
R22  22225766.109 4 118642648.232 4     -3920.172          29.000
R23  19040299.477 8 101852763.357 8         6.094          49.000    19040305.062 6  79218853.956 6         4.740          41.000
R24  20570386.398 8 109999157.210 8      2987.781          51.000    20570391.219 7  85554854.897 7      2323.830          45.000
C12  22994483.305 8 119738433.359 8      2298.508          48.000    22994481.336 7  92589362.060 7      1777.264          47.000
C24  22163556.609 7 115411441.159 7       739.137          44.000
C26  22426557.180 8 116780956.746 8     -2202.875          49.000
E02  24509778.305 8 128799728.220 8     -1745.352          51.000    24509780.125 8  98690707.098 8     -1337.326          51.000
E30  22202631.047 7 116675612.023 7       701.762          47.000    22202633.641 7  89400802.243 7       537.761          46.000
E36  24637134.977 6 129469018.313 6     -1725.621          40.000    24637138.125 6  99203577.107 6     -1322.169          40.000
> 2020 05 06 12 08  0.0000000  0 15        .000000000000
G14  24306178.281 6 127729821.943 6     -2536.164          40.000    24306179.797 4  99529753.130 4     -1976.238          29.000
G18  22287444.133 8 117121361.728 8      3200.086          51.000    22287444.328 7  91263356.845 7      2493.577          42.000
G21  22139975.312 7 116346413.692 7      2753.918          47.000    22139974.250 7  90659486.027 7      2145.910          43.000
G25  21326727.266 7 112072687.905 7     -2113.656          46.000    21326728.680 7  87329372.145 7     -1647.005          46.000
G29  20309532.508 8 106727310.979 8      -711.238          51.000    20309531.719 8  83164139.121 8      -554.212          51.000
R12  22241416.195 8 118809616.569 8     -3692.566          50.000    22241420.805 7  92407478.953 7     -2871.999          42.000
R13  19220617.922 6 102637031.793 6      -652.602          41.000    19220620.961 7  79828807.667 7      -507.579          43.000
R23  19040329.047 8 101852919.600 8       -17.148          50.000    19040334.125 6  79218975.493 6       -13.338          41.000
R24  20553669.695 8 109909760.183 8      2971.273          51.000    20553671.875 7  85485323.937 7      2310.990          44.000
C12  22981266.680 8 119669609.045 8      2289.078          49.000    22981264.719 8  92536142.741 8      1770.136          49.000
C24  22159336.398 7 115389465.551 7       725.230          45.000
C26  22439277.070 8 116847196.724 8     -2213.910          48.000
E02  24519760.117 8 128852184.892 8     -1752.504          51.000    24519762.461 8  98730901.124 8     -1342.825          51.000
E30  22198645.414 7 116654668.253 7       693.922          47.000    22198647.781 7  89384754.424 7       531.602          46.000
E36  24647011.328 7 129520921.025 7     -1735.262          43.000    24647013.602 6  99243346.702 6     -1329.434          39.000
> 2020 05 06 12 08 30.0000000  0 16        .000000000000
G14  24320678.406 6 127806020.452 6     -2542.652          39.000    24320680.680 4  99589128.512 4     -1981.291          29.000
G18  22269207.648 8 117025524.736 8      3189.922          51.000    22269206.391 6  91188678.727 6      2485.656          41.000
G21  22124288.070 7 116263981.754 7      2742.352          44.000    22124288.438 7  90595253.334 7      2136.897          43.000
G25  21338825.773 7 112136266.519 7     -2123.840          47.000    21338828.008 7  87378913.882 7     -1654.940          47.000
G29  20313632.828 8 106748858.690 8      -724.391          51.000    20313632.250 8  83180929.541 8      -564.460          51.000
R12  22262186.625 8 118920563.062 8     -3702.883          50.000    22262190.539 7  92493770.645 7     -2880.020          42.000
R13  19224349.461 6 102656957.062 6      -674.746          41.000    19224352.141 7  79844305.064 7      -524.803          43.000
R22  22269892.969 5 118878200.326 5     -3932.000          31.000
R23  19040494.344 8 101853802.456 8       -40.758          49.000    19040499.023 7  79219662.155 7       -31.701          42.000
R24  20537051.711 8 109820892.559 8      2954.094          51.000    20537051.914 7  85416204.732 7      2297.628          44.000
C12  22968110.172 8 119601096.382 8      2279.152          50.000    22968108.344 8  92483164.403 8      1762.551          50.000
C24  22155201.906 7 115367935.961 7       710.906          44.000
C26  22452066.914 8 116913799.520 8     -2225.461          48.000
E02  24529789.562 8 128904889.413 8     -1760.152          51.000    24529792.141 8  98771285.096 8     -1348.766          51.000
E30  22194710.711 7 116633992.758 7       685.336          47.000    22194712.953 7  89368912.135 7       525.226          46.000
E36  24656948.977 7 129573144.723 7     -1745.477          42.000    24656950.469 6  99283362.235 6     -1337.272          39.000
> 2020 05 06 12 09  0.0000000  0 16        .000000000000
G14  24335201.625 6 127882341.960 6     -2547.863          36.000    24335204.969 4  99648599.794 4     -1985.345          26.000
G18  22251016.703 8 116929929.097 8      3180.508          51.000    22251015.141 7  91114188.669 7      2478.321          43.000
G21  22108654.836 7 116181834.890 7      2731.617          43.000    22108656.547 7  90531242.781 7      2128.533          43.000
G25  21350969.320 7 112200080.827 7     -2133.098          47.000    21350972.430 7  87428639.281 7     -1662.154          47.000
G29  20317796.656 8 106770740.019 8      -736.949          51.000    20317796.141 8  83197979.917 8      -574.249          51.000
R12  22283001.961 8 119031750.348 8     -3712.234          50.000    22283005.594 7  92580249.583 7     -2887.296          43.000
R13  19228193.516 6 102677482.402 6      -696.219          41.000    19228195.312 7  79860269.203 7      -541.503          43.000
R22  22292021.844 5 118996256.259 5     -3937.844          34.000
R23  19040780.133 8 101855330.576 8       -63.719          50.000    19040784.898 7  79220850.697 7       -49.559          42.000
R24  20520517.797 8 109732477.219 8      2937.613          49.000    20520518.086 7  85347437.297 7      2284.813          46.000
C12  22954998.898 8 119532818.701 8      2270.125          50.000    22954996.953 8  92430367.803 8      1755.284          51.000
C24  22151138.094 7 115346776.111 7       697.109          44.000
C26  22464911.758 8 116980686.595 8     -2236.258          50.000
E02  24539851.000 8 128957763.666 8     -1767.305          50.000    24539853.742 8  98811799.105 8     -1354.139          51.000
E30  22190812.367 7 116613508.368 7       677.547          47.000    22190814.750 7  89353216.294 7       519.273          47.000
E36  24666932.242 6 129625609.668 6     -1754.875          40.000    24666934.414 6  99323562.671 6     -1344.785          40.000
> 2020 05 06 12 09 30.0000000  0 16        .000000000000
G14  24349772.445 6 127958914.082 6     -2555.805          37.000    24349777.352 5  99708266.317 5     -1991.551          30.000
G18  22232896.461 8 116834707.631 8      3168.742          50.000    22232895.914 7  91039990.136 7      2469.150          44.000
G21  22093102.539 7 116100105.466 7      2718.246          47.000    22093103.609 7  90467557.495 7      2118.114          42.000
G25  21363182.336 8 112264260.295 8     -2144.422          48.000    21363185.711 8  87478649.230 8     -1670.978          48.000
G29  20322048.516 8 106793083.647 8      -751.496          51.000    20322047.859 8  83215390.527 8      -585.581          51.000
R12  22303885.883 8 119143308.260 8     -3723.668          48.000    22303889.617 7  92667016.718 7     -2896.189          43.000
R13  19232174.758 6 102698740.417 6      -719.789          41.000    19232176.344 7  79876803.215 7      -559.836          44.000
R22  22314172.773 5 119114499.666 5     -3945.035          32.000
R23  19041211.453 8 101857635.535 8       -88.781          51.000    19041215.578 7  79222643.426 7       -69.052          42.000
R24  20504092.352 7 109644648.426 7      2918.891          46.000    20504094.820 7  85279126.005 7      2270.248          47.000
C12  22941956.898 8 119464905.516 8      2258.672          48.000    22941955.195 8  92377853.043 8      1746.497          51.000
C24  22147170.102 7 115326115.961 7       681.246          44.000
C26  22477836.336 8 117047985.722 8     -2249.199          51.000
E02  24549969.320 8 129010937.584 8     -1776.539          50.000    24549972.078 8  98852542.740 8     -1361.256          51.000
E30  22186975.539 8 116593346.131 8       667.559          48.000    22186978.078 7  89337767.306 7       511.440          47.000
E36  24676986.031 6 129678444.416 6     -1766.465          41.000    24676989.742 6  99364046.443 6     -1353.639          40.000
> 2020 05 06 12 10  0.0000000  0 16        .000000000000
G12  23796768.945 5 125052889.124 5     -3090.070          31.000
G14  24364380.625 6 128035681.588 6     -2563.777          38.000    24364386.461 5  99768085.113 5     -1997.758          32.000
G18  22214837.688 8 116739811.146 8      3156.008          49.000    22214838.570 7  90966044.833 7      2459.227          46.000
G21  22077620.812 8 116018743.384 8      2704.129          50.000    22077620.055 7  90404158.520 7      2107.116          42.000
G25  21375454.844 8 112328752.572 8     -2156.789          48.000    21375457.578 8  87528902.944 8     -1680.615          48.000
G29  20326378.234 8 106815836.439 8      -767.012          51.000    20326377.586 8  83233119.991 8      -597.671          51.000
R12  22324828.133 7 119255182.046 7     -3736.133          46.000    22324832.867 7  92754029.583 7     -2905.881          44.000
R13  19236283.266 6 102720678.968 6      -744.324          40.000    19236285.203 7  79893866.516 7      -578.922          45.000
R23  19041777.875 8 101860662.945 8      -114.781          51.000    19041781.703 7  79224998.085 7       -89.274          42.000
R24  20487765.383 7 109557355.568 7      2899.000          47.000    20487771.539 8  85211231.501 8      2254.775          48.000
C12  22928974.203 7 119397306.178 7      2246.398          46.000    22928973.633 8  92325580.945 8      1736.988          51.000
C24  22143288.219 7 115305905.272 7       664.297          44.000
C26  22490830.062 8 117115644.377 8     -2263.047          51.000
E02  24560134.781 8 129064359.215 8     -1786.672          49.000    24560137.680 8  98893476.178 8     -1368.996          51.000
E30  22183190.406 8 116573455.162 8       656.746          49.000    22183192.898 8  89322526.176 8       503.149          48.000
E36  24687100.477 6 129731595.597 6     -1778.617          40.000    24687104.984 6  99404772.677 6     -1362.956          41.000
> 2020 05 06 12 10 30.0000000  0 15        .000000000000
G14  24379021.797 6 128112621.050 6     -2568.004          38.000    24379027.164 5  99828037.942 5     -2001.042          32.000
G18  22196837.172 7 116645221.619 7      3147.473          47.000    22196839.297 7  90892338.702 7      2452.576          47.000
G21  22062205.422 8 115937730.266 8      2694.305          51.000    22062202.992 6  90341031.476 6      2099.461          41.000
G25  21387783.016 7 112393536.341 7     -2164.633          47.000    21387784.875 7  87579383.790 7     -1686.727          47.000
G29  20330781.742 8 106838976.701 8      -778.070          51.000    20330781.250 8  83251151.380 8      -606.289          51.000
R12  22345824.906 7 119367348.529 7     -3744.133          45.000    22345830.992 7  92841270.124 7     -2912.106          44.000
R13  19240515.156 6 102743277.529 6      -764.613          39.000    19240517.195 7  79911443.180 7      -594.699          44.000
R23  19042475.023 8 101864390.602 8      -136.176          51.000    19042478.352 7  79227897.371 7      -105.914          42.000
R24  20471537.742 8 109470579.297 8      2883.625          49.000    20471544.375 7  85143738.818 7      2242.819          46.000
C12  22916047.938 7 119330000.793 7      2238.250          45.000    22916048.867 8  92273536.176 8      1730.829          51.000
C24  22139488.867 7 115286124.583 7       651.980          45.000
C26  22503888.336 8 117183640.899 8     -2272.461          50.000
E02  24570343.461 8 129118007.703 8     -1792.438          50.000    24570346.430 8  98934583.420 8     -1373.378          51.000
E30  22179453.258 8 116553815.727 8       650.152          49.000    22179455.742 8  89307477.775 8       498.115          48.000
E36  24697270.852 6 129785040.948 6     -1786.430          40.000    24697275.273 6  99445724.303 6     -1368.999          41.000
> 2020 05 06 12 11  0.0000000  0 15        .000000000000
G14  24393697.453 6 128189740.746 6     -2572.422          36.000    24393703.172 5  99888131.026 5     -2004.500          35.000
G18  22178897.961 7 116550953.198 7      3137.797          47.000    22178900.758 7  90818882.778 7      2445.037          47.000
G21  22046858.812 8 115857079.813 8      2683.191          51.000    22046855.500 7  90278187.006 7      2090.798          42.000
G25  21400168.602 7 112458622.578 7     -2173.637          47.000    21400170.211 7  87630100.300 7     -1693.743          47.000
G29  20335260.734 8 106862514.307 8      -790.277          51.000    20335260.242 8  83269492.378 8      -615.801          51.000
R12  22366879.250 8 119479817.315 8     -3753.188          48.000    22366885.227 7  92928745.802 7     -2919.146          44.000
R13  19244872.977 6 102766548.015 6      -786.004          39.000    19244875.102 7  79929542.469 7      -611.336          44.000
R23  19043304.992 8 101868828.740 8      -158.859          51.000    19043308.102 7  79231349.271 7      -123.557          42.000
R24  20455410.977 8 109384333.369 8      2866.941          51.000    20455415.500 7  85076658.676 7      2229.846          44.000
C12  22903180.977 7 119263001.467 7      2229.113          45.000    22903182.773 8  92221728.079 8      1723.710          51.000
C24  22135774.789 7 115266786.399 7       638.152          45.000
C26  22517013.031 8 117251985.559 8     -2282.992          49.000
E02  24580597.977 8 129171894.389 8     -1799.312          51.000    24580600.344 8  98975873.185 8     -1378.610          50.000
E30  22175766.352 8 116534440.306 8       642.406          49.000    22175768.891 8  89292631.660 8       492.173          48.000
E36  24707499.086 6 129838790.395 6     -1795.797          41.000    24707503.266 6  99486908.950 6     -1376.009          40.000
> 2020 05 06 12 11 30.0000000  0 15        .000000000000
G14  24408402.180 5 128267013.402 5     -2578.281          34.000    24408406.945 4  99948343.379 4     -2009.072          29.000
G18  22161016.234 7 116456984.252 7      3127.367          47.000    22161019.266 7  90745660.227 7      2436.909          47.000
G21  22031576.594 8 115776769.926 8      2671.336          51.000    22031573.391 7  90215607.916 7      2081.560          43.000
G25  21412607.094 7 112523986.397 7     -2183.312          47.000    21412608.633 7  87681033.120 7     -1701.282          47.000
G29  20339810.422 8 106886423.631 8      -803.262          51.000    20339809.867 8  83288123.016 8      -625.918          51.000
R12  22387985.664 8 119592561.690 8     -3762.699          48.000    22387991.359 7  93016435.794 7     -2926.547          45.000
R13  19249352.070 6 102790466.470 6      -808.152          40.000    19249354.672 7  79948145.696 7      -628.563          44.000
R23  19044262.625 8 101873951.216 8      -182.090          51.000    19044265.703 7  79235333.431 7      -141.625          42.000
R24  20439379.273 8 109298595.037 8      2849.477          51.000    20439381.320 7  85009973.396 7      2216.260          43.000
C12  22890368.789 7 119196284.836 7      2219.199          46.000    22890370.438 8  92170138.557 8      1716.077          51.000
C24  22132141.586 7 115247867.723 7       623.730          46.000
C26  22530200.117 8 117320653.142 8     -2294.223          49.000
E02  24590893.047 8 129225994.915 8     -1806.863          50.000    24590895.297 8  99017326.791 8     -1384.474          51.000
E30  22172125.070 8 116515305.598 8       633.891          49.000    22172127.625 8  89277969.987 8       485.702          48.000
E36  24717780.523 6 129892818.092 6     -1805.617          40.000    24717784.211 6  99528306.784 6     -1383.387          39.000
> 2020 05 06 12 12  0.0000000  0 15        .000000000000
G14  24423140.234 5 128344461.825 5     -2584.539          31.000    24423143.828 4 100008692.874 4     -2013.939          29.000
G18  22143197.250 7 116363343.223 7      3115.551          47.000    22143199.922 7  90672693.217 7      2427.702          47.000
G21  22016364.148 8 115696828.453 8      2658.152          51.000    22016361.570 7  90153315.889 7      2071.288          43.000
G25  21425103.086 7 112589652.997 7     -2194.441          46.000    21425104.656 7  87732201.869 7     -1709.954          46.000
G29  20344435.586 8 106910729.086 8      -817.266          51.000    20344435.219 8  83307062.325 8      -636.830          51.000
R12  22409147.648 7 119705605.449 7     -3773.410          45.000    22409153.492 7  93104358.654 7     -2934.878          45.000
R13  19253957.633 6 102815059.429 6      -831.262          40.000    19253960.406 7  79967273.506 7      -646.537          43.000
R23  19045352.867 8 101879782.540 8      -206.594          51.000    19045355.922 7  79239868.899 7      -160.684          43.000
R24  20423447.008 8 109213392.509 8      2830.789          51.000    20423447.430 7  84943704.824 7      2201.725          44.000
C12  22877616.172 8 119129877.150 8      2208.055          48.000    22877616.953 8  92118787.898 8      1707.441          51.000
C24  22128594.391 7 115229395.161 7       607.934          47.000
C26  22543454.000 8 117389668.092 8     -2306.746          49.000
E02  24601233.906 8 129280334.899 8     -1815.688          51.000    24601236.227 8  99058963.885 8     -1391.277          51.000
E30  22168534.695 8 116496438.332 8       624.090          49.000    22168536.750 8  89263513.255 8       478.220          48.000
E36  24728119.750 6 129947148.274 6     -1816.383          41.000    24728122.523 6  99569936.398 6     -1391.849          39.000
> 2020 05 06 12 12 30.0000000  0 15        .000000000000
G14  24437911.023 5 128422084.510 5     -2589.672          30.000
G18  22125441.266 7 116270034.266 7      3105.020          47.000    22125443.141 7  90599984.999 7      2419.499          46.000
G21  22001222.430 8 115617259.069 8      2646.211          51.000    22001220.422 7  90091313.792 7      2061.983          44.000
G25  21437656.539 7 112655623.422 7     -2204.113          46.000    21437658.641 7  87783607.309 7     -1717.494          46.000
G29  20349136.234 8 106935430.952 8      -829.922          51.000    20349136.023 8  83326310.529 8      -646.692          51.000
R12  22430364.547 7 119818948.137 7     -3782.992          45.000    22430372.000 7  93192514.004 7     -2942.327          45.000
R13  19258689.930 6 102840328.686 6      -853.527          40.000    19258692.133 7  79986927.357 7      -663.858          42.000
R23  19046575.750 8 101886323.052 8      -229.676          51.000    19046578.836 7  79244955.962 7      -178.637          43.000
R24  20407614.273 8 109128729.231 8      2813.164          49.000    20407615.328 7  84877855.613 7      2188.016          46.000
C12  22864923.742 8 119063780.458 8      2198.078          50.000    22864923.438 8  92067677.759 8      1699.733          51.000
C24  22125133.070 7 115211371.254 7       593.543          45.000
C26  22556773.961 8 117459030.699 8     -2317.848          50.000
E02  24611620.680 8 129334915.704 8     -1823.375          51.000    24611623.195 8  99100785.517 8     -1397.069          51.000
E30  22164995.719 8 116477840.952 8       615.512          49.000    22164996.977 8  89249263.319 8       471.677          49.000
E36  24738516.445 6 130001780.883 6     -1826.043          40.000    24738518.422 6  99611797.732 6     -1398.912          39.000
> 2020 05 06 12 13  0.0000000  0 15        .000000000000
G14  24452711.680 5 128499860.911 5     -2595.328          33.000
G18  22107745.367 7 116177042.242 7      3094.504          47.000    22107746.078 7  90527523.751 7      2411.305          45.000
G21  21986148.391 8 115538045.660 8      2634.500          49.000    21986146.844 7  90029589.079 7      2052.860          44.000
G25  21450264.398 7 112721879.217 7     -2213.270          46.000    21450266.602 7  87835235.179 7     -1724.626          47.000
G29  20353908.805 8 106960510.483 8      -842.211          51.000    20353908.477 8  83345853.027 8      -656.268          51.000
R12  22451634.094 7 119932569.358 7     -3791.973          45.000    22451642.727 7  93280886.045 7     -2949.312          46.000
R13  19263545.148 6 102866256.079 6      -874.941          39.000    19263547.562 7  80007093.058 7      -680.510          43.000
R23  19047927.094 8 101893552.794 8      -252.363          51.000    19047930.648 7  79250579.120 7      -196.283          42.000
R24  20391879.125 8 109044588.976 8      2796.074          50.000    20391881.094 7  84812413.181 7      2174.724          47.000
C12  22852287.461 8 118997977.808 8      2188.406          49.000    22852286.766 8  92016794.992 8      1692.405          51.000
C24  22121754.125 7 115193779.449 7       579.371          45.000
C26  22570157.352 8 117528722.098 8     -2328.422          51.000
E02  24622049.406 8 129389719.401 8     -1830.348          51.000    24622052.328 8  99142777.933 8     -1402.471          51.000
E30  22161504.805 8 116459496.667 8       607.352          50.000    22161505.914 8  89235207.303 8       465.400          49.000
E36  24748966.758 6 130056696.558 6     -1834.879          41.000    24748968.727 6  99653875.990 6     -1406.099          39.000
> 2020 05 06 12 13 30.0000000  0 15        .000000000000
G14  24467543.797 6 128577802.150 6     -2600.992          36.000
G18  22090112.898 7 116084384.322 7      3082.562          46.000    22090113.391 7  90455322.827 7      2401.997          45.000
G21  21971144.938 7 115459205.171 7      2621.418          47.000    21971144.156 7  89968154.966 7      2042.666          45.000
G25  21462929.242 7 112788434.300 7     -2223.746          46.000    21462931.133 7  87887096.257 7     -1732.792          46.000
G29  20358755.750 8 106985980.532 8      -855.863          51.000    20358755.203 8  83365699.820 8      -666.903          51.000
R12  22472958.633 7 120046481.792 7     -3802.289          46.000    22472967.945 7  93369484.550 7     -2957.336          46.000
R13  19268526.258 6 102892856.690 6      -897.859          39.000    19268529.125 7  80027782.386 7      -698.335          44.000
R23  19049409.711 8 101901485.230 8      -276.512          51.000    19049413.398 6  79256748.797 6      -215.065          41.000
R24  20376245.578 8 108960988.234 8      2777.309          51.000    20376248.008 8  84747390.404 8      2160.129          48.000
C12  22839710.070 8 118932484.228 8      2177.609          49.000    22839709.438 8  91966151.205 8      1683.845          51.000
C24  22118461.117 7 115176635.051 7       563.730          46.000
C26  22583606.828 8 117598755.463 8     -2340.398          51.000
E02  24632523.273 8 129444760.294 8     -1839.070          51.000    24632526.398 8  99184952.113 8     -1409.116          51.000
E30  22158064.922 8 116441420.915 8       597.645          50.000    22158066.383 8  89221357.032 8       457.977          50.000
E36  24759473.281 7 130111908.228 7     -1845.727          42.000    24759475.477 6  99696181.007 6     -1414.141          39.000
> 2020 05 06 12 14  0.0000000  0 15        .000000000000
G14  24482405.836 6 128655899.179 6     -2606.961          37.000    24482413.445 4 100251374.181 4     -2031.407          29.000
G18  22072542.992 7 115992056.636 7      3071.086          45.000    22072544.375 7  90383379.217 7      2393.054          46.000
G21  21956211.312 7 115380732.948 7      2608.535          46.000    21956211.555 7  89907007.783 7      2032.628          45.000
G25  21475649.867 7 112855281.607 7     -2234.188          46.000    21475651.898 7  87939185.024 7     -1740.925          46.000
G29  20363675.375 8 107011833.225 8      -869.148          51.000    20363674.891 8  83385844.790 8      -677.259          51.000
R12  22494336.672 8 120160676.586 8     -3812.230          48.000    22494345.242 7  93458302.662 7     -2965.068          43.000
R13  19273632.250 6 102920124.802 6      -920.961          37.000    19273635.523 7  80048990.912 7      -716.300          44.000
R23  19051022.016 8 101910112.033 8      -300.176          51.000    19051026.273 6  79263458.564 6      -233.470          41.000
R24  20360712.008 8 108877922.415 8      2758.848          51.000    20360714.820 7  84682783.690 7      2145.770          47.000
C12  22827190.922 8 118867293.928 8      2166.918          49.000    22827190.516 8  91915741.927 8      1675.614          51.000
C24  22115253.250 7 115159932.716 7       548.266          46.000
C26  22597120.484 8 117669123.196 8     -2352.145          51.000
E02  24643041.133 8 129500031.767 8     -1847.293          51.000    24643044.641 8  99227302.966 8     -1415.440          51.000
E30  22154675.234 8 116423608.188 8       588.324          51.000    22154676.852 8  89207708.309 8       450.782          50.000
E36  24770034.352 6 130167407.790 6     -1855.781          41.000    24770036.453 6  99738706.629 6     -1421.765          39.000
> 2020 05 06 12 14 30.0000000  0 15        .000000000000
G14  24497298.133 6 128734156.044 6     -2610.434          37.000    24497303.727 5 100312368.468 5     -2034.113          32.000
G18  22055038.180 7 115900069.344 7      3061.008          47.000    22055040.352 7  90311700.800 7      2385.201          47.000
G21  21941350.000 7 115302638.487 7      2597.168          47.000    21941350.320 7  89846154.962 7      2023.770          44.000
G25  21488427.430 7 112922428.069 7     -2242.547          46.000    21488429.578 7  87991506.916 7     -1747.439          45.000
G29  20368668.953 8 107038074.653 8      -880.703          51.000    20368668.586 8  83406292.655 8      -686.262          51.000
R12  22515768.703 8 120275159.076 8     -3820.367          49.000    22515774.961 6  93547344.526 6     -2971.400          39.000
R13  19278864.680 6 102948067.617 6      -942.043          38.000    19278868.023 7  80070724.236 7      -732.700          44.000
R23  19052765.445 8 101919439.204 8      -322.070          51.000    19052770.156 6  79270713.050 6      -250.499          41.000
R24  20345280.031 8 108795400.847 8      2742.137          51.000    20345283.148 7  84618600.285 7      2132.776          46.000
C12  22814732.016 8 118802415.008 8      2158.027          50.000    22814731.359 8  91865573.456 8      1668.693          51.000
C24  22112131.797 7 115143680.888 7       534.570          45.000
C26  22610699.547 8 117739831.517 8     -2362.137          51.000
E02  24653604.352 8 129555541.096 8     -1853.844          51.000    24653607.938 8  99269836.061 8     -1420.436          51.000
E30  22151337.320 8 116406066.897 8       580.699          51.000    22151338.906 8  89194267.578 8       444.936          51.000
E36  24780651.211 6 130223201.156 6     -1864.211          40.000    24780653.164 6  99781457.418 6     -1428.344          39.000
> 2020 05 06 12 15  0.0000000  0 15        .000000000000
G14  24512219.102 6 128812561.858 6     -2615.004          36.000
G18  22037597.438 8 115808416.753 8      3050.293          48.000    22037599.938 7  90240283.192 7      2376.849          47.000
G21  21926560.055 8 115224915.691 8      2585.371          49.000    21926559.594 7  89785591.789 7      2014.575          43.000
