     3.02           OBSERVATION DATA    M (MIXED)           RINEX VERSION / TYPE
SAVERINEX           SC600               20200515 085931 LCL PGM / RUN BY / DATE
       G = GPS       R = GLONASS       C = COMPASS          COMMENT
       S = SBAS      J = QZSS          E = GALILEO          COMMENT
BEAN                                                        MARKER NAME
1                                                           MARKER NUMBER
GEODETIC                                                    MARKER TYPE
Unige DICCA         GTER                                    OBSERVER / AGENCY
SC60291900056       SC600               2.12(191202)        REC # / TYPE / VERS
                    HEMA45          NONE                    ANT # / TYPE
  4509407.8091   693652.4678  4442337.6214                  APPROX POSITION XYZ
        0.0000        0.0000        0.0000                  ANTENNA: DELTA H/E/N
G    8 C1C L1C D1C S1C C2Y L2Y D2Y S2Y                      SYS / # / OBS TYPES
R    8 C1C L1C D1C S1C C2P L2P D2P S2P                      SYS / # / OBS TYPES
C    8 C1I L1I D1I S1I C7I L7I D7I S7I                      SYS / # / OBS TYPES
E    8 C1C L1C D1C S1C C7Q L7Q D7Q S7Q                      SYS / # / OBS TYPES
DBHZ                                                        COMMENT
     30.000                                                 INTERVAL
  2020    05    15    06    00    0.0000000     GPS         TIME OF FIRST OBS
  2020    05    15    06    59   30.0000000     GPS         TIME OF LAST OBS
     0                                                      RCV CLOCK OFFS APPL
G L1C  0.00000                                              SYS / PHASE SHIFT
G L2Y  0.00000                                              SYS / PHASE SHIFT
R L1C  0.00000                                              SYS / PHASE SHIFT
R L2P  0.25000                                              SYS / PHASE SHIFT
C L1I  0.00000                                              SYS / PHASE SHIFT
C L7I  0.00000                                              SYS / PHASE SHIFT
E L1C  0.50000                                              SYS / PHASE SHIFT
E L7Q -0.25000                                              SYS / PHASE SHIFT
 13 R01  1 R02 -4 R06 -4 R07  5 R08  6 R09 -2 R10 -5 R11  0 GLONASS SLOT / FRQ #
    R12 -1 R19  3 R20  2 R21  4 R22 -3                      GLONASS SLOT / FRQ #
 C1C   71.950 C2C   71.950 C2P   71.950                     GLONASS COD/PHS/BIS
    18                                                      LEAP SECONDS
*** Above antenna height is from mark to ANTENNA BOTTOM.    COMMENT
    17     4        0.0000        ANT MEASURE TYPE/HEIGT    COMMENT
    0.0000    0.0000    0.0458    0.0405    0.0000          COMMENT
                    BASE STATION                            COMMENT
                                                            END OF HEADER
> 2020 05 15 06 00  0.0000000  0 10        .000000000000
G13  21252524.883 8 111682750.710 8     -2380.000          51.000    21252523.938 7  87025512.362 7     -1854.548          45.000
G15  20497221.602 8 107713616.950 8     -1085.727          51.000    20497220.188 8  83932684.374 8      -846.021          51.000
G19  22682194.844 7 119195749.999 7      2627.988          44.000    22682195.016 7  92879786.592 7      2047.783          43.000
R01  21170034.211 7 113165966.945 7     -3786.316          44.000    21170040.078 6  88017981.515 6     -2944.916          41.000
C05  39774137.234 5 207114369.760 5        23.699          34.000    39774134.078 5 160153955.110 5        18.359          35.000
C20  23302525.812 8 121342349.214 8     -1916.773          51.000
E07  23880686.516 8 125493866.015 8     -1291.348          51.000    23880689.055 8  96157626.161 8      -989.492          51.000
E08  24952516.984 6 131126347.368 6     -3049.977          41.000    24952523.578 6 100473412.075 6     -2337.193          41.000
E27  24470493.305 8 128593294.446 8      1701.000          51.000    24470493.031 8  98532545.961 8      1303.334          51.000
E30  22261562.352 8 116985267.815 8      -817.555          51.000    22261563.859 8  89638095.021 8      -626.432          51.000
> 2020 05 15 06 00 30.0000000  0 13        .000000000000
G12  23500743.547 5 123497238.878 5      3659.121          32.000    23500737.336 5  96231588.915 5      2851.257          32.000
G13  21266105.102 8 111754115.169 8     -2382.066          50.000    21266103.797 7  87081120.963 7     -1856.159          45.000
G15  20503426.344 8 107746223.698 8     -1092.539          51.000    20503425.133 8  83958092.215 8      -851.329          51.000
G17  22475403.711 5 118109030.960 5       761.691          31.000
G19  22667185.688 7 119116874.693 7      2625.820          44.000    22667185.547 7  92818325.398 7      2046.097          43.000
R01  21191280.164 7 113279531.513 7     -3789.277          44.000    21191284.914 7  88106309.466 7     -2947.216          42.000
R11  19970909.320 5 106718473.073 5     -1728.922          32.000    19970912.656 5  83003276.431 5     -1344.717          35.000
C05  39773955.953 5 207113425.153 5        35.078          34.000    39773952.508 5 160153223.711 5        26.765          34.000
C20  23313562.852 8 121399822.654 8     -1919.270          49.000
E07  23888049.070 8 125532555.324 8     -1292.445          51.000    23888051.805 8  96187271.212 8      -990.333          51.000
E08  24969894.266 6 131217667.126 6     -3042.332          40.000    24969900.594 6 100543384.310 6     -2331.314          40.000
E27  24460759.953 8 128542144.982 8      1704.445          51.000    24460760.594 8  98493353.508 8      1306.036          51.000
E30  22266207.609 8 117009678.412 8      -814.387          51.000    22266208.711 8  89656799.223 8      -624.002          51.000
> 2020 05 15 06 01  0.0000000  0 13        .000000000000
G12  23479909.102 5 123387756.321 5      3641.469          32.000    23479903.211 5  96146277.572 5      2837.511          31.000
G13  21279775.594 8 111825952.869 8     -2406.117          51.000    21279774.102 7  87137098.370 7     -1874.900          45.000
G15  20509747.422 8 107779442.797 8     -1121.148          51.000    20509746.641 8  83983977.223 8      -873.622          51.000
G19  22652267.375 7 119038476.918 7      2601.574          45.000    22652266.445 6  92757236.221 6      2027.201          41.000
R01  21212618.469 7 113393596.385 7     -3814.148          43.000    21212623.406 7  88195026.587 7     -2966.557          42.000
R11  19980676.008 4 106770673.153 4     -1750.066          29.000
C05  39773788.133 5 207112551.343 5        24.062          34.000
C20  23324692.539 8 121457778.040 8     -1943.277          50.000
C23  24777147.867 5 129021134.424 5     -2494.637          30.000
E07  23895496.070 8 125571688.485 8     -1315.418          51.000    23895498.773 8  96217256.351 8     -1007.951          51.000
E08  24987306.047 6 131309168.253 6     -3056.695          39.000    24987311.633 6 100613495.514 6     -2342.188          40.000
E27  24451084.328 8 128491299.658 8      1686.133          51.000    24451086.055 8  98454394.096 8      1291.966          51.000
E30  22270912.883 8 117034403.744 8      -833.098          51.000    22270913.742 8  89675744.609 8      -638.348          51.000
> 2020 05 15 06 01 30.0000000  0 15        .000000000000
G12  23459114.086 5 123278475.698 5      3640.027          33.000    23459108.961 5  96061123.906 5      2836.388          32.000
G13  21293523.750 8 111898199.856 8     -2414.566          51.000    21293522.578 7  87193394.730 7     -1881.480          45.000
G15  20516172.859 8 107813210.739 8     -1134.391          50.000    20516172.508 8  84010289.891 8      -883.941          50.000
G19  22637428.227 7 118960496.882 7      2592.516          45.000    22637426.883 6  92696472.526 6      2020.142          41.000
G28  22976240.328 5 120740954.892 5     -2867.656          30.000
R01  21234037.211 7 113508094.032 7     -3823.348          45.000    21234042.695 6  88284080.313 6     -2973.715          41.000
R11  19990504.695 6 106823188.578 6     -1755.406          38.000    19990506.516 6  83084721.546 6     -1365.319          37.000
R12  20022986.289 5 106959216.401 5      1363.109          30.000
C05  39773621.969 5 207111685.900 5        29.285          34.000    39773618.344 5 160151878.765 5        22.313          34.000
C20  23335902.805 8 121516151.284 8     -1952.383          50.000
E02  26682851.281 6 140219317.849 6     -2530.219          37.000    26682852.453 5 107440786.609 5     -1938.874          34.000
E07  23903015.258 8 125611202.031 8     -1322.984          51.000    23903017.953 8  96247532.955 8     -1013.757          51.000
E08  25004740.273 6 131400786.255 6     -3055.375          38.000    25004744.875 6 100683696.305 6     -2341.009          41.000
E27  24441454.188 8 128440695.585 8      1683.113          51.000    24441456.648 8  98415619.541 8      1289.754          51.000
E30  22275665.898 8 117059379.863 8      -836.277          51.000    22275666.789 8  89694882.162 8      -640.775          51.000
> 2020 05 15 06 02  0.0000000  0 14        .000000000000
G12  23438365.227 5 123169437.845 5      3630.535          34.000    23438359.648 5  95976159.437 5      2828.991          32.000
G13  21307355.883 8 111970890.270 8     -2430.422          50.000    21307355.562 7  87250036.605 7     -1893.832          46.000
G15  20522709.406 8 107847562.131 8     -1154.805          50.000    20522709.336 8  84037057.218 8      -899.848          50.000
G19  22622676.250 7 118882972.703 7      2576.719          46.000    22622674.656 7  92636064.065 7      2007.833          42.000
G28  22992642.562 5 120827142.637 5     -2876.547          32.000
R01  21255544.148 7 113623056.593 7     -3839.719          47.000    21255548.867 6  88373495.599 6     -2986.448          41.000
R11  20000399.211 6 106876056.928 6     -1768.023          38.000    20000399.805 6  83125841.288 6     -1375.132          37.000
C20  23347199.883 8 121574975.467 8     -1968.227          51.000
C23  24805873.102 5 129170702.742 5     -2496.258          31.000
E02  26697310.195 6 140295289.601 6     -2533.793          37.000    26697311.172 5 107498998.724 5     -1941.538          34.000
E07  23910613.453 8 125651130.703 8     -1337.770          51.000    23910616.086 8  96278127.632 8     -1025.023          51.000
E08  25022203.148 5 131492555.217 5     -3061.387          35.000    25022207.047 6 100754012.735 6     -2345.789          40.000
E27  24431876.547 8 128390368.062 8      1673.082          50.000    24431878.906 8  98377056.888 8      1281.972          50.000
E30  22280473.281 8 117084641.080 8      -846.688          51.000    22280474.078 8  89714238.152 8      -648.737          51.000
> 2020 05 15 06 02 30.0000000  0 14        .000000000000
G13  21321274.422 8 112044034.198 8     -2444.309          51.000    21321274.625 7  87307031.855 7     -1904.653          46.000
G15  20529359.062 8 107882507.865 8     -1173.312          49.000    20529359.086 8  84064287.654 8      -914.273          49.000
G19  22608013.883 7 118805919.123 7      2562.184          44.000    22608011.672 7  92576022.379 7      1996.510          43.000
R01  21277139.680 8 113738491.418 8     -3854.234          49.000    21277143.289 6  88463278.169 6     -2997.741          40.000
R11  20010361.062 6 106929287.772 6     -1779.445          38.000    20010361.898 6  83167243.068 6     -1384.010          38.000
R12  20007844.359 5 106878282.554 5      1334.250          34.000
C05  39773316.695 5 207110097.252 5        26.695          34.000    39773313.047 5 160150649.004 5        20.289          34.000
C20  23358584.969 8 121634260.091 8     -1982.438          50.000
C23  24820265.516 5 129245658.826 5     -2498.910          33.000
E02  26711785.438 5 140371378.494 5     -2535.707          33.000    26711784.578 5 107557277.566 5     -1942.483          32.000
E07  23918292.672 8 125691485.337 8     -1350.699          51.000    23918295.234 8  96309048.711 8     -1034.930          51.000
E08  25039697.695 6 131584485.057 6     -3065.527          36.000    25039700.078 6 100824452.489 6     -2348.764          39.000
E27  24422354.375 8 128340328.557 8      1664.668          51.000    24422356.023 8  98338714.927 8      1275.585          50.000
E30  22285336.672 8 117110197.803 8      -855.238          51.000    22285337.484 8  89733820.570 8      -655.324          51.000
> 2020 05 15 06 03  0.0000000  0 14        .000000000000
G13  21335261.352 8 112117535.802 8     -2455.723          51.000    21335261.750 7  87364305.808 7     -1913.547          46.000
G15  20536103.992 8 107917952.759 8     -1189.359          50.000    20536103.836 8  84091907.024 8      -926.777          50.000
G19  22593423.219 7 118729244.769 7      2549.777          44.000    22593419.953 6  92516276.244 6      1986.843          38.000
R01  21298804.148 8 113854298.584 8     -3866.043          48.000    21298807.078 6  88553350.335 6     -3006.925          40.000
R11  20020371.703 6 106982783.339 6     -1787.434          38.000    20020374.023 6  83208850.771 6     -1390.226          38.000
R12  20000385.195 6 106838420.387 6      1322.852          36.000
C05  39773161.742 5 207109289.771 5        27.695          34.000    39773158.000 5 160150025.344 5        21.748          34.000
C20  23370039.164 8 121693909.722 8     -1994.070          49.000
C23  24834671.273 5 129320642.993 5     -2499.105          31.000
E02                                                                  26726256.516 5 107615559.099 5     -1941.810          30.000
E07  23926034.789 8 125732170.897 8     -1361.379          51.000    23926037.062 8  96340223.351 8     -1043.054          51.000
E08  25057204.719 5 131676479.942 5     -3067.672          34.000    25057206.500 6 100894942.021 6     -2350.269          40.000
E27  24412869.555 8 128290482.557 8      1658.668          51.000    24412870.430 8  98300521.251 8      1270.874          50.000
E30  22290237.812 8 117135954.500 8      -861.520          51.000    22290238.953 8  89753556.227 8      -660.143          51.000
> 2020 05 15 06 03 30.0000000  0 15        .000000000000
G12  23376357.875 6 122843620.371 6      3611.664          36.000    23376369.953 6  95722305.870 6      2814.284          37.000
G13  21349334.219 8 112191487.373 8     -2468.438          51.000    21349334.258 7  87421930.401 7     -1923.455          46.000
G15  20542961.797 8 107953989.683 8     -1207.000          51.000    20542961.531 8  84119987.718 8      -940.523          51.000
G19  22578923.188 6 118653046.249 6      2535.953          41.000    22578919.227 6  92456900.816 6      1976.064          40.000
R01  21320554.727 7 113970569.171 7     -3879.305          47.000    21320557.742 6  88643782.955 6     -3017.240          41.000
R11  20030449.602 6 107036636.812 6     -1796.984          39.000    20030453.484 6  83250736.851 6     -1397.655          38.000
R12  19993007.062 6 106799006.727 6      1310.359          39.000
C05  39773017.164 5 207108536.943 5        28.504          34.000    39773013.383 5 160149441.729 5        21.727          34.000
C20  23381580.875 8 121754015.179 8     -2007.016          49.000
C23  24849094.125 4 129395754.465 4     -2502.141          28.000
E02  26740741.797 6 140523544.197 6     -2535.102          36.000
E07  23933857.570 8 125773280.362 8     -1373.301          51.000    23933859.375 8  96371722.794 8     -1052.204          51.000
E08  25074741.898 5 131768656.964 5     -3070.691          33.000    25074743.188 6 100965551.943 6     -2352.652          41.000
E27  24403439.445 8 128240923.683 8      1651.266          51.000    24403439.773 8  98262547.562 8      1265.294          50.000
E30  22295194.898 8 117162003.744 8      -869.004          51.000    22295196.234 8  89773516.028 8      -665.887          51.000
> 2020 05 15 06 04  0.0000000  0 15        .000000000000
G12  23355762.719 6 122735391.181 6      3604.250          37.000    23355775.773 6  95637971.551 6      2808.516          36.000
G13  21363467.922 8 112265759.027 8     -2481.758          51.000    21363467.656 7  87479804.383 7     -1933.834          46.000
G15  20549907.789 8 107990488.901 8     -1225.156          51.000    20549907.047 8  84148428.629 8      -954.667          51.000
G19  22564487.930 6 118577198.390 6      2521.652          38.000    22564484.961 5  92397798.491 5      1964.918          35.000
R01  21342366.391 7 114087168.550 7     -3892.871          46.000    21342370.227 6  88734471.330 6     -3027.789          41.000
R11  20040569.117 6 107090715.893 6     -1807.336          38.000    20040575.562 6  83292798.384 6     -1405.706          36.000
R12  19985687.750 5 106759910.579 5      1297.445          35.000
C05  39772858.250 5 207107709.481 5        27.301          34.000    39772854.500 5 160148803.122 5        21.615          34.000
C20  23393185.922 8 121814447.293 8     -2020.680          50.000
C23  24863513.984 4 129470838.880 4     -2503.637          28.000
E02  26755221.742 6 140599634.113 6     -2536.656          38.000
E07  23941736.375 8 125814684.591 8     -1385.844          51.000    23941737.828 8  96403448.089 8     -1061.838          51.000
E08                                                                  25092284.711 6 101036182.749 6     -2355.274          40.000
E27  24394039.102 8 128191523.373 8      1643.281          51.000    24394039.055 8  98224695.388 8      1259.135          49.000
E30  22300182.977 8 117188215.982 8      -877.152          51.000    22300184.578 8  89793600.723 8      -672.128          51.000
> 2020 05 15 06 04 30.0000000  0 13        .000000000000
G12  23335218.047 6 122627420.285 6      3592.500          37.000    23335231.898 6  95553838.377 6      2799.351          37.000
G13  21377685.734 8 112340474.362 8     -2500.418          51.000    21377685.289 7  87538024.060 7     -1948.378          46.000
G15  20556965.461 8 108027574.530 8     -1248.395          51.000    20556964.047 8  84177326.506 8      -972.772          51.000
G19  22550144.664 6 118501828.816 6      2501.777          41.000    22550142.758 6  92339068.989 6      1949.434          36.000
R01  21364262.492 7 114204219.734 7     -3911.738          46.000    21364267.438 7  88825511.120 7     -3042.463          42.000
R11  20050754.031 6 107145145.672 6     -1822.719          40.000    20050761.203 5  83335132.638 5     -1417.676          32.000
C05  39772709.219 5 207106933.019 5        23.055          33.000    39772705.297 5 160148202.215 5        17.927          34.000
C20  23404877.734 8 121875328.012 8     -2039.207          49.000
E02  26769716.305 6 140675808.975 6     -2542.738          38.000
E07  23949694.812 8 125856507.956 8     -1403.598          51.000    23949696.070 8  96435494.530 8     -1075.472          51.000
E08  25109865.875 5 131953239.410 5     -3082.383          33.000    25109854.070 6 101106929.068 6     -2361.874          38.000
E27  24384692.367 8 128142406.617 8      1630.098          51.000    24384692.430 8  98187060.477 8      1249.039          49.000
E30  22305225.406 8 117214715.127 8      -890.633          51.000    22305227.305 8  89813905.261 8      -682.385          51.000
> 2020 05 15 06 05  0.0000000  0 14        .000000000000
G12  23314678.445 5 122519466.356 5      3591.445          32.000
G13  21391947.312 8 112415419.299 8     -2507.461          51.000    21391946.375 7  87596422.659 7     -1953.866          45.000
G15  20564093.914 8 108065032.623 8     -1260.328          51.000    20564092.133 8  84206514.625 8      -982.074          51.000
G19  22535853.570 7 118426727.360 7      2493.234          43.000    22535850.977 6  92280548.395 6      1942.783          39.000
R01  21386202.133 7 114321501.877 7     -3918.824          46.000    21386207.922 7  88916730.544 7     -3047.974          42.000
R11  20060964.383 7 107199707.838 7     -1826.352          42.000    20060969.250 5  83377569.745 5     -1420.499          32.000
R12  19971262.703 5 106682866.099 5      1271.547          34.000    19971260.812 5  82975565.550 5       988.981          30.000
C05  39772529.164 5 207105995.465 5        28.457          34.000    39772525.250 5 160147476.729 5        21.869          34.000
C20  23416614.891 8 121936444.201 8     -2046.582          50.000
E02  26784184.953 6 140751838.769 6     -2537.668          39.000
E07  23957692.328 8 125898536.601 8     -1409.930          51.000    23957693.492 8  96467698.269 8     -1080.372          51.000
E08  25127422.898 5 132045498.591 5     -3079.465          35.000    25127411.430 6 101177626.512 6     -2359.955          38.000
E27  24375359.094 8 128093360.211 8      1628.250          51.000    24375359.727 8  98149479.480 8      1247.587          49.000
E30  22310281.812 8 117241286.977 8      -892.457          51.000    22310283.656 8  89834265.502 8      -683.825          51.000
> 2020 05 15 06 05 30.0000000  0 13        .000000000000
G13  21406297.375 8 112490828.945 8     -2520.344          51.000    21406296.406 7  87655183.384 7     -1963.904          45.000
G15  20571337.859 8 108103099.182 8     -1277.934          51.000    20571336.156 8  84236176.868 8      -995.792          51.000
G19  22521659.258 7 118352133.835 7      2479.020          44.000    22521657.367 6  92222423.626 6      1931.707          40.000
R01  21408229.250 7 114439251.815 7     -3931.594          46.000    21408235.766 6  89008313.800 6     -3057.909          41.000
R11  20071244.258 6 107254640.840 6     -1836.074          40.000    20071247.609 5  83420295.409 5     -1428.058          34.000
R12  19964158.703 5 106644908.348 5      1258.547          35.000    19964153.523 4  82946042.955 4       978.870          27.000
C05  39772363.125 5 207105131.149 5        28.469          34.000    39772359.203 5 160146808.367 5        22.295          34.000
C20  23428442.211 8 121998028.312 8     -2059.520          50.000
E02  26798672.328 6 140827973.118 6     -2538.676          38.000
E07  23965774.047 8 125941006.486 8     -1421.910          51.000    23965775.312 8  96500240.096 8     -1089.569          51.000
E08  25145009.953 6 132137920.111 6     -3082.992          36.000    25145002.336 6 101248455.163 6     -2362.254          38.000
E27  24366084.320 8 128044620.706 8      1620.598          51.000    24366085.891 8  98112133.624 8      1241.846          49.000
E30  22315396.977 8 117268167.051 8      -899.988          51.000    22315398.828 8  89854861.918 8      -689.622          51.000
> 2020 05 15 06 06  0.0000000  0 15        .000000000000
G12  23273781.984 5 122304558.599 5      3574.387          33.000    23273765.156 5  95302175.320 5      2785.236          33.000
G13  21420733.805 8 112566693.367 8     -2536.352          51.000    21420733.297 7  87714298.484 7     -1976.381          46.000
G15  20578695.648 8 108141764.765 8     -1298.785          51.000    20578694.289 8  84266305.874 8     -1012.040          51.000
G19  22507560.602 7 118278042.805 7      2461.281          44.000    22507558.500 6  92164690.356 6      1917.885          39.000
G28  23124997.297 4 121522680.418 4     -2921.570          29.000
R01  21430341.078 7 114557457.134 7     -3947.750          45.000    21430348.359 6  89100251.267 6     -3070.472          40.000
R11  20081591.836 6 107309934.672 6     -1849.152          41.000    20081595.039 6  83463301.717 6     -1438.233          36.000
R12  19957138.766 5 106607408.935 5      1242.121          33.000
C05                                                                  39772205.727 5 160146189.795 5        19.374          33.000
C20  23440357.391 8 122060070.253 8     -2075.637          51.000
E02  26813176.945 5 140904198.908 5     -2542.883          35.000
E07  23973938.266 8 125983908.683 8     -1437.277          51.000    23973939.672 8  96533113.162 8     -1101.302          51.000
E08  25162624.977 5 132230488.130 5     -3089.465          35.000    25162623.805 6 101319407.591 6     -2367.180          39.000
E27  24356866.336 8 127996179.787 8      1609.723          51.000    24356868.055 8  98075016.546 8      1233.409          49.000
E30  22320568.930 8 117295346.051 8      -910.934          51.000    22320571.062 8  89875687.388 8      -698.000          51.000
> 2020 05 15 06 06 30.0000000  0 14        .000000000000
G12  23253384.461 5 122197387.932 5      3569.375          33.000    23253376.117 5  95218665.563 5      2781.328          32.000
G13  21435238.922 8 112642919.553 8     -2546.434          49.000    21435238.742 7  87773695.470 7     -1984.237          47.000
G15  20586149.805 8 108180936.826 8     -1313.734          51.000    20586148.789 8  84296829.552 8     -1023.689          51.000
G19  22493540.867 7 118204365.630 7      2449.633          43.000    22493538.070 5  92107279.530 5      1908.802          35.000
G28  23141676.242 5 121610316.933 5     -2923.164          34.000
R01  21452520.359 7 114676020.003 7     -3957.566          46.000    21452527.617 6  89192466.799 6     -3078.107          40.000
R11  20091989.805 7 107365494.092 7     -1855.914          42.000    20091992.422 6  83506514.540 6     -1443.492          36.000
C05                                                                  39772047.133 5 160145551.911 5        21.437          34.000
C20  23452342.297 8 122122476.911 8     -2085.852          51.000
E02  26827681.281 5 140980423.193 5     -2540.289          33.000
E07  23982167.328 8 126027150.474 8     -1446.633          51.000    23982168.586 8  96566246.449 8     -1108.489          51.000
E08  25180253.680 6 132323155.243 6     -3089.246          36.000    25180257.742 6 101390412.196 6     -2367.489          39.000
E27  24347687.562 8 127947945.394 8      1604.715          50.000    24347689.117 8  98038057.718 8      1229.569          48.000
E30  22325780.156 8 117322730.895 8      -915.887          51.000    22325782.352 8  89896670.578 8      -701.768          51.000
> 2020 05 15 06 07  0.0000000  0 12        .000000000000
G12  23233032.438 5 122090435.861 5      3560.172          31.000    23233025.414 5  95135326.308 5      2774.163          32.000
G13  21449818.195 8 112719534.378 8     -2561.352          48.000    21449817.953 8  87833395.328 8     -1995.861          48.000
G15  20593705.211 8 108220642.483 8     -1333.293          51.000    20593704.453 8  84327769.009 8     -1038.930          51.000
G19  22479605.625 6 118131133.316 6      2432.879          41.000    22479602.117 6  92050215.426 6      1895.756          36.000
G28  23158380.766 5 121698116.893 5     -2929.984          33.000
R01  21474772.422 7 114794965.679 7     -3972.203          47.000    21474778.914 6  89284980.056 6     -3089.494          39.000
R11  20102442.000 6 107421345.942 6     -1867.699          40.000    20102444.070 6  83549954.880 6     -1452.655          36.000
C20  23464401.859 8 122185274.566 8     -2100.742          51.000
E07  23990466.406 8 126070759.701 8     -1460.664          51.000    23990467.359 8  96599661.286 8     -1119.243          51.000
E08  25197902.289 5 132415880.621 5     -3094.871          35.000    25197909.766 6 101461489.729 6     -2371.182          39.000
E27  24338553.672 8 127899945.993 8      1595.133          50.000    24338554.289 7  98001278.978 7      1222.200          47.000
E30  22331035.844 8 117350349.019 8      -925.441          51.000    22331037.891 8  89917832.517 8      -709.092          51.000
> 2020 05 15 06 07 30.0000000  0 13        .000000000000
G12  23212724.930 5 121983716.560 5      3557.047          35.000    23212715.547 5  95052217.117 5      2771.725          35.000
G13  21464471.727 7 112796540.918 7     -2570.066          47.000    21464471.531 7  87893400.470 7     -2002.646          47.000
G15  20601362.648 8 108260885.512 8     -1346.816          51.000    20601362.375 8  84359127.195 8     -1049.470          51.000
G19  22465756.195 7 118058353.663 7      2422.168          42.000    22465752.445 6  91993504.054 6      1887.407          36.000
G28  23175115.102 5 121786073.426 5     -2931.141          34.000
R01  21497096.648 7 114914294.226 7     -3980.469          47.000    21497101.977 6  89377791.069 6     -3095.923          38.000
R11  20112948.586 6 107477493.213 6     -1872.961          41.000    20112951.477 6  83593624.965 6     -1456.750          36.000
C05                                                                  39771731.898 5 160144282.589 5        23.766          34.000
C20  23476536.523 8 122248465.707 8     -2109.559          51.000
E07  23998835.922 8 126114740.173 8     -1468.711          51.000    23998837.172 8  96633360.575 8     -1125.319          51.000
E08  25215571.633 6 132508741.119 6     -3093.477          38.000    25215580.578 6 101532642.530 6     -2370.296          39.000
E27  24329465.211 8 127852186.067 8      1591.508          49.000    24329465.555 8  97964683.732 8      1219.443          48.000
E30  22336336.516 8 117378203.963 8      -928.934          51.000    22336338.531 8  89939175.924 8      -711.810          51.000
> 2020 05 15 06 08  0.0000000  0 14        .000000000000
G12  23192450.430 5 121877204.607 5      3546.398          35.000    23192446.539 5  94969220.599 5      2763.424          34.000
G13  21479197.172 7 112873926.450 7     -2586.363          47.000    21479197.148 7  87953700.930 7     -2015.348          46.000
G15  20609120.125 8 108301653.322 8     -1368.195          51.000    20609120.320 8  84390894.306 8     -1066.126          51.000
G19  22451991.031 7 117986017.854 7      2403.238          43.000    22451987.828 6  91937138.490 6      1872.650          38.000
G28  23191880.148 5 121874172.885 5     -2939.324          35.000
R01  21519489.367 7 115033990.138 7     -3996.469          46.000    21519493.312 6  89470887.820 6     -3108.368          37.000
R11  20123508.680 7 107533922.484 7     -1886.316          43.000    20123511.445 6  83637514.360 6     -1467.135          37.000
R12  19929758.336 5 106461223.723 5      1191.430          31.000
C20  23488743.680 8 122312036.844 8     -2125.891          50.000
E02                                                                  26871228.922 5 108199303.257 5     -1949.200          34.000
E07  24007273.586 8 126159079.568 8     -1484.496          51.000    24007275.562 8  96667334.880 8     -1137.381          51.000
E08  25233258.234 6 132601686.762 6     -3100.105          37.000    25233267.734 6 101603860.571 6     -2375.211          37.000
E27  24320419.555 8 127804653.904 8      1580.141          48.000    24320421.383 8  97928262.988 8      1210.712          49.000
E30  22341679.734 8 117406283.016 8      -940.160          51.000    22341681.766 8  89960691.042 8      -720.400          51.000
> 2020 05 15 06 08 30.0000000  0 15        .000000000000
G12  23172224.133 6 121770930.667 6      3539.066          36.000    23172223.648 6  94886409.691 6      2757.711          36.000
G13  21493998.875 8 112951710.061 8     -2598.867          49.000    21493998.602 7  88014311.534 7     -2025.091          45.000
G15  20616981.258 8 108342965.563 8     -1385.496          50.000    20616981.742 8  84423085.642 8     -1079.607          50.000
G17  22419727.406 5 117816501.641 5       463.469          33.000
G19  22438314.938 7 117914149.581 7      2388.500          42.000    22438312.820 6  91881137.301 6      1861.172          40.000
G28  23208676.125 5 121962434.023 5     -2943.934          34.000
R01  21541952.742 6 115154070.244 6     -4008.203          41.000    21541957.023 6  89564283.379 6     -3117.494          37.000
R11  20134125.484 6 107590652.805 6     -1895.320          41.000    20134128.250 6  83681637.931 6     -1474.141          38.000
R12  19923101.750 5 106425669.839 5      1178.969          33.000    19923113.148 4  82775536.927 4       916.970          26.000
C20  23501027.500 8 122376006.520 8     -2138.266          50.000
E02  26885751.547 5 141285578.170 5     -2544.742          32.000    26885754.609 5 108257793.348 5     -1949.784          35.000
E07  24015783.211 8 126203797.867 8     -1496.270          51.000    24015786.016 8  96701599.525 8     -1146.471          51.000
E08  25250965.609 5 132694736.823 5     -3102.781          35.000    25250974.562 5 101675158.648 5     -2377.531          35.000
E27  24311421.062 8 127757370.175 8      1572.773          48.000    24311425.008 8  97892032.584 8      1205.064          51.000
E30  22347069.312 8 117434605.825 8      -947.422          51.000    22347071.266 8  89982392.929 8      -725.977          51.000
> 2020 05 15 06 09  0.0000000  0 14        .000000000000
G12  23152036.742 6 121664848.115 6      3532.812          36.000    23152035.914 6  94803748.011 6      2752.844          37.000
G13  21508867.461 8 113029842.139 8     -2610.742          51.000    21508866.672 7  88075193.633 7     -2034.345          44.000
G15  20624936.875 8 108384773.073 8     -1402.332          51.000    20624937.438 8  84455662.905 8     -1092.726          51.000
G19  22424719.648 7 117842703.599 7      2374.031          44.000    22424717.680 6  91825465.129 6      1849.891          39.000
G28  23225492.367 5 122050806.428 5     -2947.062          31.000
R01  21564473.711 5 115274481.325 5     -4019.082          34.000    21564482.797 6  89657936.501 6     -3125.950          37.000
R11  20144789.266 6 107647633.558 6     -1904.047          39.000    20144792.297 6  83725956.300 6     -1480.925          40.000
R12  19916517.625 5 106390472.390 5      1166.102          32.000    19916523.250 4  82748161.572 4       906.971          24.000
C20  23513378.898 8 122440324.939 8     -2150.258          49.000
E02                                                                  26900278.344 6 108316274.223 6     -1949.362          36.000
E07  24024355.273 8 126248846.112 8     -1507.527          51.000    24024358.984 8  96736117.005 8     -1155.109          51.000
E08  25268683.555 5 132787827.690 5     -3104.988          31.000    25268691.359 5 101746548.659 5     -2378.764          33.000
E27  24302461.375 8 127710286.595 8      1565.699          49.000    24302466.547 8  97855955.523 8      1199.748          51.000
E30  22352495.953 8 117463123.142 8      -954.203          51.000    22352497.883 8  90004243.851 8      -731.137          51.000
> 2020 05 15 06 09 30.0000000  0 13        .000000000000
G12  23131902.172 6 121559045.846 6      3525.305          36.000    23131901.672 6  94721304.778 6      2746.997          36.000
G13  21523818.773 8 113108408.054 8     -2622.594          51.000    21523817.547 7  88136413.773 7     -2043.580          44.000
G15  20633003.430 8 108427161.803 8     -1419.086          51.000    20633003.875 8  84488693.058 8     -1105.781          51.000
G19  22411221.961 7 117771769.676 7      2359.637          44.000    22411219.562 6  91770191.906 6      1838.678          37.000
R01  21587073.922 6 115395307.890 6     -4030.918          39.000    21587086.117 6  89751912.765 6     -3135.158          37.000
R11  20155515.555 6 107704951.085 6     -1912.809          40.000    20155518.305 6  83770536.652 6     -1487.740          39.000
R12  19910015.109 4 106355726.495 4      1154.383          29.000
C20  23525814.008 8 122505076.240 8     -2162.027          49.000
E02                                                                  26914816.898 6 108374811.859 6     -1949.454          36.000
E07  24033006.195 8 126294310.465 8     -1518.887          51.000    24033010.867 8  96770953.335 8     -1163.888          51.000
E08                                                                  25286435.469 5 101817996.095 5     -2380.497          34.000
E27  24293556.672 8 127663489.944 8      1558.559          49.000    24293561.977 8  97820098.350 8      1194.193          51.000
E30  22357975.898 8 117491920.808 8      -961.047          51.000    22357978.047 8  90026309.591 8      -736.461          51.000
> 2020 05 15 06 10  0.0000000  0 12        .000000000000
G12  23111799.555 6 121453414.034 6      3516.336          40.000    23111799.914 6  94638994.377 6      2740.005          39.000
G13  21538831.047 8 113187295.461 8     -2636.781          51.000    21538829.719 7  88197884.418 7     -2054.635          44.000
G15  20641159.406 8 108470019.229 8     -1438.289          51.000    20641159.453 8  84522088.429 8     -1120.745          51.000
G19  22397800.492 7 117701239.561 7      2342.277          43.000    22397798.523 5  91715233.463 5      1825.154          33.000
R01  21609734.539 7 115516433.171 7     -4044.281          43.000    21609745.719 6  89846121.270 6     -3145.555          37.000
R11  20166283.297 7 107762490.930 7     -1923.551          42.000    20166284.750 6  83815289.877 6     -1496.098          39.000
C20  23538310.977 8 122570148.381 8     -2176.371          49.000
E02                                                                  26929348.125 6 108433320.468 6     -1951.142          36.000
E07  24041714.891 8 126340079.153 8     -1532.543          50.000    24041720.586 8  96806022.849 8     -1174.229          51.000
E08                                                                  25304185.016 5 101889464.650 5     -2383.792          35.000
E27  24284684.922 8 127616869.110 8      1549.281          48.000    24284690.281 8  97784375.907 8      1187.139          51.000
E30  22363487.852 8 117520886.751 8      -970.172          51.000    22363490.219 8  90048504.251 8      -743.316          51.000
> 2020 05 15 06 10 30.0000000  0 15        .000000000000
G12  23091744.312 6 121348026.202 6      3510.312          39.000    23091744.820 6  94556874.040 6      2735.308          40.000
G13  21553917.672 8 113266573.997 8     -2647.512          51.000    21553915.930 7  88259659.862 7     -2062.999          44.000
G15  20649418.062 8 108513416.354 8     -1453.871          51.000    20649417.648 8  84555904.365 8     -1132.887          51.000
G19  22384470.648 7 117631187.757 7      2328.711          43.000    22384467.867 6  91660647.628 6      1814.580          37.000
G24  21004332.500 4 110378512.199 4      1798.289          29.000
R01  21632464.406 7 115637925.373 7     -4054.242          44.000    21632474.227 6  89940615.152 6     -3153.299          37.000
R02  19792905.289 6 105618732.445 6       445.527          37.000
R11  20177106.203 7 107820324.140 7     -1931.016          43.000    20177107.836 6  83860271.206 6     -1501.901          40.000
C20  23550882.859 8 122635610.006 8     -2186.879          49.000
C23  25052102.039 5 130452869.355 5     -2529.445          30.000
E02  26943879.773 5 141591043.398 5     -2545.145          32.000    26943885.055 5 108491854.112 5     -1949.894          33.000
E07  24050494.938 8 126386222.798 8     -1542.738          50.000    24050501.352 8  96841379.665 8     -1182.059          51.000
E08  25321950.320 5 133067749.515 5     -3111.988          33.000    25321952.453 5 101961008.004 5     -2384.445          34.000
E27  24275859.836 8 127570495.438 8      1543.297          48.000    24275865.359 8  97748842.837 8      1182.538          51.000
E30  22369045.172 8 117550091.280 8      -975.801          51.000    22369047.656 8  90070881.737 8      -747.703          51.000
> 2020 05 15 06 11  0.0000000  0 13        .000000000000
G12  23071731.469 6 121242859.391 6      3501.918          38.000    23071733.445 6  94474925.902 6      2728.767          37.000
G13  21569073.508 8 113346217.651 8     -2660.746          51.000    21569071.719 7  88321719.806 7     -2073.309          44.000
G15  20657774.406 8 108557327.146 8     -1471.992          51.000    20657773.672 8  84590120.568 8     -1147.007          51.000
G19  22371226.953 6 117561592.489 6      2312.297          40.000    22371223.305 6  91606417.575 6      1801.793          37.000
R01  21655257.586 7 115759755.448 7     -4066.312          44.000    21655265.594 6  90035371.840 6     -3162.687          36.000
R02  19790483.562 6 105605801.143 6       417.586          39.000
R11  20187978.641 6 107878423.666 6     -1940.699          41.000    20187981.273 6  83905459.689 6     -1509.436          40.000
C20  23563524.461 8 122701434.738 8     -2200.008          50.000
E02                                                                  26958423.594 5 108550399.355 5     -1951.163          31.000
E07  24059342.078 8 126432716.039 8     -1555.391          51.000    24059348.234 8  96877004.358 8     -1191.802          51.000
E08  25339731.648 6 133161191.373 6     -3115.898          36.000    25339733.453 5 102032606.219 5     -2387.572          34.000
E27  24267077.414 8 127524344.247 8      1534.910          49.000    24267082.977 8  97713480.239 8      1176.025          51.000
E30  22374642.992 8 117579508.791 8      -983.910          51.000    22374645.633 8  90093422.412 8      -753.947          51.000
> 2020 05 15 06 11 30.0000000  0 13        .000000000000
G12  23051773.344 5 121137879.045 5      3503.270          35.000    23051764.000 5  94393145.816 5      2729.814          32.000
G13  21584303.875 8 113426254.382 8     -2663.816          51.000    21584302.461 7  88384086.032 7     -2075.701          44.000
G15  20666233.703 8 108601779.119 8     -1480.074          51.000    20666232.719 8  84624758.489 8     -1153.302          51.000
G19  22358075.227 6 117492485.414 6      2305.906          39.000    22358071.719 5  91552567.950 5      1796.804          35.000
R01  21678118.508 7 115881948.624 7     -4068.199          44.000    21678125.148 6  90130410.935 6     -3164.158          36.000
R02  19788220.047 5 105593715.363 5       399.957          33.000
R11  20198904.539 6 107936816.997 6     -1940.590          37.000    20198909.297 6  83950876.726 6     -1509.348          40.000
C20  23576240.602 8 122767648.924 8     -2203.004          50.000
C23  25081285.938 5 130604840.867 5     -2524.762          32.000
E07  24068261.562 8 126479586.753 8     -1557.887          51.000    24068266.844 8  96912918.283 8     -1193.666          51.000
E08  25357531.805 6 133254731.767 6     -3108.586          37.000    25357534.273 5 102104281.012 5     -2381.927          34.000
E27  24258343.250 8 127478444.111 8      1536.465          51.000    24258348.500 8  97678310.002 8      1177.423          51.000
E30  22380286.664 8 117609166.872 8      -981.840          51.000    22380289.438 8  90116147.427 8      -752.331          51.000
> 2020 05 15 06 12  0.0000000  0 13        .000000000000
G12  23031842.164 5 121033157.121 5      3483.734          34.000    23031832.906 5  94311544.390 5      2714.601          33.000
G13  21599597.242 8 113506622.085 8     -2688.301          51.000    21599596.031 7  88446710.186 7     -2094.780          45.000
G15  20674784.094 8 108646711.460 8     -1509.629          50.000    20674782.789 8  84659770.711 8     -1176.334          50.000
G17  22403781.891 6 117732682.021 6       331.676          36.000    22403781.844 6  91739732.214 6       258.446          36.000
G19  22345005.039 6 117423809.244 6      2278.145          37.000    22345003.305 5  91499054.050 5      1775.171          31.000
R01  21701034.234 6 116004439.780 6     -4092.070          39.000    21701040.719 5  90225681.799 5     -3182.724          34.000
R11  20209874.602 6 107995441.588 6     -1961.883          41.000    20209879.781 6  83996473.618 6     -1525.909          40.000
R12  19878519.875 5 106187496.691 5      1087.020          31.000    19878524.594 5  82590291.030 5       845.454          30.000
C20  23589019.367 8 122834191.178 8     -2227.332          49.000
E07  24077241.625 8 126526774.331 8     -1581.980          51.000    24077245.734 8  96949074.991 8     -1212.170          51.000
E08  25375339.117 6 133348309.600 6     -3123.832          37.000    25375342.516 5 102175983.476 5     -2393.424          35.000
E27  24249645.570 8 127432735.133 8      1516.578          50.000    24249650.445 8  97643286.249 8      1162.035          51.000
E30  22385964.648 8 117639004.671 8     -1001.379          51.000    22385967.266 8  90139010.142 8      -767.311          51.000
> 2020 05 15 06 12 30.0000000  0 13        .000000000000
G12  23011974.109 6 120928763.096 6      3479.055          39.000    23011966.625 6  94230198.378 6      2710.952          39.000
G13  21614978.570 8 113587452.662 8     -2697.328          50.000    21614977.602 7  88509695.053 7     -2101.814          46.000
G15  20683450.562 8 108692255.931 8     -1523.742          50.000    20683449.242 8  84695259.907 8     -1187.332          50.000
G17  22401937.930 6 117722995.831 6       316.801          36.000    22401938.047 6  91732184.473 6       246.855          36.000
G19  22332043.125 5 117355700.267 5      2265.504          35.000    22332043.211 5  91445982.091 5      1765.328          34.000
R01  21724029.234 5 116127360.419 5     -4099.824          35.000    21724036.148 5  90321286.739 5     -3188.749          33.000
R11  20220914.094 7 108054431.142 7     -1967.668          43.000    20220918.367 6  84042354.312 6     -1530.408          38.000
R12  19872452.945 6 106155082.970 6      1077.109          36.000    19872459.586 5  82565084.912 5       837.752          30.000
C20  23601885.766 8 122901191.287 8     -2236.230          49.000
E07  24086307.352 8 126574411.053 8     -1590.676          51.000    24086310.141 8  96985575.840 8     -1218.797          51.000
E08  25393178.406 6 133442056.420 6     -3123.191          38.000    25393182.672 6 102247815.412 6     -2393.044          36.000
E27  24241009.336 8 127387350.247 8      1512.055          50.000    24241013.477 8  97608510.827 8      1158.593          50.000
E30  22391701.992 8 117669154.185 8     -1005.531          51.000    22391704.289 8  90162111.698 8      -770.463          51.000
> 2020 05 15 06 13  0.0000000  0 12        .000000000000
G12  22992138.344 6 120824528.947 6      3469.609          39.000    22992132.602 6  94148976.913 6      2703.592          39.000
G13  21630414.656 7 113668574.500 7     -2710.570          47.000    21630414.820 7  88572906.860 7     -2112.130          46.000
G15  20692201.016 8 108738241.415 8     -1541.844          51.000    20692199.781 8  84731092.748 8     -1201.437          51.000
G17  22400184.734 5 117713788.745 5       297.332          32.000    22400182.438 5  91725010.092 5       231.678          32.000
G19  22319157.844 6 117287991.118 6      2248.496          39.000    22319159.516 6  91393221.695 6      1752.072          37.000
R01  21747069.523 5 116250533.211 5     -4112.059          35.000    21747078.531 4  90417087.830 4     -3198.271          28.000
R11  20231989.680 7 108113611.105 7     -1977.406          44.000    20231991.586 6  84088383.101 6     -1537.986          37.000
C20  23614807.406 8 122968478.804 8     -2249.336          49.000
E07  24095426.086 8 126622326.130 8     -1603.395          51.000    24095427.648 8  97022289.972 8     -1228.533          51.000
E08  25411017.438 6 133535800.816 6     -3126.301          39.000    25411021.695 6 102319645.465 6     -2395.531          36.000
E27  24232402.688 8 127342119.374 8      1503.477          51.000    24232405.023 8  97573853.424 8      1152.095          49.000
E30  22397466.070 8 117699444.407 8     -1013.559          51.000    22397468.352 8  90185321.085 8      -776.608          51.000
> 2020 05 15 06 13 30.0000000  0 12        .000000000000
G12  22972331.133 6 120720444.651 6      3466.762          39.000    22972328.094 6  94067872.282 6      2701.370          39.000
G13  21645903.547 7 113749974.564 7     -2718.125          45.000    21645905.195 7  88636335.468 7     -2118.016          45.000
G15  20701033.297 8 108784655.574 8     -1554.383          51.000    20701032.148 8  84767259.615 8     -1211.207          51.000
G19  22306348.289 6 117220673.136 6      2237.402          41.000    22306349.094 6  91340766.017 6      1743.427          37.000
R01  21770154.625 5 116373942.594 5     -4117.598          32.000    21770164.258 4  90513072.808 4     -3202.579          28.000
R02  19780684.172 6 105553494.678 6       283.910          36.000
R11  20243097.883 7 108172967.853 7     -1981.508          42.000    20243099.625 6  84134549.406 6     -1541.173          39.000
C20  23627781.555 8 123036040.199 8     -2256.664          49.000
E07  24104595.281 8 126670507.213 8     -1610.543          51.000    24104595.984 8  97059207.925 8     -1234.064          51.000
E08  25428853.297 6 133629529.713 6     -3123.875          38.000    25428857.016 5 102391463.687 5     -2393.795          35.000
E27  24223823.539 8 127297030.903 8      1500.445          51.000    24223823.898 8  97539305.127 8      1149.677          49.000
E30  22403254.625 8 117729862.820 8     -1016.141          51.000    22403257.031 8  90208628.687 8      -778.631          51.000
> 2020 05 15 06 14  0.0000000  0 13        .000000000000
G12  22952608.820 6 120616804.872 6      3458.594          38.000    22952607.961 6  93987114.073 6      2695.008          37.000
G13  21661501.344 7 113831943.831 7     -2730.484          46.000    21661503.953 7  88700207.630 7     -2127.650          46.000
G15  20710002.547 8 108831789.771 8     -1571.836          51.000    20710001.602 8  84803987.536 8     -1224.807          51.000
G19  22293669.805 7 117154041.493 7      2220.816          43.000    22293668.891 5  91288845.288 5      1730.506          35.000
G24  20933838.070 5 110008071.347 5      1736.359          34.000
R02  19779215.812 5 105545640.036 5       255.426          34.000
R11  20254293.859 7 108232797.503 7     -1990.715          43.000    20254297.008 6  84181083.600 6     -1548.334          40.000
R12  19854640.133 5 106059891.377 5      1042.148          33.000    19854646.250 5  82491067.602 5       810.563          30.000
C20  23640863.617 8 123104163.414 8     -2268.961          49.000
E07  24113870.445 8 126719246.186 8     -1622.594          51.000    24113870.711 8  97096553.333 8     -1243.247          51.000
E08  25446741.359 5 133723534.489 5     -3126.652          35.000    25446744.234 6 102463493.280 6     -2395.660          36.000
E27  24215327.039 8 127252377.420 8      1492.559          51.000    24215326.594 8  97505090.124 8      1143.682          50.000
E30  22409123.094 8 117760701.044 8     -1023.551          51.000    22409125.539 8  90232257.963 8      -784.297          51.000
> 2020 05 15 06 14 30.0000000  0 14        .000000000000
G12  22932893.148 6 120513197.178 6      3455.871          38.000    22932892.500 6  93906380.829 6      2692.887          36.000
G13  21677129.062 8 113914067.370 8     -2737.129          48.000    21677131.156 7  88764199.988 7     -2132.825          45.000
G15  20719029.867 8 108879229.254 8     -1583.426          51.000    20719028.945 8  84840953.308 8     -1233.841          51.000
G19  22281043.445 7 117087685.655 7      2210.234          43.000    22281041.211 6  91237139.568 6      1722.264          36.000
G28  23412184.672 5 123031848.082 5     -2986.480          33.000
R02  19777855.820 6 105538428.624 6       233.773          37.000    19777858.977 4  82085454.648 4       181.827          28.000
R11  20265499.211 7 108292677.949 7     -1993.859          43.000    20265503.180 6  84227657.264 6     -1550.780          40.000
R12  19848827.320 5 106028874.044 5      1035.062          32.000    19848833.258 4  82466918.182 4       805.052          29.000
C20  23653974.477 8 123172436.523 8     -2275.285          49.000
C23  25169080.070 5 131062013.842 5     -2535.355          33.000
E07  24123172.578 8 126768128.611 8     -1628.844          51.000    24123172.688 8  97134008.662 8     -1248.081          51.000
E08                                                                  25464605.859 6 102535416.089 6     -2393.487          36.000
E27  24206834.070 8 127207745.261 8      1490.352          50.000    24206834.047 8  97470891.448 8      1141.964          50.000
E30  22414992.398 8 117791544.459 8     -1025.191          51.000    22414994.750 8  90255891.217 8      -785.521          51.000
> 2020 05 15 06 15  0.0000000  0 16        .000000000000
G12  22913245.883 5 120409924.733 5      3441.590          32.000    22913232.453 5  93825865.109 5      2681.758          33.000
G13  21692834.641 8 113996598.092 8     -2755.445          49.000    21692835.086 7  88828509.594 7     -2147.103          43.000
G15  20728163.570 8 108927226.819 8     -1606.824          51.000    20728162.516 8  84878353.959 8     -1252.074          51.000
G17  22394236.156 5 117682491.716 5       226.398          33.000
G19  22268518.656 7 117021863.238 7      2187.465          45.000    22268515.430 5  91185849.434 5      1704.521          35.000
G24  20914135.164 5 109904523.690 5      1716.828          35.000    20914133.227 5  85639877.963 5      1337.791          35.000
G28  23429288.547 5 123121732.574 5     -2996.828          34.000
R01  21839830.383 5 116746426.761 5     -4150.273          33.000    21839828.680 4  90802746.996 4     -3227.993          27.000
R02  19776663.117 5 105532067.198 5       200.266          34.000    19776666.688 4  82080506.861 4       155.762          29.000
R11  20276762.633 7 108352865.869 7     -2008.773          43.000    20276766.242 6  84274470.062 6     -1562.379          39.000
R12  19843097.383 5 105998253.098 5      1016.637          35.000    19843102.148 4  82443101.936 4       790.714          29.000
C20  23667162.164 8 123241109.496 8     -2293.363          49.000
E07  24132549.828 8 126817408.024 8     -1646.863          51.000    24132550.156 8  97171768.171 8     -1261.867          51.000
E08  25482486.633 5 133911370.005 5     -3132.047          35.000    25482489.367 6 102607425.970 6     -2399.955          36.000
E27  24198392.844 8 127163388.687 8      1476.422          49.000    24198393.820 8  97436903.931 8      1131.236          50.000
E30  22420910.797 8 117822646.414 8     -1038.652          51.000    22420912.977 8  90279722.572 8      -795.830          51.000
> 2020 05 15 06 15 30.0000000  0 13        .000000000000
G12  22893653.555 5 120306966.903 5      3428.090          34.000    22893636.203 5  93745638.334 5      2671.242          33.000
G13  21708631.211 8 114079605.924 8     -2772.578          51.000    21708629.555 6  88893190.952 6     -2160.454          41.000
G15  20737416.969 8 108975852.909 8     -1629.109          51.000    20737415.484 8  84916244.367 8     -1269.436          51.000
G19  22256108.633 6 116956647.617 6      2165.785          37.000    22256105.039 5  91135032.176 5      1687.637          30.000
G24  20904393.898 5 109853331.321 5      1701.652          32.000    20904391.859 5  85599987.875 5      1325.969          32.000
R01  21863177.117 5 116871260.087 5     -4165.914          35.000
R02  19775646.078 5 105526654.848 5       165.660          34.000    19775649.875 5  82076297.298 5       128.850          30.000
R11  20288097.305 7 108413432.294 7     -2022.977          42.000    20288099.438 6  84321577.227 6     -1573.429          39.000
C20  23680439.703 8 123310250.812 8     -2310.293          49.000
E07  24142015.594 8 126867154.861 8     -1663.816          51.000    24142016.633 8  97209885.844 8     -1274.872          50.000
E08  25500405.711 5 134005532.466 5     -3139.125          32.000    25500407.672 5 102679576.438 5     -2405.800          32.000
E27  24190017.383 8 127119378.846 8      1463.418          49.000    24190018.930 7  97403182.114 7      1121.293          47.000
E30  22426891.867 8 117854077.174 8     -1051.008          51.000    22426893.812 8  90303805.870 8      -805.312          51.000
> 2020 05 15 06 16  0.0000000  0 13        .000000000000
G12  22874081.078 5 120204109.245 5      3429.090          34.000    22874061.445 5  93665489.741 5      2672.021          34.000
G13  21724468.102 8 114162825.138 8     -2775.453          51.000    21724465.594 7  88958037.034 7     -2162.691          44.000
G15  20746739.578 8 109024842.236 8     -1637.016          51.000    20746737.602 8  84954417.835 8     -1275.597          51.000
R01  21886556.141 5 116996249.319 5     -4166.867          35.000
R02  19774758.750 5 105521924.190 5       148.398          35.000    19774765.797 5  82072617.817 5       115.421          30.000
R11  20299451.961 6 108474107.425 6     -2022.277          40.000    20299453.141 6  84368768.981 6     -1572.879          36.000
R12  19831857.555 5 105938198.659 5       994.418          34.000
C20  23693756.453 8 123379597.024 8     -2312.938          49.000
C23  25213095.016 5 131291194.571 5     -2542.883          32.000
E07  24151519.258 8 126917104.481 8     -1666.309          48.000    24151521.641 8  97248158.933 8     -1276.821          51.000
E08                                                                  25518309.773 5 102751664.271 5     -2400.365          34.000
E27  24181657.789 8 127075451.891 8      1464.785          48.000    24181659.344 8  97369523.836 8      1122.365          49.000
E30  22432885.133 8 117885571.946 8     -1048.930          51.000    22432886.984 8  90327938.214 8      -803.743          51.000
> 2020 05 15 06 16 30.0000000  0 14        .000000000000
G12  22854566.430 6 120101556.755 6      3412.895          37.000    22854544.625 6  93585578.793 6      2659.398          37.000
G13  21740383.672 8 114246458.339 8     -2795.234          51.000    21740380.953 7  89023205.727 7     -2178.105          45.000
G15  20756169.750 8 109074397.731 8     -1661.809          51.000    20756167.805 8  84993032.472 8     -1294.916          51.000
G19  22231523.945 6 116827449.714 6      2134.258          37.000    22231520.617 5  91034358.622 5      1663.058          34.000
R01  21910003.117 5 117121598.109 5     -4184.395          35.000
R02  19774038.828 5 105518083.314 5       112.379          33.000    19774044.977 4  82069630.468 4        87.409          29.000
R11  20310864.531 7 108535096.751 7     -2038.746          42.000    20310867.148 6  84416205.180 6     -1585.691          36.000
R12  19826347.227 5 105908749.106 5       973.410          34.000    19826358.312 4  82373573.349 4       757.109          24.000
C20  23707151.227 8 123449348.085 8     -2332.352          49.000
C23  25227793.406 5 131367708.260 5     -2553.430          31.000
E07  24161099.672 7 126967460.050 7     -1685.953          45.000    24161104.070 8  97286743.083 8     -1291.750          51.000
E08                                                                  25536235.125 5 102823844.636 5     -2407.940          33.000
E27  24173352.703 8 127031811.672 8      1449.230          48.000    24173355.008 8  97336085.268 8      1110.479          49.000
E30  22438929.078 8 117917333.719 8     -1063.719          51.000    22438931.070 8  90352275.145 8      -815.108          51.000
> 2020 05 15 06 17  0.0000000  0 13        .000000000000
G13  21756403.055 8 114330637.760 8     -2818.531          51.000    21756400.117 7  89088800.062 7     -2196.258          46.000
G15  20765732.758 8 109124651.755 8     -1690.219          51.000    20765731.086 8  85032191.420 8     -1317.054          51.000
G17  22389994.219 5 117660223.509 5       137.129          34.000    22389994.469 5  91683290.786 5       106.854          35.000
G19  22219417.984 6 116763822.158 6      2105.789          40.000    22219414.242 5  90984778.796 5      1640.884          34.000
R01  21933543.367 5 117247438.663 5     -4206.527          35.000
R02  19773510.688 5 105515268.281 5        72.832          33.000    19773518.453 5  82067440.858 5        56.647          32.000
R11  20322361.891 7 108596534.968 7     -2058.910          42.000    20322366.000 6  84463990.414 6     -1601.378          36.000
C20  23720649.797 8 123519634.513 8     -2355.230          51.000
C23  25242540.234 4 131444461.200 4     -2566.203          29.000
