     3.02           OBSERVATION DATA    M (MIXED)           RINEX VERSION / TYPE
SAVERINEX           SC600               20200519 035932 LCL PGM / RUN BY / DATE
       G = GPS       R = GLONASS       C = COMPASS          COMMENT
       S = SBAS      J = QZSS          E = GALILEO          COMMENT
BEAN                                                        MARKER NAME
1                                                           MARKER NUMBER
GEODETIC                                                    MARKER TYPE
Unige DICCA         GTER                                    OBSERVER / AGENCY
SC60291900056       SC600               2.12(191202)        REC # / TYPE / VERS
                    HEMA45          NONE                    ANT # / TYPE
  4509407.8091   693652.4678  4442337.6214                  APPROX POSITION XYZ
        0.0000        0.0000        0.0000                  ANTENNA: DELTA H/E/N
G    8 C1C L1C D1C S1C C2Y L2Y D2Y S2Y                      SYS / # / OBS TYPES
R    8 C1C L1C D1C S1C C2P L2P D2P S2P                      SYS / # / OBS TYPES
C    8 C1I L1I D1I S1I C7I L7I D7I S7I                      SYS / # / OBS TYPES
E    8 C1C L1C D1C S1C C7Q L7Q D7Q S7Q                      SYS / # / OBS TYPES
DBHZ                                                        COMMENT
     30.000                                                 INTERVAL
  2020    05    19    01    00    0.0000000     GPS         TIME OF FIRST OBS
  2020    05    19    01    59   30.0000000     GPS         TIME OF LAST OBS
     0                                                      RCV CLOCK OFFS APPL
G L1C  0.00000                                              SYS / PHASE SHIFT
G L2Y  0.00000                                              SYS / PHASE SHIFT
R L1C  0.00000                                              SYS / PHASE SHIFT
R L2P  0.25000                                              SYS / PHASE SHIFT
C L1I  0.00000                                              SYS / PHASE SHIFT
C L7I  0.00000                                              SYS / PHASE SHIFT
E L1C  0.50000                                              SYS / PHASE SHIFT
E L7Q -0.25000                                              SYS / PHASE SHIFT
 12 R01  1 R02 -4 R03  5 R08  6 R10 -5 R11  0 R12 -1 R13 -2 GLONASS SLOT / FRQ #
    R14 -7 R17  4 R18 -3 R23  3                             GLONASS SLOT / FRQ #
 C1C   71.950 C2C   71.950 C2P   71.950                     GLONASS COD/PHS/BIS
    18                                                      LEAP SECONDS
*** Above antenna height is from mark to ANTENNA BOTTOM.    COMMENT
    17     4        0.0000        ANT MEASURE TYPE/HEIGT    COMMENT
    0.0000    0.0000    0.0458    0.0405    0.0000          COMMENT
                    BASE STATION                            COMMENT
                                                            END OF HEADER
> 2020 05 19 01 00  0.0000000  0 16        .000000000000
G02  22582663.461 5 118672688.307 5     -1072.652          35.000    22582672.406 5  92472267.520 5      -835.833          30.000
G06  22895817.570 6 120318326.450 6     -3095.422          39.000    22895820.312 6  93754536.870 6     -2412.017          40.000
G07  20789144.594 8 109247685.645 8       151.496          51.000    20789142.039 8  85128070.712 8       118.049          51.000
G09  21513317.922 6 113053319.015 6     -2018.973          37.000    21513319.219 6  88093505.489 6     -1573.225          38.000
G30  21352028.734 8 112205658.631 8      2295.484          51.000    21352029.094 8  87433043.026 8      1788.689          51.000
R02  21527132.109 6 114872877.385 6     -2573.129          36.000    21527130.281 5  89345577.669 5     -2001.316          33.000
R03  19541794.438 7 104608838.373 7       312.184          42.000    19541797.609 6  81362390.670 6       242.809          40.000
R12  21255246.609 6 113541693.346 6     -2631.098          39.000
R13  19818152.586 7 105827804.940 7      1617.355          42.000    19818155.070 7  82310532.999 7      1257.946          43.000
R14  22591860.898 5 120427327.771 5      4419.188          30.000    22591865.609 4  93665702.287 4      3437.146          27.000
C05  39807644.031 5 207288847.267 5       -13.758          35.000    39807641.469 6 160288872.841 6       -10.838          39.000
C19  22125177.086 8 115211603.587 8     -1357.047          51.000
C22  22401587.117 5 116650928.228 5      1442.285          31.000
E05  23500512.680 8 123496017.806 8       284.766          51.000    23500514.125 8  94626814.088 8       218.209          51.000
E09  23320224.500 6 122548599.054 6     -1728.777          38.000
E24  23463873.312 8 123303499.905 8      2145.879          51.000    23463886.992 8  94479330.889 8      1644.296          51.000
> 2020 05 19 01 00 30.0000000  0 16        .000000000000
G02  22588839.289 6 118705188.176 6     -1090.402          37.000
G06  22913520.812 6 120411360.505 6     -3106.176          38.000    22913524.766 6  93827031.052 6     -2420.394          38.000
G07  20788333.375 8 109243422.870 8       133.652          51.000    20788330.812 8  85124749.088 8       104.148          51.000
G09  21524870.953 6 113114031.979 6     -2027.629          37.000    21524874.148 6  88140814.295 6     -1579.971          37.000
G30  21338970.953 8 112137038.288 8      2280.164          51.000    21338971.555 8  87379572.627 8      1776.751          51.000
R02  21541620.609 5 114950212.119 5     -2583.586          34.000    21541621.570 5  89405728.153 5     -2009.456          32.000
R03  19540088.203 7 104599705.399 7       297.625          43.000    19540091.820 6  81355287.248 6       231.486          41.000
R12  21270079.727 5 113620961.043 5     -2653.520          31.000
R13  19809147.727 7 105779715.105 7      1589.801          43.000    19809149.375 7  82273129.828 7      1236.515          43.000
R14  22567015.117 4 120294888.413 4      4411.363          29.000
C05  39807730.922 5 207289300.559 5       -15.410          35.000    39807728.375 6 160289222.568 6       -11.871          39.000
C19  22133030.961 8 115252499.204 8     -1368.414          51.000
C22  22393308.102 5 116607837.206 5      1431.969          32.000
E05  23498911.070 8 123487600.080 8       277.492          51.000    23498912.328 8  94620364.151 8       212.639          51.000
E09  23330113.117 5 122600565.776 5     -1734.246          35.000
E24  23451660.852 8 123239320.549 8      2133.660          51.000    23451674.469 8  94430154.492 8      1634.867          51.000
> 2020 05 19 01 01  0.0000000  0 14        .000000000000
G02  22595107.117 6 118738122.207 6     -1103.836          37.000
G06  22931275.680 6 120504663.806 6     -3112.863          38.000    22931284.875 6  93899735.163 6     -2425.596          38.000
G07  20787613.156 8 109239638.552 8       119.801          51.000    20787610.383 8  85121800.289 8        93.351          51.000
G09  21536464.328 6 113174957.598 6     -2032.781          37.000    21536468.328 6  88188288.783 6     -1583.982          36.000
G30  21325990.336 8 112068823.509 8      2268.812          51.000    21325991.055 8  87326418.261 8      1767.906          51.000
R03  19538453.031 7 104590951.075 7       287.199          43.000    19538456.477 6  81348478.297 6       223.377          40.000
R13  19800287.758 7 105732400.462 7      1565.898          44.000    19800288.875 7  82236329.596 7      1217.921          43.000
R14  22542204.172 5 120162639.447 5      4407.160          33.000
C05  39807816.242 5 207289744.930 5       -13.586          35.000    39807813.617 6 160289566.173 6        -9.971          39.000
C19  22140939.656 8 115293680.374 8     -1375.754          51.000
C22  22385076.406 4 116564966.829 4      1425.305          28.000
E05  23497340.391 8 123479345.431 8       274.086          51.000    23497341.578 8  94614039.161 8       209.996          51.000
E09  23340024.492 6 122652642.028 6     -1735.680          39.000
E24  23439507.625 8 123175454.994 8      2125.270          51.000    23439521.656 8  94381218.569 8      1628.456          51.000
> 2020 05 19 01 01 30.0000000  0 14        .000000000000
G02  22601459.844 5 118771498.639 5     -1120.547          35.000
G06  22949075.117 6 120598198.326 6     -3122.855          37.000    22949089.336 6  93972619.379 6     -2433.391          37.000
G07  20786977.273 8 109236297.085 8       103.230          51.000    20786974.148 8  85119196.557 8        80.439          51.000
G09  21548091.523 6 113236060.048 6     -2040.582          37.000    21548093.438 6  88235901.144 6     -1590.064          37.000
G30  21313080.352 8 112000980.745 8      2254.410          51.000    21313081.195 8  87273553.790 8      1756.683          51.000
R02  21570764.500 5 115105783.869 5     -2599.625          33.000    21570762.430 4  89526674.002 4     -2021.912          25.000
R03  19536882.820 7 104582540.947 7       273.879          44.000    19536884.734 6  81341937.068 6       213.020          40.000
R13  19791566.742 7 105685827.998 7      1539.262          44.000    19791567.562 7  82200106.601 7      1197.204          43.000
R14  22517423.000 5 120030549.251 5      4399.172          30.000    22517436.117 4  93357105.340 4      3421.581          28.000
C05  39807893.359 5 207290146.098 5       -13.645          35.000    39807890.812 6 160289876.808 6       -10.484          39.000
C19  22148896.102 8 115335112.466 8     -1385.980          51.000
E05  23495794.070 8 123471219.060 8       268.004          50.000    23495795.211 8  94607812.469 8       205.354          51.000
E09  23349949.367 5 122704792.677 5     -1740.281          35.000
E24  23427407.625 8 123111869.915 8      2114.059          51.000    23427421.766 8  94332497.542 8      1619.929          51.000
> 2020 05 19 01 02  0.0000000  0 14        .000000000000
G02  22607908.242 5 118805380.036 5     -1136.090          34.000
G06  22966930.555 6 120692025.042 6     -3130.758          38.000    22966945.383 6  94045731.203 6     -2439.548          38.000
G07  20786437.820 8 109233462.181 8        87.598          51.000    20786434.750 8  85116987.563 8        68.258          51.000
G09  21559764.578 6 113297402.657 6     -2047.027          37.000    21559766.078 6  88283700.587 6     -1595.092          36.000
G30  21300253.492 8 111933575.349 8      2241.074          51.000    21300254.680 8  87221030.143 8      1746.295          51.000
R03  19535389.461 7 104574541.537 7       261.328          45.000    19535390.195 6  81335715.281 6       203.255          40.000
R12  21315272.125 4 113862348.700 4     -2713.184          28.000
R13  19782996.805 7 105640064.423 7      1513.566          42.000    19782997.508 7  82164512.742 7      1177.218          43.000
R14  22492685.789 5 119898686.795 5      4392.430          32.000    22492699.414 5  93254545.750 5      3416.337          32.000
C05  39807974.555 5 207290569.188 5       -13.273          35.000    39807972.023 6 160290203.559 6       -10.077          39.000
C19  22156913.086 8 115376858.949 8     -1395.316          51.000
E05  23494284.266 8 123463285.296 8       262.797          50.000    23494285.398 8  94601733.349 8       201.370          51.000
E09                                                                  23359895.086 5  94060607.722 5     -1336.072          35.000
E24  23415373.555 8 123048631.033 8      2103.781          51.000    23415387.039 8  94284041.776 8      1611.985          51.000
> 2020 05 19 01 02 30.0000000  0 12        .000000000000
G06  22984832.492 6 120786095.634 6     -3139.480          40.000    22984844.633 6  94119033.090 6     -2446.342          41.000
G07  20785986.102 8 109231088.127 8        71.637          51.000    20785983.188 8  85115137.672 8        55.821          51.000
G09  21571474.680 6 113358939.276 6     -2054.367          41.000    21571476.688 6  88331651.208 6     -1600.809          39.000
G30  21287501.453 8 111866563.437 8      2227.281          51.000    21287502.516 8  87168813.090 8      1735.544          51.000
R03  19533964.109 7 104566907.925 7       248.469          46.000    19533964.211 6  81329778.041 6       193.253          41.000
R13  19774570.039 6 105595065.519 6      1487.113          41.000    19774570.664 7  82129513.590 7      1156.644          44.000
C05  39808051.195 5 207290967.622 5       -13.102          35.000    39808048.547 6 160290511.671 6        -9.772          39.000
C19  22164981.539 8 115418874.923 8     -1404.922          50.000
C22  22360652.781 5 116437762.582 5      1401.016          34.000
E05  23492802.500 8 123455499.047 8       257.254          50.000    23492803.617 8  94595767.273 8       197.102          51.000
E09  23369874.109 6 122809512.563 6     -1747.840          37.000    23369863.844 6  94100744.876 6     -1339.209          36.000
E24  23403397.070 8 122985694.673 8      2092.891          51.000    23403409.750 8  94235817.804 8      1603.629          51.000
> 2020 05 19 01 03  0.0000000  0 13        .000000000000
G06  23002785.320 6 120880435.204 6     -3148.762          41.000    23002793.922 6  94192544.545 6     -2453.578          41.000
G07  20785627.242 8 109229202.344 8        54.852          51.000    20785624.516 8  85113668.237 8        42.745          51.000
G09  21583227.109 6 113420697.508 6     -2062.508          41.000    21583228.766 6  88379774.481 6     -1607.149          41.000
G30  21274829.844 8 111799974.653 8      2212.652          51.000    21274830.547 8  87116925.734 8      1724.145          51.000
R02  21614845.766 6 115340939.911 6     -2626.344          36.000
R03  19532612.219 7 104559670.155 7       234.617          46.000    19532611.906 6  81324148.660 6       182.480          41.000
R13  19766291.969 6 105550862.016 6      1460.051          40.000    19766293.062 7  82095133.074 7      1135.595          43.000
C05  39808128.453 6 207291370.008 6       -13.523          36.000    39808125.781 6 160290822.821 6       -10.321          39.000
C19  22173106.633 8 115461188.407 8     -1415.312          48.000
C22  22352605.992 5 116395868.729 5      1392.113          32.000
E05  23491354.203 8 123447888.824 8       250.828          51.000    23491355.344 8  94589936.055 8       192.202          51.000
E09                                                                  23379854.125 6  94140975.150 6     -1342.415          36.000
E24  23391483.656 8 122923090.707 8      2081.340          51.000    23391496.125 8  94187848.559 8      1594.778          51.000
> 2020 05 19 01 03 30.0000000  0 14        .000000000000
G02  22627789.492 5 118909854.264 5     -1184.770          33.000    22627786.617 5  92657007.997 5      -923.197          33.000
G06  23020788.938 6 120975043.142 6     -3157.551          41.000    23020795.000 6  94266265.016 6     -2460.429          40.000
G07  20785361.695 8 109227806.909 8        38.652          51.000    20785359.086 8  85112580.885 8        30.119          51.000
G09  21595021.875 6 113482678.747 6     -2069.293          40.000    21595023.609 6  88428071.493 6     -1612.439          40.000
G30  21262239.305 8 111733812.601 8      2198.574          51.000    21262239.930 8  87065370.897 8      1713.175          51.000
R02  21629636.406 4 115419888.702 4     -2636.488          29.000    21629642.820 4  89771046.749 4     -2050.602          28.000
R03  19531334.461 7 104552831.757 7       221.719          46.000    19531333.688 6  81318829.923 6       172.451          41.000
R13  19758163.633 6 105507458.165 6      1433.766          41.000    19758164.703 7  82061374.513 7      1115.151          43.000
C05  39808206.805 6 207291778.587 6       -13.676          36.000    39808204.172 6 160291138.773 6       -10.303          40.000
C19  22181289.711 8 115503801.701 8     -1425.113          49.000
C22  22344609.195 5 116354234.126 5      1383.875          32.000
E05  23489939.953 8 123440457.157 8       245.039          51.000    23489941.109 8  94584241.667 8       187.745          51.000
E09  23389877.172 6 122914637.361 6     -1756.168          38.000    23389871.680 6  94181300.235 6     -1345.387          37.000
E24  23379634.234 8 122860823.096 8      2070.281          51.000    23379646.469 8  94140137.017 8      1586.277          51.000
> 2020 05 19 01 04  0.0000000  0 14        .000000000000
G02  22634596.703 6 118945629.845 6     -1199.656          36.000    22634595.805 6  92684885.089 6      -934.797          36.000
G06  23038839.617 6 121069897.389 6     -3165.262          41.000    23038843.625 6  94340177.386 6     -2466.438          40.000
G07  20785185.805 8 109226882.328 8        23.285          51.000    20785183.438 8  85111860.448 8        18.147          51.000
G09  21606855.320 6 113544863.676 6     -2075.836          39.000    21606857.203 6  88476527.137 6     -1617.541          39.000
G30  21249726.555 8 111668059.778 8      2185.270          51.000    21249727.430 8  87014134.931 8      1702.807          51.000
R02  21644498.203 5 115499168.886 5     -2644.250          33.000    21644491.188 4  89832672.598 4     -2056.627          28.000
R03  19530127.789 7 104546374.455 7       209.266          46.000    19530127.352 7  81313807.611 7       162.762          42.000
R13  19750181.484 6 105464836.331 6      1408.230          41.000    19750183.102 7  82028224.210 7      1095.290          44.000
C05  39808282.938 5 207292174.655 5       -12.227          35.000    39808280.328 6 160291445.051 6        -9.838          39.000
C19  22189527.625 8 115546696.119 8     -1434.133          51.000
C22  22336659.836 4 116312841.360 4      1375.852          27.000
E05  23488556.102 8 123433185.445 8       240.047          51.000    23488557.445 8  94578669.836 8       183.995          51.000
E09  23399912.023 6 122967369.856 6     -1759.121          36.000    23399907.930 6  94221705.675 6     -1347.784          36.000
E24  23367845.539 8 122798874.562 8      2059.980          51.000    23367857.672 8  94092669.954 8      1578.400          50.000
> 2020 05 19 01 04 30.0000000  0 14        .000000000000
G02  22641497.828 5 118981897.947 5     -1215.938          35.000    22641496.195 5  92713145.982 5      -947.490          34.000
G06  23056942.617 6 121165023.810 6     -3174.238          41.000    23056944.422 6  94414301.820 6     -2473.435          41.000
G07  20785104.797 8 109226456.844 8         6.797          51.000    20785102.820 8  85111528.907 8         5.296          51.000
G09  21618733.125 7 113607280.105 7     -2083.359          42.000    21618734.422 7  88525163.318 7     -1623.397          42.000
G30  21237297.391 8 111602746.397 8      2170.672          50.000    21237298.664 8  86963241.389 8      1691.433          50.000
R02  21659377.477 5 115578587.650 5     -2653.695          34.000
R03  19528997.609 7 104540329.251 7       195.590          46.000    19528997.672 7  81309105.773 7       152.125          42.000
R12  21392907.898 5 114277072.826 5     -2814.832          32.000
R13  19742351.633 7 105423027.637 7      1381.055          42.000    19742353.992 7  81995706.367 7      1074.154          44.000
C05  39808362.078 5 207292586.880 5       -13.293          35.000    39808359.500 6 160291763.792 6       -10.219          39.000
C19  22197825.242 8 115589900.335 8     -1444.391          51.000
E05  23487208.297 8 123426102.841 8       233.793          51.000    23487209.859 8  94573242.905 8       179.140          51.000
E09  23409968.211 6 123020236.286 6     -1763.328          37.000    23409967.719 5  94262213.657 5     -1351.544          34.000
E24  23356123.406 8 122737275.616 8      2048.301          51.000    23356134.828 8  94045470.744 8      1569.405          49.000
> 2020 05 19 01 05  0.0000000  0 15        .000000000000
G02  22648486.516 6 119018623.127 6     -1231.703          39.000    22648485.320 6  92741762.979 6      -959.769          37.000
G06  23075090.633 6 121260385.099 6     -3182.441          40.000    23075090.234 6  94488609.288 6     -2479.828          39.000
G07  20785112.062 8 109226495.634 8        -8.992          51.000    20785110.227 8  85111559.128 8        -7.007          51.000
G09  21630648.242 7 113669893.247 7     -2090.332          42.000    21630649.172 7  88573952.761 7     -1628.830          42.000
G30  21224945.891 8 111537839.558 8      2156.828          51.000    21224947.273 8  86912664.625 8      1680.645          51.000
R02  21674320.188 5 115658325.981 5     -2662.098          32.000
R03  19527938.539 7 104534662.306 7       182.383          46.000    19527939.445 7  81304698.134 7       141.850          44.000
R12  21408772.477 5 114361775.841 5     -2833.988          33.000
R13  19734668.242 7 105381998.647 7      1354.551          42.000    19734670.562 7  81963794.929 7      1053.539          45.000
R14  22345088.984 5 119111904.041 5      4349.043          31.000    22345102.023 6  92642627.704 6      3382.586          36.000
C05  39808437.922 6 207292981.351 6       -12.875          36.000    39808435.250 6 160292068.843 6        -9.923          39.000
C19  22206175.562 8 115633380.419 8     -1453.879          51.000
E05  23485890.000 8 123419175.400 8       228.402          50.000    23485891.812 8  94567934.870 8       174.974          51.000
E09  23420045.461 6 123073202.324 6     -1767.078          36.000    23420044.992 5  94302798.031 5     -1354.064          32.000
E24  23344461.703 8 122675993.628 8      2037.410          51.000    23344473.008 8  93998514.445 8      1561.109          49.000
> 2020 05 19 01 05 30.0000000  0 13        .000000000000
G02  22655564.852 6 119055820.069 6     -1249.785          40.000    22655564.070 6  92770747.559 6      -973.862          36.000
G06  23093286.211 6 121355994.596 6     -3193.320          38.000    23093283.500 6  94563110.135 6     -2488.302          38.000
G07  20785210.688 8 109227014.514 8       -27.449          51.000    20785209.031 8  85111963.455 8       -21.389          51.000
G09  21642603.586 6 113732718.685 6     -2099.879          40.000    21642604.523 6  88622907.626 6     -1636.269          40.000
G30  21212675.398 8 111473356.994 8      2140.047          51.000    21212676.656 8  86862418.461 8      1667.566          51.000
R02  21689312.352 5 115738330.845 5     -2673.832          34.000    21689333.148 4  90018788.343 4     -2079.647          26.000
R03  19526954.484 7 104529391.508 7       166.820          46.000    19526955.102 7  81300598.620 7       129.752          44.000
R13  19727134.250 7 105341767.721 7      1325.312          42.000    19727136.672 7  81932504.211 7      1030.799          45.000
C05  39808513.375 5 207293375.285 5       -15.250          35.000    39808510.570 6 160292372.703 6       -11.853          40.000
C19  22214581.797 8 115677152.576 8     -1466.156          51.000
E05  23484604.383 8 123412419.765 8       220.043          51.000    23484606.359 8  94562758.474 8       168.625          51.000
E09  23430146.133 6 123126284.295 6     -1773.605          38.000    23430145.945 6  94343471.207 6     -1359.095          36.000
E24  23332863.930 8 122615046.581 8      2023.727          51.000    23332875.141 8  93951814.793 8      1550.564          50.000
> 2020 05 19 01 06  0.0000000  0 14        .000000000000
G02  22662733.516 6 119093496.934 6     -1263.359          37.000    22662733.008 5  92800106.141 5      -984.436          35.000
G06  23111530.555 6 121451858.885 6     -3198.941          36.000    23111525.555 6  94637809.527 6     -2492.682          36.000
G07  20785402.305 8 109228022.783 8       -41.059          51.000    20785401.039 8  85112749.127 8       -31.994          51.000
G09  21654600.750 6 113795765.408 6     -2104.387          39.000    21654601.508 6  88672034.929 6     -1639.782          39.000
G30  21200487.891 8 111409309.648 8      2128.266          51.000    21200488.773 8  86812511.452 8      1658.392          51.000
R02  21704356.500 5 115818611.654 5     -2680.078          35.000    21704371.328 4  90081201.806 4     -2084.511          24.000
R03  19526046.344 7 104524527.706 7       155.906          47.000    19526046.781 7  81296815.660 7       121.260          45.000
R13  19719751.883 7 105302346.256 7      1301.227          42.000    19719754.125 7  81901843.053 7      1012.065          45.000
R14  22296248.867 5 118851574.863 5      4332.590          30.000    22296242.273 5  92440087.489 5      3369.792          35.000
C05  39808590.266 5 207293775.334 5       -13.367          35.000    39808587.578 6 160292682.787 6        -9.868          39.000
C19  22223045.953 8 115721226.438 8     -1473.520          51.000
E05  23483353.383 8 123405845.885 8       216.766          51.000    23483355.422 8  94557721.359 8       166.066          51.000
E09  23440270.961 5 123179491.973 5     -1775.312          32.000    23440274.156 6  94384240.557 6     -1359.700          36.000
E24  23321332.047 8 122554445.766 8      2014.938          51.000    23321343.953 8  93905380.455 8      1543.949          50.000
> 2020 05 19 01 06 30.0000000  0 13        .000000000000
G02  22669989.695 6 119131634.941 6     -1278.379          36.000    22669989.445 5  92829824.059 5      -996.130          35.000
G06  23129819.148 5 121547958.075 5     -3206.340          34.000    23129812.523 5  94712691.977 5     -2498.447          35.000
G07  20785683.711 8 109229502.861 8       -56.664          51.000    20785682.727 8  85113902.428 8       -44.154          51.000
G09  21666636.344 5 113859015.864 5     -2110.617          31.000    21666636.828 5  88721320.990 5     -1644.637          30.000
G30  21188380.164 8 111345682.007 8      2114.430          51.000    21188380.906 8  86762931.490 8      1647.608          51.000
R03  19525211.617 8 104520055.219 8       143.082          48.000    19525211.695 7  81293337.052 7       111.286          45.000
R13  19712518.336 6 105263719.517 6      1274.895          41.000    19712520.742 7  81871800.029 7       991.585          45.000
C05  39808665.570 5 207294166.776 5       -12.426          35.000    39808662.992 6 160292986.287 6        -9.732          40.000
C19  22231564.359 8 115765585.276 8     -1482.918          51.000
C22  22297658.766 5 116109747.900 5      1333.887          33.000
E05  23482133.820 8 123399437.220 8       211.359          51.000    23482135.883 8  94552810.829 8       161.852          51.000
E09  23450416.562 6 123232770.496 6     -1778.582          39.000    23450423.695 5  94425093.316 5     -1362.962          32.000
E24  23309862.953 8 122494176.021 8      2003.887          51.000    23309875.227 8  93859199.753 8      1535.449          50.000
> 2020 05 19 01 07  0.0000000  0 14        .000000000000
G02  22677341.602 6 119170269.928 6     -1294.527          37.000    22677340.805 5  92859929.328 5     -1008.726          35.000
G07  20786061.828 8 109231491.322 8       -73.477          51.000    20786061.234 8  85115451.866 8       -57.254          51.000
G09  21678718.016 5 113922430.769 5     -2118.730          35.000    21678718.266 5  88770793.317 5     -1650.956          34.000
G30  21176359.094 8 111282512.657 8      2099.246          48.000    21176360.477 8  86713708.627 8      1635.776          48.000
R02  21734606.805 4 115980007.630 4     -2699.520          29.000    21734605.359 4  90206680.631 4     -2099.614          27.000
R03  19524456.602 8 104516013.149 8       128.871          48.000    19524456.797 7  81290193.215 7       100.233          45.000
R12  21473327.266 4 114706621.699 4     -2911.461          29.000
R13  19705440.547 6 105225925.824 6      1247.055          41.000    19705443.281 7  81842404.953 7       969.934          44.000
C05  39808746.438 5 207294588.701 5       -13.094          35.000    39808743.836 6 160293311.764 6       -10.327          40.000
C19  22240144.664 8 115810266.054 8     -1493.539          51.000
C22  22290014.805 5 116069930.995 5      1323.707          34.000
E05  23480952.805 8 123393231.362 8       204.754          51.000    23480954.961 8  94548055.680 8       156.901          51.000
E09  23460591.016 6 123286233.154 6     -1783.215          36.000
E24  23298464.133 8 122434276.183 8      1991.695          50.000    23298477.109 8  93813302.457 8      1526.185          51.000
> 2020 05 19 01 07 30.0000000  0 14        .000000000000
G02  22684771.664 6 119209312.515 6     -1310.379          40.000    22684770.914 6  92890352.120 6     -1021.074          36.000
G07  20786519.750 8 109233899.560 8       -89.234          50.000    20786519.734 8  85117328.421 8       -69.533          50.000
G09  21690828.102 5 113986073.054 5     -2126.043          33.000    21690829.336 5  88820384.832 5     -1656.651          32.000
G30  21164407.836 7 111219714.858 7      2085.109          45.000    21164410.797 7  86664775.264 7      1624.761          45.000
R02  21749783.938 5 116061012.330 5     -2706.805          33.000    21749792.820 4  90269699.856 4     -2105.296          27.000
R03  19523765.016 8 104512313.090 8       115.590          48.000    19523765.102 7  81287315.395 7        89.903          45.000
R12  21489730.492 5 114794238.562 5     -2930.719          34.000    21489737.094 4  89284471.964 4     -2279.442          26.000
R13  19698502.523 6 105188878.178 6      1220.527          41.000    19698505.172 7  81813590.115 7       949.299          43.000
R14  22223286.898 5 118462635.976 5      4307.770          35.000    22223298.133 5  92137637.733 5      3350.490          31.000
C05  39808816.031 5 207294950.776 5       -13.078          35.000    39808813.375 6 160293591.736 6       -10.086          39.000
C19  22248769.977 8 115855181.550 8     -1503.016          51.000
E05  23479793.758 8 123387140.560 8       199.211          51.000    23479795.953 8  94543388.700 8       152.636          51.000
E09  23470775.461 6 123339754.112 6     -1787.199          36.000    23470782.828 5  94507115.879 5     -1369.275          33.000
E24  23287119.188 8 122374659.776 8      1980.574          49.000    23287132.969 8  93767622.328 8      1517.571          51.000
> 2020 05 19 01 08  0.0000000  0 14        .000000000000
G02  22692293.008 7 119248834.043 7     -1327.848          43.000    22692291.680 5  92921148.046 5     -1034.690          35.000
G06  23184949.500 5 121837697.586 5     -3232.941          31.000    23184952.125 4  94938498.452 4     -2519.178          29.000
G07  20787071.578 8 109236800.484 8      -107.438          50.000    20787071.867 8  85119588.867 8       -83.718          50.000
G09  21702981.195 5 114049936.694 5     -2135.180          34.000    21702983.422 5  88870150.961 5     -1663.776          33.000
G30  21152542.500 8 111157363.133 8      2068.508          49.000    21152545.789 8  86616189.495 8      1611.824          49.000
R03  19523151.234 7 104509030.798 7        99.914          47.000    19523151.547 7  81284762.495 7        77.708          45.000
R12  21506244.430 5 114882443.493 5     -2952.211          32.000    21506244.992 4  89353075.795 4     -2296.164          29.000
R13  19691718.094 6 105152651.741 6      1191.453          41.000    19691720.836 7  81785414.038 7       926.689          42.000
R14  22199065.336 6 118333506.364 6      4297.207          38.000    22199071.469 4  92037203.652 4      3342.275          26.000
C05  39808888.188 5 207295326.665 5       -15.328          35.000    39808885.594 6 160293882.435 6       -11.995          40.000
C19  22257454.281 8 115900404.354 8     -1515.008          51.000
E05  23478670.609 8 123381238.396 8       191.051          51.000    23478672.805 8  94538866.252 8       146.351          51.000
E09  23480986.141 5 123393406.456 5     -1793.473          33.000    23480994.422 5  94548226.047 5     -1373.875          32.000
E24  23275842.758 8 122315401.710 8      1966.723          50.000    23275857.531 8  93722216.801 8      1506.948          51.000
> 2020 05 19 01 08 30.0000000  0 14        .000000000000
G02  22699903.844 7 119288824.080 7     -1340.086          45.000    22699902.016 6  92952309.088 6     -1044.223          37.000
G06  23203413.961 5 121934728.483 5     -3237.422          32.000    23203418.320 5  95014106.955 5     -2522.666          32.000
G07  20787715.367 8 109240184.249 8      -120.113          49.000    20787715.812 8  85122225.568 8       -93.595          49.000
G09  21715175.641 6 114114017.918 6     -2139.117          36.000    21715177.570 6  88920084.366 6     -1666.845          37.000
G30  21140761.578 8 111095449.832 8      2057.160          51.000    21140763.914 8  86567945.382 8      1602.982          51.000
R03  19522613.922 8 104506158.513 8        89.594          48.000    19522614.938 7  81282528.480 7        69.681          45.000
R12  21522862.547 5 114971255.599 5     -2967.781          34.000    21522864.734 4  89422070.026 4     -2308.274          29.000
R13  19685086.562 7 105117239.445 7      1167.465          42.000    19685089.242 7  81757871.179 7       908.031          42.000
R14  22174891.516 6 118204639.000 6      4291.902          41.000    22174893.812 4  91936960.180 4      3338.155          27.000
C05  39808961.344 5 207295706.681 5       -11.914          35.000    39808958.734 6 160294177.060 6        -9.300          39.000
C19  22266196.078 8 115945925.670 8     -1521.727          51.000
E05  23477581.742 8 123375516.324 8       188.336          51.000    23477583.891 8  94534481.808 8       144.303          51.000
E09  23491219.164 5 123447189.599 5     -1793.625          33.000
E24  23264633.648 8 122256494.636 8      1958.355          51.000    23264648.414 8  93677080.203 8      1500.555          51.000
> 2020 05 19 01 09  0.0000000  0 14        .000000000000
G02  22707590.383 7 119329212.789 7     -1348.355          45.000    22707587.766 6  92983780.800 6     -1050.667          38.000
G06  23221911.156 5 122031924.665 5     -3237.816          33.000    23221915.242 5  95089844.218 5     -2522.971          33.000
G07  20788438.102 8 109243982.193 8      -128.930          50.000    20788438.656 8  85125185.016 8      -100.465          50.000
G09  21727397.586 6 114178244.900 6     -2138.707          37.000    21727399.688 6  88970131.403 6     -1666.522          37.000
G30  21129051.391 8 111033908.127 8      2049.746          51.000    21129052.664 8  86519990.829 8      1597.205          51.000
R03  19522140.953 8 104503628.104 8        83.195          48.000    19522142.195 7  81280560.372 7        64.707          45.000
R12  21539576.250 5 115060529.295 5     -2980.418          35.000    21539578.000 4  89491536.130 4     -2318.100          27.000
R13  19678594.414 6 105082573.189 6      1147.797          41.000    19678597.305 7  81730908.573 7       892.734          42.000
R14  22150755.242 7 118075968.768 7      4290.328          43.000    22150755.625 4  91836880.928 4      3336.922          28.000
C05  39809022.539 5 207296026.404 5        -5.551          35.000    39809019.922 6 160294423.497 6        -3.987          39.000
C19  22274982.227 8 115991677.987 8     -1524.445          51.000
C22  22259903.469 5 115913121.605 5      1296.543          30.000
E05  23476514.273 8 123369906.518 8       189.621          51.000    23476516.281 8  94530183.380 8       145.282          51.000
E24  23253478.797 8 122197872.031 8      1953.812          51.000    23253492.953 8  93632161.576 8      1497.089          51.000
> 2020 05 19 01 09 30.0000000  0 15        .000000000000
G02  22715389.672 7 119370195.505 7     -1369.984          46.000    22715386.000 6  93015715.399 6     -1067.520          37.000
G06  23240474.477 5 122129479.874 5     -3252.586          31.000    23240480.961 5  95165861.302 5     -2534.476          31.000
G07  20789277.234 8 109248390.600 8      -151.129          49.000    20789277.664 8  85128620.143 8      -117.763          50.000
G09  21739684.617 6 114242814.003 6     -2152.422          36.000    21739687.555 6  89020445.032 6     -1677.212          36.000
G30  21117449.242 8 110972936.206 8      2028.898          51.000    21117449.805 8  86472480.253 8      1580.960          51.000
R02  21811046.328 5 116387963.096 5     -2740.480          33.000
R03  19521769.844 8 104501641.425 8        63.168          48.000    19521771.094 7  81279015.165 7        49.131          45.000
R12  21556420.461 5 115150479.598 5     -3004.594          34.000
R13  19672279.961 6 105048854.424 6      1114.207          41.000    19672283.188 7  81704682.883 7       866.605          44.000
R14  22126693.352 7 117947699.310 7      4275.055          43.000    22126691.633 5  91737115.827 5      3325.046          31.000
C05  39809109.281 6 207296477.923 6       -11.254          36.000    39809106.586 6 160294772.674 6        -8.775          39.000
C19  22283850.492 8 116037856.453 8     -1540.480          51.000
E05  23475505.695 8 123364606.286 8       177.594          51.000    23475507.617 8  94526122.164 8       136.018          51.000
E09  23511754.625 5 123555103.551 5     -1800.285          32.000
E24  23242415.570 8 122139732.405 8      1935.949          51.000    23242429.008 8  93587613.035 8      1483.417          51.000
> 2020 05 19 01 10  0.0000000  0 16        .000000000000
G02  22723261.336 7 119411559.834 7     -1384.973          46.000    22723257.320 6  93047947.340 6     -1079.199          38.000
G06  23259064.406 6 122227180.236 6     -3258.703          36.000    23259079.695 5  95241991.360 5     -2539.249          35.000
G07  20790192.203 8 109253197.906 8      -166.605          50.000    20790192.344 8  85132366.111 8      -129.822          50.000
G09  21751996.641 5 114307513.715 5     -2158.211          35.000    21751999.797 5  89070860.392 5     -1681.726          35.000
G30  21105914.945 8 110912324.491 8      2014.723          51.000    21105915.711 8  86425250.353 8      1569.914          51.000
R02  21826484.109 5 116470344.462 5     -2748.801          32.000    21826500.125 4  90588057.856 4     -2137.962          29.000
R03  19521460.734 8 104499984.691 8        50.078          49.000    19521461.812 7  81277726.594 7        38.950          45.000
R12  21573353.109 5 115240916.601 5     -3022.750          34.000
R13  19666103.008 6 105015870.350 6      1087.555          41.000    19666106.383 7  81679028.630 7       845.876          44.000
R14  22102667.312 7 117819620.654 7      4266.262          42.000    22102665.891 5  91637499.132 5      3318.204          35.000
C05  39809181.352 6 207296853.441 6       -10.562          36.000    39809178.703 6 160295063.048 6        -8.445          39.000
C19  22292760.680 8 116084252.167 8     -1549.852          51.000
C22  22245148.828 5 115836317.718 5      1272.777          32.000
E05  23474515.938 8 123359405.084 8       172.129          51.000    23474517.773 8  94522136.821 8       131.897          51.000
E09  23522055.352 5 123609233.714 5     -1804.516          33.000
E24  23231404.328 8 122081866.487 8      1924.645          51.000    23231417.281 8  93543274.241 8      1474.782          51.000
> 2020 05 19 01 10 30.0000000  0 15        .000000000000
G02  22731215.859 7 119453360.631 7     -1401.152          45.000    22731211.469 6  93080519.406 6     -1091.807          39.000
G06  23277692.055 5 122325079.638 5     -3267.648          35.000    23277714.164 5  95318276.517 5     -2546.223          32.000
G07  20791193.953 8 109258460.495 8      -183.578          51.000    20791193.477 8  85136466.828 8      -143.048          51.000
G09  21764344.516 6 114372400.199 6     -2166.539          39.000    21764347.430 6  89121421.296 6     -1688.212          39.000
G30  21094460.055 8 110852130.967 8      1998.883          51.000    21094461.305 8  86378346.314 8      1557.571          51.000
R03  19521223.984 8 104498717.212 8        35.195          50.000    19521225.000 7  81276740.791 7        27.374          45.000
R12  21590389.242 5 115331916.125 5     -3042.594          30.000
R13  19660074.812 7 104983679.834 7      1059.188          42.000    19660078.109 7  81653991.559 7       823.816          45.000
R14  22078687.945 6 117691794.504 6      4256.145          40.000    22078687.984 5  91538078.792 5      3310.335          35.000
C05  39809249.680 5 207297208.270 5       -12.457          35.000    39809247.016 6 160295338.177 6        -9.382          40.000
C19  22301723.094 8 116130921.384 8     -1560.777          51.000
C22  22237849.539 5 115798300.632 5      1262.840          31.000
E05  23473555.844 8 123354360.039 8       165.020          51.000    23473557.602 8  94518271.140 8       126.372          51.000
E09  23532372.297 5 123663450.518 5     -1809.902          31.000    23532380.109 5  94755139.907 5     -1386.724          34.000
E24  23220456.289 8 122024332.642 8      1911.664          51.000    23220468.672 8  93499189.886 8      1464.785          51.000
> 2020 05 19 01 11  0.0000000  0 14        .000000000000
G02  22739265.555 7 119495664.098 7     -1416.676          43.000    22739260.953 6  93113483.158 6     -1103.900          38.000
G06  23296370.875 6 122423243.021 6     -3274.711          38.000    23296393.633 6  95394767.432 6     -2551.726          36.000
G07  20792295.156 8 109264245.638 8      -199.766          51.000    20792294.234 8  85140974.743 8      -155.662          51.000
G09  21776741.000 6 114437540.828 6     -2174.215          39.000    21776743.578 6  89172180.272 6     -1694.193          39.000
G30  21083098.305 8 110792424.973 8      1983.762          51.000    21083099.742 8  86331822.177 8      1545.788          51.000
R03  19521072.859 8 104497909.637 8        20.973          49.000    19521074.336 7  81276112.667 7        16.312          45.000
R13  19654208.672 7 104952353.260 7      1031.617          43.000    19654211.672 7  81629626.456 7       802.369          45.000
R14  22054768.633 6 117564293.854 6      4246.492          36.000    22054771.234 5  91438911.541 5      3302.824          34.000
C05  39809327.289 5 207297612.895 5       -12.324          35.000    39809324.570 6 160295650.308 6        -9.747          40.000
C19  22310751.070 8 116177931.580 8     -1571.020          51.000
C22  22230640.820 4 115760779.766 4      1252.840          27.000
E05  23472638.430 8 123349539.645 8       158.637          51.000    23472640.211 8  94514577.585 8       121.532          51.000
E09                                                                  23542728.617 5  94796811.883 5     -1390.119          35.000
E24  23209584.375 8 121967200.545 8      1899.383          51.000    23209596.094 8  93455413.356 8      1455.386          51.000
> 2020 05 19 01 11 30.0000000  0 12        .000000000000
G02  22747396.164 7 119538395.488 7     -1432.605          42.000    22747392.094 6  93146780.347 6     -1116.313          40.000
G06  23315085.867 6 122521594.066 6     -3282.820          39.000    23315106.219 5  95471404.522 5     -2558.042          34.000
G07  20793481.586 8 109270479.282 8      -216.391          51.000    20793480.281 8  85145832.145 8      -168.616          51.000
G09  21789171.719 6 114502861.773 6     -2181.824          37.000    21789172.562 6  89223079.610 6     -1700.126          38.000
G30  21071815.852 8 110733134.286 8      1968.324          51.000    21071817.469 8  86285621.664 8      1533.759          51.000
R03  19520993.938 8 104497488.267 8         6.449          50.000    19520995.797 7  81275784.929 7         5.016          46.000
R13  19648490.406 7 104921817.060 7      1003.438          42.000    19648493.102 7  81605876.099 7       780.451          45.000
R14  22030895.477 5 117437048.231 5      4235.816          34.000    22030902.680 4  91339942.660 4      3294.518          28.000
C05  39809400.047 5 207297991.767 5       -13.320          35.000    39809397.289 6 160295943.256 6       -10.216          39.000
C19  22319830.500 8 116225209.941 8     -1581.551          51.000
E05  23471749.914 8 123344870.815 8       151.992          51.000    23471751.891 8  94511000.168 8       116.471          51.000
E24  23198775.203 8 121910398.305 8      1886.754          51.000    23198786.922 8  93411889.605 8      1445.677          51.000
> 2020 05 19 01 12  0.0000000  0 14        .000000000000
G02  22755614.031 7 119581584.711 7     -1446.695          42.000    22755611.320 6  93180434.227 6     -1127.295          40.000
G06  23333842.750 6 122620161.655 6     -3288.637          40.000    23333856.297 6  95548210.302 6     -2562.577          38.000
G07  20794759.281 8 109277192.534 8      -231.176          51.000    20794757.430 8  85151063.260 8      -180.137          51.000
G09  21801642.547 6 114568394.067 6     -2186.961          39.000    21801641.977 6  89274143.743 6     -1704.128          38.000
G30  21060618.867 8 110674292.099 8      1954.457          51.000    21060620.570 8  86239770.639 8      1522.954          51.000
R03  19520993.641 8 104497486.866 8        -6.379          50.000    19520995.594 7  81275783.815 7        -4.961          46.000
R13  19642926.445 7 104892105.115 7       977.215          42.000    19642929.023 7  81582766.815 7       760.056          46.000
R14  22007079.500 6 117310093.964 6      4227.703          36.000    22007091.031 4  91241250.093 4      3288.214          26.000
C05  39809474.148 6 207298377.552 6       -12.230          36.000    39809471.445 6 160296241.595 6        -9.433          39.000
C19  22328967.023 8 116272788.257 8     -1590.355          51.000
C22  22216278.531 4 115685991.876 4      1234.141          29.000
E05  23470896.461 8 123340385.907 8       147.133          51.000    23470898.695 8  94507563.678 8       112.672          51.000
E09  23563481.000 6 123826938.174 6     -1821.613          36.000    23563472.164 5  94880337.348 5     -1395.431          30.000
E24  23188035.289 8 121853959.540 8      1875.832          51.000    23188047.430 8  93368644.331 8      1437.320          51.000
> 2020 05 19 01 12 30.0000000  0 13        .000000000000
G02  22763913.586 7 119625201.051 7     -1460.992          43.000    22763912.438 6  93214420.951 6     -1138.439          38.000
G06  23352634.766 6 122718913.417 6     -3294.816          36.000    23352641.305 6  95625159.704 6     -2567.392          36.000
G07  20796122.391 8 109284355.303 8      -246.344          51.000    20796120.383 8  85156644.659 8      -191.956          51.000
G09  21814147.656 6 114634107.916 6     -2193.906          38.000    21814146.484 6  89325349.358 6     -1709.537          38.000
G30  21049501.867 8 110615870.250 8      1940.383          51.000    21049503.273 8  86194247.147 8      1511.987          51.000
R03  19521066.844 8 104497876.619 8       -19.637          51.000    19521068.258 7  81276086.944 7       -15.273          45.000
R13  19637511.391 6 104863188.814 6       950.504          41.000    19637514.266 7  81560276.383 7       739.281          46.000
R14  21983315.727 6 117183405.159 6      4219.070          36.000    21983317.211 5  91142714.309 5      3281.499          35.000
C05  39809544.008 5 207298741.290 5       -11.820          35.000    39809541.297 6 160296522.860 6        -9.028          40.000
C19  22338155.648 8 116320637.283 8     -1599.543          51.000
E05  23470072.531 8 123336055.917 8       141.691          51.000    23470074.938 8  94504245.889 8       108.554          51.000
E09                                                                  23573883.672 5  94922249.848 5     -1398.122          33.000
E24  23177358.328 8 121797856.350 8      1864.438          49.000    23177371.461 8  93325656.186 8      1428.610          51.000
> 2020 05 19 01 13  0.0000000  0 12        .000000000000
G02  22772298.891 7 119669267.379 7     -1475.934          43.000    22772297.188 6  93248758.340 6     -1150.078          36.000
G07  20797575.609 8 109291991.860 8      -261.957          51.000    20797573.453 8  85162595.237 8      -204.122          51.000
G09  21826692.227 6 114700027.612 6     -2200.246          39.000    21826691.625 6  89376715.317 6     -1714.477          39.000
G30  21038469.602 8 110557894.867 8      1925.520          51.000    21038470.625 8  86149071.529 8      1500.405          51.000
R03  19521218.102 8 104498684.432 8       -33.461          51.000    19521219.242 7  81276715.237 7       -26.025          45.000
R13  19632250.023 6 104835094.439 6       923.484          40.000    19632252.820 7  81538425.204 7       718.263          45.000
R14  21959605.883 6 117057011.267 6      4208.551          37.000    21959604.664 6  91044408.044 6      3273.320          39.000
C05  39809614.398 5 207299107.690 5       -11.379          35.000    39809611.711 6 160296806.204 6        -9.031          40.000
C19  22347401.359 8 116368781.814 8     -1609.336          51.000
E05  23469282.906 8 123331906.142 8       135.707          51.000    23469285.312 8  94501066.182 8       104.004          51.000
E09                                                                  23584316.359 5  94964268.548 5     -1401.471          31.000
E24  23166749.727 8 121742115.191 8      1852.473          48.000    23166763.680 8  93282945.436 8      1419.370          50.000
> 2020 05 19 01 13 30.0000000  0 14        .000000000000
G02  22780769.266 6 119713782.012 6     -1490.914          41.000    22780765.227 6  93283445.015 6     -1161.754          37.000
G07  20799118.820 8 109300101.442 8      -277.754          51.000    20799116.297 8  85168914.390 8      -216.432          51.000
G09  21839275.695 6 114766152.583 6     -2207.008          38.000    21839276.133 6  89428241.214 6     -1719.749          38.000
G30  21027522.320 8 110500367.206 8      1910.566          51.000    21027523.023 8  86104244.757 8      1488.750          51.000
R02  21935935.383 5 117054373.125 5     -2810.992          32.000
R03  19521447.320 8 104499911.356 8       -47.523          51.000    19521448.117 7  81277669.511 7       -36.963          46.000
R13  19627142.727 6 104807823.170 6       895.977          39.000    19627145.844 7  81517214.211 7       696.871          46.000
R14  21935950.125 6 116930916.265 6      4198.527          39.000    21935949.320 6  90946334.206 6      3265.521          41.000
C05  39809685.297 5 207299477.090 5       -11.949          35.000    39809682.641 6 160297091.842 6        -9.176          40.000
C19  22356703.672 8 116417221.876 8     -1619.129          51.000
C22  22195174.898 4 115576099.892 4      1209.160          29.000
E05  23468527.602 8 123327937.033 8       129.715          51.000    23468529.984 8  94498024.917 8        99.410          51.000
E09                                                                  23594769.086 5  95006357.620 5     -1404.716          32.000
E24  23156211.148 8 121686737.735 8      1840.277          49.000    23156225.203 8  93240513.333 8      1410.071          50.000
> 2020 05 19 01 14  0.0000000  0 13        .000000000000
G02  22789321.859 6 119758729.798 6     -1505.234          40.000    22789316.633 6  93318469.268 6     -1172.913          37.000
G07  20800749.305 8 109308670.217 8      -293.168          51.000    20800746.812 8  85175591.369 8      -228.443          51.000
G09  21851895.305 5 114832468.855 5     -2213.957          34.000    21851895.492 5  89479916.275 5     -1725.155          33.000
G30  21016658.062 8 110443275.035 8      1895.836          51.000    21016658.453 8  86059757.313 8      1477.275          51.000
R02  21951767.055 6 117138837.849 6     -2819.270          36.000    21951773.930 4  91108012.494 4     -2192.765          26.000
R03  19521752.281 8 104501545.208 8       -61.211          51.000    19521753.156 7  81278940.281 7       -47.609          46.000
R13  19622186.953 6 104781362.792 6       868.598          38.000    19622190.781 7  81496633.909 7       675.576          46.000
R14  21912347.234 7 116805110.653 7      4188.906          42.000    21912347.953 7  90848485.423 7      3258.041          42.000
C05                                                                  39809751.625 6 160297369.483 6        -9.198          40.000
C19  22366060.266 8 116465944.187 8     -1628.715          51.000
E05  23467804.242 8 123324135.636 8       124.000          51.000    23467806.492 8  94495112.158 8        95.013          51.000
E09                                                                  23605246.547 5  95048536.730 5     -1406.904          35.000
E24  23145740.117 8 121631712.122 8      1828.328          49.000    23145754.570 8  93198350.837 8      1401.005          51.000
> 2020 05 19 01 14 30.0000000  0 12        .000000000000
G02  22797958.898 7 119804118.196 7     -1521.203          43.000    22797954.656 6  93353836.847 6     -1185.353          39.000
G07  20802468.742 8 109317706.504 8      -310.121          51.000    20802466.500 8  85182632.640 8      -241.653          51.000
G30  21005878.680 8 110386628.748 8      1879.750          51.000    21005879.008 8  86015617.350 8      1464.740          51.000
R03  19522135.602 8 104503596.454 8       -76.441          51.000    19522136.266 7  81280535.680 7       -59.454          47.000
R13  19617384.930 6 104755722.904 6       840.117          39.000    19617389.242 7  81476691.755 7       653.424          45.000
R14  21888801.469 7 116679607.861 7      4177.215          43.000    21888803.836 7  90750872.143 7      3248.948          44.000
C05  39809823.055 5 207300194.670 5       -12.625          35.000    39809820.422 6 160297646.366 6       -10.058          40.000
C19  22375473.070 8 116514957.943 8     -1639.676          51.000
C22  22181366.812 4 115504197.298 4      1187.852          29.000
E05  23467114.578 8 123320511.612 8       116.836          51.000    23467116.688 8  94492335.310 8        89.503          51.000
E09                                                                  23615747.227 5  95090804.249 5     -1411.121          34.000
E24  23135338.047 8 121577049.102 8      1814.965          49.000    23135352.938 8  93156466.213 8      1390.714          51.000
> 2020 05 19 01 15  0.0000000  0 13        .000000000000
G02  22806674.953 7 119849919.908 7     -1531.992          45.000    22806672.070 6  93389526.478 6     -1193.760          41.000
G07  20804272.078 8 109327184.166 8      -321.508          51.000    20804269.875 8  85190017.831 8      -250.526          51.000
G30  20995179.516 8 110330403.989 8      1868.719          51.000    20995179.820 8  85971805.854 8      1456.144          51.000
R02  21983573.906 5 117308561.427 5     -2834.387          31.000
R03  19522592.641 8 104506040.518 8       -86.363          51.000    19522593.062 7  81282436.606 7       -67.171          47.000
R12  21748275.023 5 116175374.491 5     -3199.098          32.000
R13  19612732.250 6 104730878.886 6       816.633          40.000    19612736.672 7  81457368.626 7       635.159          45.000
R14  21865308.383 7 116554385.759 7      4171.047          44.000    21865311.922 7  90653477.203 7      3244.148          44.000
C05  39809886.844 5 207300527.098 5        -8.762          35.000    39809884.133 6 160297903.026 6        -7.029          40.000
C19  22384936.883 8 116564237.835 8     -1645.457          51.000
C22  22174551.500 5 115468663.946 5      1181.793          32.000
E05  23466453.883 8 123317039.829 8       114.688          51.000    23466455.836 8  94489675.115 8        87.940          51.000
E24  23125000.492 8 121522724.688 8      1806.734          49.000    23125015.141 8  93114841.021 8      1384.168          49.000
> 2020 05 19 01 15 30.0000000  0 11        .000000000000
G02  22815474.922 7 119896161.087 7     -1553.219          45.000    22815472.438 7  93425558.604 7     -1210.297          42.000
G07  20806164.477 8 109337130.185 8      -343.973          50.000    20806162.461 8  85197767.973 8      -268.031          50.000
G30  20984566.062 8 110274629.770 8      1847.094          51.000    20984566.445 8  85928345.426 8      1439.294          51.000
R03  19523128.188 8 104508906.778 8      -107.262          51.000    19523128.344 7  81284665.924 7       -83.426          47.000
R12  21766300.891 4 116271672.538 4     -3223.832          27.000
R13  19608234.516 6 104706859.502 6       782.113          41.000    19608238.828 7  81438686.901 7       608.313          43.000
R14  21841874.789 7 116429476.706 7      4153.617          44.000    21841878.758 7  90556325.704 7      3230.591          44.000
C05  39809950.867 6 207300859.443 6       -15.777          36.000    39809948.164 6 160298160.784 6       -12.303          40.000
C19  22394457.117 8 116613811.362 8     -1661.879          51.000
E05  23465827.516 8 123313748.494 8       102.059          51.000    23465829.391 8  94487153.181 8        78.228          51.000
E24  23114733.164 8 121468768.206 8      1787.754          51.000    23114746.586 8  93073497.732 8      1369.825          49.000
> 2020 05 19 01 16  0.0000000  0 14        .000000000000
G02  22824367.484 7 119942889.232 7     -1560.965          45.000    22824365.227 7  93461970.177 7     -1216.333          43.000
G06  23485230.039 5 123415701.283 5     -3337.293          30.000
G07  20808155.297 8 109347593.266 8      -352.668          51.000    20808153.773 8  85205921.030 8      -274.806          51.000
G09  21902750.617 5 115099730.981 5     -2237.781          30.000
G30  20974047.781 8 110219356.581 8      1838.738          51.000    20974048.461 8  85885275.414 8      1432.783          51.000
R02  22015558.086 5 117479235.234 5     -2850.695          31.000
R03  19523752.109 8 104512246.978 8      -114.449          51.000    19523752.344 7  81287263.851 7       -89.019          47.000
R13  19603900.883 7 104683716.337 7       761.621          42.000    19603904.266 7  81420686.682 7       592.372          42.000
R14  21818510.711 7 116304934.740 7      4149.953          43.000    21818514.586 7  90459459.727 7      3227.741          43.000
C05  39810024.570 5 207301244.409 5        -8.738          35.000    39810021.906 6 160298457.704 6        -6.814          40.000
C19  22404043.023 8 116663727.513 8     -1664.910          51.000
E05  23465245.047 8 123310687.466 8       102.906          51.000    23465246.836 8  94484807.716 8        78.856          51.000
E09  23647366.344 5 124267749.249 5     -1849.484          33.000    23647373.266 5  95218174.600 5     -1417.215          34.000
E24  23104545.844 8 121415230.605 8      1782.309          51.000    23104558.336 8  93032475.421 8      1365.638          50.000
> 2020 05 19 01 16 30.0000000  0 13        .000000000000
G02  22833329.859 7 119989985.434 7     -1578.680          46.000    22833327.891 7  93498668.515 7     -1230.137          42.000
G06  23504302.523 5 123515944.146 5     -3345.809          32.000    23504308.094 5  96246220.199 5     -2607.121          31.000
G07  20810222.102 8 109358455.548 8      -371.508          50.000    20810220.922 8  85214385.125 8      -289.487          50.000
G30  20963602.664 8 110164468.472 8      1820.418          51.000    20963603.734 8  85842505.465 8      1418.511          51.000
R02  22031621.867 6 117564955.952 6     -2863.543          36.000
R03  19524442.297 8 104515942.877 8      -131.977          51.000    19524442.766 7  81290138.439 7      -102.648          47.000
R13  19599709.312 7 104661331.179 7       730.719          43.000    19599711.953 7  81403276.063 7       568.340          42.000
R14  21795194.359 7 116180645.002 7      4135.863          43.000    21795197.195 7  90362789.900 7      3216.783          42.000
C05                                                                  39810083.156 6 160298704.129 6        -9.608          40.000
C19  22413672.461 8 116713870.201 8     -1677.906          51.000
E05  23464684.234 8 123307740.074 8        93.703          51.000    23464685.938 8  94482549.323 8        71.798          51.000
E09  23657944.406 5 124323338.731 5     -1856.801          33.000
E24  23094416.234 8 121361996.306 8      1766.797          51.000    23094428.742 8  92991685.513 8      1353.794          50.000
