     3.02           OBSERVATION DATA    M (MIXED)           RINEX VERSION / TYPE
SAVERINEX           SC600               20200517 085931 LCL PGM / RUN BY / DATE
       G = GPS       R = GLONASS       C = COMPASS          COMMENT
       S = SBAS      J = QZSS          E = GALILEO          COMMENT
BEAN                                                        MARKER NAME
1                                                           MARKER NUMBER
GEODETIC                                                    MARKER TYPE
Unige DICCA         GTER                                    OBSERVER / AGENCY
SC60291900056       SC600               2.12(191202)        REC # / TYPE / VERS
                    HEMA45          NONE                    ANT # / TYPE
  4509407.8091   693652.4678  4442337.6214                  APPROX POSITION XYZ
        0.0000        0.0000        0.0000                  ANTENNA: DELTA H/E/N
G    8 C1C L1C D1C S1C C2Y L2Y D2Y S2Y                      SYS / # / OBS TYPES
R    8 C1C L1C D1C S1C C2P L2P D2P S2P                      SYS / # / OBS TYPES
C    8 C1I L1I D1I S1I C7I L7I D7I S7I                      SYS / # / OBS TYPES
E    8 C1C L1C D1C S1C C7Q L7Q D7Q S7Q                      SYS / # / OBS TYPES
DBHZ                                                        COMMENT
     30.000                                                 INTERVAL
  2020    05    17    06    00    0.0000000     GPS         TIME OF FIRST OBS
  2020    05    17    06    59   30.0000000     GPS         TIME OF LAST OBS
     0                                                      RCV CLOCK OFFS APPL
G L1C  0.00000                                              SYS / PHASE SHIFT
G L2Y  0.00000                                              SYS / PHASE SHIFT
R L1C  0.00000                                              SYS / PHASE SHIFT
R L2P  0.25000                                              SYS / PHASE SHIFT
C L1I  0.00000                                              SYS / PHASE SHIFT
C L7I  0.00000                                              SYS / PHASE SHIFT
E L1C  0.50000                                              SYS / PHASE SHIFT
E L7Q -0.25000                                              SYS / PHASE SHIFT
 14 R01  1 R02 -4 R03  5 R04  6 R08  6 R10 -5 R11  0 R12 -1 GLONASS SLOT / FRQ #
    R13 -2 R14 -7 R15  0 R21  4 R22 -3 R23  3               GLONASS SLOT / FRQ #
 C1C   71.950 C2C   71.950 C2P   71.950                     GLONASS COD/PHS/BIS
    18                                                      LEAP SECONDS
*** Above antenna height is from mark to ANTENNA BOTTOM.    COMMENT
    17     4        0.0000        ANT MEASURE TYPE/HEIGT    COMMENT
    0.0000    0.0000    0.0458    0.0405    0.0000          COMMENT
                    BASE STATION                            COMMENT
                                                            END OF HEADER
> 2020 05 17 06 00  0.0000000  0 14        .000000000000
G13  21485130.859 7 112905110.939 7     -2591.555          47.000    21485131.359 7  87977979.186 7     -2019.393          46.000
G15  20611629.320 8 108314841.624 8     -1374.855          51.000    20611629.500 8  84401174.404 8     -1071.319          51.000
G17  22420793.320 6 117822064.119 6       476.262          36.000
G19  22447787.438 6 117963928.800 6      2398.395          40.000    22447786.102 6  91919926.680 6      1868.879          40.000
G28  23198524.250 5 121909065.415 5     -2941.793          34.000
R03  20834850.562 8 111530589.015 8     -3506.762          51.000    20834850.719 7  86746001.013 7     -2727.484          47.000
R22  22727677.086 6 121321893.893 6      -203.477          38.000    22727681.227 6  94361463.767 6      -158.260          36.000
C05  39775647.250 5 207122231.999 5        26.324          34.000
C23  24564486.688 5 127913774.845 5      2336.945          34.000
C24  23853486.711 5 124211341.890 5     -2208.270          33.000
C25  21874983.367 7 113908778.425 7       286.176          45.000
E01  24166585.797 8 126996249.459 8     -1381.684          51.000    24166588.039 8  97308848.503 8     -1058.669          51.000
E04  24441234.938 8 128439536.362 8     -1999.605          51.000    24441235.930 8  98414704.985 8     -1532.183          51.000
E31  23985855.773 8 126046557.579 8      1148.062          51.000    23985857.695 8  96581140.809 8       879.681          51.000
> 2020 05 17 06 00 30.0000000  0 15        .000000000000
G12  23167317.648 5 121745118.233 5      3532.918          34.000    23167315.844 5  94866280.513 5      2752.926          35.000
G13  21499970.430 8 112983090.849 8     -2607.734          50.000    21499970.406 7  88038742.727 7     -2032.004          44.000
G15  20619535.992 8 108356392.977 8     -1395.836          51.000    20619536.391 8  84433552.055 8     -1087.664          51.000
G17  22418127.422 5 117808089.089 5       454.730          34.000    22418146.742 5  91798531.668 5       354.348          32.000
G19  22434145.078 6 117892236.391 6      2380.230          41.000    22434144.289 6  91864062.490 6      1854.725          39.000
R03  20854558.789 8 111636089.058 8     -3527.090          50.000    20854559.148 7  86828056.554 7     -2743.295          47.000
R15  23552226.969 6 125855970.424 6      3205.289          37.000    23552234.156 5  97887982.902 5      2493.003          30.000
R22  22728902.336 6 121328436.675 6      -233.426          39.000    22728907.281 5  94366552.584 5      -181.550          35.000
C05  39775501.453 5 207121473.402 5        23.559          34.000
C23  24551033.234 4 127843757.130 4      2330.285          29.000
C24  23866227.797 4 124277697.946 4     -2215.176          28.000
C25  21873366.672 7 113900360.272 7       274.492          45.000
E01  24174500.375 8 127037840.353 8     -1391.461          51.000    24174502.414 8  97340716.826 8     -1066.169          51.000
E04  24452688.883 8 128499727.593 8     -2013.535          51.000    24452689.891 8  98460825.523 8     -1542.845          51.000
E31  23979334.297 8 126012287.245 8      1136.281          51.000    23979336.570 8  96554881.718 8       870.615          51.000
> 2020 05 17 06 01  0.0000000  0 13        .000000000000
G12  23147152.414 5 121639158.184 5      3529.828          34.000    23147149.344 5  94783714.301 5      2750.518          34.000
G13  21514878.352 8 113061428.266 8     -2615.980          51.000    21514877.641 7  88099784.801 7     -2038.429          45.000
G15  20627539.008 8 108398449.005 8     -1408.980          51.000    20627539.469 8  84466322.968 8     -1097.907          51.000
G17  22415567.078 5 117794573.709 5       439.996          33.000    22415565.633 5  91787990.375 5       342.839          31.000
G19  22420585.602 7 117820976.829 7      2369.270          45.000    22420584.492 6  91808535.575 6      1846.184          38.000
R03  20874355.883 8 111742069.538 8     -3539.500          49.000    20874357.336 7  86910485.799 7     -2752.944          47.000
R15  23534229.516 6 125759797.476 6      3204.965          37.000
R22  22730272.852 6 121335751.882 6      -255.738          40.000    22730277.461 5  94372242.199 5      -198.911          32.000
C05  39775351.109 5 207120690.963 5        27.461          33.000
C25  21871793.883 7 113892169.775 7       270.465          45.000
E01  24182447.047 8 127079600.108 8     -1393.648          51.000    24182448.914 8  97372714.539 8     -1067.852          51.000
E04  24464198.734 8 128560212.143 8     -2019.855          51.000    24464199.852 8  98507170.825 8     -1547.684          51.000
E31  23972856.484 8 125978247.488 8      1131.984          51.000    23972859.547 8  96528799.303 8       867.320          51.000
> 2020 05 17 06 01 30.0000000  0 14        .000000000000
G12  23127018.117 6 121533369.014 6      3522.211          36.000    23127017.328 6  94701281.299 6      2744.586          36.000
G13  21529847.945 8 113140089.660 8     -2628.621          51.000    21529846.961 7  88161079.320 7     -2048.279          46.000
G15  20635632.031 8 108440976.447 8     -1426.668          51.000    20635632.344 8  84499461.213 8     -1111.689          51.000
G17  22413105.203 5 117781662.788 5       422.121          33.000    22413100.781 5  91777902.012 5       328.926          34.000
G19  22407102.867 7 117750120.831 7      2353.855          43.000    22407100.766 6  91753323.080 6      1834.176          39.000
G24  21020126.219 5 110461508.128 5      1809.965          33.000
R03  20894236.531 8 111848494.106 8     -3556.039          51.000    20894238.203 7  86993260.477 7     -2765.808          46.000
R14  19955159.523 4 106372225.739 4      1227.898          27.000
R15  23516252.172 5 125663723.425 5      3199.320          31.000
R22  22731782.352 6 121343806.995 6      -281.895          38.000    22731784.594 5  94378507.233 5      -219.251          34.000
C25  21870258.656 7 113884174.822 7       262.090          46.000
E01  24190419.508 8 127121495.480 8     -1399.930          51.000    24190421.250 8  97404816.167 8     -1072.646          51.000
E04  24475758.023 8 128620956.860 8     -2030.344          51.000    24475759.461 8  98553715.463 8     -1555.703          51.000
E31  23966416.094 8 125944405.853 8      1123.613          51.000    23966420.516 8  96502868.703 8       860.947          51.000
> 2020 05 17 06 02  0.0000000  0 13        .000000000000
G12  23106931.609 6 121427819.161 6      3515.188          39.000    23106930.328 6  94619034.684 6      2739.107          40.000
G13  21544891.469 8 113219140.150 8     -2640.508          51.000    21544890.539 7  88222677.039 7     -2057.539          46.000
G15  20643827.367 8 108484040.944 8     -1443.410          51.000    20643827.297 8  84533017.946 8     -1124.735          51.000
G17  22410748.695 5 117769311.243 5       404.152          35.000    22410751.594 6  91768281.978 6       314.918          36.000
G19  22393709.625 7 117679737.680 7      2339.246          44.000    22393707.516 6  91698479.167 6      1822.792          36.000
R03  20914212.750 8 111955426.547 8     -3571.801          51.000    20914213.695 7  87076430.125 7     -2778.067          45.000
R15  23498304.820 5 125567816.690 5      3195.250          34.000
R22  22733443.094 6 121352669.583 6      -307.773          36.000    22733445.461 6  94385400.409 6      -239.376          36.000
C24  23904568.852 5 124477304.700 5     -2221.695          33.000
C25  21868773.656 7 113876441.160 7       254.250          46.000
E01  24198430.219 8 127163591.953 8     -1405.570          51.000    24198431.820 8  97437071.882 8     -1076.977          51.000
E04  24487379.320 8 128682027.231 8     -2040.125          51.000    24487381.203 8  98600509.622 8     -1563.195          51.000
E31  23960026.688 8 125910828.737 8      1115.848          51.000    23960031.758 8  96477140.769 8       854.994          51.000
> 2020 05 17 06 02 30.0000000  0 13        .000000000000
G12  23086882.430 6 121322461.227 6      3506.055          39.000    23086879.938 6  94536937.627 6      2731.991          37.000
G13  21559999.008 8 113298528.831 8     -2654.340          51.000    21559998.062 7  88284538.308 7     -2068.317          45.000
G15  20652115.172 8 108527591.745 8     -1462.125          51.000    20652114.688 8  84566953.633 8     -1139.318          51.000
G19  22380397.602 6 117609780.854 6      2322.441          41.000    22380393.352 5  91643967.388 5      1809.698          32.000
R03  20934274.148 8 112062812.442 8     -3589.352          51.000    20934273.820 7  87159952.447 7     -2791.718          44.000
R14  19941486.422 5 106299327.090 5      1200.629          32.000
R15  23480379.117 5 125472027.413 5      3188.449          33.000    23480391.781 4  97589396.320 4      2479.905          28.000
R22  22735246.781 5 121362289.362 5      -335.969          35.000    22735246.969 5  94392882.482 5      -261.309          32.000
C24  23917390.070 5 124544007.474 5     -2226.965          31.000
C25  21867329.047 7 113868919.404 7       244.809          46.000
E01  24206469.539 8 127205838.877 8     -1413.133          51.000    24206471.039 8  97469442.891 8     -1082.799          51.000
E04  24499052.945 8 128743372.675 8     -2051.758          51.000    24499055.438 8  98647514.561 8     -1572.141          51.000
E31  23953678.578 8 125877466.336 8      1106.109          51.000    23953683.375 8  96451577.357 8       847.544          51.000
> 2020 05 17 06 03  0.0000000  0 13        .000000000000
G12  23066885.727 5 121217301.768 5      3497.711          34.000    23066884.445 5  94455034.462 5      2725.495          35.000
G13  21575185.750 8 113378335.699 8     -2667.816          51.000    21575185.062 7  88346725.437 7     -2078.821          45.000
G15  20660510.773 8 108571709.118 8     -1480.566          51.000    20660510.117 8  84601330.804 8     -1153.688          51.000
G19  22367182.078 6 117540334.878 6      2305.676          39.000    22367176.219 6  91589853.681 6      1796.627          36.000
R03  20954434.719 8 112170730.649 8     -3606.820          51.000    20954433.977 7  87243888.804 7     -2805.305          44.000
R15  23462490.680 5 125376438.733 5      3182.574          35.000    23462503.539 5  97515049.512 5      2475.332          31.000
R22  22737206.680 6 121372748.535 6      -363.215          36.000    22737204.812 5  94401017.386 5      -282.503          30.000
C23  24484117.250 4 127495225.646 4      2311.043          28.000
C25  21865940.484 7 113861689.799 7       235.473          47.000
E01  24214552.773 8 127248316.483 8     -1420.383          51.000    24214554.188 8  97501990.646 8     -1088.309          51.000
E04  24510794.234 8 128805073.425 8     -2063.203          51.000    24510797.273 8  98694791.753 8     -1580.932          51.000
E24  25950164.812 7 136369039.463 7      2551.773          42.000    25950181.398 7 104490616.559 7      1955.312          43.000
E31  23947386.430 8 125844399.651 8      1096.641          51.000    23947390.781 8  96426240.577 8       840.265          51.000
> 2020 05 17 06 03 30.0000000  0 13        .000000000000
G12  23046932.109 5 121112443.811 5      3491.176          32.000
G13  21590441.289 8 113458504.817 8     -2679.008          51.000    21590440.516 7  88409194.841 7     -2087.539          45.000
G15  20669003.625 8 108616337.894 8     -1496.703          51.000    20669002.758 8  84636106.496 8     -1166.262          51.000
G17  22404312.992 5 117735459.007 5       347.816          33.000
G19  22354053.383 6 117471348.253 6      2291.309          38.000    22354048.086 5  91536097.827 5      1785.429          33.000
R03  20974683.312 8 112279122.319 8     -3621.527          51.000    20974682.875 7  87328193.414 7     -2816.743          45.000
R15  23444629.094 5 125280996.342 5      3178.414          32.000    23444645.031 5  97440816.465 5      2472.100          32.000
R22  22739312.922 5 121383992.299 5      -389.191          32.000    22739311.336 4  94409762.477 4      -302.704          28.000
C25  21864598.023 8 113854698.546 8       228.484          48.000
E01  24222669.352 8 127290969.579 8     -1425.285          51.000    24222670.711 8  97534672.875 8     -1092.090          51.000
E04  24522592.570 8 128867074.337 8     -2072.344          51.000    24522595.961 8  98742298.924 8     -1587.852          51.000
E24  25935596.812 7 136292485.041 7      2549.629          43.000    25935612.641 7 104431957.991 7      1953.624          43.000
E31  23941140.047 8 125811574.354 8      1089.570          51.000    23941144.008 8  96401088.757 8       834.857          51.000
> 2020 05 17 06 04  0.0000000  0 13        .000000000000
G12  23027017.695 5 121007796.692 5      3481.996          33.000    23027011.633 5  94291756.862 5      2713.244          35.000
G13  21605761.398 8 113539013.548 8     -2692.559          51.000    21605760.422 7  88471928.896 7     -2098.098          45.000
G15  20677589.172 8 108661455.891 8     -1515.398          50.000    20677588.180 8  84671263.395 8     -1180.830          50.000
G17  22402368.000 6 117725261.708 6       327.559          36.000    22402367.766 6  91733954.515 6       255.237          37.000
G19  22341007.930 6 117402802.650 6      2274.270          38.000    22341005.672 6  91482685.679 6      1772.155          37.000
R03  20995014.836 8 112387961.774 8     -3638.793          50.000    20995015.039 7  87412846.293 7     -2830.175          44.000
R22  22741560.289 6 121395998.682 6      -416.230          38.000    22741561.719 5  94419100.700 5      -323.738          33.000
C23  24457537.094 5 127356776.064 5      2301.109          35.000
C25  21863297.438 8 113847924.309 8       218.906          48.000
E01  24230814.961 8 127333791.837 8     -1432.746          51.000    24230816.562 8  97567456.448 8     -1097.851          51.000
E04  24534443.703 8 128929353.092 8     -2084.004          51.000    24534446.672 8  98790018.971 8     -1596.783          51.000
E24  25921043.312 7 136216006.013 7      2544.777          43.000    25921058.305 7 104373357.178 7      1949.772          44.000
E31  23934935.641 8 125778968.987 8      1079.820          51.000    23934939.008 8  96376105.429 8       827.368          51.000
> 2020 05 17 06 04 30.0000000  0 16        .000000000000
G12  23007159.180 6 120903407.871 6      3476.457          38.000    23007145.055 6  94210414.899 6      2708.928          38.000
G13  21621157.961 8 113619925.435 8     -2702.082          50.000    21621157.523 7  88534977.101 7     -2105.518          46.000
G15  20686279.656 8 108707126.789 8     -1530.113          50.000    20686278.812 8  84706851.098 8     -1192.296          50.000
G17  22400535.203 5 117715654.749 5       312.402          34.000    22400537.391 5  91726468.497 5       243.430          33.000
G19  22328059.836 6 117334766.096 6      2261.223          37.000    22328059.766 6  91429670.156 6      1761.989          37.000
G28  23350703.211 4 122708775.594 4     -2980.387          28.000
R03  21015441.359 8 112497311.091 8     -3651.859          48.000    21015441.875 7  87497895.729 7     -2840.335          43.000
R15  23408993.352 5 125090581.237 5      3169.148          35.000    23408985.211 4  97292669.161 4      2464.896          26.000
R22  22743964.633 6 121408818.587 6      -440.172          39.000    22743969.055 6  94429102.322 6      -342.359          36.000
C23  24444288.516 5 127287761.574 5      2298.910          34.000
C24  23968833.758 5 124812018.721 5     -2240.090          30.000
C25  21862050.594 7 113841431.118 7       213.363          47.000
E01  24239001.977 8 127376815.063 8     -1436.125          51.000    24239004.016 8  97600422.273 8     -1100.366          51.000
E04  24546359.938 8 128991973.465 8     -2091.398          51.000    24546361.562 8  98838000.772 8     -1602.491          51.000
E24  25906516.609 7 136139667.673 7      2543.828          43.000    25906530.914 7 104314864.133 7      1949.233          44.000
E31  23928785.234 8 125746648.158 8      1074.195          51.000    23928788.086 8  96351340.109 8       823.142          51.000
> 2020 05 17 06 05  0.0000000  0 13        .000000000000
G12  22987319.359 6 120799133.693 6      3467.324          38.000    22987303.383 6  94129162.235 6      2701.811          38.000
G13  21636600.641 7 113701082.676 7     -2715.352          46.000    21636601.461 7  88598216.495 7     -2115.861          46.000
G15  20695045.555 8 108753192.830 8     -1548.402          51.000    20695044.969 8  84742746.706 8     -1206.547          51.000
G19  22315180.109 6 117267084.850 6      2243.844          37.000    22315180.875 6  91376931.479 6      1748.447          36.000
G28  23367713.016 5 122798160.663 5     -2985.918          31.000
R03  21035932.102 7 112607006.977 7     -3668.344          47.000    21035933.664 7  87583214.764 7     -2853.156          43.000
C23  24431041.156 5 127218759.862 5      2293.805          32.000
C24  23981730.148 4 124879162.675 4     -2243.875          28.000
C25  21860827.805 8 113835063.869 8       204.164          48.000
E01  24247200.312 8 127419897.910 8     -1443.172          51.000    24247202.820 8  97633433.793 8     -1105.789          51.000
E04  24558311.242 8 129054778.095 8     -2102.586          51.000    24558311.336 8  98886123.747 8     -1611.066          51.000
E24  25891986.695 7 136063314.065 7      2539.320          42.000    25892001.016 7 104256359.401 7      1945.836          44.000
E31  23922658.930 8 125714455.290 8      1064.996          51.000    23922661.562 8  96326672.841 8       815.988          51.000
> 2020 05 17 06 05 30.0000000  0 11        .000000000000
G12  22967551.766 6 120695244.739 6      3449.211          39.000    22967535.945 6  94048209.837 6      2687.700          38.000
G13  21652140.891 7 113782752.021 7     -2737.934          46.000    21652143.102 7  88661854.936 7     -2133.455          45.000
G15  20703937.750 8 108799921.858 8     -1575.723          51.000    20703937.500 8  84779158.931 8     -1227.836          51.000
G19  22302420.164 7 117200030.035 7      2217.441          42.000    22302420.695 5  91324680.954 5      1727.876          35.000
G28  23384772.938 4 122887810.942 4     -3000.031          28.000
R03  21056537.688 7 112717318.941 7     -3694.543          47.000    21056540.648 7  87669012.964 7     -2873.536          43.000
C25  21859680.156 8 113829088.090 8       185.633          48.000
E01  24255460.773 8 127463307.528 8     -1459.480          51.000    24255463.594 8  97666695.705 8     -1118.345          51.000
E04  24570348.328 8 129118034.145 8     -2123.121          51.000    24570347.508 8  98934592.619 8     -1626.801          51.000
E24  25877504.914 7 135987213.759 7      2525.422          42.000    25877519.516 7 104198048.761 7      1935.064          44.000
E31  23916607.883 8 125682658.384 8      1046.219          51.000    23916610.531 8  96302308.974 8       801.648          51.000
> 2020 05 17 06 06  0.0000000  0 13        .000000000000
G12  22947812.734 6 120591509.007 6      3460.746          36.000    22947797.031 6  93967376.851 6      2696.688          37.000
G13  21667734.484 7 113864698.790 7     -2730.785          45.000    21667737.172 7  88725709.568 7     -2127.888          45.000
G15  20712911.250 8 108847078.976 8     -1573.578          51.000    20712911.242 8  84815904.690 8     -1226.165          51.000
G19  22289736.359 7 117133371.001 7      2220.805          43.000    22289735.828 6  91272738.845 6      1730.497          36.000
G24  20929180.922 5 109983596.543 5      1736.688          31.000    20929172.516 5  85701450.627 5      1353.266          30.000
G28  23401845.273 5 122977554.267 5     -2984.766          31.000
R03  21077214.656 8 112828005.176 8     -3690.211          48.000    21077217.219 7  87755102.212 7     -2870.167          43.000
R22  22752037.703 5 121451899.203 5      -510.680          30.000    22752042.742 5  94462614.431 5      -397.192          31.000
C25  21858563.227 8 113823272.247 8       196.590          48.000
E01  24263738.797 8 127506809.443 8     -1446.133          51.000    24263741.719 8  97700028.325 8     -1108.067          51.000
E04  24582426.656 8 129181507.055 8     -2113.965          51.000    24582425.477 8  98983227.665 8     -1619.776          51.000
E24  25863027.039 7 135911133.745 7      2541.141          43.000    25863041.859 7 104139753.663 7      1947.132          44.000
E31  23910587.781 8 125651023.768 8      1057.309          51.000    23910590.453 8  96278069.441 8       810.190          51.000
> 2020 05 17 06 06 30.0000000  0 16        .000000000000
G12  22928122.695 5 120488091.117 5      3436.656          35.000    22928117.867 5  93886822.654 5      2677.908          35.000
G13  21683412.875 7 113947088.078 7     -2758.645          47.000    21683414.930 7  88789909.004 7     -2149.593          46.000
G15  20721997.820 8 108894829.766 8     -1606.484          51.000    20721997.703 8  84853113.058 8     -1251.806          51.000
G17  22394269.172 5 117682678.750 5       230.363          32.000
G19  22277160.062 7 117067277.509 7      2188.703          42.000    22277158.453 6  91221237.553 6      1705.486          37.000
G24  20919350.805 5 109931958.352 5      1710.211          35.000
G28  23418952.836 5 123067449.456 5     -3004.457          33.000
R03  21097993.547 8 112939231.795 8     -3721.645          48.000    21097995.188 7  87841611.729 7     -2894.615          44.000
R22  22755035.188 5 121467922.313 5      -554.250          35.000    22755046.852 5  94475076.894 5      -431.083          31.000
C23  24391495.156 4 127012916.199 4      2274.008          29.000
C24  24020611.695 5 125081610.997 5     -2261.910          30.000
C25  21857508.484 8 113817781.527 8       172.691          48.000
E01  24272066.062 8 127550569.576 8     -1467.828          51.000    24272068.906 8  97733558.806 8     -1124.702          51.000
E04  24594577.766 8 129245362.697 8     -2139.742          51.000    24594576.688 8  99032156.008 8     -1639.504          51.000
E24  25848585.281 7 135835230.369 7      2521.789          45.000    25848600.000 7 104081583.358 7      1932.244          44.000
E31  23904630.516 8 125619718.134 8      1033.176          51.000    23904632.703 8  96254081.990 8       791.675          51.000
> 2020 05 17 06 07  0.0000000  0 14        .000000000000
G13  21699177.555 8 114029929.291 8     -2762.469          49.000    21699178.250 7  88854460.537 7     -2152.573          44.000
G15  20731199.281 8 108943183.688 8     -1615.363          51.000    20731198.930 8  84890791.382 8     -1258.725          51.000
G19  22264693.742 7 117001763.046 7      2180.445          42.000    22264691.125 5  91170187.400 5      1699.051          34.000
G24  20909589.312 5 109880658.250 5      1709.875          32.000    20909587.492 5  85621253.478 5      1332.370          31.000
R03  21118874.453 8 113051005.531 8     -3728.262          48.000    21118876.219 7  87928546.808 7     -2899.762          45.000
R15  23320413.344 5 124617192.486 5      3143.398          33.000
R22  22758203.891 5 121484828.884 5      -571.484          34.000    22758214.195 5  94488226.474 5      -444.485          31.000
C23  24378398.047 5 126944678.569 5      2277.250          30.000
C24  24033633.031 5 125149416.854 5     -2257.531          34.000
C25  21856518.055 7 113812626.220 7       172.609          47.000
E01  24280444.461 8 127594597.484 8     -1465.602          51.000    24280447.094 8  97767294.463 8     -1122.999          51.000
E04  24606803.391 8 129309610.604 8     -2141.637          51.000    24606803.023 8  99081384.942 8     -1640.967          51.000
E24  25834181.789 7 135759536.599 7      2526.156          46.000    25834195.852 7 104023584.234 7      1935.650          44.000
E31  23898738.023 8 125588751.811 8      1032.961          51.000    23898739.430 8  96230354.538 8       791.499          51.000
> 2020 05 17 06 07 30.0000000  0 15        .000000000000
G12  22888904.070 5 120282018.335 5      3438.938          33.000
G13  21714965.234 8 114112890.487 8     -2763.820          51.000    21714964.352 7  88919105.595 7     -2153.629          44.000
G15  20740452.672 8 108991809.421 8     -1621.840          51.000    20740451.719 8  84928681.516 8     -1263.771          51.000
G19  22252274.320 6 116936500.085 6      2174.723          36.000    22252271.859 5  91119333.181 5      1694.586          35.000
G24  20899840.875 6 109829423.293 6      1710.875          36.000    20899837.438 6  85581330.189 6      1333.152          36.000
G28  23453223.969 5 123247524.196 5     -2993.730          33.000
R03  21139793.656 7 113162985.959 7     -3732.465          47.000    21139796.117 7  88015642.660 7     -2903.028          46.000
R14  19877410.961 5 105957791.315 5      1085.945          34.000    19877413.438 5  82411617.336 5       844.624          32.000
R22  22761478.031 4 121502290.134 4      -586.855          29.000    22761480.820 4  94501790.097 4      -456.443          28.000
C23  24365278.922 5 126876337.916 5      2283.535          32.000
C25  21855529.406 8 113807478.780 8       175.059          48.000
E01  24288810.812 8 127638561.781 8     -1460.738          51.000    24288813.336 8  97800981.370 8     -1119.255          51.000
E04  24619040.719 8 129373919.314 8     -2140.973          51.000    24619041.375 8  99130660.454 8     -1640.498          51.000
E24  25819753.180 7 135683711.446 7      2533.297          46.000    25819766.891 7 103965484.453 7      1941.071          45.000
E31  23892847.219 8 125557794.207 8      1035.430          51.000    23892848.273 8  96206633.776 8       793.339          51.000
> 2020 05 17 06 08  0.0000000  0 14        .000000000000
G12  22869368.367 6 120179353.791 6      3412.895          40.000    22869348.109 6  93646181.479 6      2659.401          40.000
G13  21730852.008 8 114196372.127 8     -2793.793          51.000    21730850.148 7  88984156.185 7     -2176.982          45.000
G15  20749834.078 8 109041107.679 8     -1656.852          51.000    20749832.672 8  84967095.721 8     -1291.053          51.000
G17  22390689.641 6 117663853.335 6       174.605          36.000    22390682.367 6  91686102.412 6       136.047          36.000
G19  22239978.531 5 116871893.727 5      2140.312          32.000    22239977.383 5  91068990.460 5      1667.758          31.000
R03  21160827.664 8 113275578.520 8     -3765.641          48.000    21160830.016 7  88103214.595 7     -2928.835          46.000
R14  19871406.648 5 105925785.213 5      1055.457          33.000    19871408.031 5  82386724.094 5       820.914          31.000
C23  24352208.461 5 126808293.024 5      2260.730          33.000
C24  24059713.289 5 125285248.411 5     -2271.328          32.000
C25  21854618.922 8 113802737.379 8       148.953          48.000
E01  24297241.258 8 127682863.549 8     -1484.773          51.000    24297243.758 8  97834926.871 8     -1137.663          51.000
E04  24631366.156 8 129438689.868 8     -2169.160          51.000    24631367.594 8  99180289.821 8     -1662.048          51.000
E24  25805375.953 7 135608157.454 7      2511.574          46.000    25805389.688 7 103907592.458 7      1924.369          45.000
E31  23887034.547 8 125527247.186 8      1009.055          51.000    23887035.898 8  96183227.606 8       773.145          51.000
> 2020 05 17 06 08 30.0000000  0 16        .000000000000
G12  22849874.031 6 120076914.924 6      3407.512          38.000    22849852.242 6  93566359.037 6      2655.207          38.000
G13  21746802.234 8 114280187.087 8     -2802.727          51.000    21746800.031 7  89049466.512 7     -2183.943          46.000
G15  20759307.734 8 109090891.619 8     -1670.918          51.000    20759306.344 8  85005888.368 8     -1302.017          51.000
G17  22389707.250 5 117658718.100 5       158.547          32.000    22389708.922 5  91682111.380 5       123.549          31.000
G19  22227774.812 6 116807760.677 6      2126.668          39.000    22227773.539 5  91019016.643 5      1657.141          33.000
R03  21181940.461 8 113388590.210 8     -3777.430          49.000    21181941.680 7  88191112.523 7     -2938.001          46.000
R04  19874215.250 6 106425526.956 6       -68.449          39.000    19874214.125 4  82775417.749 4       -53.238          29.000
R15  23267620.672 5 124335109.210 5      3122.320          34.000
R22  22768524.273 5 121539900.052 5      -654.762          32.000    22768519.344 4  94531034.252 4      -509.259          28.000
C23  24339161.961 4 126740402.097 4      2259.223          29.000
C24  24072771.398 5 125353268.350 5     -2271.754          35.000
C25  21853751.117 8 113798217.816 8       143.668          48.000
E01  24305700.273 8 127727316.048 8     -1487.621          51.000    24305702.656 8  97868987.866 8     -1139.877          51.000
E04  24643744.117 8 129503735.430 8     -2176.211          51.000    24643745.984 8  99230129.879 8     -1667.465          51.000
E24  25791014.664 7 135532689.281 7      2510.777          45.000    25791029.031 7 103849766.200 7      1923.815          46.000
E31  23881264.570 8 125496924.785 8      1003.594          51.000    23881266.539 8  96159993.558 8       768.972          51.000
> 2020 05 17 06 09  0.0000000  0 16        .000000000000
G12  22830428.242 6 119974725.976 6      3403.465          36.000    22830407.086 6  93486731.366 6      2652.051          36.000
G13  21762819.688 8 114364356.584 8     -2810.242          51.000    21762817.305 7  89115053.115 7     -2189.799          46.000
G15  20768877.828 8 109141182.745 8     -1683.469          51.000    20768876.688 8  85045076.234 8     -1311.794          51.000
G17  22388834.000 6 117654121.915 6       144.789          37.000    22388836.398 6  91678543.967 6       112.823          36.000
G19  22215666.703 6 116744126.218 6      2113.945          40.000    22215663.977 5  90969431.440 5      1647.230          33.000
R03  21203133.977 8 113502039.941 8     -3787.660          48.000    21203135.250 7  88279351.168 7     -2945.958          46.000
R04  19874658.227 6 106427906.064 6       -91.910          40.000    19874658.172 5  82777268.169 5       -71.483          32.000
R15  23250092.906 5 124241422.351 5      3121.867          34.000    23250105.320 4  96632285.562 4      2428.119          26.000
R22  22772260.312 5 121559865.091 5      -677.008          32.000    22772261.195 5  94546546.533 5      -526.565          30.000
C23  24326143.383 5 126672609.802 5      2259.195          30.000
C24  24085844.711 5 125421389.826 5     -2271.254          34.000
C25  21852930.250 8 113793942.275 8       139.723          48.000
E01  24314192.055 8 127771940.867 8     -1488.973          51.000    24314194.266 8  97903180.898 8     -1140.913          51.000
E04  24656178.742 8 129569077.470 8     -2181.660          51.000    24656180.352 8  99280197.101 8     -1671.665          51.000
E24  25776673.828 7 135457329.920 7      2511.371          45.000    25776689.188 7 103792023.297 7      1924.441          47.000
E31  23875541.352 8 125466849.332 8       999.762          51.000    23875543.953 8  96136948.740 8       765.985          51.000
> 2020 05 17 06 09 30.0000000  0 13        .000000000000
G12  22811024.930 6 119872767.280 6      3389.254          38.000    22811022.039 6  93407332.563 6      2640.971          37.000
G13  21778914.828 8 114448936.157 8     -2827.543          51.000    21778912.750 7  89180959.250 7     -2203.280          46.000
G15  20778555.062 8 109192037.044 8     -1705.914          51.000    20778554.273 8  85084702.939 8     -1329.284          51.000
G17  22388078.844 5 117650160.703 5       120.227          35.000    22388079.758 5  91675457.243 5        93.680          34.000
G19  22203664.656 6 116681051.179 6      2091.457          41.000    22203660.625 5  90920282.095 5      1629.707          34.000
R03  21224418.375 8 113615982.345 8     -3807.699          49.000    21224420.648 7  88367973.024 7     -2961.544          47.000
R04  19875266.883 5 106431179.866 5      -125.488          35.000    19875272.289 6  82779814.347 6       -97.611          36.000
R15  23232604.172 5 124147954.882 5      3110.617          35.000
C25  21852166.969 8 113789967.423 8       126.059          48.000
E01  24322727.438 8 127816794.432 8     -1500.332          51.000    24322729.469 8  97937549.192 8     -1149.632          51.000
E04  24668680.508 8 129634772.272 8     -2197.082          51.000    24668681.359 8  99330534.614 8     -1683.499          51.000
E24  25762364.656 7 135382137.113 7      2502.238          45.000    25762381.117 7 103734408.034 7      1917.198          47.000
E31  23869875.773 8 125437077.970 8       985.871          51.000    23869878.961 8  96114136.927 8       755.402          51.000
> 2020 05 17 06 10  0.0000000  0 15        .000000000000
G12  22791669.062 6 119771037.150 6      3385.637          39.000    22791663.492 6  93328062.322 6      2638.158          38.000
G13  21795056.688 8 114533763.117 8     -2834.641          51.000    21795055.445 7  89247058.159 7     -2208.811          45.000
G15  20788308.570 8 109243292.359 8     -1718.086          51.000    20788308.062 8  85124642.139 8     -1338.768          51.000
G17  22387411.469 5 117646640.699 5       106.336          34.000    22387416.031 5  91672726.141 5        82.862          32.000
G19  22191737.938 6 116618376.558 6      2079.352          39.000    22191734.086 6  90871444.816 6      1620.274          36.000
R03  21245764.133 8 113730249.024 8     -3817.328          51.000    21245766.469 7  88456847.058 7     -2969.033          47.000
R04  19876014.516 5 106435184.166 5      -148.566          35.000    19876020.430 5  82782928.781 5      -115.546          34.000
R15  23215126.219 6 124054543.307 6      3109.883          37.000    23215123.648 4  96486896.171 4      2418.798          25.000
R22  22780189.453 5 121602146.655 5      -730.980          33.000    22780186.805 4  94579437.742 4      -568.540          28.000
C23  24300182.789 5 126537399.575 5      2248.137          31.000
C25  21851430.578 8 113786133.398 8       122.531          48.000
E01  24331275.523 8 127861714.599 8     -1501.422          51.000    24331277.367 8  97971968.517 8     -1150.419          51.000
E04  24681218.195 8 129700657.597 8     -2202.289          51.000    24681218.523 8  99381018.142 8     -1687.486          51.000
E24  25748056.820 7 135306950.157 7      2503.176          45.000    25748074.008 7 103676797.239 7      1918.048          47.000
E31  23864237.383 8 125407449.374 8       982.359          51.000    23864240.977 8  96091434.497 8       752.717          51.000
> 2020 05 17 06 10 30.0000000  0 15        .000000000000
G12  22772367.859 6 119669607.643 6      3378.078          41.000    22772363.008 6  93249026.440 6      2632.275          41.000
G13  21811273.539 8 114618985.692 8     -2845.184          51.000    21811272.930 7  89313465.353 7     -2217.026          45.000
G15  20798166.305 8 109295096.283 8     -1733.730          50.000    20798166.141 8  85165008.833 8     -1350.959          50.000
G17  22386865.047 5 117643769.954 5        89.238          35.000    22386864.570 5  91670456.504 5        69.539          35.000
G19  22179916.180 6 116556254.920 6      2063.590          37.000    22179914.836 6  90823038.217 6      1607.986          37.000
R03  21267199.148 8 113844988.247 8     -3830.219          51.000    21267200.656 7  88546088.601 7     -2979.062          47.000
R04  19876926.359 5 106440071.261 5      -175.520          33.000    19876932.984 5  82786729.879 5      -136.509          35.000
R14  19842432.359 5 105771320.852 5      1000.336          35.000
R15  23197685.812 6 123961340.201 6      3105.340          38.000
C23  24287229.727 5 126470005.817 5      2245.512          30.000
C25  21850749.664 8 113782587.905 8       115.398          48.000
E01  24339864.453 8 127906849.613 8     -1505.934          51.000    24339866.141 8  98006552.472 8     -1153.900          51.000
E04  24693819.719 8 129766881.585 8     -2210.984          50.000    24693820.266 8  99431761.170 8     -1694.152          51.000
E24  25733778.828 7 135231918.699 7      2500.664          45.000    25733796.258 7 103619305.597 7      1916.084          46.000
E31  23858654.602 8 125378112.525 8       975.238          51.000    23858658.461 8  96068955.605 8       747.204          51.000
> 2020 05 17 06 11  0.0000000  0 16        .000000000000
G12  22753110.023 7 119568409.285 7      3369.121          42.000    22753107.648 6  93170170.664 6      2625.289          41.000
G13  21827551.859 8 114704530.752 8     -2857.180          51.000    21827551.453 7  89380123.799 7     -2226.374          44.000
G15  20808114.531 8 109347376.570 8     -1751.020          49.000    20808114.719 8  85205746.729 8     -1364.431          49.000
G19  22168187.734 6 116494617.267 6      2046.164          37.000    22168185.945 5  90775008.833 5      1594.420          35.000
R03  21288708.062 8 113960123.301 8     -3844.812          51.000    21288709.219 8  88635638.039 8     -2990.410          48.000
R04  19877986.125 5 106445721.431 5      -203.961          32.000    19877996.594 5  82791161.076 5      -158.633          32.000
R14  19836841.750 5 105741534.482 5       986.840          30.000
R15  23180271.141 5 123868273.551 5      3099.723          34.000
R22  22788692.508 5 121647549.787 5      -782.844          34.000    22788695.477 5  94614779.103 5      -608.882          30.000
C23  24274324.656 4 126402774.122 4      2240.605          29.000
C24  24138341.359 4 125694675.239 4     -2285.375          28.000
C25  21850110.766 8 113779260.157 8       106.902          49.000
E01  24348480.469 8 127952127.273 8     -1511.992          51.000    24348482.062 8  98041245.722 8     -1158.530          51.000
E04  24706471.664 8 129833371.853 8     -2221.137          50.000    24706472.898 8  99482708.250 8     -1701.874          51.000
E24  25719517.156 7 135156971.896 7      2496.516          46.000    25719534.375 7 103561878.834 7      1912.864          46.000
E31  23853113.859 8 125348995.931 8       966.535          51.000    23853117.844 8  96046645.507 8       740.583          51.000
> 2020 05 17 06 11 30.0000000  0 13        .000000000000
G12  22733904.250 6 119467488.130 6      3356.766          36.000    22733905.047 6  93091530.885 6      2615.665          36.000
G13  21843899.938 8 114790441.675 8     -2872.117          50.000    21843899.398 7  89447067.308 7     -2238.013          43.000
G15  20818161.953 8 109400176.403 8     -1771.051          50.000    20818162.188 8  85246889.478 8     -1380.037          50.000
G19  22156560.102 7 116433510.861 7      2025.449          42.000    22156556.492 5  90727393.467 5      1578.272          32.000
R03  21310297.797 8 114075695.487 8     -3862.023          49.000    21310299.375 8  88725527.493 8     -3003.796          48.000
R04  19879209.234 6 106452295.568 6      -235.328          36.000    19879212.203 4  82796216.910 4      -183.036          27.000
R15  23162874.688 5 123775369.998 5      3090.582          31.000
R22  22793172.953 5 121671454.145 5      -811.953          34.000    22793174.359 4  94633377.754 4      -631.519          27.000
C25  21849522.133 8 113776194.130 8        95.453          49.000
E01  24357131.953 8 127997591.161 8     -1520.965          51.000    24357133.500 8  98076081.677 8     -1165.394          51.000
E04  24719182.930 8 129900171.880 8     -2234.234          50.000    24719184.594 8  99533892.692 8     -1711.892          51.000
E24  25705280.211 7 135082154.683 7      2489.273          46.000    25705297.102 7 103504551.359 7      1907.398          45.000
E31  23847623.617 8 125320143.916 8       954.855          51.000    23847627.281 8  96024538.126 8       731.663          51.000
> 2020 05 17 06 12  0.0000000  0 14        .000000000000
G12  22714751.875 5 119366847.121 5      3351.074          32.000    22714753.992 5  93013109.332 5      2611.221          32.000
G13  21860317.547 8 114876716.967 8     -2881.051          51.000    21860316.117 7  89514294.724 7     -2244.975          42.000
G15  20828308.344 8 109453495.081 8     -1784.988          50.000    20828308.344 8  85288436.512 8     -1390.900          50.000
G19  22145033.664 7 116372939.143 7      2010.938          43.000    22145027.664 5  90680194.842 5      1566.970          32.000
R03  21331967.828 8 114191701.590 8     -3873.152          48.000    21331970.328 8  88815754.453 8     -3012.455          48.000
R04  19880597.953 6 106459704.998 6      -260.254          40.000    19880600.289 5  82801979.665 5      -202.426          30.000
R14  19825897.180 5 105683185.815 5       960.254          31.000    19825899.867 4  82198045.380 4       746.864          26.000
R15  23145525.945 5 123682669.046 5      3087.445          33.000
C23  24248558.750 5 126268616.572 5      2230.551          33.000
C25  21848983.867 8 113773390.268 8        89.977          50.000
E01  24365818.891 8 128043240.949 8     -1523.957          51.000    24365820.578 8  98111060.091 8     -1167.731          51.000
E04  24731953.617 8 129967281.157 8     -2241.305          51.000    24731955.422 8  99585314.090 8     -1717.408          51.000
E24  25691067.961 7 135007468.067 7      2488.148          46.000    25691084.773 7 103447323.957 7      1906.515          45.000
E31  23842183.891 8 125291556.849 8       949.312          51.000    23842186.758 8  96002633.740 8       727.356          51.000
> 2020 05 17 06 12 30.0000000  0 16        .000000000000
G12  22695644.172 6 119266440.988 6      3345.809          39.000    22695646.062 6  92934870.653 6      2607.124          40.000
G13  21876795.625 8 114963308.497 8     -2888.883          51.000    21876793.852 7  89581768.587 7     -2251.078          44.000
G15  20838544.492 8 109507284.667 8     -1798.062          51.000    20838544.258 8  85330350.471 8     -1401.088          51.000
G19  22133600.883 7 116312857.976 7      1997.266          45.000    22133592.258 4  90633378.437 4      1556.311          25.000
R03  21353709.430 8 114308090.009 8     -3883.055          49.000    21353712.461 7  88906278.740 7     -3020.157          47.000
R04  19882137.281 6 106467923.344 6      -284.672          40.000    19882136.273 4  82808371.651 4      -221.411          29.000
R14  19820515.078 5 105654529.389 5       951.898          31.000
R15  23128205.320 5 123590104.366 5      3086.039          33.000    23128218.586 4  96125661.287 4      2400.253          26.000
R22  22802560.648 5 121721581.240 5      -858.242          34.000    22802564.961 4  94672347.034 4      -667.519          29.000
C23  24235719.617 5 126201752.668 5      2229.105          34.000
C24  24177931.055 4 125900830.417 4     -2291.695          27.000
C25  21848487.156 8 113770802.134 8        85.457          50.000
E01  24374532.133 8 128089028.950 8     -1525.770          51.000    24374534.234 8  98146144.392 8     -1169.066          51.000
E04  24744774.359 8 130034651.840 8     -2247.305          51.000    24744776.188 8  99636935.781 8     -1721.943          51.000
E24  25676871.531 7 134932865.766 7      2488.031          46.000    25676888.547 7 103390161.150 7      1906.575          44.000
E31  23836785.547 8 125263187.797 8       944.824          51.000    23836787.688 8  95980896.393 8       723.959          51.000
> 2020 05 17 06 13  0.0000000  0 19        .000000000000
G12  22676566.852 7 119166190.348 7      3332.547          43.000    22676568.641 7  92856753.281 7      2596.790          42.000
G13  21893318.188 8 115050134.028 8     -2904.535          51.000    21893316.891 7  89649424.817 7     -2263.274          45.000
G15  20848854.641 8 109561463.015 8     -1818.758          51.000    20848854.266 8  85372567.348 8     -1417.214          51.000
G17  22385703.289 5 117637644.712 5        -6.902          35.000    22385684.227 5  91665665.124 5        -5.375          35.000
G19  22122246.438 6 116253189.522 6      1975.609          41.000    22122236.312 5  90586883.537 5      1539.433          32.000
G28  23643186.883 5 124245785.123 5     -3044.613          32.000
R03  21375506.625 8 114424774.120 8     -3900.969          49.000    21375509.773 7  88997032.998 7     -3034.090          47.000
R04  19883810.445 6 106476867.936 6      -317.055          41.000    19883804.109 5  82815328.578 5      -246.595          31.000
R14  19815190.836 5 105626108.585 5       934.707          31.000    19815199.898 4  82153686.817 4       726.994          25.000
R15  23110893.406 5 123497594.485 5      3075.848          35.000    23110912.094 4  96053709.275 4      2392.326          28.000
R22  22807455.539 4 121747705.914 4      -889.082          28.000
C11  26004312.508 6 135411285.052 6      3180.230          36.000    26004314.359 6 104708595.884 6      2459.201          37.000
C23  24222888.109 5 126134918.460 5      2220.660          33.000
C24  24191146.586 5 125969624.214 5     -2298.785          30.000
C25  21848016.219 8 113768349.363 8        73.168          51.000
E01  24383256.070 8 128134873.292 8     -1535.594          51.000    24383258.609 8  98181271.859 8     -1176.609          51.000
E04  24757629.156 8 130102201.883 8     -2261.145          51.000    24757631.219 8  99688694.887 8     -1732.592          51.000
E24  25662675.789 7 134858267.259 7      2480.074          46.000    25662692.883 7 103333001.270 7      1900.436          44.000
E31  23831413.062 8 125234955.575 8       932.418          51.000    23831414.891 8  95959263.906 8       714.417          51.000
> 2020 05 17 06 13 30.0000000  0 15        .000000000000
G12  22657592.844 7 119066481.102 7      3321.285          42.000    22657594.492 7  92779057.829 7      2588.017          42.000
G13  21909957.906 8 115137576.034 8     -2918.422          51.000    21909957.477 7  89717561.418 7     -2274.095          47.000
G15  20859311.555 8 109616412.889 8     -1837.930          51.000    20859310.719 8  85415385.403 8     -1432.153          51.000
G19  22111043.164 6 116194320.524 6      1955.496          37.000    22111035.852 6  90541011.652 6      1523.763          36.000
G28  23660601.977 5 124337299.651 5     -3050.215          33.000
R03  21397431.805 8 114542141.239 8     -3916.961          50.000    21397435.164 7  89088318.464 7     -3046.528          47.000
R04  19885690.836 6 106486930.034 6      -347.656          40.000    19885683.414 5  82823154.648 5      -270.399          31.000
C11  25986014.281 5 135316011.718 5      3177.125          34.000    25986021.719 6 104634924.410 6      2456.818          39.000
C23  24210134.000 5 126068495.009 5      2212.977          30.000
C24  24204453.758 5 126038938.382 5     -2304.379          33.000
C25  21847644.172 8 113766412.427 8        62.496          51.000
E01  24392063.594 8 128181157.163 8     -1543.617          51.000    24392066.312 8  98216736.122 8     -1182.766          51.000
E04  24770590.797 8 130170314.291 8     -2273.223          51.000    24770593.086 8  99740884.880 8     -1741.784          51.000
E24  25648554.023 7 134784057.077 7      2473.688          46.000    25648570.695 7 103276138.925 7      1895.465          44.000
E31  23826139.742 8 125207244.062 8       921.535          51.000    23826141.438 8  95938030.424 8       706.099          51.000
> 2020 05 17 06 14  0.0000000  0 18        .000000000000
G12  22638631.898 7 118966839.500 7      3310.867          43.000    22638632.719 7  92701415.046 7      2579.897          43.000
G13  21926624.203 8 115225157.436 8     -2930.984          50.000    21926624.398 8  89785806.628 8     -2283.884          48.000
G15  20869824.234 8 109671657.206 8     -1855.770          51.000    20869823.031 8  85458432.899 8     -1446.057          51.000
G17  22385990.602 4 117639174.592 4       -47.766          28.000
G19  22099901.344 5 116135777.817 5      1935.617          33.000    22099898.672 5  90495393.953 5      1508.270          34.000
G24  20778399.055 5 109191224.323 5      1569.574          35.000    20778392.258 4  85084030.563 4      1223.042          28.000
G28  23677995.586 5 124428705.318 5     -3054.840          34.000
R03  21419393.344 8 114659702.769 8     -3931.426          49.000    21419396.875 7  89179755.114 7     -3057.779          46.000
R04  19887687.484 6 106497624.697 6      -376.414          37.000    19887680.945 5  82831472.776 5      -292.763          32.000
R15  23076414.297 5 123313360.391 5      3060.703          30.000
C11  25967680.656 5 135220555.692 5      3176.344          31.000    25967690.891 6 104561111.750 6      2455.510          40.000
C23  24197368.797 5 126002010.974 5      2208.371          34.000
C24  24217714.047 5 126107998.522 5     -2309.332          33.000
C25  21847280.734 8 113764519.887 8        53.059          51.000
E01  24400864.000 8 128227403.962 8     -1550.285          51.000    24400866.547 8  98252171.973 8     -1187.824          51.000
E04  24783568.625 8 130238512.266 8     -2283.949          51.000    24783570.961 8  99793140.440 8     -1750.051          51.000
E24  25634415.961 7 134709759.931 7      2468.707          45.000    25634431.672 7 103219209.962 7      1891.577          44.000
E31  23820875.148 8 125179577.419 8       912.176          51.000    23820876.766 8  95916831.314 8       698.931          51.000
> 2020 05 17 06 14 30.0000000  0 15        .000000000000
G12  22619726.617 7 118867487.822 7      3303.926          46.000    22619725.438 7  92623998.124 7      2574.488          46.000
G13  21943358.344 8 115313097.147 8     -2940.238          49.000    21943359.070 7  89854331.078 7     -2291.095          47.000
G15  20880434.414 8 109727415.424 8     -1870.129          51.000    20880433.219 8  85501880.825 8     -1457.243          51.000
G19  22088864.211 6 116077784.906 6      1921.551          37.000    22088864.547 6  90450204.499 6      1497.306          36.000
R03  21441432.555 8 114777679.965 8     -3942.551          49.000    21441436.016 7  89271515.208 7     -3066.425          46.000
R04  19889842.711 5 106509176.897 5      -402.441          35.000    19889838.938 5  82840457.787 5      -313.013          32.000
R14  19799728.703 5 105543716.610 5       895.332          31.000    19799739.047 4  82089583.330 4       696.372          27.000
R22  22823099.484 5 121831236.720 5      -968.258          33.000    22823103.227 5  94757607.288 5      -753.086          30.000
C11  25949353.742 4 135125094.299 4      3177.570          27.000    25949365.648 6 104487328.856 6      2457.054          37.000
C24  24230994.727 5 126177175.394 5     -2310.652          33.000
C25  21846967.891 8 113762890.360 8        47.062          51.000
E01  24409699.266 8 128273833.606 8     -1553.676          51.000    24409701.344 8  98287747.928 8     -1190.446          51.000
E04  24796604.492 8 130307015.464 8     -2291.555          51.000    24796606.500 8  99845629.858 8     -1755.828          51.000
E24  25620303.492 7 134635597.073 7      2466.910          46.000    25620318.133 7 103162383.874 7      1890.161          45.000
E31  23815660.734 8 125152176.183 8       905.938          51.000    23815662.773 8  95895835.564 8       694.121          51.000
> 2020 05 17 06 15  0.0000000  0 15        .000000000000
G12  22600881.914 8 118768454.629 8      3299.488          48.000    22600878.953 8  92546829.442 8      2571.033          48.000
G13  21960164.664 7 115401420.086 7     -2946.730          47.000    21960166.227 7  89923154.171 7     -2296.151          46.000
G15  20891147.164 8 109783712.367 8     -1881.867          51.000    20891146.125 8  85545748.541 8     -1466.393          51.000
G19  22077939.219 6 116020370.341 6      1907.797          40.000    22077939.859 6  90405465.856 6      1486.592          37.000
R03  21463553.805 8 114896095.023 8     -3950.613          50.000    21463556.984 7  89363615.797 7     -3072.702          45.000
R04  19892163.297 6 106521613.047 6      -425.105          36.000    19892159.492 5  82850130.466 5      -330.632          30.000
R22  22828609.203 6 121860650.626 6      -989.785          39.000
C11  25931047.570 4 135029768.185 4      3181.531          29.000    25931052.945 4 104413597.915 4      2459.887          27.000
C23  24171926.484 4 125869587.231 4      2206.227          28.000
C24  24244279.219 4 126246323.359 4     -2309.367          27.000
C25  21846710.344 8 113761549.721 8        43.598          50.000
E01  24418574.148 8 128320471.366 8     -1554.305          51.000    24418575.789 8  98323483.345 8     -1190.961          51.000
E04  24809703.078 8 130375848.964 8     -2296.227          51.000    24809704.820 8  99898372.361 8     -1759.431          51.000
E24  25606221.625 7 134561595.109 7      2467.773          46.000    25606235.289 7 103105681.069 7      1890.891          45.000
E31  23810501.453 8 125125066.310 8       902.566          51.000    23810504.125 8  95875063.066 8       691.613          51.000
> 2020 05 17 06 15 30.0000000  0 15        .000000000000
G12  22582084.047 8 118669668.773 8      3288.492          49.000    22582080.133 8  92469853.492 8      2562.461          49.000
G13  21977030.406 8 115490052.317 8     -2959.836          49.000    21977032.016 7  89992218.271 7     -2306.366          45.000
G15  20901948.305 8 109840474.202 8     -1900.035          49.000    20901947.609 8  85589978.520 8     -1480.547          49.000
G19  22067111.250 6 115963464.578 6      1888.000          39.000    22067111.672 6  90361123.709 6      1471.169          39.000
R03  21485742.859 8 115014870.366 8     -3965.348          49.000    21485745.695 7  89455996.554 7     -3084.162          44.000
R04  19894635.891 6 106534859.270 6      -455.000          38.000    19894633.609 5  82860433.102 5      -353.889          32.000
R15  23024924.102 5 123038283.904 5      3050.230          34.000
R22  22834254.562 6 121890803.107 6     -1017.582          39.000    22834261.828 4  94803989.265 4      -791.453          25.000
C11  25912738.852 5 134934416.144 5      3177.492          32.000    25912745.922 4 104339899.486 4      2457.763          27.000
C23  24159248.703 5 125803560.085 5      2198.871          34.000
C25  21846494.258 8 113760426.051 8        33.660          50.000
E01  24427474.742 8 128367243.956 8     -1561.508          51.000    24427476.156 8  98359322.064 8     -1196.489          51.000
E04  24822850.258 8 130444939.253 8     -2307.523          51.000    24822851.844 8  99951311.632 8     -1768.099          51.000
E24  25592156.469 7 134487682.039 7      2462.137          45.000    25592169.445 7 103049046.368 7      1886.518          45.000
E31  23805384.195 8 125098175.234 8       892.512          51.000    23805386.977 8  95854458.211 8       683.837          51.000
> 2020 05 17 06 16  0.0000000  0 17        .000000000000
G12  22563340.359 8 118571170.541 8      3279.512          49.000    22563337.000 8  92393101.629 8      2555.467          49.000
G13  21993962.914 8 115579030.811 8     -2970.715          51.000    21993963.711 7  90061552.117 7     -2314.843          44.000
G15  20912844.898 8 109897738.721 8     -1916.270          49.000    20912844.641 8  85634600.179 8     -1493.197          49.000
G17  22387864.883 5 117649005.124 5      -118.207          34.000    22387836.789 5  91674459.677 5       -92.109          33.000
G19  22056386.828 6 115907108.908 6      1870.758          39.000    22056387.977 6  90317210.329 6      1457.736          39.000
R03  21508004.984 7 115134041.460 7     -3977.645          45.000    21508008.148 7  89548685.113 7     -3093.727          42.000
R04  19897267.172 6 106548954.669 6      -482.785          36.000    19897265.242 5  82871396.186 5      -375.500          30.000
R15  23007821.336 5 122946909.173 5      3044.062          34.000    23007830.953 5  95625311.876 5      2367.601          30.000
R22  22840048.070 5 121921702.354 5     -1043.234          31.000    22840059.656 4  94828052.330 4      -811.401          29.000
C11  25894436.227 5 134839103.127 5      3177.355          35.000    25894438.602 4 104266174.366 4      2457.310          29.000
C23  24146593.594 5 125737685.233 5      2194.098          33.000
C24  24270952.156 5 126385254.651 5     -2317.367          32.000
C25  21846327.094 8 113759557.720 8        25.703          49.000
E01  24436408.281 8 128414189.284 8     -1566.648          51.000    24436409.617 8  98395293.140 8     -1200.398          51.000
E04  24836053.070 8 130514323.944 8     -2316.672          51.000    24836054.711 8 100004476.494 8     -1775.091          51.000
E24  25578115.344 7 134413897.169 7      2458.395          45.000    25578128.023 7 102992509.865 7      1883.732          45.000
E31  23800316.289 8 125071541.531 8       884.562          51.000    23800318.828 8  95834050.575 8       677.761          51.000
> 2020 05 17 06 16 30.0000000  0 15        .000000000000
