     3.04           OBSERVATION DATA    M (MIXED)           RINEX VERSION / TYPE
Convert 2.6.2       NovAtel             20200515 161450 UTC PGM / RUN BY / DATE 
Rinex Version 3.04 Observation File                         COMMENT             
                                                            MARKER NAME         
                                                            MARKER NUMBER       
                                                            MARKER TYPE         
                                                            OBSERVER / AGENCY   
                    NovAtel GPSCard                         REC # / TYPE / VERS 
                                                            ANT # / TYPE        
        0.0000        0.0000        0.0000                  APPROX POSITION XYZ 
        0.0000        0.0000        0.0000                  ANTENNA: DELTA H/E/N
G    8 C1C L1C D1C S1C C2W L2W D2W S2W                      SYS / # / OBS TYPES 
R    8 C1C L1C D1C S1C C2P L2P D2P S2P                      SYS / # / OBS TYPES 
E    8 C1C L1C D1C S1C C7Q L7Q D7Q S7Q                      SYS / # / OBS TYPES 
C    4 C2I L2I D2I S2I                                      SYS / # / OBS TYPES 
DBHZ                                                        SIGNAL STRENGTH UNIT
    30.000                                                  INTERVAL            
  2020    05    14    07    00    0.0000000     GPS         TIME OF FIRST OBS   
  2020    05    14    07    59   30.0000000     GPS         TIME OF LAST OBS    
G L1C  0.00000  07 G13 G12 G15 G24 G19 G25 G17              SYS / PHASE SHIFT   
G L2W  0.00000  07 G13 G12 G15 G24 G19 G25 G17              SYS / PHASE SHIFT   
R L1C  0.00000  07 R10 R21 R01 R11 R12 R02 R22              SYS / PHASE SHIFT   
R L2P  0.25000  06 R21 R01 R11 R12 R02 R22                  SYS / PHASE SHIFT   
E L1C  0.50000  06 E04 E01 E21 E31 E19 E13                  SYS / PHASE SHIFT   
E L7Q -0.25000  05 E04 E01 E31 E21 E13                      SYS / PHASE SHIFT   
C L2I  0.00000  05 C19 C22 C30 C27 C29                      SYS / PHASE SHIFT   
  7 R10 -7 R21  4 R01  1 R11  0 R12 -1 R02 -4 R22 -3        GLONASS SLOT / FRQ #
 C1C  -71.950 C2C  -71.950 C2P  -71.950                     GLONASS COD/PHS/BIS 
     0     0     0     0GPS                                 LEAP SECONDS        
                                                            END OF HEADER       
> 2020 05 14 07 00  0.0000000  0 18      -0.000000000000
G13  23181375.016 7 121818929.504 7     -3549.109          47.000    23181377.047 7  94923809.631 7     -2765.541          42.000  
G12  21490525.461 8 112933491.458 8      2593.820          51.000    21490523.133 8  88000110.938 8      2021.159          51.000  
G15  21780218.328 8 114455803.901 8     -2827.641          51.000    21780216.758 8  89186337.489 8     -2203.357          51.000  
G24  20309651.844 5 106727932.028 5       843.785          35.000    20309651.422 5  83164632.405 5       657.498          35.000  
G19  21602996.688 6 113524523.314 6       591.301          39.000    21602994.992 5  88460648.561 5       460.763          30.000  
G25  24056597.844 6 126418275.720 6      3484.211          41.000    24056598.469 6  98507740.330 6      2714.967          40.000  
R10  21650344.047 5 115408100.67425     -2712.988          30.000                                                                  
R21  22688275.109 7 121409170.607 7      3824.699          46.000    22688278.883 6  94429356.213 6      2974.770          40.000  
R01  20689655.281 7 110597677.675 7     -2810.055          43.000    20689661.148 6  86020434.711 6     -2185.599          41.000  
R11  19652095.641 5 105014441.602 5       250.812          35.000    19652088.883 4  81677879.899 4       195.073          26.000  
R12  21980189.367 6 117413839.749 6      2650.793          36.000                                                                  
E04  24224789.922 8 127302132.981 8     -1088.902          51.000    24224792.711 8  97543187.757 8      -834.300          51.000  
E01  23572386.781 8 123873710.245 8      -125.703          51.000    23572388.195 8  94916290.588 8       -96.306          51.000  
E21  25675574.367 6 134926061.425 6     -2099.848          36.000                                                                  
E31  25730665.961 5 135215559.866 5      1965.879          34.000    25730664.797 5 103606703.164 5      1506.012          30.000  
C19  24971541.367 6 130033300.529 6     -3177.938          36.000  
C22  23920106.148 6 124558296.273 6     -1242.273          36.000  
C30  24491097.602 8 127531579.882 8      2957.082          49.000  
> 2020 05 14 07 00 30.0000000  0 17      -0.000000000000
G13  23201647.055 8 121925460.235 8     -3554.375          48.000    23201648.508 6  95006820.554 6     -2769.644          41.000  
G12  21475743.883 8 112855813.790 8      2583.207          50.000    21475741.117 8  87939582.916 8      2012.892          50.000  
G15  21796386.578 8 114540769.890 8     -2838.254          51.000    21796385.852 8  89252544.717 8     -2211.627          51.000  
G24  20304857.484 5 106702749.323 5       833.281          34.000    20304860.008 5  83145009.566 5       649.310          34.000  
G17  22654126.188 6 119048240.25026     -1300.172          37.000                                                                  
G19  21599675.297 5 113507070.243 5       571.738          30.000    21599676.055 4  88447048.647 4       445.498          26.000  
G25  24036713.492 7 126313775.18827      3480.617          43.000                                                                  
R21  22666851.969 7 121294530.871 7      3816.434          46.000    22666855.195 6  94340192.027 6      2968.338          39.000  
R01  20705473.539 7 110682242.451 7     -2828.957          45.000    20705480.227 6  86086207.331 6     -2200.297          40.000  
R12  21965317.219 6 117334371.285 6      2645.395          36.000                                                                  
E04  24231035.805 8 127334954.793 8     -1100.746          51.000    24231037.977 8  97568336.941 8      -843.456          51.000  
E01  23573116.336 8 123877543.950 8      -131.301          51.000    23573117.805 8  94919228.090 8      -100.637          51.000  
E21  25687559.969 5 134989049.039 5     -2100.551          34.000                                                                  
E31  25719452.453 5 135156617.492 5      1962.590          33.000    25719444.977 5 103561548.381 5      1504.229          30.000  
C19  24989852.727 5 130128647.098 5     -3179.945          35.000  
C22  23927296.570 6 124595746.762 6     -1255.691          36.000  
C30  24474070.570 8 127442914.309 8      2952.363          49.000  
> 2020 05 14 07 01  0.0000000  0 15      -0.000000000000
G13  23221961.406 8 122032210.874 8     -3564.090          50.000    23221962.000 6  95090002.798 6     -2777.217          41.000  
G12  21461033.391 8 112778512.549 8      2568.344          48.000    21461031.398 8  87879348.197 8      2001.307          48.000  
G15  21812625.734 8 114626110.260 8     -2853.027          50.000    21812626.094 8  89319043.683 8     -2223.142          49.000  
G24  20300134.219 5 106677933.037 5       818.836          35.000    20300137.711 5  83125672.178 5       638.048          35.000  
G17  22661617.883 5 119087560.106 5     -1320.148          35.000    22661617.727 5  92795520.786 5     -1028.687          31.000  
G25  24016862.492 7 126209462.90127      3472.473          46.000                                                                  
R10  21680916.984 4 115571105.76824     -2723.508          28.000                                                                  
R21  22645485.844 7 121180197.863 7      3803.688          44.000    22645488.898 6  94251266.370 6      2958.427          40.000  
R01  20721410.086 8 110767430.052 8     -2852.105          48.000    20721416.148 6  86152464.299 6     -2218.308          40.000  
E04  24237360.336 8 127368188.654 8     -1116.773          51.000    24237361.875 8  97593801.836 8      -855.770          51.000  
E01  23573888.453 8 123881601.268 8      -141.156          51.000    23573889.938 8  94922336.933 8      -108.162          51.000  
E31  25708268.648 5 135097862.300 5      1954.406          31.000    25708260.258 5 103516507.914 5      1497.578          31.000  
C19  25008182.578 6 130224096.427 6     -3185.199          37.000  
C22  23934577.133 5 124633665.109 5     -1273.797          33.000  
C30  24457081.680 8 127354445.341 8      2943.551          50.000  
> 2020 05 14 07 01 30.0000000  0 14      -0.000000000000
G13  23242322.688 8 122139206.737 8     -3567.055          51.000    23242322.586 6  95173376.112 6     -2779.527          40.000  
G12  21446399.961 8 112701616.103 8      2559.895          49.000    21446398.797 8  87819428.890 8      1994.724          49.000  
G15  21828941.000 8 114711850.339 8     -2861.125          50.000    21828942.102 8  89385854.144 8     -2229.449          50.000  
G24  20295486.883 6 106653511.429 6       811.406          36.000    20295490.156 5  83106642.310 5       632.262          35.000  
G17  22669196.992 5 119127468.15225     -1333.465          33.000    22669200.930 5  92826587.23325     -1039.064          30.000  
G25  23997048.953 8 126105336.847 8      3470.867          48.000    23997049.805 6  98263897.678 6      2704.573          41.000  
R21  22624183.656 7 121066204.368 7      3797.691          46.000    22624186.516 6  94162604.779 6      2953.760          41.000  
R01  20737468.367 8 110853264.645 8     -2868.254          49.000    20737473.266 6  86219224.486 6     -2230.865          40.000  
E04  24243768.547 8 127401861.504 8     -1126.195          51.000    24243769.523 8  97619603.091 8      -862.929          51.000  
E01  23574708.234 8 123885909.168 8      -144.242          51.000    23574709.625 8  94925637.789 8      -110.514          51.000  
E31                                                                  25697112.727 5 103471618.678 5      1496.958          33.000  
C19  25026536.797 6 130319673.460 6     -3184.215          37.000  
C22  23941953.523 5 124672033.266 5     -1285.387          33.000  
C30  24440136.039 8 127266202.897 8      2941.051          48.000  
> 2020 05 14 07 02  0.0000000  0 18      -0.000000000000
G13  23262703.844 8 122246307.791 8     -3575.547          51.000    23262703.414 6  95256831.390 6     -2786.144          41.000  
G12  21431818.164 8 112624987.871 8      2546.055          51.000    21431817.492 8  87759718.582 8      1983.939          51.000  
G15  21845306.039 8 114797849.666 8     -2874.637          51.000    21845306.977 8  89452866.595 8     -2239.977          51.000  
G24  20290888.867 6 106629347.432 6       797.766          39.000    20290892.211 6  83087813.205 6       621.639          39.000  
G19  21590460.812 6 113458685.438 6       505.148          38.000    21590463.422 5  88409332.106 5       393.622          32.000  
G25  23977247.570 8 126001278.122 8      3464.051          48.000    23977247.922 7  98182812.990 7      2699.261          42.000  
R10  21711588.883 4 115734598.265 4     -2728.672          28.000                                                                  
R21  22602920.312 8 120952414.590 8      3785.809          49.000    22602922.703 7  94074101.655 7      2944.521          42.000  
R01  20753620.586 8 110939602.020 8     -2890.133          50.000    20753624.453 6  86286375.757 6     -2247.885          40.000  
R11  19646939.508 5 104986948.465 5       206.848          33.000    19646939.070 5  81656498.894 5       160.885          31.000  
R12  21920909.656 5 117097146.013 5      2625.797          30.000                                                                  
E04  24250233.805 8 127435834.603 8     -1141.172          51.000    24250234.484 8  97645634.407 8      -874.426          51.000  
E01  23575549.414 8 123890328.972 8      -152.949          51.000    23575550.547 8  94929024.386 8      -117.213          51.000  
E21  25723599.422 5 135178427.106 5     -2108.270          31.000                                                                  
E31                                                                  25685976.023 5 103426766.991 5      1491.604          34.000  
C19  25044888.383 6 130415238.938 6     -3189.082          38.000  
C22  23949399.297 6 124710800.671 6     -1302.004          37.000  
C30  24423206.695 7 127178052.645 7      2933.105          46.000  
> 2020 05 14 07 02 30.0000000  0 17      -0.000000000000
G13  23283136.234 8 122353678.827 8     -3584.434          51.000    23283135.852 6  95340497.045 6     -2793.066          41.000  
G12  21417319.609 8 112548795.786 8      2531.570          51.000    21417319.062 8  87700348.139 8      1972.653          51.000  
G15  21861752.094 8 114884272.771 8     -2888.730          51.000    21861752.070 8  89520209.252 8     -2250.959          51.000  
G24  20286372.273 6 106605608.699 6       783.273          39.000    20286374.680 6  83069315.459 6       610.343          39.000  
G19  21587638.336 6 113443860.678 6       481.129          41.000    21587637.906 4  88397769.554 4       374.906          28.000  
G25  23957489.578 7 125897452.077 7      3456.043          47.000    23957490.414 7  98101910.828 7      2693.021          43.000  
R10  21726952.789 5 115816493.90425     -2735.555          32.000                                                                  
R21  22581727.609 8 120839003.065 8      3773.031          48.000    22581729.469 7  93985892.766 7      2934.583          42.000  
R01  20769897.656 8 111026608.340 8     -2912.320          49.000    20769901.016 6  86354047.317 6     -2265.138          41.000  
R11  19645808.297 5 104980920.942 5       193.270          34.000    19645806.711 4  81651810.721 4       150.321          27.000  
R12  21906177.484 5 117018499.446 5      2617.453          34.000                                                                  
E04  24256787.430 8 127470274.230 8     -1156.707          51.000    24256788.164 8  97672023.198 8      -886.279          51.000  
E01  23576443.477 8 123895027.022 8      -162.184          51.000    23576444.352 8  94932624.175 8      -124.244          51.000  
E31                                                                  25674882.055 5 103382083.790 5      1485.815          32.000  
C19  25063269.602 6 130510955.841 6     -3194.211          37.000  
C22  23956945.070 5 124750087.404 5     -1319.629          35.000  
C30  24406326.375 7 127090162.510 7      2924.332          44.000  
> 2020 05 14 07 03  0.0000000  0 15      -0.000000000000
G13  23303607.141 8 122461252.266 8     -3591.000          51.000    23303606.617 6  95424320.446 6     -2798.183          41.000  
G12  21402891.625 8 112472975.193 8      2519.371          50.000    21402891.141 8  87641267.131 8      1963.147          51.000  
G15  21878266.086 8 114971052.105 8     -2900.359          51.000    21878264.836 8  89587829.474 8     -2260.021          51.000  
G24  20281924.273 7 106582230.507 7       771.555          42.000    20281925.195 6  83051098.692 6       601.212          41.000  
G19  21584942.125 6 113429692.625 6       459.285          41.000    21584939.633 4  88386729.728 4       357.885          29.000  
G25  23937763.297 7 125793778.279 7      3450.621          46.000    23937765.195 7  98021133.968 7      2688.796          43.000  
R21  22560593.750 8 120725907.901 8      3762.707          48.000    22560594.438 6  93897929.934 6      2926.553          39.000  
R01  20786285.414 7 111114212.686 7     -2932.059          46.000    20786289.078 6  86422184.009 6     -2280.490          39.000  
R11  19644737.102 5 104975234.528 5       181.504          31.000    19644738.812 4  81647331.49924       141.173          28.000  
R12  21891481.477 5 116940010.661 5      2610.512          32.000                                                                  
E04  24263416.836 8 127505114.078 8     -1169.805          51.000    24263417.805 8  97698718.659 8      -896.314          51.000  
E01  23577377.797 8 123899937.032 8      -168.953          51.000    23577378.516 8  94936386.396 8      -129.446          51.000  
C19  25081667.117 6 130606756.698 6     -3197.113          38.000  
C22  23964578.508 4 124789826.945 4     -1333.609          29.000  
C30  24389485.117 7 127002470.031 7      2917.918          46.000  
> 2020 05 14 07 03 30.0000000  0 15      -0.000000000000
G13  23324118.000 8 122569036.798 8     -3595.168          49.000    23324117.078 6  95508308.323 6     -2801.434          40.000  
G12  21388536.477 8 112397538.212 8      2509.352          51.000    21388536.094 8  87582485.052 8      1955.339          50.000  
G15  21894849.344 8 115058195.950 8     -2909.676          50.000    21894847.414 8  89655733.737 8     -2267.281          50.000  
G24  20277546.992 6 106559224.408 6       761.805          39.000    20277547.305 6  83033171.845 6       593.611          39.000  
G19  21582373.266 6 113416193.024 6       440.367          40.000    21582371.312 6  88376210.615 6       343.143          36.000  
G25  23918071.258 7 125690297.915 7      3447.434          46.000    23918073.719 7  97940499.959 7      2686.316          43.000  
R21  22539520.914 7 120613144.692 7      3754.344          45.000    22539520.695 6  93810225.260 6      2920.046          36.000  
R01  20802785.844 7 111202422.464 7     -2949.148          46.000    20802789.852 6  86490791.558 6     -2293.786          39.000  
R11  19643737.711 5 104969900.264 5       173.160          33.000    19643743.094 4  81643182.160 4       134.677          29.000  
R12  21876835.883 4 116861726.376 4      2607.066          29.000                                                                  
E04  24270124.266 8 127540364.397 8     -1180.668          51.000    24270125.430 8  97725728.625 8      -904.686          51.000  
E01  23578354.570 8 123905069.374 8      -173.637          51.000    23578355.297 8  94940318.968 8      -133.067          51.000  
E21  25759792.742 6 135368617.798 6     -2114.285          36.000                                                                  
C19  25100082.516 6 130702649.877 6     -3196.980          37.000  
C30  24372685.281 7 126914988.521 7      2913.629          46.000  
> 2020 05 14 07 04  0.0000000  0 17      -0.000000000000
G13  23344633.883 8 122676848.312 8     -3582.617          48.000    23344632.453 6  95592317.220 6     -2791.654          39.000  
G12  21374220.141 8 112322303.714 8      2516.039          51.000    21374219.422 8  87523860.775 8      1960.551          51.000  
G15  21911466.453 8 115145519.988 8     -2902.117          50.000    21911464.727 8  89723778.432 8     -2261.391          50.000  
G24  20273206.094 7 106536409.535 7       768.871          43.000    20273206.250 7  83015393.985 7       599.117          43.000  
G19  21579896.867 6 113403180.245 6       437.230          39.000    21579892.844 5  88366070.803 5       340.702          35.000  
G25  23898379.422 7 125586816.336 7      3460.801          46.000    23898382.664 7  97859865.013 7      2696.732          43.000  
R10  21773177.227 5 116062901.813 5     -2725.676          32.000                                                                  
R21  22518476.266 7 120500533.176 7      3762.883          47.000    22518476.148 6  93722638.553 6      2926.687          36.000  
R01  20819365.078 7 111291048.882 7     -2949.422          46.000    20819369.359 6  86559723.133 6     -2293.998          39.000  
R11  19642769.781 5 104964732.661 5       181.336          35.000    19642775.469 4  81639162.816 4       141.033          27.000  
R12  21862183.656 5 116783458.178 5      2620.082          31.000                                                                  
E04  24276875.430 8 127575842.555 8     -1174.797          51.000    24276876.484 8  97752913.174 8      -900.110          51.000  
E01  23579338.734 8 123910241.456 8      -161.473          51.000    23579339.945 8  94944281.989 8      -123.714          51.000  
E21  25771838.555 6 135431928.998 6     -2096.914          39.000                                                                  
C19  25118480.516 6 130798452.727 6     -3180.277          37.000  
C22  23980079.328 5 124870614.994 5     -1342.531          32.000  
C30  24355891.992 7 126827540.192 7      2925.926          46.000  
> 2020 05 14 07 04 30.0000000  0 17      -0.000000000000
G13  23365231.086 7 122785088.426 7     -3616.297          46.000    23365229.438 6  95676660.121 6     -2817.895          37.000  
G12  21360019.297 8 112247676.622 8      2476.398          51.000    21360018.164 8  87465709.810 8      1929.665          51.000  
G15  21928193.984 8 115233425.631 8     -2940.992          49.000    21928192.914 8  89792276.334 8     -2291.683          49.000  
G24  20268978.438 7 106514190.455 7       729.676          43.000    20268978.453 7  82998080.414 7       568.582          43.000  
G17  22716671.312 5 119376913.25225     -1443.066          32.000                                                                  
G19  21577590.266 5 113391058.964 5       387.516          35.000    21577587.680 5  88356625.645 5       301.963          34.000  
G25  23878764.508 7 125483738.546 7      3428.027          45.000    23878768.734 7  97779544.701 7      2671.194          43.000  
R10  21788656.242 5 116145398.862 5     -2756.758          30.000                                                                  
R21  22497538.008 7 120388489.032 7      3724.176          45.000    22497537.992 6  93635493.128 6      2896.582          37.000  
R01  20836098.945 7 111380498.549 7     -2996.500          47.000    20836103.258 6  86629295.016 6     -2330.615          40.000  
R12  21847613.281 5 116705627.558 5      2585.688          33.000    21847610.305 3  90771047.21223      2011.097          23.000  
E04  24283746.820 8 127611951.590 8     -1215.277          51.000    24283747.766 8  97780581.112 8      -931.142          51.000  
E01  23580407.031 8 123915856.438 8      -195.586          51.000    23580408.656 8  94948584.375 8      -149.877          51.000  
E21  25783941.547 6 135495538.036 6     -2126.398          40.000                                                                  
C19  25136937.797 6 130894562.836 6     -3209.770          36.000  
C22  23987981.234 5 124911775.805 5     -1384.973          30.000  
C30  24339183.148 7 126740527.691 7      2892.102          47.000  
> 2020 05 14 07 05  0.0000000  0 18      -0.000000000000
G13  23385854.195 7 122893468.200 7     -3610.297          42.000    23385853.438 6  95761111.875 6     -2813.216          38.000  
G12  21345879.195 8 112173370.810 8      2476.090          51.000    21345877.688 8  87407809.190 8      1929.424          51.000  
G15  21944977.594 8 115321623.832 8     -2940.176          51.000    21944976.930 8  89861002.196 8     -2291.047          51.000  
G24  20264809.289 7 106492280.703 7       729.727          43.000    20264808.867 7  82981007.850 7       568.618          43.000  
G19  21575404.344 5 113379549.607 5       378.293          34.000                                                                  
G25  23859171.977 7 125380778.884 7      3434.707          43.000    23859177.125 7  97699316.445 7      2676.399          43.000  
R21  22476651.805 7 120276724.985 7      3725.504          44.000    22476652.664 6  93548565.574 6      2897.615          37.000  
R01  20852931.492 7 111470476.024 7     -3003.371          47.000    20852935.836 6  86699277.480 6     -2335.956          41.000  
R11  19641114.820 6 104955880.569 6       143.344          38.000                                                                  
R12  21833063.641 5 116627937.511 5      2591.660          33.000                                                                  
E04  24290683.445 8 127648403.929 8     -1216.230          51.000    24290684.461 8  97808512.082 8      -931.875          51.000  
E01  23581505.125 8 123921626.816 8      -190.277          51.000    23581506.461 8  94953005.821 8      -145.791          51.000  
E21  25796047.305 5 135559157.202 5     -2116.031          35.000                                                                  
E31  25619825.906 6 134633051.124 6      1920.527          37.000    25619832.445 5 103160442.695 5      1471.307          35.000  
E19  27505774.852 5 144543829.084 5     -3143.254          33.000                                                                  
C19  25155397.836 5 130990693.574 5     -3200.344          35.000  
C22  23995955.414 5 124953257.532 5     -1387.117          34.000  
C30  24322503.969 7 126653669.262 7      2897.004          45.000  
> 2020 05 14 07 05 30.0000000  0 18      -0.000000000000
G13  23406504.281 6 123001996.245 6     -3623.133          39.000    23406506.188 6  95845679.245 6     -2823.218          39.000  
G12  21331802.383 8 112099398.239 8      2457.207          51.000    21331800.398 8  87350168.248 8      1914.707          51.000  
G15  21961818.648 8 115410122.922 8     -2957.934          51.000    21961818.164 8  89929962.494 8     -2304.884          51.000  
G24  20260700.883 6 106470692.379 6       711.180          41.000    20260700.578 6  82964185.795 6       554.166          41.000  
G25  23839604.188 7 125277949.361 7      3422.430          42.000    23839609.445 6  97619189.570 6      2666.829          41.000  
R10  21819639.078 5 116310562.53925     -2759.250          31.000                                                                  
R21  22455820.820 7 120165256.492 7      3707.516          42.000    22455822.492 6  93461867.880 6      2883.624          39.000  
R01  20869863.758 7 111560988.066 7     -3028.977          47.000    20869868.531 6  86769675.700 6     -2355.871          41.000  
R11  19640362.641 5 104951869.319 5       125.746          32.000                                                                  
R12  21818542.508 4 116550399.002 4      2579.449          29.000                                                                  
E04  24297687.156 8 127685209.432 8     -1235.605          51.000    24297688.461 8  97836713.678 8      -946.766          51.000  
E01  23582634.688 8 123927562.666 8      -203.535          51.000    23582635.914 8  94957554.062 8      -155.947          51.000  
E21                                                                  25808163.055 5 103918760.135 5     -1627.772          34.000  
E31  25608901.609 6 134575636.313 6      1908.977          40.000    25608908.297 6 103116449.512 6      1462.708          37.000  
E19  27523749.266 5 144638277.239 5     -3151.195          31.000                                                                  
C19  25173863.062 5 131086852.934 5     -3207.887          33.000  
C22  24004011.016 5 124995213.192 5     -1408.215          35.000  
C30  24305855.617 7 126566977.975 7      2884.016          42.000  
> 2020 05 14 07 06  0.0000000  0 17      -0.000000000000
G13  23427189.258 7 123110699.650 7     -3628.379          43.000    23427192.148 6  95930383.183 6     -2827.309          37.000  
G12  21317794.750 8 112025789.036 8      2445.645          51.000    21317793.047 8  87292810.447 8      1905.698          51.000  
G15  21978721.938 8 115498949.697 8     -2968.422          51.000    21978721.711 8  89999178.103 8     -2313.057          51.000  
G24  20256659.219 6 106449455.243 6       700.438          41.000    20256659.602 7  82947637.400 7       545.796          42.000  
G19  21571374.961 5 113358396.525 5       328.988          34.000    21571375.062 4  88331168.197 4       256.355          25.000  
G25  23820066.805 6 125175280.360 6      3417.898          41.000    23820071.484 6  97539187.757 6      2663.298          41.000  
R21  22435051.906 7 120054117.845 7      3697.137          43.000    22435054.008 6  93375426.743 6      2875.554          40.000  
R01  20886900.930 7 111652060.314 7     -3047.164          47.000    20886905.461 6  86840509.656 6     -2370.017          41.000  
R11  19639664.164 5 104948035.018 5       115.680          35.000    19639678.695 4  81626303.19224        89.970          25.000  
E04  24304763.414 8 127722396.570 8     -1247.906          51.000    24304765.266 8  97865207.697 8      -956.236          51.000  
E01  23583801.047 8 123933692.554 8      -209.617          51.000    23583802.758 8  94962250.990 8      -160.604          51.000  
E21                                                                  25820279.578 5 103967560.239 5     -1628.945          30.000  
E31  25598002.789 6 134518361.427 6      1904.621          39.000    25598008.008 6 103072563.570 6      1459.443          37.000  
E19  27541734.078 5 144732790.140 5     -3153.594          33.000                                                                  
C19  25192338.375 5 131183067.565 5     -3209.445          31.000  
C22  24012150.875 6 125037598.096 6     -1421.977          38.000  
C30  24289242.984 6 126480485.389 6      2877.641          41.000  
> 2020 05 14 07 06 30.0000000  0 17      -0.000000000000
G13  23447910.938 7 123219589.279 7     -3629.727          45.000    23447912.906 5  96015232.210 5     -2828.359          32.000  
G12  21303859.055 8 111952557.230 8      2437.984          51.000    21303858.258 8  87235746.670 8      1899.726          51.000  
G15  21995689.523 8 115588114.843 8     -2974.656          51.000    21995689.672 8  90068657.379 8     -2317.918          51.000  
G24  20252687.055 7 106428583.002 7       693.020          42.000    20252687.891 7  82931373.315 7       540.015          42.000  
G19  21569547.109 6 113348803.003 6       312.234          37.000                                                                  
G25  23800562.609 7 125072786.223 7      3416.773          42.000    23800566.398 7  97459322.221 7      2662.422          42.000  
R21  22414348.258 6 119943327.139 6      3690.484          41.000    22414350.578 6  93289256.246 6      2870.380          41.000  
R01  20904044.508 7 111743702.264 7     -3060.875          47.000    20904048.445 6  86911786.718 6     -2380.681          41.000  
R11  19639038.430 5 104944685.083 5       109.355          32.000    19639043.664 4  81623662.44924        85.054          24.000  
R12  21789620.430 5 116395858.549 5      2572.145          33.000    21789626.750 4  90530129.55924      2000.557          26.000  
E04  24311914.695 8 127759977.656 8     -1256.094          51.000    24311917.312 8  97894003.576 8      -962.468          51.000  
E01  23585006.922 8 123940028.952 8      -211.461          51.000    23585008.836 8  94967106.140 8      -162.062          51.000  
E21  25832401.344 5 135750182.919 5     -2123.117          33.000                                                                  
E31  25587131.336 6 134461239.599 6      1904.645          36.000    25587135.594 5 103028794.895 5      1459.368          35.000  
E19  27559733.227 5 144827375.772 5     -3150.367          34.000                                                                  
C22  24020376.734 6 125080423.688 6     -1431.891          37.000  
C30  24272672.953 7 126394206.761 7      2875.574          45.000  
> 2020 05 14 07 07  0.0000000  0 18      -0.000000000000
G13  23468666.211 7 123328653.742 7     -3641.070          45.000    23468665.711 5  96100217.373 5     -2837.202          30.000  
G12  21289993.930 8 111879694.118 8      2420.094          51.000    21289993.609 8  87178970.217 8      1885.788          51.000  
G15  22012719.305 8 115677606.701 8     -2991.070          50.000    22012719.688 8  90138391.251 8     -2330.705          50.000  
G24  20248782.820 7 106408067.087 7       675.398          43.000    20248783.969 7  82915386.892 7       526.288          44.000  
G17  22758901.539 5 119598829.79425     -1524.258          32.000                                                                  
G19  21567845.312 6 113339860.601 6       284.242          36.000    21567852.328 4  88316752.434 4       221.487          29.000  
G25  23781090.227 6 124970458.776 6      3405.512          41.000    23781093.359 6  97379586.605 6      2653.646          40.000  
R21  22393707.828 6 119832879.707 6      3673.309          41.000    22393711.555 6  93203352.761 6      2857.018          41.000  
R01  20921292.250 7 111835900.229 7     -3085.055          46.000    20921296.531 7  86983496.239 7     -2399.488          42.000  
R11  19638498.266 4 104941788.49724        92.809          29.000    19638496.594 4  81621388.73524        72.184          25.000  
R12  21775208.031 5 116318882.216 5      2560.359          30.000                                                                  
E04  24319139.086 8 127797942.550 8     -1274.473          51.000    24319142.367 8  97923093.544 8      -976.524          51.000  
E01  23586250.266 8 123946561.864 8      -223.578          51.000    23586251.938 8  94972111.866 8      -171.349          51.000  
E21  25844542.164 5 135813984.913 5     -2130.297          34.000                                                                  
E31  25576286.438 6 134404261.380 6      1894.359          38.000    25576290.094 5 102985136.248 5      1451.373          35.000  
E19  27577744.367 5 144922026.351 5     -3158.484          35.000                                                                  
C22  24028685.086 6 125123678.985 6     -1451.383          38.000  
C30  24256144.992 8 126308135.362 8      2863.031          48.000  
> 2020 05 14 07 07 30.0000000  0 17      -0.000000000000
G13  23489464.602 7 123437944.078 7     -3645.688          45.000    23489460.898 5  96185378.483 5     -2840.802          30.000  
G12  21276209.445 8 111807254.339 8      2408.855          51.000    21276208.875 8  87122523.650 8      1877.034          51.000  
G15  22029820.969 8 115767475.954 8     -3000.742          51.000    22029821.523 8  90208419.215 8     -2338.241          51.000  
G24  20244956.562 7 106387961.778 7       664.461          42.000    20244958.492 7  82899720.376 7       517.762          42.000  
G19  21566277.094 6 113331623.022 6       264.270          36.000    21566272.086 5  88310276.414 5       205.927          35.000  
G25  23761660.047 6 124868352.536 6      3401.152          38.000    23761663.062 6  97300023.351 6      2650.246          38.000  
R21  22373141.680 6 119722834.299 6      3662.484          39.000    22373147.156 6  93117761.927 6      2848.603          41.000  
R01  20938653.172 7 111928704.350 7     -3102.305          46.000    20938657.867 7  87055677.208 7     -2412.907          42.000  
R11  19637983.969 6 104939118.947 6        83.129          39.000    19637997.188 4  81619311.315 4        64.656          26.000  
R12  21760838.422 5 116242145.128 5      2554.418          31.000                                                                  
E04  24326446.625 8 127836343.734 8     -1286.051          51.000    24326450.000 8  97952517.818 8      -985.416          51.000  
E01  23587540.711 8 123953343.913 8      -228.844          51.000    23587542.445 8  94977308.503 8      -175.387          51.000  
E21  25856703.141 5 135877891.022 5     -2131.035          32.000                                                                  
E31  25565479.766 6 134347479.987 6      1890.695          38.000    25565483.281 5 102941628.404 5      1449.081          34.000  
E19  27595776.789 5 145016784.542 5     -3159.926          33.000                                                                  
C22  24037084.820 6 125167415.037 6     -1464.445          40.000  
C30  24239667.688 8 126222326.496 8      2857.145          49.000  
> 2020 05 14 07 08  0.0000000  0 19      -0.000000000000
G13  23510302.141 7 123547441.656 7     -3651.445          45.000    23510298.680 5  96270701.205 5     -2845.286          31.000  
G12  21262502.156 8 111735222.070 8      2396.246          51.000    21262501.164 8  87066394.629 8      1867.208          51.000  
G15  22046990.852 8 115857703.569 8     -3011.594          50.000    22046991.469 8  90278726.431 8     -2346.697          50.000  
G24  20241205.430 7 106368250.956 7       652.289          43.000    20241207.898 7  82884361.257 7       508.274          42.000  
G17  22776493.664 6 119691273.982 6     -1555.402          37.000    22776500.195 5  93265985.120 5     -1211.987          34.000  
G19  21564840.266 6 113324074.325 6       242.016          38.000    21564838.703 4  88304394.311 4       188.584          29.000  
G25  23742268.656 5 124766452.200 5      3394.609          32.000    23742272.617 5  97220620.491 5      2645.148          31.000  
R10  21897479.773 5 116725489.39825     -2775.543          31.000                                                                  
R21  22352648.953 6 119613178.782 6      3650.465          40.000    22352655.531 6  93032474.333 6      2839.254          41.000  
R01  20956123.203 7 112022093.945 7     -3120.750          45.000    20956128.508 7  87128313.539 7     -2427.250          43.000  
R11  19637560.188 5 104936840.505 5        71.703          35.000                                                                  
E04  24333833.828 8 127875163.761 8     -1299.094          51.000    24333836.812 8  97982263.024 8      -995.422          51.000  
E01  23588875.430 8 123960357.910 8      -235.754          51.000    23588877.430 8  94982682.854 8      -180.646          51.000  
E21  25868882.531 6 135941889.641 6     -2132.332          37.000                                                                  
E31  25554707.836 5 134290897.781 5      1885.875          33.000    25554712.352 5 102898258.693 5      1444.483          34.000  
E19  27613827.977 5 145111645.068 5     -3161.742          34.000                                                                  
C19  25266383.961 4 131568691.57124     -3216.762          28.000  
C22  24045572.453 6 125211613.794 6     -1479.016          39.000  
C30  24223237.961 8 126136766.168 8      2849.707          50.000  
> 2020 05 14 07 08 30.0000000  0 19      -0.000000000000
G13  23531131.180 7 123656896.793 7     -3656.672          45.000    23531129.555 5  96355990.834 5     -2849.355          34.000  
G12  21248824.914 8 111663351.097 8      2384.160          50.000    21248824.070 8  87010391.296 8      1857.788          51.000  
G15  22064181.438 8 115948040.112 8     -3021.797          51.000    22064182.031 8  90349118.514 8     -2354.651          51.000  
G24  20237482.562 7 106348687.755 7       640.695          44.000    20237484.836 7  82869117.197 7       499.243          44.000  
G17  22785388.109 5 119738022.19725     -1567.773          31.000                                                                  
G19  21563487.562 4 113316967.747 4       220.773          28.000    21563486.312 4  88298856.617 4       172.034          27.000  
R10  21913064.266 4 116808634.771 4     -2778.879          29.000                                                                  
R21  22332182.938 6 119503666.049 6      3638.969          39.000    22332190.359 6  92947297.767 6      2830.310          41.000  
R01  20973654.945 7 112115813.133 7     -3138.375          45.000    20973660.883 7  87201206.198 7     -2440.962          43.000  
R11  19637149.367 5 104934673.352 5        61.395          31.000                                                                  
R12  21732186.375 5 116089105.36425      2542.746          33.000                                                                  
E04  24341253.523 8 127914154.505 8     -1311.418          51.000    24341255.359 8  98012139.043 8     -1004.880          51.000  
E01  23590207.219 8 123967355.886 8      -241.867          51.000    23590209.438 8  94988044.925 8      -185.351          51.000  
E21  25881030.258 6 136005720.098 6     -2133.945          39.000                                                                  
E31                                                                  25543931.250 5 102854837.445 5      1441.729          32.000  
E19  27631850.492 5 145206353.896 5     -3163.098          33.000                                                                  
C19  25284887.805 5 131665050.877 5     -3217.887          31.000  
C22  24054101.648 6 125256028.455 6     -1492.770          36.000  
C30  24206809.203 8 126051211.836 8      2842.852          50.000  
> 2020 05 14 07 09  0.0000000  0 18      -0.000000000000
G13  23552019.023 7 123766659.879 7     -3663.789          46.000    23552018.703 6  96441520.470 6     -2854.901          37.000  
G12  21235245.805 8 111591994.536 8      2370.090          51.000    21235245.234 8  86954788.764 8      1846.821          51.000  
G15  22081459.398 8 116038835.430 8     -3033.988          51.000    22081459.766 8  90419868.074 8     -2364.147          51.000  
G24  20233855.289 7 106329625.937 7       627.273          44.000    20233857.352 7  82854263.834 7       488.782          44.000  
G25  23703548.938 6 124563018.284 6      3382.684          38.000    23703533.000 6  97062044.069 6      2635.864          38.000  
R10  21928704.555 5 116892033.598 5     -2784.102          33.000                                                                  
R21  22311811.977 6 119394659.645 6      3625.238          40.000    22311819.930 6  92862514.958 6      2819.627          40.000  
R01  20991314.953 7 112210216.612 7     -3157.965          45.000    20991320.781 7  87274631.077 7     -2456.195          42.000  
R11  19636828.500 5 104932880.959 5        49.930          32.000    19636840.234 4  81614501.91424        38.828          26.000  
R12  21717922.211 5 116012922.48525      2534.484          33.000                                                                  
E04  24348772.688 8 127953667.530 8     -1325.602          51.000    24348772.922 8  98042415.251 8     -1015.709          51.000  
E01  23591602.672 8 123974689.631 8      -249.758          51.000    23591605.039 8  94993664.289 8      -191.388          51.000  
E21  25893212.586 5 136069750.129 5     -2136.602          32.000                                                                  
E31                                                                  25533208.789 5 102811643.630 5      1436.710          30.000  
E19  27649910.914 5 145301260.699 5     -3166.898          34.000                                                                  
C19  25303428.828 4 131761591.874 4     -3221.082          29.000  
C22  24062740.602 6 125301006.571 6     -1508.590          36.000  
C30  24190448.758 8 125966015.197 8      2834.062          50.000  
> 2020 05 14 07 09 30.0000000  0 16      -0.000000000000
G13  23572943.102 7 123876613.924 7     -3667.762          45.000    23572942.992 6  96527198.920 6     -2858.000          37.000  
G12  21221743.336 8 111521038.286 8      2359.023          51.000    21221742.500 8  86899498.172 8      1838.198          51.000  
G15  22098802.328 8 116129972.129 8     -3043.070          51.000    22098802.164 8  90490883.655 8     -2371.224          51.000  
G24  20230301.758 7 106310951.353 7       616.664          46.000    20230303.859 7  82839712.202 7       480.518          46.000  
G17  22803505.430 6 119833226.687 6     -1603.543          39.000                                                                  
G25  23684243.805 7 124461590.470 7      3378.418          43.000    23684231.828 6  96983009.525 6      2632.537          40.000  
R21  22291516.203 7 119286046.993 7      3614.305          43.000    22291523.203 6  92778038.455 6      2811.126          38.000  
R01  21009080.555 7 112305183.315 7     -3174.238          46.000    21009085.812 7  87348494.030 7     -2468.855          42.000  
R11  19636576.453 5 104931526.958 5        39.688          33.000    19636593.023 4  81613459.345 4        30.868          27.000  
R12  21703693.000 5 115936926.869 5      2529.805          32.000                                                                  
E04  24356369.234 8 127993587.233 8     -1336.879          51.000    24356368.461 8  98073003.063 8     -1024.413          51.000  
E01  23593039.961 8 123982243.729 8      -254.922          51.000    23593042.266 8  94999452.486 8      -195.330          51.000  
E31  25522515.633 5 134121724.377 5      1870.172          31.000    25522521.453 4 102768615.564 4      1433.495          29.000  
E19  27667986.852 5 145396250.838 5     -3166.652          32.000                                                                  
C22  24071465.602 6 125346432.770 6     -1521.402          37.000  
C30  24174135.172 8 125881064.940 8      2828.074          50.000  
> 2020 05 14 07 10  0.0000000  0 16      -0.000000000000
G13  23593913.883 7 123986813.580 7     -3686.383          44.000    23593913.875 6  96613068.766 6     -2872.507          38.000  
G12  21208328.219 8 111450540.328 8      2333.328          51.000    21208326.797 8  86844564.708 8      1818.178          51.000  
G15  22116220.508 8 116221504.784 8     -3066.754          51.000    22116219.727 8  90562207.783 8     -2389.682          51.000  
G24  20226832.844 7 106292721.488 7       591.285          46.000    20226835.031 7  82825507.109 7       460.742          46.000  
G17  22812723.789 6 119881663.884 6     -1632.930          39.000    22812730.062 5  93414335.653 5     -1272.422          31.000  
G19  21560290.625 5 113300143.869 5       141.504          34.000    21560282.477 5  88285754.996 5       110.263          34.000  
G25  23664985.266 7 124360420.458 7      3359.008          44.000    23664980.469 6  96904175.845 6      2617.413          41.000  
R21  22271306.219 7 119177890.999 7      3588.207          44.000    22271312.219 6  92693917.185 6      2790.834          37.000  
R01  21026961.672 7 112400767.012 7     -3205.566          47.000    21026966.797 6  87422836.865 6     -2493.222          41.000  
R11  19636401.109 4 104930589.14724        14.961          28.000                                                                  
E04  24364053.836 8 128033969.525 8     -1362.781          51.000    24364053.078 8  98103945.311 8     -1044.222          51.000  
E01  23594530.000 8 123990074.381 8      -274.637          51.000    23594532.164 8  95005452.579 8      -210.466          51.000  
E31                                                                  25511855.945 5 102725698.323 5      1420.131          33.000  
E19  27686088.195 5 145491374.839 5     -3182.195          31.000                                                                  
C22  24080286.797 5 125392361.501 5     -1548.875          33.000  
C30  24157880.094 8 125796419.799 8      2807.379          50.000  
> 2020 05 14 07 10 30.0000000  0 17      -0.000000000000
G13  23614916.180 7 124097180.833 7     -3675.832          42.000    23614916.648 6  96699069.183 6     -2864.286          36.000  
G12  21194986.133 8 111380425.781 8      2336.758          51.000    21194984.219 8  86789930.027 8      1820.851          51.000  
G15  22133699.055 8 116313355.229 8     -3060.969          51.000    22133697.719 8  90633779.532 8     -2385.171          51.000  
G24  20223434.164 7 106274861.378 7       595.320          46.000    20223436.422 7  82811590.130 7       463.886          46.000  
G17  22822036.188 6 119930591.338 6     -1632.941          38.000    22822021.906 6  93452460.652 6     -1272.425          36.000  
G19  21559484.578 5 113295910.753 5       135.766          34.000    21559476.852 5  88282456.500 5       105.798          34.000  
G25  23645761.844 7 124259433.571 7      3369.105          42.000    23645764.398 7  96825484.833 7      2625.281          42.000  
R21  22251167.203 7 119070119.082 7      3592.102          42.000    22251171.703 6  92610094.663 6      2793.860          36.000  
R01  21044942.938 8 112496886.474 8     -3206.820          48.000    21044947.133 6  87497596.394 6     -2494.194          40.000  
R11  19636288.836 5 104929985.568 5        20.770          34.000    19636297.336 4  81612224.914 4        16.157          27.000  
E04  24371811.906 8 128074737.728 8     -1359.273          51.000    24371811.664 8  98135183.258 8     -1041.585          51.000  
E01  23596058.164 8 123998105.143 8      -264.922          51.000    23596060.422 8  95011606.007 8      -203.061          51.000  
E21  25929840.188 5 136262285.897 5     -2137.359          34.000    25929870.461 5 104408754.381 5     -1637.793          33.000  
E31                                                                  25501231.531 5 102682891.258 5      1428.883          30.000  
E19  27704201.586 5 145586560.849 5     -3168.113          30.000                                                                  
C19  25359146.031 4 132051725.92624     -3220.578          29.000  
C30  24141669.445 8 125712007.151 8      2815.801          51.000  
> 2020 05 14 07 11  0.0000000  0 17      -0.000000000000
G13  23635896.281 6 124207431.942 6     -3694.047          41.000    23635896.844 5  96784979.098 5     -2878.479          30.000  
G12  21181663.430 8 111310413.804 8      2310.988          51.000    21181661.711 8  86735375.245 8      1800.771          51.000  
G15  22151183.977 8 116405239.190 8     -3084.352          51.000    22151182.258 8  90705377.374 8     -2403.395          51.000  
G24  20220052.422 7 106257090.216 7       569.953          47.000    20220054.547 8  82797742.467 8       444.119          48.000  
G17  22831387.242 6 119979772.44226     -1662.223          39.000                                                                  
G19  21558750.430 5 113292058.417 5       101.359          35.000    21558745.438 5  88279454.619 5        78.975          31.000  
G25  23626521.938 6 124158349.544 6      3349.922          39.000    23626529.398 6  96746718.068 6      2610.330          40.000  
R10  21991521.664 4 117226787.55724     -2806.777          29.000                                                                  
R21  22231045.961 6 118962449.135 6      3565.840          41.000    22231050.164 6  92526351.414 6      2773.435          38.000  
R01  21062970.070 8 112593250.993 8     -3237.391          49.000    21062973.875 6  87572546.504 6     -2517.971          40.000  
R11  19636184.867 6 104929427.167 6        -3.734          36.000    19636200.078 5  81611790.674 5        -2.898          32.000  
R12  21661237.164 5 115710036.67425      2500.242          33.000                                                                  
E04  24379589.680 8 128115609.454 8     -1385.211          51.000    24379590.188 8  98166500.511 8     -1061.393          51.000  
E01  23597570.688 8 124006053.856 8      -284.664          51.000    23597573.180 8  95017696.568 8      -218.122          51.000  
E21                                                                  25942062.609 5 104457835.701 5     -1649.403          34.000  
E31  25490569.062 6 133953858.828 6      1846.445          36.000                                                                  
C30  24125450.102 8 125627550.476 8      2795.102          51.000  
> 2020 05 14 07 11 30.0000000  0 14      -0.000000000000
G13  23657014.266 6 124318409.433 6     -3696.898          40.000    23657014.836 5  96871455.112 5     -2880.692          31.000  
G12  21168520.898 8 111241349.798 8      2300.133          51.000    21168519.648 8  86681559.136 8      1792.312          51.000  
G15  22168835.719 8 116497998.906 8     -3092.707          51.000    22168833.453 8  90777657.604 8     -2409.902          51.000  
G24  20216848.547 7 106240253.213 7       559.504          47.000    20216850.227 8  82784622.736 8       435.977          48.000  
G19  21558247.922 5 113289431.122 5        81.504          33.000    21558247.586 5  88277407.475 5        63.500          33.000  
G25  23607427.086 6 124058014.038 6      3345.867          39.000    23607435.836 6  96668534.531 6      2607.170          39.000  
R21  22211105.977 7 118855745.720 7      3554.652          42.000    22211109.914 6  92443359.882 6      2764.730          38.000  
R01  21081203.242 8 112690715.848 8     -3252.957          48.000    21081207.555 6  87648352.468 6     -2530.078          41.000  
R11  19636250.000 5 104929772.590 5       -12.082          34.000    19636257.188 5  81612059.319 5        -9.397          31.000  
E04  24387547.664 8 128157428.300 8     -1395.945          51.000    24387549.086 8  98198543.487 8     -1069.606          51.000  
E01  23599228.242 8 124014764.434 8      -289.203          51.000    23599230.820 8  95024370.889 8      -221.579          51.000  
E21                                                                  25954374.945 5 104507389.473 5     -1649.188          34.000  
E31  25480054.273 6 133898608.585 6      1843.508          36.000    25480062.641 5 102597646.374 5      1412.574          35.000  
C30  24109383.484 8 125543889.100 8      2789.109          51.000  
> 2020 05 14 07 12  0.0000000  0 18      -0.000000000000
G13  23678094.781 6 124429192.096 6     -3693.379          40.000    23678097.953 4  96957856.422 4     -2877.958          25.000  
G12  21155384.219 8 111172315.946 8      2297.488          51.000    21155382.391 8  86627766.529 8      1790.251          51.000  
G15  22186478.852 8 116590713.024 8     -3092.793          51.000    22186476.016 8  90849902.324 8     -2409.969          51.000  
G24  20213647.727 8 106223431.937 8       557.242          48.000    20213648.953 8  82771515.264 8       434.215          48.000  
G19  21557805.438 5 113287110.706 5        68.957          31.000    21557805.922 5  88275599.242 5        53.739          31.000  
G25  23588300.953 7 123957509.191 7      3349.781          42.000    23588309.906 7  96590219.123 7      2610.223          42.000  
R10  22023109.695 5 117395088.739 5     -2800.727          31.000                                                                  
R21  22191172.477 7 118749077.718 7      3551.938          43.000    22191176.812 6  92360396.022 6      2762.625          38.000  
R01  21099466.188 7 112788341.778 7     -3259.980          47.000    21099471.531 7  87724283.731 7     -2535.541          42.000  
R11  19636309.672 6 104930086.613 6       -13.012          40.000    19636309.492 5  81612303.543 5       -10.120          30.000  
R12  21633170.742 4 115560144.04824      2499.082          28.000                                                                  
E04  24395510.680 8 128199274.437 8     -1398.445          51.000    24395512.898 8  98230607.387 8     -1071.576          51.000  
E01  23600855.953 8 124023317.338 8      -285.598          51.000    23600858.414 8  95030924.401 8      -218.841          51.000  
E21  25966585.984 5 136455385.082 5     -2143.691          34.000    25966627.930 4 104556849.206 4     -1642.501          29.000  
E31  25469502.320 6 133843153.571 6      1848.543          37.000    25469509.195 5 102555154.872 5      1416.755          34.000  
C19  25414943.461 4 132342262.611 4     -3225.434          29.000  
C22  24116358.242 5 125580231.970 5     -1588.730          34.000  
C30  24093295.680 8 125460114.929 8      2791.246          51.000  
> 2020 05 14 07 12 30.0000000  0 14      -0.000000000000
G13  23699210.391 6 124540158.677 6     -3701.930          41.000    23699213.844 4  97044302.148 4     -2884.621          25.000  
G12  21142326.023 8 111103693.761 8      2280.539          51.000    21142322.805 8  86574294.746 8      1777.047          51.000  
G15  22204185.195 8 116683760.014 8     -3107.016          51.000    22204182.219 8  90922406.424 8     -2421.055          51.000  
G24  20210522.484 8 106207008.611 8       540.812          48.000    20210523.828 8  82758717.862 8       421.412          48.000  
G19  21557502.844 5 113285446.38125        46.180          33.000                                                                  
G25  23569216.000 7 123857217.147 7      3339.629          43.000    23569224.898 7  96512069.523 7      2602.309          43.000  
R21  22171318.930 7 118642837.974 7      3534.293          42.000    22171323.500 5  92277765.157 5      2748.895          35.000  
R01  21117830.797 7 112886512.197 7     -3281.250          46.000    21117836.836 6  87800638.511 6     -2552.081          40.000  
R11  19636435.898 6 104930756.485 6       -28.355          36.000    19636434.578 5  81612824.451 5       -22.057          31.000  
E04  24403551.109 8 128241527.830 8     -1415.109          51.000    24403553.727 8  98262983.353 8     -1084.332          51.000  
E01  23602526.062 8 124032092.806 8      -296.137          51.000    23602528.383 8  95037648.451 8      -226.910          51.000  
E31  25458983.180 6 133787874.647 6      1839.832          36.000    25458988.703 5 102512798.294 5      1409.530          30.000  
C22  24125581.086 5 125628222.230 5     -1606.660          34.000  
C30  24077259.211 8 125376607.847 8      2779.121          51.000  
> 2020 05 14 07 13  0.0000000  0 17      -0.000000000000
G13  23720347.562 6 124651236.971 6     -3702.812          39.000    23720355.164 5  97130892.685 5     -2885.297          35.000  
G12  21129332.695 8 111035414.108 8      2271.867          51.000    21129329.797 8  86521089.843 8      1770.287          51.000  
G15  22221940.914 8 116777067.313 8     -3112.895          51.000    22221938.320 8  90995113.366 8     -2425.633          51.000  
G24  20207459.523 8 106190913.300 8       532.738          48.000    20207461.234 8  82746176.025 8       415.118          48.000  
G17  22869934.930 5 120182369.32425     -1714.457          35.000                                                                  
G19  21557304.953 5 113284427.09425        25.453          33.000                                                                  
G25  23550159.359 7 123757069.080 7      3337.332          43.000    23550168.055 7  96434032.110 7      2600.522          43.000  
R10  22054705.586 5 117563577.650 5     -2808.215          30.000                                                                  
R21  22151532.953 5 118536959.661 5      3524.793          34.000    22151536.125 5  92195415.419 5      2741.512          30.000  
R01  21136283.336 7 112985151.852 7     -3294.254          47.000    21136289.188 6  87877358.225 6     -2562.198          39.000  
R11  19636617.461 5 104931744.86225       -39.895          31.000    19636617.352 5  81613577.86025       -31.029          30.000  
R12  21605199.227 5 115410669.229 5      2487.633          32.000                                                                  
E04  24411655.531 8 128284117.521 8     -1423.586          51.000    24411658.055 8  98295617.001 8     -1090.809          51.000  
E01  23604225.008 8 124041020.203 8      -298.539          51.000    23604227.203 8  95044488.920 8      -228.766          51.000  
E21  25991137.602 5 136584346.162 5     -2146.879          35.000    25991120.398 5 104655498.216 5     -1644.880          33.000  
C22  24134871.688 5 125676584.512 5     -1616.227          31.000  
C30  24061260.195 8 125293300.888 8      2775.156          49.000  
> 2020 05 14 07 13 30.0000000  0 16      -0.000000000000
