     3.02           OBSERVATION DATA    M (MIXED)           RINEX VERSION / TYPE
SAVERINEX           SC600               20200511 055932 LCL PGM / RUN BY / DATE
       G = GPS       R = GLONASS       C = COMPASS          COMMENT
       S = SBAS      J = QZSS          E = GALILEO          COMMENT
BEAN                                                        MARKER NAME
1                                                           MARKER NUMBER
GEODETIC                                                    MARKER TYPE
Unige DICCA         GTER                                    OBSERVER / AGENCY
SC60291900056       SC600               2.12(191226)        REC # / TYPE / VERS
                    HEMA45          NONE                    ANT # / TYPE
  4509407.8091   693652.4678  4442337.6214                  APPROX POSITION XYZ
        0.0000        0.0000        0.0000                  ANTENNA: DELTA H/E/N
G    8 C1C L1C D1C S1C C2Y L2Y D2Y S2Y                      SYS / # / OBS TYPES
R    8 C1C L1C D1C S1C C2P L2P D2P S2P                      SYS / # / OBS TYPES
C    8 C1I L1I D1I S1I C7I L7I D7I S7I                      SYS / # / OBS TYPES
E    8 C1C L1C D1C S1C C7Q L7Q D7Q S7Q                      SYS / # / OBS TYPES
DBHZ                                                        COMMENT
     30.000                                                 INTERVAL
  2020    05    11    03    00    0.0000000     GPS         TIME OF FIRST OBS
  2020    05    11    03    59   30.0000000     GPS         TIME OF LAST OBS
     0                                                      RCV CLOCK OFFS APPL
G L1C  0.00000                                              SYS / PHASE SHIFT
G L2Y  0.00000                                              SYS / PHASE SHIFT
R L1C  0.00000                                              SYS / PHASE SHIFT
R L2P  0.25000                                              SYS / PHASE SHIFT
C L1I  0.00000                                              SYS / PHASE SHIFT
C L7I  0.00000                                              SYS / PHASE SHIFT
E L1C  0.50000                                              SYS / PHASE SHIFT
E L7Q -0.25000                                              SYS / PHASE SHIFT
 12 R01  1 R02 -4 R03  5 R04  6 R10 -5 R12 -1 R13 -2 R14 -7 GLONASS SLOT / FRQ #
    R15  0 R17  4 R18 -3 R23  3                             GLONASS SLOT / FRQ #
 C1C   71.950 C2C   71.950 C2P   71.950                     GLONASS COD/PHS/BIS
    18                                                      LEAP SECONDS
*** Above antenna height is from mark to ANTENNA BOTTOM.    COMMENT
    17     4        0.0000        ANT MEASURE TYPE/HEIGT    COMMENT
    0.0000    0.0000    0.0458    0.0405    0.0000          COMMENT
                    BASE STATION                            COMMENT
                                                            END OF HEADER
> 2020 05 11 03 00  0.0000000  0 13        .000000000000
G05  20557606.258 8 108030976.163 8        20.512          50.000    20557605.594 8  84179946.711 8        15.983          50.000
G07  21871478.500 7 114935376.200 7     -2101.617          43.000    21871477.188 7  89560023.981 7     -1637.624          43.000
G28  22448046.695 8 117965312.232 8      2833.637          48.000    22448046.930 7  91921048.069 7      2208.029          43.000
G30  20384642.977 8 107122081.996 8      -382.359          51.000    20384643.578 8  83471743.873 8      -297.942          51.000
R03  20491384.586 8 109691996.953 8     -2338.219          51.000    20491385.828 7  85316014.038 7     -1818.615          46.000
R04  19435557.102 5 104076526.347 5      1267.484          35.000    19435567.562 6  80948435.703 6       985.818          36.000
R14  19410377.688 8 103468279.207 8      1504.430          50.000    19410381.359 8  80475345.656 8      1170.112          48.000
C05  39798160.273 6 207239464.454 6         -.516          37.000    39798157.797 6 160250685.448 6         -.680          41.000
C21  21898273.164 8 114030057.448 8     -1000.629          51.000
C22  25334969.234 7 131925809.043 7     -3047.289          44.000
C26  22576142.109 8 117559869.405 8      2296.703          50.000
E07  24215783.664 8 127254788.770 8     -1298.098          51.000    24215786.242 8  97506929.833 8      -994.703          51.000
E27  24291727.781 8 127653931.915 8      2065.898          51.000    24291731.703 8  97812696.384 8      1583.021          51.000
> 2020 05 11 03 00 30.0000000  0 13        .000000000000
G05  20557542.000 8 108030638.450 8         1.227          51.000    20557541.312 8  84179683.558 8          .956          51.000
G07  21883498.188 7 114998539.897 7     -2110.023          43.000    21883496.719 7  89609242.408 7     -1644.177          43.000
G28  22431895.609 8 117880439.183 8      2823.703          49.000    22431896.609 7  91854913.239 7      2200.291          42.000
G30  20386864.812 8 107133757.854 8      -396.848          51.000    20386865.648 8  83480841.952 8      -309.232          51.000
R03  20504528.344 8 109762358.036 8     -2353.445          51.000    20504529.867 7  85370739.309 7     -1830.457          46.000
R04  19428503.078 5 104038741.031 5      1250.656          34.000    19428511.344 6  80919047.120 6       972.730          36.000
R14  19401976.680 8 103423493.870 8      1480.422          51.000    19401979.859 8  80440512.620 8      1151.439          49.000
C05  39798161.297 6 207239468.984 6         -.453          38.000    39798158.625 6 160250688.918 6         -.378          41.000
C21  21904074.164 8 114060263.442 8     -1013.820          51.000
C22  25352538.109 7 132017293.544 7     -3052.305          42.000
C26  22562938.570 8 117491118.326 8      2285.816          49.000
E07  24223212.859 8 127293828.095 8     -1305.094          51.000    24223215.000 8  97536843.061 8      -999.998          51.000
E27  24279963.086 8 127592108.925 8      2054.941          51.000    24279967.312 8  97765325.523 8      1574.539          51.000
> 2020 05 11 03 01  0.0000000  0 14        .000000000000
G05  20557589.539 8 108030887.646 8       -19.801          51.000    20557588.883 8  84179877.741 8       -15.429          51.000
G07  21895566.609 7 115061959.977 7     -2119.914          42.000    21895565.438 7  89658660.629 7     -1651.881          43.000
G28  22415803.203 8 117795872.763 8      2811.930          49.000    22415803.734 6  91789017.368 6      2191.117          38.000
G30  20389170.562 8 107145874.808 8      -412.934          51.000    20389171.547 8  83490283.741 8      -321.766          51.000
R03  20517759.758 8 109833187.339 8     -2370.559          51.000    20517761.516 7  85425828.734 7     -1843.771          47.000
R04  19421542.680 6 104001453.735 6      1232.816          39.000    19421547.102 6  80890045.873 6       958.857          36.000
R14  19393712.023 8 103379436.462 8      1454.625          51.000    19393714.594 8  80406245.759 8      1131.375          49.000
R15  22602301.047 5 120779838.415 5      4226.129          31.000
C05  39798162.344 6 207239473.223 6        -1.773          38.000    39798159.484 6 160250692.222 6        -1.574          41.000
C21  21909952.367 8 114090871.548 8     -1028.730          51.000
C22  25370137.500 7 132108937.704 7     -3059.098          43.000
C26  22549799.305 8 117422702.157 8      2273.285          48.000
E07  24230682.703 8 127333081.660 8     -1313.680          51.000    24230684.648 8  97566920.446 8     -1006.586          51.000
E27  24268262.414 8 127530623.303 8      2042.207          50.000    24268266.695 8  97718213.172 8      1564.766          51.000
> 2020 05 11 03 01 30.0000000  0 15        .000000000000
G05  20557744.664 8 108031702.276 8       -38.160          51.000    20557744.047 8  84180512.516 8       -29.735          51.000
G07  21907679.453 6 115125613.185 6     -2126.969          40.000    21907678.594 6  89708260.519 6     -1657.378          40.000
G13  21888131.250 5 115022905.444 5      2344.699          33.000
G28  22399765.664 8 117711594.305 8      2802.883          48.000    22399764.781 6  91723345.957 6      2184.068          36.000
G30  20391555.961 8 107158410.554 8      -426.430          51.000    20391556.734 8  83500051.857 8      -332.283          51.000
R03  20531074.789 8 109904462.398 8     -2384.926          51.000    20531076.445 8  85481264.876 8     -1854.945          48.000
R04  19414670.609 6 103964644.930 6      1217.293          39.000    19414672.805 6  80861416.817 6       946.783          37.000
R14  19385579.555 8 103336086.213 8      1431.562          51.000    19385581.680 8  80372528.880 8      1113.438          49.000
R15  22578585.172 5 120653126.774 5      4219.250          31.000
C05  39798159.078 6 207239456.025 6         -.598          37.000    39798156.148 6 160250678.917 6         -.495          41.000
C21  21915903.984 8 114121860.536 8     -1040.855          51.000
C22  25387763.367 7 132200719.238 7     -3063.320          45.000
C26  22536720.969 8 117354600.679 8      2263.180          49.000
E07  24238189.344 8 127372528.189 8     -1319.715          51.000    24238191.289 8  97597145.691 8     -1011.180          51.000
E27  24256622.102 8 127469454.832 8      2032.027          50.000    24256626.086 8  97671343.835 8      1557.011          51.000
> 2020 05 11 03 02  0.0000000  0 15        .000000000000
G05  20558016.164 8 108033128.351 8       -59.504          51.000    20558015.398 8  84181623.735 8       -46.367          51.000
G07  21919844.586 6 115189542.955 6     -2137.031          40.000    21919843.969 6  89758075.970 6     -1665.219          40.000
G28  22383791.633 7 117627652.134 7      2790.871          44.000    22383790.102 6  91657936.543 6      2174.708          38.000
G30  20394029.414 8 107171409.334 8      -442.777          51.000    20394030.258 8  83510180.776 8      -345.021          51.000
R03  20544481.336 8 109976228.549 8     -2402.316          51.000    20544483.367 8  85537082.998 8     -1868.468          48.000
R04  19407895.938 6 103928363.285 6      1198.969          40.000    19407897.656 6  80833197.760 6       932.528          38.000
R14  19377588.414 8 103293490.050 8      1405.516          51.000    19377591.008 8  80339398.536 8      1093.179          50.000
R15  22554919.602 5 120526674.347 5      4209.039          32.000
C05  39798160.258 6 207239463.355 6        -2.270          37.000    39798157.320 6 160250683.814 6        -2.042          40.000
C21  21921937.641 8 114153275.307 8     -1055.961          51.000
C22  25405425.125 8 132292681.697 8     -3070.109          48.000
C26  22523712.422 8 117286859.837 8      2250.242          51.000
E07  24245741.188 8 127412213.157 8     -1328.586          51.000    24245743.227 8  97627553.639 8     -1017.983          51.000
E27  24245051.203 8 127408650.040 8      2018.973          51.000    24245054.320 8  97624753.161 8      1547.017          51.000
E30  23318495.391 6 122539606.613 6      -896.828          37.000    23318500.062 6  93893945.758 6      -687.096          41.000
> 2020 05 11 03 02 30.0000000  0 15        .000000000000
G05  20558401.141 8 108035151.188 8       -76.703          51.000    20558400.273 8  84183199.968 8       -59.769          51.000
G07  21932059.555 7 115253733.205 7     -2143.082          42.000    21932058.305 7  89808094.339 7     -1669.934          43.000
G28  22367877.594 6 117544033.892 6      2782.664          36.000    22367877.922 6  91592779.529 6      2168.313          36.000
G30  20396588.023 8 107184855.237 8      -454.848          51.000    20396588.906 8  83520658.109 8      -354.427          51.000
R03  20557976.812 8 110048470.196 8     -2415.133          51.000    20557978.703 8  85593270.963 8     -1878.437          49.000
R04  19401217.344 6 103892596.006 6      1184.426          40.000    19401218.922 6  80805378.748 6       921.220          38.000
R14  19369736.219 8 103251633.889 8      1383.746          51.000    19369738.828 8  80306843.729 8      1076.244          50.000
R15  22531303.914 5 120400484.009 5      4203.129          33.000
C05  39798163.227 6 207239478.379 6          .199          37.000    39798160.086 6 160250695.428 6          .009          41.000
C21  21928050.148 8 114185101.098 8     -1066.902          51.000
C22  25423118.039 7 132384809.319 7     -3072.754          47.000
C26  22510771.117 8 117219465.895 8      2241.496          51.000
E07  24253335.453 8 127452121.813 8     -1333.172          51.000    24253337.922 8  97658132.985 8     -1021.533          51.000
E27  24233547.273 8 127348195.250 8      2010.117          51.000    24233549.281 8  97578430.661 8      1540.244          51.000
E30  23323640.555 6 122566656.669 6      -908.016          38.000    23323645.078 6  93914672.423 6      -695.504          41.000
> 2020 05 11 03 03  0.0000000  0 15        .000000000000
G05  20558894.594 8 108037743.920 8       -96.418          51.000    20558893.477 8  84185220.280 8       -75.128          51.000
G07  21944318.766 7 115318154.734 7     -2151.574          43.000    21944316.734 7  89858292.907 7     -1676.548          43.000
G28  22352020.984 5 117460714.999 5      2772.008          35.000    22352023.227 5  91527855.560 5      2159.997          33.000
G30  20399226.328 8 107198719.840 8      -469.547          51.000    20399227.188 8  83531461.698 8      -365.881          51.000
R03  20571555.750 8 110121158.149 8     -2430.867          51.000    20571557.484 8  85649806.049 8     -1890.674          48.000
R04  19394628.781 6 103857317.573 6      1167.164          38.000    19394630.336 6  80777939.979 6       907.794          37.000
R14  19362017.711 8 103210490.586 8      1359.102          51.000    19362020.070 8  80274843.385 8      1057.082          49.000
R15  22507733.438 5 120274530.949 5      4193.723          35.000    22507742.281 4  93546856.891 4      3261.784          27.000
C05  39798162.625 6 207239474.921 6         -.086          37.000    39798159.383 6 160250692.727 6          .148          41.000
C21  21934235.977 8 114217310.701 8     -1080.430          51.000
C22  25440836.625 7 132477073.715 7     -3078.148          46.000
C26  22497891.367 8 117152392.725 8      2230.031          51.000
E07  24260966.969 8 127492226.853 8     -1340.461          51.000    24260969.703 8  97688862.806 8     -1027.094          51.000
E27  24222105.258 8 127288064.165 8      1998.621          51.000    24222105.984 8  97532356.213 8      1531.441          51.000
E30  23328863.016 6 122594096.643 6      -921.547          37.000    23328865.398 6  93935697.879 6      -706.183          41.000
> 2020 05 11 03 03 30.0000000  0 15        .000000000000
G05  20559498.500 8 108040916.606 8      -116.277          51.000    20559497.078 8  84187692.518 8       -90.606          51.000
G07  21956623.789 7 115382816.660 7     -2160.035          44.000    21956621.164 7  89908678.777 7     -1683.144          44.000
G28  22336227.508 7 117377708.642 7      2760.773          43.000    22336228.398 7  91463175.292 7      2151.255          43.000
G30  20401946.000 8 107213012.536 8      -484.266          51.000    20401947.094 8  83542598.877 8      -377.347          51.000
R03  20585219.781 8 110194302.561 8     -2446.566          51.000    20585221.352 8  85706696.145 8     -1902.882          48.000
R04  19388135.000 7 103822541.018 7      1150.113          42.000    19388134.469 6  80750891.544 6       894.536          37.000
R14  19354435.484 8 103170071.886 8      1334.414          51.000    19354437.273 8  80243406.622 8      1037.881          48.000
R15  22484210.703 5 120148828.776 5      4184.992          34.000    22484220.445 4  93449102.493 4      3254.994          29.000
C05  39798160.336 6 207239463.365 6         -.305          37.000    39798157.094 6 160250683.813 6         -.148          41.000
C21  21940497.352 8 114249914.431 8     -1094.094          51.000
C22  25458582.773 7 132569484.209 7     -3083.457          47.000
C26  22485074.445 8 117085651.690 8      2218.441          51.000
E07  24268637.992 8 127532538.907 8     -1347.977          51.000    24268640.969 8  97719751.265 8     -1032.847          51.000
E27  24210727.039 8 127228268.438 8      1986.828          51.000    24210726.625 8  97486538.742 8      1522.312          51.000
E30  23334161.562 6 122621936.002 6      -935.539          39.000    23334163.141 6  93957029.404 6      -716.653          41.000
> 2020 05 11 03 04  0.0000000  0 16        .000000000000
G05  20560210.750 8 108044659.372 8      -134.176          51.000    20560209.461 8  84190608.956 8      -104.553          51.000
G07  21968972.055 7 115447705.989 7     -2166.629          43.000    21968968.844 7  89959241.875 7     -1688.282          43.000
G13  21821617.898 4 114673375.645 4      2314.883          29.000
G28  22320491.258 8 117295006.472 8      2751.910          49.000    22320491.500 7  91398732.069 7      2144.346          47.000
G30  20404744.922 8 107227721.365 8      -497.074          51.000    20404746.180 8  83554060.312 8      -387.331          51.000
R03  20598967.219 8 110267891.433 8     -2460.195          51.000    20598968.453 7  85763931.934 7     -1913.485          47.000
R04  19381733.070 7 103788257.513 7      1134.574          42.000    19381731.898 6  80724226.636 6       882.447          38.000
R14  19346987.383 8 103130367.431 8      1311.699          51.000    19346988.656 8  80212525.398 8      1020.211          48.000
R15  22460734.953 5 120023369.695 5      4177.801          31.000    22460743.617 4  93351523.140 4      3249.401          28.000
C05  39798154.500 6 207239432.933 6         1.609          37.000    39798151.289 6 160250660.284 6          .973          41.000
C21  21946832.203 8 114282901.437 8     -1105.805          51.000
C22  25476355.297 8 132662028.839 8     -3086.957          50.000
C26  22472318.625 8 117019232.935 8      2208.781          50.000
E07  24276346.414 8 127573047.169 8     -1353.398          51.000    24276349.508 8  97750790.057 8     -1037.061          51.000
E27  24199410.594 8 127168798.336 8      1977.023          51.000    24199409.445 8  97440970.767 8      1514.865          51.000
E30  23339532.758 7 122650163.014 7      -947.355          43.000    23339534.961 6  93978657.908 6      -725.887          41.000
> 2020 05 11 03 04 30.0000000  0 14        .000000000000
G05  20561047.352 8 108049056.225 8      -155.582          51.000    20561046.117 8  84194035.048 8      -121.233          51.000
G07  21981379.109 6 115512905.096 6     -2176.480          40.000    21981376.094 6  90010046.358 6     -1695.959          40.000
G28  22304829.297 8 117212695.302 8      2739.090          51.000    22304828.805 8  91334593.484 8      2134.356          48.000
G30  20407638.797 8 107242929.130 8      -513.285          51.000    20407640.016 8  83565910.505 8      -399.962          51.000
R03  20612813.430 8 110342009.190 8     -2477.426          51.000    20612813.961 7  85821579.055 7     -1926.887          46.000
R04  19375438.078 7 103754554.914 7      1115.719          42.000    19375438.227 6  80698013.481 6       867.781          39.000
R14  19339689.312 8 103091463.038 8      1285.441          51.000    19339690.148 7  80182266.468 7       999.788          47.000
C05  39798160.906 6 207239466.650 6         -.336          37.000    39798157.766 6 160250686.345 6         -.211          41.000
C21  21953256.492 8 114316354.671 8     -1120.996          51.000
C22  25494169.945 8 132754789.524 8     -3093.629          50.000
C26  22459641.344 8 116953220.457 8      2195.539          51.000
E07  24284108.062 8 127613835.576 8     -1362.305          51.000    24284111.086 8  97782043.510 8     -1043.823          51.000
E27  24188172.102 8 127109738.809 8      1963.797          51.000    24188170.680 8  97395717.375 8      1504.766          51.000
E30  23344993.609 7 122678860.334 7      -962.410          44.000    23344996.320 6  94000646.740 6      -737.249          41.000
> 2020 05 11 03 05  0.0000000  0 15        .000000000000
G05  20561976.727 8 108053940.414 8      -169.367          51.000    20561975.664 8  84197840.895 8      -131.974          51.000
G07  21993812.688 6 115578245.604 6     -2178.355          40.000    21993810.281 6  90060961.033 6     -1697.423          39.000
G13  21795264.875 5 114534879.016 5      2306.020          32.000
G28  22289210.211 8 117130610.973 8      2733.984          51.000    22289208.898 8  91270631.662 8      2130.377          48.000
G30  20410595.680 8 107258467.949 8      -521.918          51.000    20410596.883 8  83578018.681 8      -406.689          51.000
R03  20626726.367 8 110416485.385 8     -2486.840          51.000    20626726.680 7  85879504.941 7     -1934.212          46.000
R04  19369220.469 6 103721265.489 6      1104.473          41.000    19369221.648 6  80672121.708 6       859.034          39.000
R14  19332509.711 8 103053190.308 8      1266.895          51.000    19332509.602 7  80152498.781 7       985.359          46.000
C05  39798147.969 6 207239399.309 6         5.426          37.000    39798144.797 6 160250634.275 6         4.268          41.000
C21  21959738.211 8 114350108.814 8     -1128.523          51.000
C22  25511993.609 8 132847599.846 8     -3092.828          50.000
C26  22447011.398 8 116887449.936 8      2189.867          51.000
E07  24291891.156 8 127654737.470 8     -1363.660          51.000    24291894.266 8  97813383.918 8     -1044.859          51.000
E27  24176979.961 8 127050924.239 8      1958.016          51.000    24176979.141 8  97350651.679 8      1500.337          51.000
E30  23350512.367 7 122707860.140 7      -969.863          44.000    23350515.102 6  94022867.390 6      -743.262          41.000
> 2020 05 11 03 05 30.0000000  0 14        .000000000000
G05  20563035.656 8 108059504.832 8      -201.250          51.000    20563034.508 8  84202176.817 8      -156.818          51.000
G07  22006309.680 6 115643919.045 6     -2199.211          41.000    22006307.711 6  90112135.097 6     -1713.671          40.000
G28  22273671.125 8 117048949.254 8      2710.562          51.000    22273669.375 7  91206999.147 7      2112.127          47.000
G30  20413652.156 8 107274529.646 8      -548.477          51.000    20413653.359 8  83590534.298 8      -427.384          51.000
R03  20640742.469 8 110491515.374 8     -2514.672          50.000    20640742.945 7  85937861.577 7     -1955.856          45.000
R04  19363117.344 7 103688588.324 7      1074.477          42.000    19363119.492 6  80646706.113 6       835.704          40.000
R14  19325485.180 8 103015745.726 8      1229.906          51.000    19325485.641 8  80123375.239 8       956.597          49.000
C05  39798152.328 6 207239421.163 6        -6.691          37.000    39798149.109 6 160250651.936 6        -5.117          41.000
C21  21966314.672 8 114384355.019 8     -1154.133          51.000
C22  25529862.594 8 132940649.850 8     -3109.941          48.000
C26  22434464.992 8 116822113.532 8      2166.227          51.000
E07  24299732.750 8 127695945.957 8     -1383.273          51.000    24299735.891 8  97844959.254 8     -1059.872          51.000
E27  24165871.094 8 126992548.734 8      1934.008          51.000    24165871.594 8  97305922.402 8      1481.932          51.000
E30  23356125.234 7 122737354.398 7      -995.789          44.000    23356127.805 6  94045466.897 6      -763.166          41.000
> 2020 05 11 03 06  0.0000000  0 14        .000000000000
G05  20564206.469 8 108065657.465 8      -213.059          51.000    20564205.367 8  84206971.076 8      -166.020          51.000
G07  22018852.047 6 115709830.704 6     -2199.078          40.000    22018849.984 6  90163494.730 6     -1713.573          40.000
G28  22258194.609 8 116967619.749 8      2707.254          49.000    22258192.859 7  91143625.511 7      2109.548          46.000
G30  20416790.258 8 107291020.338 8      -554.973          51.000    20416791.469 8  83603384.193 8      -432.446          51.000
R03  20654843.688 8 110567003.881 8     -2522.117          49.000    20654844.805 7  85996574.850 7     -1961.647          46.000
R04  19357111.875 7 103656430.917 7      1065.156          43.000    19357114.391 6  80621694.809 6       828.455          40.000
R14  19318598.172 8 102979035.616 8      1213.309          51.000    19318599.484 8  80094822.972 8       943.684          49.000
C05  39798156.281 6 207239442.066 6          .988          37.000    39798153.141 6 160250668.093 6          .967          41.000
C21  21972968.188 8 114419001.095 8     -1159.656          51.000
C22  25547758.891 7 133033846.331 7     -3107.082          46.000
C26  22421984.148 8 116757120.182 8      2162.590          51.000
E07  24307615.234 8 127737368.240 8     -1382.383          51.000    24307618.398 8  97876698.408 8     -1059.228          51.000
E27  24154828.062 8 126934520.505 8      1930.340          50.000    24154830.031 8  97261459.212 8      1479.104          51.000
E30  23361814.062 7 122767249.130 7     -1001.207          45.000    23361816.570 6  94068373.255 6      -767.087          41.000
> 2020 05 11 03 06 30.0000000  0 14        .000000000000
G05  20565483.570 8 108072369.117 8      -233.852          51.000    20565482.641 8  84212200.916 8      -182.222          51.000
G07  22031434.102 5 115775949.935 5     -2207.871          35.000    22031431.883 5  90215016.170 5     -1720.419          34.000
G28  22242775.398 7 116886596.041 7      2694.809          47.000    22242773.883 7  91080490.189 7      2099.851          44.000
G30  20420004.188 8 107307909.799 8      -570.426          51.000    20420005.406 8  83616544.810 8      -444.488          51.000
R03  20669025.000 8 110642920.367 8     -2538.652          50.000    20669026.664 7  86055621.005 7     -1974.507          46.000
R04  19351198.758 7 103624765.855 7      1046.367          44.000    19351201.352 6  80597066.411 6       813.841          40.000
R14  19311843.367 8 102943031.296 8      1187.516          51.000    19311844.953 8  80066819.571 8       923.620          49.000
C05  39798154.398 6 207239432.284 6          .023          37.000    39798151.195 6 160250660.544 6         -.018          41.000
C21  21979692.867 8 114454018.119 8     -1174.211          51.000
C22  25565675.812 6 133127159.248 6     -3113.418          38.000
C26  22409563.352 8 116692441.970 8      2149.816          51.000
E07  24315533.016 8 127778975.369 8     -1390.824          51.000    24315535.961 8  97908579.195 8     -1065.676          51.000
E27  24143845.398 8 126876811.543 8      1917.422          48.000    24143848.852 8  97217240.658 8      1469.190          51.000
E30  23367573.312 7 122797514.237 7     -1015.773          47.000    23367575.672 6  94091563.406 6      -778.341          40.000
> 2020 05 11 03 07  0.0000000  0 14        .000000000000
G05  20566876.664 8 108079690.354 8      -253.219          51.000    20566875.703 8  84217905.770 8      -197.313          51.000
G07  22044064.359 5 115842342.364 5     -2215.098          31.000    22044063.273 5  90266755.389 5     -1726.050          31.000
G28  22227424.266 7 116805931.386 7      2683.734          45.000    22227422.969 7  91017634.672 7      2091.225          42.000
G30  20423303.383 8 107325247.359 8      -584.418          51.000    20423304.617 8  83630054.615 8      -455.391          51.000
R03  20683296.312 8 110719315.049 8     -2553.461          50.000    20683297.883 7  86115039.092 7     -1986.025          46.000
R04  19345388.211 7 103593647.071 7      1029.184          45.000    19345389.273 6  80572862.922 6       800.476          40.000
R14  19305230.617 8 102907784.335 8      1163.289          51.000    19305233.602 8  80039405.284 8       904.780          51.000
C05  39798156.227 6 207239441.786 6          .266          37.000    39798153.000 6 160250667.883 6          .214          41.000
C21  21986498.281 8 114489455.950 8     -1187.328          51.000
C22  25583621.789 5 133220637.373 5     -3117.953          34.000
C26  22397212.250 8 116628129.829 8      2138.598          51.000
E07  24323495.641 8 127820817.878 8     -1397.691          51.000    24323498.172 8  97940640.322 8     -1071.015          51.000
E27  24132933.703 8 126819473.402 8      1906.027          50.000    24132937.875 8  97173306.244 8      1460.454          51.000
E30  23373412.570 7 122828199.056 7     -1029.004          46.000    23373415.406 6  94115075.143 6      -788.248          40.000
> 2020 05 11 03 07 30.0000000  0 15        .000000000000
G05  20568367.203 8 108087523.634 8      -269.125          51.000    20568366.398 8  84224009.622 8      -209.708          51.000
G07  22056725.273 6 115908877.366 6     -2219.371          36.000    22056724.883 5  90318596.246 5     -1729.383          35.000
G28  22212123.539 7 116725530.726 7      2676.270          44.000    22212121.961 6  90954984.902 6      2085.408          41.000
G30  20426669.055 8 107342934.240 8      -594.762          51.000    20426670.164 8  83643836.599 8      -463.451          51.000
R03  20697638.609 8 110796087.755 8     -2564.840          51.000    20697639.922 7  86174751.191 7     -1994.875          47.000
R04  19339661.219 7 103562977.194 7      1015.344          46.000    19339661.578 6  80549008.575 6       789.715          41.000
R14  19298741.523 8 102873196.239 8      1142.543          50.000    19298745.266 8  80012503.422 8       888.641          49.000
R15  22297846.609 4 119152923.611 4      4116.051          29.000    22297841.094 5  92674474.151 5      3201.373          34.000
C05  39798143.180 6 207239373.741 6         3.902          37.000    39798139.938 6 160250615.272 6         3.123          41.000
C21  21993366.016 8 114525217.666 8     -1196.922          51.000
C22  25601588.297 6 133314182.746 6     -3118.578          40.000
C26  22384912.922 8 116564087.887 8      2130.719          51.000
E07  24331484.641 8 127862798.216 8     -1401.098          51.000    24331486.648 8  97972807.056 8     -1073.559          51.000
E27  24122074.961 8 126762409.521 8      1898.078          51.000    24122078.453 8  97129581.972 8      1454.360          51.000
E30  23379312.953 7 122859204.812 7     -1038.258          45.000    23379316.594 6  94138832.826 6      -795.581          39.000
> 2020 05 11 03 08  0.0000000  0 14        .000000000000
G05  20569982.320 8 108096011.283 8      -290.914          51.000    20569981.648 8  84230623.371 8      -226.686          51.000
G07  22069443.773 6 115975708.136 6     -2229.875          37.000    22069442.000 6  90370672.225 6     -1737.562          36.000
G28  22196899.938 6 116645539.158 6      2662.430          41.000    22196898.688 6  90892653.824 6      2074.621          40.000
G30  20430127.953 8 107361111.667 8      -611.172          51.000    20430129.172 8  83658000.834 8      -476.238          51.000
R03  20712078.141 8 110873382.353 8     -2582.164          51.000    20712079.266 7  86234869.213 7     -2008.350          47.000
R04  19334045.391 7 103532903.651 7       995.402          46.000    19334045.891 7  80525618.056 7       774.205          42.000
R14  19292403.008 8 102839412.265 8      1115.711          50.000    19292407.664 8  79986227.008 8       867.775          50.000
C05  39798142.352 6 207239369.279 6         1.750          38.000    39798139.172 6 160250611.796 6         1.622          40.000
C21  22000323.156 8 114561444.123 8     -1212.398          51.000
C22  25619595.055 7 133407935.506 7     -3125.645          43.000
C26  22372693.375 8 116500458.003 8      2117.039          51.000
E07  24339527.094 8 127905058.791 8     -1410.453          51.000    24339528.492 8  98005188.523 8     -1080.692          51.000
E27  24111296.008 8 126705763.300 8      1884.062          51.000    24111298.484 8  97086177.740 8      1443.659          51.000
E30  23385301.203 7 122890672.740 7     -1053.590          43.000    23385305.117 6  94162944.638 6      -807.616          37.000
> 2020 05 11 03 08 30.0000000  0 14        .000000000000
G05  20571703.938 8 108105058.779 8      -311.801          51.000    20571703.289 8  84237673.349 8      -242.962          51.000
G07  22082199.930 5 116042741.058 5     -2238.801          32.000    22082198.250 5  90422905.609 5     -1744.523          30.000
G28  22181737.289 7 116565865.043 7      2649.508          44.000    22181736.766 7  90830570.044 7      2064.552          43.000
G30  20433662.062 8 107379684.015 8      -626.504          51.000    20433663.484 8  83672472.805 8      -488.185          51.000
R03  20726596.516 8 110951101.833 8     -2598.668          50.000    20726597.891 7  86295317.702 7     -2021.186          47.000
R04  19328523.070 7 103503332.219 7       976.301          46.000    19328523.914 7  80502618.044 7       759.345          42.000
R14  19286197.961 8 102806336.790 8      1089.836          51.000    19286203.109 8  79960501.685 8       847.650          49.000
C05  39798135.797 6 207239334.717 6         1.020          37.000    39798132.586 6 160250585.102 6          .598          40.000
C21  22007351.406 8 114598041.592 8     -1227.016          51.000
C22  25637622.695 7 133501800.655 7     -3131.656          46.000
C26  22360535.641 8 116437147.527 8      2104.055          51.000
E07  24347604.656 8 127947505.259 8     -1418.836          51.000    24347605.805 8  98037712.429 8     -1087.175          51.000
E27  24100578.797 8 126649441.305 8      1871.105          51.000    24100580.391 8  97043021.957 8      1433.683          51.000
E30  23391359.156 7 122922507.285 7     -1068.137          44.000    23391363.547 6  94187337.349 6      -818.323          36.000
> 2020 05 11 03 09  0.0000000  0 13        .000000000000
G05  20573538.148 8 108114697.420 8      -330.641          51.000    20573537.375 8  84245183.972 8      -257.642          51.000
G28  22166643.258 8 116486542.179 8      2638.672          48.000    22166642.859 7  90768759.998 7      2056.108          43.000
G30  20437277.258 8 107398681.709 8      -639.859          51.000    20437278.586 8  83687276.197 8      -498.592          51.000
R03  20741200.070 8 111029277.305 8     -2612.969          51.000    20741201.398 7  86356120.845 7     -2032.309          47.000
R04  19323100.961 7 103474297.472 7       959.273          45.000    19323102.133 7  80480035.438 7       746.099          43.000
R14  19280132.156 8 102774002.085 8      1065.977          50.000    19280137.062 8  79935352.483 8       829.093          49.000
C05  39798129.391 6 207239301.427 6         1.742          37.000    39798126.234 6 160250559.332 6         1.299          40.000
C21  22014456.391 8 114635041.109 8     -1239.523          51.000
C22  25655677.398 8 133595808.228 8     -3135.391          48.000
C26  22348445.359 8 116374188.579 8      2093.152          51.000
E07  24355723.391 8 127990169.253 8     -1425.145          51.000    24355724.656 8  98070402.999 8     -1092.000          51.000
E27  24089929.586 8 126593476.137 8      1860.113          51.000    24089930.477 8  97000139.591 8      1425.288          51.000
E30  23397492.516 7 122954738.909 7     -1080.363          44.000    23397497.234 5  94212034.334 5      -827.724          34.000
> 2020 05 11 03 09 30.0000000  0 14        .000000000000
G05  20575483.039 8 108124916.816 8      -350.895          51.000    20575482.000 8  84253147.135 8      -273.427          51.000
G07  22107841.727 5 116177496.971 5     -2253.773          35.000    22107838.484 5  90527900.162 5     -1756.181          35.000
G28  22151614.984 8 116407562.263 8      2626.352          49.000    22151614.414 7  90707217.214 7      2046.508          44.000
G30  20440970.969 8 107418092.384 8      -654.430          51.000    20440972.273 8  83702401.422 8      -509.942          51.000
R03  20755886.664 8 111107896.155 8     -2628.648          51.000    20755887.852 7  86417268.831 7     -2044.507          47.000
R04  19317778.008 8 103445790.207 8       940.875          48.000    19317778.062 7  80457863.145 7       731.792          42.000
R14  19274203.305 8 102742397.549 8      1040.762          50.000    19274207.820 8  79910771.217 8       809.481          49.000
C05  39798121.117 6 207239258.329 6         1.195          37.000    39798118.023 6 160250526.025 6          .625          40.000
C21  22021636.547 8 114672431.468 8     -1253.441          51.000
C22  25673756.820 8 133689946.005 8     -3140.742          51.000
C26  22336420.164 8 116311570.964 8      2080.926          51.000
E07  24363881.281 8 128033039.699 8     -1433.020          51.000    24363882.688 8  98103251.771 8     -1098.013          51.000
E27  24079346.453 8 126537857.768 8      1847.566          51.000    24079346.781 8  96957522.933 8      1415.728          51.000
E30  23403699.180 7 122987355.326 7     -1094.293          42.000    23403701.492 5  94237008.108 5      -837.577          31.000
> 2020 05 11 03 10  0.0000000  0 14        .000000000000
G05  20577540.672 8 108135728.498 8      -370.445          51.000    20577539.547 8  84261571.817 8      -288.659          51.000
G07  22120727.984 5 116245209.607 5     -2260.758          33.000    22120723.719 5  90580663.174 5     -1761.633          32.000
G28  22136654.484 8 116328939.573 8      2614.801          48.000    22136653.727 7  90645952.793 7      2037.507          45.000
G30  20444745.352 8 107437926.704 8      -668.309          51.000    20444746.672 8  83717856.737 8      -520.760          51.000
R03  20770658.320 8 111186969.614 8     -2643.438          51.000    20770659.344 7  86478770.369 7     -2056.007          47.000
R04  19312555.383 7 103417824.688 7       923.094          47.000    19312555.750 7  80436112.182 7       717.959          43.000
R14  19268414.070 8 102711535.423 8      1016.309          50.000    19268417.992 8  79886767.355 8       790.465          49.000
C05  39798113.094 6 207239216.903 6         1.004          38.000    39798110.047 6 160250493.985 6          .897          41.000
C21  22028894.000 8 114710224.090 8     -1266.484          51.000
C22  25691862.984 8 133784224.371 8     -3145.086          51.000
C26  22324462.156 8 116249307.153 8      2069.426          50.000
E07  24372080.219 8 128076128.418 8     -1439.988          51.000    24372082.219 8  98136267.797 8     -1103.344          51.000
E27  24068831.352 8 126482598.873 8      1835.840          51.000    24068831.578 8  96915181.700 8      1406.724          51.000
E30  23409981.516 6 123020367.020 6     -1107.129          40.000    23409979.961 5  94262287.927 5      -848.688          31.000
> 2020 05 11 03 10 30.0000000  0 16        .000000000000
G05  20579695.352 8 108147050.615 8      -388.914          51.000    20579694.273 8  84270394.223 8      -303.050          51.000
G07  22133640.992 5 116313068.019 5     -2267.359          35.000    22133636.438 5  90633539.787 5     -1766.774          35.000
G09  24428794.281 5 128374202.534 5     -3049.918          35.000
G13  21653019.664 5 113787385.035 5      2229.625          35.000
G28  22121746.562 7 116250594.864 7      2603.957          47.000    22121745.344 7  90584904.967 7      2029.057          45.000
G30  20448584.359 8 107458101.463 8      -681.082          51.000    20448585.773 8  83733577.326 8      -530.713          51.000
R03  20785499.547 8 111266412.889 8     -2657.227          51.000    20785500.094 7  86540559.563 7     -2066.732          46.000
R04  19307419.055 8 103390319.356 8       906.160          48.000    19307419.664 7  80414719.144 7       704.791          44.000
R14  19262748.445 8 102681333.035 8       992.781          51.000    19262751.617 8  79863276.611 8       772.163          48.000
C05  39798089.898 6 207239095.910 6         2.695          37.000    39798086.844 6 160250400.424 6         1.945          41.000
C21  22036213.102 8 114748337.475 8     -1278.719          50.000
C22  25709979.734 8 133878560.914 8     -3148.480          51.000
C26  22312556.648 8 116187316.745 8      2058.820          50.000
E07  24380304.664 8 128119353.476 8     -1445.949          51.000    24380307.469 8  98169388.304 8     -1107.950          51.000
E27  24058368.672 8 126427618.511 8      1825.133          51.000    24058369.312 8  96873053.864 8      1398.463          51.000
E30  23416323.055 6 123053690.996 6     -1119.090          41.000    23416321.062 5  94287820.929 5      -857.673          33.000
> 2020 05 11 03 11  0.0000000  0 16        .000000000000
G05  20581988.523 8 108159100.914 8      -407.090          51.000    20581987.328 8  84279784.050 8      -317.213          51.000
G07  22146622.633 5 116381288.263 5     -2274.102          30.000    22146619.758 4  90686702.517 4     -1772.024          28.000
G09  24446234.906 6 128465846.257 6     -3051.754          36.000
G28  22106932.930 7 116172748.554 7      2593.160          47.000    22106931.664 7  90524245.553 7      2020.644          46.000
G30  20452529.367 8 107478833.422 8      -693.684          51.000    20452530.914 8  83749732.099 8      -540.533          51.000
R03  20800450.883 8 111346446.920 8     -2670.801          50.000    20800450.930 7  86602808.249 7     -2077.293          46.000
R04  19302410.578 8 103363498.669 8       889.367          49.000    19302411.383 7  80393858.608 7       691.730          45.000
R14  19257247.984 8 102652011.434 8       969.465          50.000    19257250.477 8  79840470.922 8       754.028          48.000
R15  22137547.852 5 118296332.269 5      4046.605          30.000    22137541.344 4  92008225.245 4      3147.360          29.000
C05  39798092.820 6 207239111.468 6         3.645          37.000    39798089.758 6 160250412.429 6         3.042          41.000
C21  22043634.906 8 114786987.470 8     -1290.602          51.000
C22  25728148.375 8 133973170.371 8     -3151.480          51.000
C26  22300746.336 8 116125816.601 8      2048.520          51.000
E07  24388596.992 8 128162932.931 8     -1451.977          51.000    24388600.305 8  98202780.371 8     -1112.500          51.000
E27  24048000.219 8 126373135.684 8      1814.379          51.000    24048001.938 8  96831307.247 8      1390.247          51.000
E30  23422764.898 6 123087543.986 6     -1130.582          39.000    23422766.320 6  94313760.245 6      -866.218          36.000
> 2020 05 11 03 11 30.0000000  0 15        .000000000000
G05  20584380.328 8 108171669.715 8      -430.055          51.000    20584378.891 8  84289577.933 8      -335.108          51.000
G07  22159648.203 6 116449736.524 6     -2283.812          38.000
G28  22092174.711 8 116095193.745 8      2577.820          49.000    22092173.227 7  90463813.259 7      2008.694          45.000
G30  20456540.539 8 107499912.065 8      -710.969          51.000    20456542.266 8  83766157.008 8      -554.002          51.000
R03  20815471.523 8 111426857.799 8     -2689.238          48.000    20815472.094 7  86665350.016 7     -2091.630          45.000
R04  19297490.320 8 103337151.573 8       867.816          49.000    19297491.367 7  80373366.402 7       674.965          45.000
R14  19251872.984 8 102623358.915 8       941.414          51.000    19251874.680 7  79818185.641 7       732.211          47.000
R15  22114869.031 4 118175145.763 4      4033.242          28.000    22114866.844 5  91913969.222 5      3136.972          30.000
C05  39798082.141 6 207239056.095 6          .660          37.000    39798079.195 6 160250369.639 6          .399          40.000
C21  22051120.344 8 114825966.326 8     -1307.266          51.000
C22  25746328.758 8 134067844.084 8     -3159.281          49.000
C26  22288991.180 8 116064600.019 8      2033.383          51.000
E07  24396917.641 8 128206657.469 8     -1462.355          51.000    24396920.797 8  98236283.591 8     -1120.497          51.000
E27  24037686.594 8 126318941.953 8      1799.176          51.000    24037689.758 8  96789782.184 8      1378.622          51.000
E30  23429267.312 6 123121715.416 6     -1146.836          38.000    23429271.438 6  94339943.668 6      -878.694          36.000
> 2020 05 11 03 12  0.0000000  0 14        .000000000000
G05  20586893.289 8 108184876.286 8      -451.109          50.000    20586891.898 8  84299868.765 8      -351.511          50.000
G07  22172694.938 6 116518328.932 6     -2292.852          39.000
G28  22077495.508 8 116018052.129 8      2564.297          51.000    22077493.578 7  90403702.920 7      1998.153          45.000
G30  20460640.094 8 107521455.367 8      -726.008          51.000    20460641.992 8  83782944.005 8      -565.720          51.000
R03  20830584.250 7 111507765.230 7     -2705.559          47.000    20830585.781 7  86728278.042 7     -2104.320          45.000
R04  19292681.641 8 103311401.594 8       848.070          49.000    19292682.664 7  80353338.654 7       659.610          45.000
R14  19246646.234 8 102595496.285 8       915.227          51.000    19246646.867 7  79796514.723 7       711.843          47.000
C05  39798080.570 6 207239047.855 6         -.949          37.000    39798077.594 6 160250363.239 6         -.447          40.000
C21  22058691.602 8 114865391.908 8     -1321.938          51.000
C22  25764543.852 7 134162698.938 7     -3165.121          46.000
C26  22277313.266 8 116003785.909 8      2020.141          51.000
E07  24405289.016 8 128250646.394 8     -1471.000          51.000    24405291.656 8  98269989.372 8     -1127.100          51.000
E27  24027451.070 8 126265157.542 8      1785.688          50.000    24027455.352 8  96748570.777 8      1368.281          51.000
E30  23435853.148 6 123156323.501 6     -1161.266          39.000    23435855.414 6  94366461.532 6      -889.891          36.000
> 2020 05 11 03 12 30.0000000  0 15        .000000000000
G05  20589506.953 8 108198611.404 8      -466.590          50.000    20589505.312 8  84310571.479 8      -363.577          50.000
G07  22185784.922 6 116587127.184 6     -2295.438          36.000    22185783.375 6  90847077.815 6     -1788.653          36.000
G09  24498631.281 5 128741143.470 5     -3062.434          34.000    24498629.516 5 100317789.408 5     -2386.312          33.000
G28  22062875.117 8 115941217.583 8      2556.066          51.000    22062872.875 7  90343831.865 7      1991.740          46.000
G30  20464807.055 8 107543352.846 8      -735.738          51.000    20464808.867 8  83800006.971 8      -573.303          51.000
R03  20845769.984 8 111589057.148 8     -2716.086          49.000    20845772.133 7  86791505.089 7     -2112.511          47.000
R04  19287964.094 8 103286139.423 8       833.926          50.000    19287965.125 7  80333690.299 7       648.609          45.000
R14  19241546.820 8 102568313.169 8       894.930          51.000    19241547.398 7  79775372.317 7       696.056          47.000
C05  39798067.312 6 207238978.358 6         3.523          37.000    39798064.211 6 160250309.493 6         2.842          40.000
C21  22066327.867 8 114905155.566 8     -1331.043          51.000
C22  25782772.578 6 134257625.512 6     -3165.367          41.000
C26  22265691.383 8 115943266.775 8      2012.438          51.000
E07  24413689.852 8 128294790.439 8     -1474.008          51.000    24413692.148 8  98303814.011 8     -1129.414          51.000
E27  24017273.430 8 126211674.157 8      1777.773          51.000    24017278.266 8  96707590.005 8      1362.229          51.000
E30                                                                  23442501.320 6  94393229.165 6      -896.323          37.000
> 2020 05 11 03 13  0.0000000  0 14        .000000000000
G05  20592248.758 8 108213019.734 8      -487.973          50.000    20592247.102 8  84321798.755 8      -380.238          50.000
G28  22048341.234 8 115864837.408 8      2541.914          51.000    22048338.812 7  90284314.844 7      1980.712          45.000
G30  20469068.797 8 107565748.281 8      -751.266          51.000    20469070.641 8  83817457.957 8      -585.402          51.000
R03  20861055.930 8 111670880.432 8     -2732.711          50.000    20861057.734 7  86855145.405 7     -2125.442          46.000
R04  19283365.734 8 103261514.866 8       813.738          51.000    19283367.023 7  80314537.858 7       632.908          46.000
R14  19236602.195 8 102541956.550 8       868.363          51.000    19236602.641 7  79754872.721 7       675.394          47.000
R15  22047186.695 5 117813462.276 5      4001.914          31.000    22047192.516 6  91632722.720 6      3112.600          38.000
C05  39798069.875 6 207238991.503 6         1.652          38.000    39798066.672 6 160250319.660 6         1.329          40.000
C21  22074056.383 8 114945400.812 8     -1346.137          51.000
C22  25801045.039 7 134352766.267 7     -3171.449          43.000
C26  22254153.164 8 115883187.090 8      1998.875          51.000
E07  24422147.766 8 128339234.694 8     -1482.961          51.000    24422149.836 8  98337868.674 8     -1136.295          51.000
E27  24007181.117 8 126158637.778 8      1763.930          51.000    24007185.781 8  96666951.717 8      1351.597          51.000
E30  23449237.133 5 123226573.457 5     -1184.297          34.000    23449238.664 6  94420356.842 6      -907.272          36.000
> 2020 05 11 03 13 30.0000000  0 14        .000000000000
G05  20595081.641 8 108227905.502 8      -506.469          51.000    20595079.828 8  84333398.052 8      -394.648          50.000
G28  22033856.391 8 115788718.989 8      2530.625          48.000    22033854.570 7  90225001.786 7      1971.916          44.000
G30  20473387.836 8 107588445.410 8      -763.863          51.000    20473389.758 8  83835144.032 8      -595.218          51.000
R03  20876403.859 8 111753034.780 8     -2746.254          51.000    20876405.344 7  86919043.201 7     -2135.978          47.000
R04  19278849.344 8 103237331.522 8       796.387          50.000    19278850.844 7  80295728.592 7       619.412          46.000
R14  19231775.523 8 102516228.912 8       844.781          51.000    19231776.273 8  79734862.334 8       657.052          48.000
R15  22024742.242 5 117693492.315 5      3992.707          35.000    22024744.172 6  91539412.760 6      3105.439          41.000
C05  39798051.078 6 207238894.795 6         2.348          37.000    39798047.891 6 160250244.101 6         2.090          40.000
C21  22081840.156 8 114985933.982 8     -1358.230          51.000
C22  25819323.125 7 134447926.476 7     -3174.594          43.000
C26  22242662.383 8 115823354.391 8      1988.016          50.000
E07  24430625.617 8 128383784.118 8     -1489.176          51.000    24430627.625 8  98372003.935 8     -1141.039          51.000
E27  23997137.094 8 126105854.231 8      1752.812          51.000    23997141.328 8  96626507.177 8      1343.079          51.000
E30                                                                  23456027.883 6  94447694.179 6      -916.649          36.000
> 2020 05 11 03 14  0.0000000  0 14        .000000000000
G05  20598030.430 8 108243399.899 8      -524.672          51.000    20598028.266 8  84345471.613 8      -408.835          51.000
G28  22019445.484 7 115712995.770 7      2519.547          45.000    22019445.188 7  90165996.662 7      1963.283          43.000
G30  20477789.055 8 107611573.986 8      -776.180          51.000    20477790.859 8  83853166.287 8      -604.815          51.000
R03  20891838.320 8 111835652.604 8     -2759.645          50.000    20891839.492 7  86983301.490 7     -2146.393          47.000
R04  19274440.883 8 103213724.757 8       779.266          51.000    19274442.062 7  80277367.763 7       606.095          46.000
R14  19227091.938 8 102491263.159 8       821.496          51.000    19227093.289 8  79715444.544 8       638.944          48.000
R15  22002361.531 6 117573864.187 6      3983.855          38.000    22002358.234 6  91446368.750 6      3098.554          41.000
C05  39798035.836 6 207238816.068 6         4.312          37.000    39798032.766 6 160250183.220 6         3.347          40.000
C21  22089704.469 8 115026884.570 8     -1369.945          51.000
C22  25837628.258 7 134543234.694 7     -3177.250          42.000
C26  22231243.852 8 115763899.229 8      1977.445          50.000
E07  24439148.219 8 128428569.722 8     -1494.754          51.000    24439150.367 8  98406320.169 8     -1145.316          51.000
E27  23987166.430 8 126053455.485 8      1742.230          51.000    23987169.828 8  96586357.500 8      1334.986          51.000
E30                                                                  23462893.344 6  94475340.506 6      -925.266          37.000
> 2020 05 11 03 14 30.0000000  0 15        .000000000000
G05  20601097.000 8 108259513.565 8      -546.980          51.000    20601094.539 8  84358027.730 8      -426.219          51.000
G07  22238577.320 4 116864512.035 4     -2326.500          28.000
G28  22005111.922 7 115637680.350 7      2504.109          45.000    22005112.867 7  90107309.348 7      1951.254          43.000
G30  20482274.125 8 107635142.887 8      -792.582          51.000    20482275.883 8  83871531.676 8      -617.596          51.000
R03  20907360.102 8 111918743.070 8     -2777.082          48.000    20907361.945 7  87047927.377 7     -2159.953          47.000
R04  19270142.500 8 103190707.080 8       757.820          51.000    19270143.281 7  80259465.128 7       589.416          46.000
R14  19222553.164 8 102467069.651 8       794.070          51.000    19222554.922 8  79696627.383 8       617.613          48.000
R15  21980043.453 6 117454591.142 6      3970.742          39.000    21980038.125 6  91353600.846 6      3088.352          40.000
C05  39798026.312 6 207238766.401 6         2.133          37.000    39798023.281 6 160250144.824 6         1.121          40.000
C21  22097651.141 8 115068262.403 8     -1385.871          51.000
C22  25855960.305 6 134638699.683 6     -3184.129          38.000
C26  22219900.633 8 115704832.346 8      1962.930          51.000
E07  24447717.648 8 128473601.745 8     -1504.652          51.000    24447719.984 8  98440825.218 8     -1152.903          51.000
E27  23977271.086 8 126001452.591 8      1727.363          51.000    23977273.609 8  96546511.144 8      1323.573          51.000
E30                                                                  23469837.867 6  94503302.705 6      -936.826          38.000
> 2020 05 11 03 15  0.0000000  0 15        .000000000000
G05  20604278.633 8 108276233.328 8      -567.418          51.000    20604276.133 8  84371056.131 8      -442.144          51.000
G07  22251876.531 5 116934400.055 5     -2334.098          32.000    22251881.828 5  91117735.378 5     -1818.777          32.000
G28  21990854.961 7 115562762.997 7      2490.434          47.000    21990855.547 7  90048932.204 7      1940.601          42.000
G30  20486840.406 8 107659138.495 8      -807.129          51.000    20486842.172 8  83890229.563 8      -628.932          51.000
R03  20922967.234 7 112002292.329 7     -2792.742          47.000    20922969.750 7  87112910.196 7     -2172.130          47.000
R04  19265952.492 8 103168267.943 8       738.227          51.000    19265952.664 7  80242012.469 7       574.176          47.000
R14  19218157.023 8 102443635.823 8       768.387          51.000    19218159.391 8  79678401.089 8       597.634          49.000
R15  21957787.625 6 117335663.475 6      3958.324          37.000    21957781.500 6  91261101.495 6      3078.694          38.000
C05  39798020.016 6 207238733.471 6          .926          37.000    39798016.922 6 160250119.338 6          .477          41.000
C21  22105677.398 8 115110054.861 8     -1400.039          51.000
C22  25874315.242 7 134734308.049 7     -3189.398          42.000
C26  22208630.664 8 115646142.212 8      1950.012          51.000
E07  24456331.414 8 128518867.820 8     -1512.844          51.000    24456333.852 8  98475509.621 8     -1159.192          51.000
E27  23967448.758 8 125949834.053 8      1714.160          51.000    23967450.734 8  96506959.311 8      1313.429          51.000
E30                                                                  23476858.000 6  94531570.307 6      -947.179          39.000
> 2020 05 11 03 15 30.0000000  0 14        .000000000000
G05  20607569.617 8 108293529.215 8      -586.098          51.000    20607567.562 8  84384533.431 8      -456.699          51.000
G28  21976669.258 8 115488216.619 8      2478.758          49.000    21976668.922 7  89990844.139 7      1931.500          42.000
G30  20491482.000 8 107683529.937 8      -819.668          51.000    20491483.539 8  83909235.893 8      -638.702          51.000
R03  20938654.461 8 112086268.964 8     -2806.211          48.000    20938657.352 7  87178225.375 7     -2182.609          47.000
R04  19261865.180 8 103146379.242 8       720.434          51.000    19261865.016 7  80224987.920 7       560.337          46.000
R14  19213897.836 8 102420931.551 8       744.605          51.000    19213900.633 8  79660742.219 8       579.138          49.000
R15  21935590.992 6 117217053.975 6      3948.316          38.000    21935584.055 5  91168849.647 5      3070.913          35.000
C05  39798011.195 6 207238686.965 6         1.727          37.000    39798008.250 6 160250084.123 6         1.459          41.000
C21  22113777.711 8 115152232.187 8     -1412.266          51.000
C22  25892695.750 7 134830029.323 7     -3192.492          47.000
C26  22197427.742 8 115587800.237 8      1939.012          51.000
E07  24464983.703 8 128564338.374 8     -1518.996          51.000    24464986.305 8  98510350.693 8     -1163.918          51.000
E27  23957693.922 8 125898571.195 8      1702.883          51.000    23957695.680 8  96467680.000 8      1304.788          51.000
E30                                                                  23483948.242 6  94560119.759 6      -956.185          38.000
> 2020 05 11 03 16  0.0000000  0 14        .000000000000
G05  20610966.148 8 108311379.007 8      -606.977          51.000    20610964.234 8  84398442.367 8      -472.969          51.000
G28  21962550.633 8 115414021.707 8      2464.625          50.000    21962549.438 7  89933029.920 7      1920.487          43.000
G30  20496194.547 8 107708293.927 8      -834.438          51.000    20496195.828 8  83928532.517 8      -650.211          51.000
R03  20954417.797 8 112170649.417 8     -2822.156          51.000    20954420.133 7  87243854.588 7     -2195.010          46.000
R04  19257876.867 8 103125020.567 8       700.258          51.000    19257876.562 7  80208375.619 7       544.645          47.000
R14  19209771.234 8 102398934.445 8       718.656          51.000    19209774.328 8  79643633.375 8       558.955          49.000
R15  21913451.664 6 117098743.090 6      3935.742          36.000    21913441.945 5  91076830.129 5      3061.136          32.000
C05  39797995.945 6 207238607.012 6          .078          37.000    39797992.867 6 160250022.298 6          .447          41.000
C21  22121947.531 8 115194772.238 8     -1426.758          51.000
C22  25911095.148 8 134925840.297 8     -3197.867          49.000
C26  22186287.195 8 115529785.320 8      1925.648          51.000
E07  24473670.648 8 128609991.418 8     -1527.508          51.000    24473673.719 8  98545331.595 8     -1170.407          51.000
E27  23948002.359 8 125847642.852 8      1689.340          51.000    23948004.133 8  96428657.002 8      1294.468          51.000
E30                                                                  23491105.227 6  94588933.154 6      -966.945          38.000
> 2020 05 11 03 16 30.0000000  0 13        .000000000000
G05  20614484.414 8 108329867.685 8      -627.926          51.000    20614482.430 8  84412849.144 8      -489.293          51.000
G28  21948515.547 8 115340266.255 8      2450.086          49.000    21948513.977 7  89875558.137 7      1909.158          43.000
G30  20500994.062 8 107733514.718 8      -849.305          51.000    20500995.484 8  83948185.101 8      -661.796          51.000
