     3.02           OBSERVATION DATA    M (MIXED)           RINEX VERSION / TYPE
SAVERINEX           SC600               20200504 125931 LCL PGM / RUN BY / DATE
       G = GPS       R = GLONASS       C = COMPASS          COMMENT
       S = SBAS      J = QZSS          E = GALILEO          COMMENT
BEAN                                                        MARKER NAME
1                                                           MARKER NUMBER
GEODETIC                                                    MARKER TYPE
Unige DICCA         GTER                                    OBSERVER / AGENCY
SC60291900056       SC600               2.12(191226)        REC # / TYPE / VERS
                    HEMA45          NONE                    ANT # / TYPE
  4509407.8091   693652.4678  4442337.6214                  APPROX POSITION XYZ
        0.0000        0.0000        0.0000                  ANTENNA: DELTA H/E/N
G    8 C1C L1C D1C S1C C2Y L2Y D2Y S2Y                      SYS / # / OBS TYPES
R    8 C1C L1C D1C S1C C2P L2P D2P S2P                      SYS / # / OBS TYPES
C    8 C1I L1I D1I S1I C7I L7I D7I S7I                      SYS / # / OBS TYPES
E    8 C1C L1C D1C S1C C7Q L7Q D7Q S7Q                      SYS / # / OBS TYPES
DBHZ                                                        COMMENT
     30.000                                                 INTERVAL
  2020    05    04    10    00    0.0000000     GPS         TIME OF FIRST OBS
  2020    05    04    10    59   30.0000000     GPS         TIME OF LAST OBS
     0                                                      RCV CLOCK OFFS APPL
G L1C  0.00000                                              SYS / PHASE SHIFT
G L2Y  0.00000                                              SYS / PHASE SHIFT
R L1C  0.00000                                              SYS / PHASE SHIFT
R L2P  0.25000                                              SYS / PHASE SHIFT
C L1I  0.00000                                              SYS / PHASE SHIFT
C L7I  0.00000                                              SYS / PHASE SHIFT
E L1C  0.50000                                              SYS / PHASE SHIFT
E L7Q -0.25000                                              SYS / PHASE SHIFT
 13 R05  1 R06 -4 R07  5 R08  6 R09 -2 R10 -7 R11  0 R15  0 GLONASS SLOT / FRQ #
    R16 -1 R18 -3 R19  3 R20  2 R21  4                      GLONASS SLOT / FRQ #
 C1C   71.950 C2C   71.950 C2P   71.950                     GLONASS COD/PHS/BIS
    18                                                      LEAP SECONDS
*** Above antenna height is from mark to ANTENNA BOTTOM.    COMMENT
    17     4        0.0000        ANT MEASURE TYPE/HEIGT    COMMENT
    0.0000    0.0000    0.0458    0.0405    0.0000          COMMENT
                    BASE STATION                            COMMENT
                                                            END OF HEADER
> 2020 05 04 10 00  0.0000000  0 16        .000000000000
G12  20321234.734 8 106788831.461 8     -1038.750          51.000    20321233.688 8  83212052.784 8      -809.416          51.000
G24  21871732.438 8 114936768.258 8     -2769.711          51.000    21871735.484 8  89561101.666 8     -2158.216          51.000
G25  20369084.328 5 107040247.236 5       937.801          32.000
G29  22399014.609 8 117707595.134 8      3253.637          51.000    22399014.609 8  91720209.343 8      2535.304          51.000
G32  22135623.109 5 116323461.765 5       -98.559          34.000
R09  20843051.875 5 111300777.561 5     -2198.832          31.000    20843050.922 5  86567268.984 5     -1710.212          31.000
R10  19528887.938 7 104099955.272 7       127.320          44.000
R20  19917637.031 6 106508570.902 6      1342.016          38.000    19917642.719 7  82840010.827 7      1043.790          47.000
R21  22622665.766 5 121058453.423 5      4489.953          33.000    22622655.422 4  94156539.137 4      3492.189          28.000
C11  23031113.562 7 119929126.884 7      2473.754          47.000    23031113.719 8  92736757.464 8      1912.821          51.000
C12  22356000.773 6 116413555.651 6      -692.949          41.000    22355999.680 6  90018416.675 6      -536.007          39.000
C24  24057917.656 5 125275885.674 5     -2351.410          34.000
C25  21755227.969 8 113285190.799 8       269.840          51.000
E01  25003569.227 5 131394646.539 5     -1539.379          32.000    25003567.492 5 100678998.363 5     -1179.988          33.000
E09  24249495.195 6 127431990.452 6     -1973.711          39.000    24249505.312 7  97642653.668 7     -1512.204          42.000
E33  25335127.852 8 133136989.957 8      2377.164          51.000    25335130.266 8 102014080.003 8      1821.427          51.000
> 2020 05 04 10 00 30.0000000  0 16        .000000000000
G12  20327197.930 8 106820167.985 8     -1047.039          51.000    20327196.867 8  83236470.840 8      -815.875          51.000
G24  21887578.219 8 115020033.495 8     -2777.727          51.000    21887580.195 8  89625983.651 8     -2164.462          51.000
G29  22380472.039 8 117610151.121 8      3245.914          51.000    22380471.305 8  91644279.007 8      2529.287          51.000
G32  22136248.648 5 116326766.528 5      -116.176          33.000
R09  20855439.414 5 111366925.058 5     -2207.562          33.000    20855434.617 4  86618668.981 4     -1716.990          29.000
R10  19528210.945 7 104096347.955 7       116.699          44.000
R20  19910186.820 6 106468734.812 6      1317.203          38.000    19910192.977 7  82809027.189 7      1024.491          47.000
R21  22597520.969 4 120923871.361 4      4484.883          28.000    22597505.344 4  94051864.231 4      3488.245          26.000
C11  23016898.648 7 119855108.367 7      2464.219          46.000    23016899.156 8  92679521.645 8      1905.448          51.000
C12  22360043.508 6 116434607.128 6      -707.043          41.000    22360041.453 6  90034694.997 6      -546.770          40.000
C24  24071486.289 5 125346539.519 5     -2355.570          35.000
C25  21753706.430 8 113277267.095 8       261.699          51.000
E01  25012371.398 5 131440903.506 5     -1541.270          34.000
E09  24260792.875 7 127491356.352 7     -1980.871          42.000    24260799.578 7  97688141.771 7     -1517.843          42.000
E31                                                                  23678707.906 5  95344344.477 5       465.218          33.000
E33  25321587.523 8 133065835.252 8      2369.875          51.000    25321589.711 8 101959558.899 8      1815.836          50.000
> 2020 05 04 10 01  0.0000000  0 15        .000000000000
G12  20333231.859 8 106851876.722 8     -1061.230          51.000    20333230.945 8  83261178.934 8      -826.936          51.000
G24  21903493.258 8 115103664.380 8     -2791.742          51.000    21903494.141 8  89691150.564 8     -2175.387          51.000
G29  22361997.312 8 117513064.333 8      3232.199          51.000    22361996.758 8  91568627.021 8      2518.597          51.000
R09  20867897.656 5 111433449.922 5     -2222.062          32.000    20867893.633 5  86670406.406 5     -1728.274          30.000
R10  19527618.203 7 104093189.367 7        99.754          45.000
R20  19902901.156 6 106429775.452 6      1285.988          39.000    19902907.430 7  82778725.487 7      1000.213          46.000
R21  22572419.664 5 120789547.874 5      4475.602          31.000    22572404.703 4  93947390.560 4      3481.026          26.000
C11  23002762.453 7 119781500.923 7      2448.582          47.000    23002763.750 8  92622603.667 8      1893.502          51.000
C12  22364191.672 7 116456207.834 7      -727.246          43.000    22364190.336 6  90051398.096 6      -562.193          37.000
C24  24085103.172 6 125417447.320 6     -2366.066          36.000
C25  21752255.055 8 113269710.165 8       247.758          51.000
E01  25021208.266 5 131487348.562 5     -1548.770          35.000
E09  24272156.016 7 127551063.154 7     -1993.891          43.000    24272159.594 7  97733891.067 7     -1527.682          42.000
E31  23675282.727 5 124414448.455 5       598.484          34.000    23675284.188 5  95330556.235 5       458.576          35.000
E33  25308112.703 8 132995023.431 8      2356.645          51.000    25308114.516 8 101905300.521 8      1805.759          51.000
> 2020 05 04 10 01 30.0000000  0 15        .000000000000
G02  23052934.773 5 121143956.904 5       868.141          33.000
G12  20339318.891 8 106883864.826 8     -1072.277          51.000    20339318.227 8  83286104.725 8      -835.541          51.000
G24  21919459.484 8 115187567.036 8     -2802.602          49.000    21919460.281 8  89756529.245 8     -2183.845          50.000
G25  20353328.227 5 106957469.565 5       902.859          33.000    20353327.883 5  83343470.592 5       703.527          33.000
G29  22343573.242 8 117416244.477 8      3221.359          51.000    22343573.195 8  91493183.007 8      2510.150          51.000
R10  19527092.609 7 104090387.722 7        85.992          45.000
R20  19895762.633 7 106391600.995 7      1258.039          42.000    19895767.797 7  82749034.245 7       978.475          44.000
C11  22988688.133 8 119708215.130 8      2436.188          48.000    22988690.234 8  92565934.449 8      1883.700          51.000
C12  22368428.016 7 116478265.681 7      -744.215          43.000    22368425.586 4  90068454.604 4      -575.302          25.000
C24  24098751.188 6 125488517.413 6     -2373.176          38.000
C25  21750856.797 8 113262429.776 8       236.594          50.000
E01  25030064.086 5 131533870.970 5     -1553.758          34.000
E09  24283566.094 6 127611017.143 6     -2003.809          41.000    24283567.414 7  97779829.835 7     -1535.571          42.000
E31  23671883.305 6 124396567.604 6       592.633          37.000    23671883.539 6  95316855.364 6       454.047          38.000
E33  25294686.188 8 132924464.324 8      2346.332          51.000    25294687.500 8 101851235.809 8      1797.842          51.000
> 2020 05 04 10 02  0.0000000  0 15        .000000000000
G12  20345461.953 8 106916147.384 8     -1081.805          51.000    20345461.477 8  83311259.945 8      -842.965          51.000
G24  21935479.977 7 115271757.058 7     -2811.852          47.000    21935481.781 7  89822131.858 7     -2191.053          47.000
G29  22325203.328 8 117319709.812 8      3212.234          51.000    22325203.547 8  91417961.210 8      2503.040          51.000
G32  22138805.258 5 116340213.412 5      -177.977          31.000
R09  20892984.250 6 111567371.618 6     -2242.738          37.000    20892993.039 4  86774661.372 4     -1744.352          29.000
R10  19526637.328 7 104087960.736 7        73.840          45.000
R20  19888774.492 7 106354229.081 7      1231.547          44.000    19888778.602 7  82719967.239 7       957.870          45.000
C11  22974679.305 8 119635268.757 8      2425.133          48.000    22974681.695 8  92509527.698 8      1875.339          51.000
C12  22372754.195 6 116500795.654 6      -759.684          41.000    22372754.203 4  90085803.086 4      -587.127          28.000
C24  24112433.297 5 125559765.448 5     -2379.004          34.000
C25  21749514.719 8 113255442.739 8       227.273          49.000
E01  25038938.141 6 131580502.828 6     -1556.852          38.000    25038950.828 6 100821460.592 6     -1192.784          38.000
E09  24295024.961 6 127671232.785 6     -2012.211          41.000    24295026.531 7  97825969.076 7     -1541.896          42.000
E31  23668505.109 6 124378817.277 6       588.898          38.000    23668507.742 6  95303254.498 6       451.249          39.000
E33  25281311.094 8 132854175.915 8      2337.711          51.000    25281310.945 8 101797378.479 8      1791.254          51.000
> 2020 05 04 10 02 30.0000000  0 17        .000000000000
G02  23043184.539 5 121092751.718 5       840.660          30.000
G06  23477862.406 6 123377015.818 6      -432.680          38.000    23477864.156 6  96137912.690 6      -337.150          37.000
G12  20351675.227 8 106948798.698 8     -1089.645          51.000    20351674.828 8  83336702.511 8      -849.074          51.000
G24  21951568.578 7 115356307.428 7     -2819.426          46.000    21951571.734 7  89888015.277 7     -2196.955          46.000
G29  22306902.234 8 117223537.700 8      3204.473          50.000    22306902.508 8  91343021.918 8      2496.992          50.000
G32  22139895.531 5 116345934.165 5      -195.434          33.000
R09  20905611.820 5 111634854.806 5     -2250.777          33.000    20905626.281 5  86827148.123 5     -1750.611          34.000
R10  19526266.734 7 104085985.221 7        63.188          45.000
R20  19881950.992 7 106317737.290 7      1206.637          44.000    19881953.844 7  82691584.796 7       938.498          44.000
C11  22960750.219 8 119562737.544 8      2415.676          48.000    22960752.570 8  92453442.014 8      1867.984          51.000
C12  22377185.305 7 116523870.720 7      -773.406          43.000
C24  24126162.289 5 125631265.140 5     -2382.574          34.000
C25  21748243.203 8 113248823.907 8       219.270          49.000
E01  25047844.617 6 131627310.925 6     -1558.281          37.000    25047854.828 6 100857326.454 6     -1193.990          38.000
E09  24306546.711 6 127731782.920 6     -2018.781          40.000    24306549.836 7  97872364.676 7     -1547.032          43.000
E31  23665165.945 6 124361272.477 6       586.363          39.000    23665169.766 6  95289811.053 6       449.342          39.000
E33  25268001.789 8 132784234.644 8      2330.480          51.000    25268001.352 8 101743787.149 8      1785.723          51.000
> 2020 05 04 10 03  0.0000000  0 17        .000000000000
G02  23038445.867 5 121067841.231 5       830.391          34.000
G06  23480399.875 6 123390352.026 6      -445.801          36.000    23480405.039 5  96148304.562 5      -347.377          35.000
G12  20357938.109 8 106981710.443 8     -1093.922          51.000    20357937.633 8  83362348.029 8      -852.407          51.000
G24  21967705.117 7 115441109.341 7     -2823.391          47.000    21967708.984 7  89954094.636 7     -2200.048          46.000
G29  22288649.969 8 117127622.598 8      3200.207          49.000    22288650.203 8  91268282.903 8      2493.671          49.000
G32  22141082.727 5 116352181.340 5      -208.902          35.000
R09  20918297.453 5 111702603.961 5     -2255.094          35.000    20918307.766 5  86879841.854 5     -1753.956          33.000
R10  19525960.469 7 104084352.939 7        56.094          45.000
R20  19875271.852 7 106282018.420 7      1185.273          44.000    19875273.461 7  82663803.491 7       921.879          45.000
C11  22946880.938 8 119490516.831 8      2409.629          48.000    22946883.023 8  92397596.445 8      1863.124          51.000
C12  22381700.859 7 116547383.668 7      -783.777          43.000    22381704.016 6  90121826.641 6      -606.414          36.000
C24  24139922.852 6 125702909.657 6     -2383.637          37.000
C25  21747022.375 8 113242467.751 8       214.922          49.000
E01  25056765.531 6 131674188.043 6     -1556.465          39.000    25056768.273 6 100893245.338 6     -1192.640          38.000
E09  24318111.703 6 127792558.668 6     -2022.316          41.000    24318116.438 7  97918933.082 7     -1549.528          44.000
E31  23661845.766 6 124343826.264 6       587.531          40.000    23661849.727 6  95276443.169 6       450.001          40.000
E33  25254738.195 8 132714535.028 8      2326.629          51.000    25254737.789 8 101690380.973 8      1782.700          51.000
> 2020 05 04 10 03 30.0000000  0 17        .000000000000
G02  23033781.320 5 121043320.514 5       805.711          34.000
G06  23483029.148 6 123404166.652 6      -473.348          39.000    23483034.906 6  96159069.248 6      -368.839          40.000
G12  20364241.125 8 107014832.547 8     -1112.793          51.000    20364240.570 8  83388157.474 8      -867.111          51.000
G24  21983880.703 8 115526112.619 8     -2842.043          49.000    21983884.414 8  90020330.888 8     -2214.582          49.000
G25  20333190.766 5 106851669.777 5       859.957          35.000    20333193.438 6  83261024.993 6       670.093          37.000
G29  22270437.555 8 117031917.314 8      3181.547          48.000    22270437.617 8  91193707.378 8      2479.130          49.000
R10  19525709.375 7 104083015.270 7        34.363          45.000
R20  19868727.844 7 106247023.282 7      1149.168          44.000    19868729.562 7  82636585.112 7       893.800          46.000
C11  22933062.414 8 119418559.525 8      2388.934          48.000    22933064.281 8  92341954.519 8      1847.296          51.000
C12  22386290.789 7 116571284.380 7      -808.355          42.000    22386294.352 6  90140308.144 6      -624.906          37.000
C24  24153700.383 5 125774649.707 5     -2398.285          33.000
C25  21745843.117 8 113236326.179 8       195.906          50.000
E01  25065690.023 6 131721084.891 6     -1568.945          40.000    25065689.102 6 100929179.249 6     -1202.164          39.000
E09  24329710.195 7 127853508.763 7     -2039.926          42.000    24329716.328 7  97965635.077 7     -1562.916          44.000
E26  24306646.859 6 127732293.523 6      -304.117          37.000    24306650.422 5  97872804.830 5      -232.998          35.000
E31  23658535.078 6 124326429.539 6       573.645          41.000    23658539.125 6  95263113.198 6       439.731          39.000
E33  25241511.328 8 132645029.373 8      2308.395          51.000    25241511.391 8 101637123.422 8      1768.794          51.000
> 2020 05 04 10 04  0.0000000  0 18        .000000000000
G06  23485798.398 5 123418720.191 5      -494.551          35.000    23485803.789 6  96170409.739 6      -385.361          36.000
G12  20370633.594 8 107048424.728 8     -1124.238          51.000    20370632.930 8  83414333.205 8      -876.030          51.000
G24  22000144.219 8 115611575.553 8     -2853.117          51.000    22000148.250 8  90086925.332 8     -2223.208          51.000
G25  20328328.969 6 106826124.211 6       846.469          37.000    20328331.062 6  83241119.347 6       659.586          37.000
G29  22252315.016 7 116936684.148 7      3169.828          47.000    22252314.430 7  91119499.769 7      2469.999          47.000
R09  20943848.648 5 111839001.282 5     -2286.840          34.000    20943848.398 5  86985880.840 5     -1778.647          33.000
R10  19525563.195 7 104082237.164 7        19.965          46.000
R11  21761755.148 4 116288208.541 4      3023.738          27.000
R20  19862368.977 7 106213018.692 7      1120.633          42.000    19862370.758 7  82610137.116 7       871.603          47.000
C11  22919344.531 8 119347125.471 8      2375.562          48.000    22919346.117 8  92286717.194 8      1837.047          51.000
C12  22391004.211 6 116595830.049 6      -825.465          41.000    22391004.977 5  90159288.426 5      -638.531          35.000
C24  24167543.680 5 125846739.300 5     -2405.512          35.000
C25  21744754.891 8 113230658.222 8       184.332          50.000
E01  25074667.281 6 131768262.051 6     -1574.012          41.000    25074664.844 6 100965327.927 6     -1205.926          40.000
E09  24341391.109 7 127914892.024 7     -2050.027          43.000    24341398.906 7  98012668.979 7     -1570.746          44.000
E26  24308435.898 6 127741697.871 6      -320.340          40.000    24308438.383 6  97880010.751 6      -245.395          36.000
E31  23655283.805 7 124309343.183 7       567.801          42.000    23655287.312 6  95250021.054 6       435.017          39.000
E33  25228371.344 8 132575980.085 8      2297.379          50.000    25228372.125 8 101584215.560 8      1760.317          51.000
> 2020 05 04 10 04 30.0000000  0 21        .000000000000
G02  23024780.211 5 120996034.299 5       772.789          32.000
G06  23488676.117 5 123433845.735 5      -514.539          35.000    23488681.734 5  96182195.762 5      -400.940          34.000
G12  20377083.539 8 107082319.244 8     -1135.633          51.000    20377082.641 8  83440744.519 8      -884.909          51.000
G24  22016463.477 8 115697330.709 8     -2864.078          51.000    22016467.430 8  90153747.506 8     -2231.749          51.000
G25  20323530.008 5 106800906.768 5       834.621          32.000    20323531.758 5  83221469.406 5       650.357          32.000
G29  22234250.953 8 116841758.257 8      3158.418          48.000    22234250.031 8  91045531.577 8      2461.105          48.000
G32  22145297.953 5 116374316.997 5      -278.168          33.000
R09  20956724.789 5 111907781.691 5     -2298.406          31.000    20956730.078 5  87039381.626 5     -1787.649          34.000
R10  19525490.625 7 104081850.820 7         5.547          47.000
R11  21744778.719 5 116197526.732 5      3019.531          31.000
R20  19856163.648 7 106179836.137 7      1091.445          42.000    19856165.898 8  82584328.463 8       848.905          48.000
R21  22397759.008 5 119854944.465 5      4422.402          34.000    22397761.070 5  93220503.017 5      3439.649          31.000
C11  22905695.922 8 119276051.055 8      2362.422          50.000    22905696.852 8  92231757.973 8      1826.729          51.000
C12  22395810.047 6 116620854.355 6      -842.930          41.000    22395807.773 6  90178638.697 6      -651.692          37.000
C24  24181425.883 5 125919020.351 5     -2413.270          35.000
C25  21743725.875 8 113225299.399 8       172.641          50.000
E01  25083666.375 6 131815552.746 6     -1579.031          40.000    25083663.461 6 101001563.662 6     -1209.865          40.000
E09  24353122.719 7 127976539.843 7     -2060.152          44.000    24353131.719 7  98059905.586 7     -1578.513          44.000
E26  24310309.070 6 127751538.823 6      -335.914          39.000    24310310.273 6  97887551.226 6      -257.458          36.000
E31  23652060.141 7 124292400.752 7       561.535          43.000    23652063.195 6  95237039.218 6       430.207          39.000
E33  25215286.742 8 132507222.075 8      2286.238          50.000    25215288.258 8 101531530.886 8      1751.817          51.000
> 2020 05 04 10 05  0.0000000  0 19        .000000000000
G02  23020420.844 5 120973109.563 5       757.129          34.000
G06  23491666.547 6 123449562.599 6      -532.957          36.000    23491675.805 5  96194442.669 5      -415.291          35.000
G12  20383594.641 8 107116535.273 8     -1144.648          51.000    20383593.453 8  83467406.358 8      -891.934          51.000
G24  22032841.633 8 115783396.010 8     -2872.730          51.000    22032845.273 8  90220811.360 8     -2238.491          51.000
G29  22216249.703 8 116747161.527 8      3148.898          48.000    22216249.281 8  90971819.885 8      2453.687          48.000
G32  22146942.219 5 116382958.820 5      -296.207          34.000
R10  19525495.836 8 104081877.926 8        -6.469          48.000
R11  21727839.164 5 116106980.242 5      3017.520          33.000
R20  19850115.844 7 106147496.807 7      1065.223          42.000    19850118.852 8  82559175.664 8       828.510          49.000
R21  22372988.867 6 119722389.004 6      4415.574          37.000    22372991.219 4  93117404.421 4      3434.336          28.000
C11  22892120.508 8 119205357.347 8      2351.301          51.000    22892120.516 8  92177093.123 8      1818.105          51.000
C12  22400711.508 6 116646375.697 6      -857.898          41.000    22400708.711 7  90198373.475 7      -663.291          43.000
C24  24195347.344 5 125991508.312 5     -2418.594          34.000
C25  21742760.227 8 113220269.995 8       163.336          51.000
E01  25092690.922 6 131862976.899 6     -1581.691          38.000    25092688.461 6 101037901.561 6     -1212.038          41.000
E09  24364908.094 7 128038470.188 7     -2067.785          44.000    24364917.258 7  98107358.672 7     -1584.401          44.000
E26  24312268.719 6 127761835.714 6      -349.586          37.000    24312270.109 6  97895441.071 6      -267.739          36.000
E31  23648867.484 7 124275622.214 7       557.879          43.000    23648870.391 6  95224182.993 6       427.340          40.000
E33  25202261.617 8 132438776.836 8      2277.469          48.000    25202264.328 8 101479085.867 8      1745.097          51.000
> 2020 05 04 10 05 30.0000000  0 18        .000000000000
G02  23016157.961 5 120950726.163 5       735.801          34.000
G12  20390172.180 8 107151100.105 8     -1160.367          51.000    20390170.789 8  83494339.987 8      -904.182          51.000
G24  22049283.578 8 115869798.436 8     -2888.023          49.000    22049286.836 8  90288137.892 8     -2250.408          49.000
G29  22198317.273 8 116652924.308 8      3132.738          50.000    22198317.305 8  90898388.314 8      2441.098          50.000
G32  22148707.633 4 116392239.292 4      -322.113          29.000
R09  20982662.664 5 112046243.652 5     -2322.746          31.000    20982668.508 5  87147108.284 5     -1806.577          33.000
R10  19525584.219 8 104082347.372 8       -25.496          48.000
R20  19844231.500 7 106116031.232 7      1031.680          42.000    19844234.977 8  82534702.439 8       802.418          49.000
R21  22348270.586 6 119590112.681 6      4401.895          37.000    22348273.734 4  93014542.816 4      3423.696          26.000
C11  22878623.773 8 119135074.250 8      2333.559          51.000    22878622.953 8  92122745.784 8      1804.456          50.000
C12  22405713.438 6 116672421.005 6      -879.367          39.000    22405710.305 6  90218513.416 6      -679.925          41.000
C24  24209313.289 5 126064230.510 5     -2430.344          31.000
C25  21741863.508 8 113215598.882 8       147.312          51.000
E01  25101746.398 6 131910562.702 6     -1591.527          38.000    25101744.461 7 101074363.385 7     -1219.344          42.000
E09  24376751.914 7 128100709.542 7     -2082.113          42.000    24376760.734 7  98155048.518 7     -1595.490          45.000
E26  24314320.555 6 127772616.558 6      -369.965          40.000    24314322.188 6  97903701.773 6      -283.575          36.000
E31  23645711.352 7 124259036.290 7       547.223          43.000    23645714.047 6  95211474.294 6       419.294          40.000
E33  25189301.320 8 132370674.366 8      2261.953          48.000    25189304.984 8 101426903.450 8      1733.155          51.000
> 2020 05 04 10 06  0.0000000  0 17        .000000000000
G02  23011973.539 5 120928736.883 5       728.625          31.000
G06  23497972.922 6 123482671.517 6      -567.938          36.000
G12  20396786.797 8 107185859.698 8     -1161.637          51.000    20396785.297 8  83521425.376 8      -905.175          51.000
G24  22065759.953 8 115956383.017 8     -2888.883          48.000    22065762.914 8  90355606.377 8     -2251.078          48.000
G29  22180424.719 8 116558895.560 8      3130.949          50.000    22180424.953 8  90825119.170 8      2439.701          50.000
G32  22150568.125 5 116402020.402 5      -332.168          31.000
R10  19525726.773 8 104083105.166 8       -29.883          48.000
R20  19838481.781 6 106085284.798 6      1013.062          41.000    19838485.289 8  82510788.537 8       787.937          49.000
R21  22323575.562 6 119457963.227 6      4403.074          37.000    22323575.766 5  92911759.911 5      3424.616          30.000
C11  22865176.789 8 119065051.650 8      2329.895          50.000    22865175.594 8  92068599.906 8      1801.547          51.000
C12  22410787.070 6 116698837.518 6      -886.391          41.000    22410783.320 6  90238940.304 6      -685.634          41.000
C25  21741006.523 8 113211135.226 8       145.469          51.000
E01                                                                  25110801.719 7 101110831.939 7     -1215.732          43.000
E09  24388624.844 7 128163103.050 7     -2082.207          42.000    24388632.656 7  98202856.481 7     -1595.475          45.000
E26  24316435.594 6 127783728.055 6      -375.762          39.000    24316436.297 5  97912215.762 5      -288.086          35.000
E31  23642562.586 7 124242490.259 7       551.031          42.000    23642565.500 6  95198796.194 6       422.102          40.000
E33  25176377.852 8 132302763.394 8      2260.535          49.000    25176382.531 8 101374867.772 8      1732.113          51.000
> 2020 05 04 10 06 30.0000000  0 18        .000000000000
G02  23007885.047 6 120907257.757 6       691.469          39.000    23007885.336 3  94213443.600 3       538.807          23.000
G06  23501299.594 5 123500143.514 5      -609.047          30.000    23501291.664 4  96233857.439 4      -474.582          26.000
G12  20403477.102 8 107221017.135 8     -1193.336          51.000    20403475.617 8  83548820.774 8      -929.872          51.000
G24  22082309.219 7 116043352.507 7     -2920.285          47.000    22082312.391 7  90423374.793 7     -2275.547          47.000
G25  20304983.047 5 106703407.481 5       772.570          34.000    20304981.453 5  83145503.347 5       602.003          34.000
G29  22162610.695 8 116465280.752 8      3098.730          50.000    22162611.039 8  90752172.574 8      2414.595          50.000
R10  19525962.312 8 104084359.056 8       -65.129          49.000
R20  19832905.391 6 106055465.939 6       963.402          41.000    19832909.273 8  82487596.114 8       749.313          49.000
R21  22298945.633 6 119326152.545 6      4372.992          36.000    22298943.727 5  92809240.492 5      3401.216          33.000
C11  22851818.914 8 118995493.103 8      2296.105          50.000    22851817.617 8  92014812.877 8      1775.513          51.000
C12  22415970.336 6 116725826.065 6      -924.070          38.000    22415966.891 7  90259809.567 7      -714.474          44.000
C24  24237324.266 5 126210095.311 5     -2455.789          33.000
C25  21740228.125 8 113207081.660 8       113.535          51.000
E01                                                                  25119899.523 7 101147463.359 7     -1235.199          43.000
E09  24400564.805 6 128225852.636 6     -2112.645          41.000    24400571.578 7  98250937.315 7     -1618.639          45.000
E26  24318651.250 6 127795373.448 6      -411.871          38.000    24318651.000 5  97921138.859 5      -315.862          35.000
E31  23639460.047 7 124226188.185 7       524.285          43.000    23639463.484 6  95186304.971 6       401.887          41.000
E33  25163530.930 8 132235249.285 8      2228.930          51.000    25163535.094 8 101323136.180 8      1707.863          51.000
> 2020 05 04 10 07  0.0000000  0 16        .000000000000
G02  23003914.250 5 120886406.189 5       694.609          34.000
G12  20410249.906 8 107256608.272 8     -1184.176          51.000    20410248.578 8  83576554.125 8      -922.734          51.000
G24  22098938.109 8 116130741.892 8     -2910.523          48.000    22098941.539 8  90491470.423 8     -2267.940          48.000
G29  22144882.398 8 116372118.778 8      3107.332          49.000    22144882.625 8  90679578.820 8      2421.295          49.000
R09  21022032.617 5 112256489.153 5     -2348.590          32.000    21022037.234 5  87310611.804 5     -1826.684          34.000
R10  19526297.789 8 104086147.665 8       -59.027          49.000
R20  19827509.789 6 106026613.184 6       955.328          41.000    19827513.500 8  82465155.086 8       743.033          48.000
C11  22838557.453 8 118926436.745 8      2302.840          49.000    22838556.016 8  91961414.171 8      1780.711          51.000
C12  22421269.617 6 116753421.831 6      -920.832          38.000    22421266.609 7  90281148.447 7      -712.016          42.000
C24  24251425.062 5 126283503.398 5     -2442.977          34.000
C25  21739535.805 8 113203475.452 8       122.020          51.000
E01                                                                  25129045.344 7 101184285.936 7     -1223.469          44.000
E09  24412579.227 7 128288993.283 7     -2101.707          42.000    24412585.250 7  98299317.799 7     -1610.426          46.000
E26  24320975.531 5 127807589.216 5      -407.266          35.000    24320975.805 5  97930498.967 5      -312.004          35.000
E31  23636411.133 7 124210167.216 7       538.977          42.000    23636415.078 7  95174029.162 7       412.919          42.000
E33  25150767.445 8 132168170.584 8      2238.102          51.000    25150770.297 8 101271738.232 8      1714.936          51.000
> 2020 05 04 10 07 30.0000000  0 20        .000000000000
G02  22999984.961 5 120865768.497 5       675.145          33.000
G06  23508274.055 5 123536798.290 5      -631.020          32.000
G12  20417029.320 8 107292234.148 8     -1197.543          51.000    20417028.141 8  83604314.524 8      -933.150          51.000
G24  22115571.109 7 116218151.796 7     -2923.535          47.000    22115574.672 7  90559582.061 7     -2278.079          47.000
G25  20296096.352 5 106656700.741 5       767.109          34.000    20296097.227 5  83109132.624 5       597.745          33.000
G29  22127164.523 8 116279013.380 8      3093.152          49.000    22127164.555 8  90607029.161 8      2410.249          49.000
G32  22156819.789 4 116434873.244 4      -396.258          28.000
R09  21035239.578 5 112327036.118 5     -2362.363          35.000    21035244.359 4  87365469.624 4     -1837.388          26.000
R10  19526657.867 8 104088067.579 8       -75.766          50.000
R20  19822219.383 7 105998322.408 7       924.223          42.000    19822223.336 8  82443151.158 8       718.840          48.000
R21  22249812.539 5 119063230.620 5      4372.188          34.000    22249814.977 6  92604743.462 6      3400.590          36.000
C11  22825316.453 7 118857489.400 7      2286.992          47.000    22825315.461 8  91908099.729 8      1768.496          51.000
C12  22426610.328 6 116781229.057 6      -940.090          36.000    22426606.609 6  90302650.698 6      -726.692          41.000
C24  24265508.641 6 126356836.197 6     -2452.645          39.000
C25  21738853.820 8 113199922.655 8       108.133          51.000
E01  25138159.547 5 132101922.140 5     -1603.684          32.000    25138162.914 7 101220994.435 7     -1229.009          44.000
E09  24424592.367 7 128352124.839 7     -2113.750          42.000    24424597.633 7  98347691.313 7     -1619.585          46.000
E26  24323333.250 5 127819978.604 5      -425.504          33.000    24323334.891 6  97939990.664 6      -325.991          36.000
E31  23633340.281 7 124194029.351 7       530.414          42.000    23633344.070 7  95161663.769 7       406.266          42.000
E33  25138011.469 8 132101130.652 8      2224.445          51.000    25138012.586 8 101220369.986 8      1704.409          51.000
> 2020 05 04 10 08  0.0000000  0 18        .000000000000
G02  22996204.562 6 120845908.651 6       660.879          36.000
G12  20423922.367 8 107328457.126 8     -1205.680          51.000    20423921.172 8  83632540.215 8      -939.491          51.000
G24  22132315.250 8 116306143.103 8     -2930.988          48.000    22132319.258 8  90628146.718 8     -2283.887          48.000
G25  20291784.070 5 106634018.994 5       757.176          34.000    20291777.898 5  83091458.456 5       590.007          33.000
G29  22109564.984 8 116186529.951 8      3084.004          49.000    22109564.938 8  90534964.148 8      2403.120          49.000
R09  21048565.422 6 112398196.790 6     -2370.398          40.000    21048576.438 5  87420819.939 5     -1843.643          34.000
R10  19527150.039 8 104090691.251 8       -87.316          50.000
R20  19817141.195 7 105971167.541 7       898.090          42.000    19817145.203 7  82422030.723 7       698.514          47.000
R21  22225351.977 6 118932334.458 6      4365.859          39.000    22225354.469 6  92502935.379 6      3395.671          38.000
C11  22812202.750 7 118789210.656 7      2276.480          45.000    22812203.391 8  91855302.293 8      1760.244          51.000
C12  22432097.711 6 116809804.415 6      -953.410          36.000    22432094.602 7  90324747.036 7      -737.615          43.000
C24  24279684.992 6 126430651.145 6     -2456.961          37.000
C25  21738289.500 8 113196982.001 8        99.430          51.000
E01  25147358.078 6 132150254.210 6     -1606.066          36.000    25147357.914 7 101258020.388 7     -1230.577          44.000
E09  24436710.688 7 128415808.566 7     -2120.316          42.000    24436715.523 7  98396487.920 7     -1624.616          47.000
E26  24325831.070 5 127833104.192 5      -437.840          33.000    24325832.336 5  97950044.968 5      -335.592          35.000
E31  23630354.539 7 124178337.964 7       527.367          42.000    23630358.133 7  95149640.496 7       403.904          42.000
E33  25125369.672 8 132034694.238 8      2216.148          51.000    25125370.195 8 101169464.212 8      1698.112          51.000
> 2020 05 04 10 08 30.0000000  0 17        .000000000000
G02  22992494.391 5 120826373.354 5       640.098          32.000
G12  20430843.875 8 107364829.869 8     -1219.715          51.000    20430842.625 8  83660882.612 8      -950.427          51.000
G24  22149085.500 8 116394268.906 8     -2944.496          48.000    22149089.578 8  90696816.155 8     -2294.413          49.000
G29  22091999.672 8 116094223.542 8      3069.121          50.000    22091998.727 8  90463037.074 8      2391.523          50.000
R09  21061922.109 5 112469517.244 5     -2384.973          34.000    21061932.070 5  87476291.385 5     -1854.979          34.000
R10  19527689.633 8 104093566.718 8      -105.008          50.000
R20  19812190.844 7 105944695.337 7       866.109          43.000    19812194.555 7  82401441.250 7       673.641          47.000
R21  22200909.273 6 118801543.854 6      4353.117          39.000    22200913.000 6  92401209.414 6      3385.761          37.000
C11  22799133.391 7 118721159.720 7      2259.781          47.000    22799134.992 8  91802680.979 8      1747.467          51.000
C12  22437647.453 5 116838704.391 5      -973.598          35.000    22437644.695 7  90347094.355 7      -752.721          44.000
C24  24293868.336 6 126504505.402 6     -2467.258          40.000
C25  21737757.773 8 113194211.890 8        84.758          51.000
E01  25156548.070 6 132198544.117 6     -1613.961          38.000    25156547.312 7 101295021.751 7     -1236.668          44.000
E09  24448849.336 7 128479596.178 7     -2132.559          44.000    24448854.016 8  98445364.132 8     -1634.149          48.000
E26  24328382.422 6 127846515.460 6      -456.605          36.000    24328382.844 5  97960319.526 5      -350.028          34.000
E31  23627368.531 6 124162646.985 6       518.262          41.000    23627372.516 7  95137617.554 7       397.268          43.000
E33  25112757.406 8 131968416.614 8      2201.840          51.000    25112757.883 8 101118680.114 8      1687.166          51.000
> 2020 05 04 10 09  0.0000000  0 17        .000000000000
G12  20437825.961 8 107401520.976 8     -1227.027          51.000    20437824.656 8  83689473.085 8      -956.125          51.000
G24  22165913.289 8 116482696.740 8     -2951.273          48.000    22165916.570 8  90765720.905 8     -2299.697          48.000
G25  20283288.383 5 106589399.122 5       733.453          33.000    20283286.758 5  83056664.379 5       571.525          32.000
G29  22074501.203 8 116002265.902 8      3060.672          51.000    22074498.820 8  90391381.808 8      2384.942          51.000
R09  21075341.234 5 112541169.719 5     -2391.590          31.000    21075347.250 5  87532021.040 5     -1860.119          31.000
R10  19528308.867 8 104096867.526 8      -115.801          49.000
R20  19807400.703 7 105919079.629 7       841.012          42.000    19807404.477 8  82381517.958 8       654.123          48.000
R21  22176519.812 6 118671035.288 6      4347.117          39.000    22176523.555 6  92299702.797 6      3381.094          37.000
C11  22786141.609 8 118653506.275 8      2249.812          49.000    22786143.094 8  91750367.067 8      1739.668          51.000
C12  22443291.062 5 116868095.899 5      -986.723          35.000    22443289.414 7  90369821.837 7      -763.030          44.000
C24  24308092.102 6 126578566.691 6     -2471.070          38.000
C25  21737290.922 8 113191781.299 8        76.652          51.000
E01  25165762.984 6 132246971.834 6     -1615.430          39.000    25165764.000 7 101332128.643 7     -1237.659          44.000
E09  24461040.430 7 128543655.596 7     -2138.527          45.000    24461044.320 7  98494448.606 7     -1638.618          47.000
E26                                                                  24331021.875 6  97970944.060 6      -359.199          36.000
E31  23624414.805 6 124147126.553 6       515.840          40.000    23624419.047 7  95125725.283 7       395.278          43.000
E33  25100207.859 8 131902469.232 8      2194.004          51.000    25100208.422 8 101068149.034 8      1681.102          51.000
> 2020 05 04 10 09 30.0000000  0 18        .000000000000
G12  20444860.477 8 107438487.959 8     -1234.152          51.000    20444859.188 8  83718278.535 8      -961.677          51.000
G24  22182790.180 8 116571383.423 8     -2957.773          50.000    22182792.469 8  90834827.335 8     -2304.762          50.000
G25  20279129.086 5 106567546.300 5       725.297          32.000    20279130.109 5  83039650.111 5       565.163          33.000
G29  22057061.422 8 115910616.798 8      3052.477          51.000    22057058.430 8  90319966.974 8      2378.553          51.000
G32  22166767.406 5 116487151.122 5      -468.930          34.000
R10  19528999.734 8 104100551.543 8      -126.445          48.000
R11  21576304.227 5 115297181.342 5      2985.238          30.000
R20  19802762.750 7 105894278.519 7       815.855          42.000    19802766.344 7  82362228.236 7       634.554          46.000
R21  22152174.914 6 118540770.275 6      4340.512          36.000    22152180.148 6  92198385.642 6      3375.957          36.000
C11  22773218.969 8 118586210.298 8      2239.879          51.000    22773220.148 8  91698329.600 8      1731.971          51.000
C12  22449021.250 6 116897936.157 6      -999.129          37.000    22449020.461 7  90392896.282 7      -772.904          44.000
C24  24322344.406 5 126652793.069 5     -2475.188          32.000
C25  21736881.266 8 113189649.337 8        68.715          51.000
E01  25174996.531 6 132295495.238 6     -1616.449          40.000    25174998.844 7 101369308.912 7     -1238.530          42.000
E09  24473275.344 7 128607942.950 7     -2144.102          46.000    24473277.570 7  98543707.719 7     -1642.832          47.000
E26                                                                  24333741.008 6  97981886.084 6      -368.127          36.000
E31  23621485.344 6 124131734.980 6       513.652          40.000    23621489.453 7  95113931.720 7       393.494          43.000
E33  25087712.727 8 131836811.731 8      2186.363          48.000    25087714.164 8 101017840.051 8      1675.292          51.000
> 2020 05 04 10 10  0.0000000  0 15        .000000000000
G12  20451959.312 8 107475792.853 8     -1259.438          51.000    20451957.961 8  83747347.287 8      -981.380          51.000
G24  22199728.047 8 116660390.030 8     -2982.574          51.000    22199729.039 8  90904183.068 8     -2324.084          51.000
G25  20275044.695 4 106546099.333 4       698.758          29.000    20275044.312 4  83022933.212 4       544.487          29.000
G29  22039692.641 8 115819341.345 8      3025.953          51.000    22039689.898 8  90248843.274 8      2357.889          51.000
R10  19529774.766 8 104104684.182 8      -155.773          49.000
R20  19798289.367 7 105870356.568 7       772.137          42.000    19798292.594 7  82343622.281 7       600.551          47.000
R21  22127888.539 6 118410816.666 6      4316.062          38.000    22127895.039 6  92097310.588 6      3356.937          36.000
C11  22760377.555 8 118519335.626 8      2211.855          51.000    22760378.141 8  91646617.881 8      1710.268          51.000
C12  22454849.453 6 116928286.236 6     -1030.355          37.000    22454848.336 7  90416364.865 7      -796.933          42.000
C24  24336640.906 5 126727246.042 5     -2496.156          31.000
C25  21736540.875 8 113187879.040 8        42.648          51.000
E01  25184260.070 6 132344177.353 6     -1635.910          39.000    25184262.578 6 101406610.790 6     -1253.526          40.000
E09  24485565.320 7 128672519.204 7     -2167.777          47.000    24485565.516 7  98593188.194 7     -1660.955          47.000
E31  23618592.344 6 124116535.416 6       493.035          40.000    23618596.203 7  95102285.305 7       377.738          43.000
E33  25075283.695 7 131771508.680 7      2160.293          45.000    25075287.164 8 100967802.598 8      1655.322          51.000
> 2020 05 04 10 10 30.0000000  0 18        .000000000000
G02  22978574.680 5 120753224.140 5       581.332          32.000
G12  20459131.375 8 107513482.457 8     -1253.086          51.000    20459129.828 8  83776715.812 8      -976.431          51.000
G24  22216735.641 8 116749763.006 8     -2975.484          51.000    22216735.438 8  90973824.316 8     -2318.559          51.000
G25  20271042.828 5 106525048.729 5       703.824          33.000    20271044.656 5  83006521.642 5       548.438          35.000
G29  22022403.914 8 115728489.211 8      3030.922          51.000    22022402.273 8  90178049.425 8      2361.757          51.000
G32  22172411.789 5 116516774.488 5      -506.953          35.000    22172407.367 5  90792301.600 5      -395.028          34.000
R09  21115971.578 6 112758092.259 6     -2420.289          37.000    21115970.820 5  87700734.601 5     -1882.447          30.000
R10  19530643.289 8 104109314.837 8      -152.910          49.000
R20  19793989.477 6 105847363.340 6       760.730          41.000    19793992.875 7  82325738.687 7       591.679          47.000
R21  22103671.758 6 118281227.324 6      4323.270          40.000    22103678.570 6  91996518.912 6      3362.546          36.000
C11  22747626.195 8 118452931.248 8      2215.156          51.000    22747626.305 8  91595269.827 8      1712.878          51.000
C12  22460784.133 5 116959192.178 5     -1029.914          35.000    22460783.297 7  90440263.296 7      -796.353          42.000
C24  24350987.078 4 126801981.122 4     -2486.312          29.000
C25  21736279.250 8 113186518.577 8        48.066          51.000
E01  25193563.219 6 132393066.054 6     -1623.457          41.000    25193565.102 6 101444070.981 6     -1244.061          37.000
E09  24497918.594 7 128737430.418 7     -2159.668          46.000    24497916.812 7  98642925.317 7     -1654.814          47.000
E31  23615745.195 6 124101576.132 6       504.129          39.000    23615749.133 7  95090822.976 7       386.394          43.000
E33  25062932.469 7 131706609.459 7      2166.234          47.000    25062937.367 8 100918074.600 8      1659.851          51.000
> 2020 05 04 10 11  0.0000000  0 17        .000000000000
G12  20466327.422 8 107551298.000 8     -1269.055          51.000    20466325.633 8  83806182.471 8      -988.874          51.000
G24  22233763.375 8 116839242.817 8     -2990.859          51.000    22233763.078 8  91043548.816 8     -2330.540          51.000
G29  22005146.422 8 115637804.044 8      3013.715          49.000    22005146.305 8  90107385.659 8      2348.349          49.000
G32  22175374.461 5 116532336.034 5      -531.578          35.000    22175375.703 5  90804448.336 5      -414.202          34.000
R09  21129606.516 5 112830925.777 5     -2436.621          34.000    21129603.125 5  87757382.858 5     -1895.150          31.000
R10  19531556.523 8 104114182.534 8      -172.719          48.000
R11  21526192.352 5 115029393.400 5      2967.996          33.000
R20  19789814.148 6 105825037.577 6       726.555          40.000    19789817.914 7  82308374.215 7       565.098          47.000
R21  22079475.172 6 118151743.458 6      4307.703          41.000    22079481.141 5  91895809.275 5      3350.436          32.000
C11  22734915.773 8 118386742.918 8      2196.316          51.000    22734915.695 8  91544088.832 8      1698.376          51.000
C12  22466776.430 6 116990396.947 6     -1051.512          39.000    22466776.266 7  90464392.893 7      -813.165          43.000
C24  24365341.305 5 126876724.842 5     -2498.145          35.000
C25  21736047.406 8 113185312.887 8        31.340          51.000
E01  25202856.734 6 132441903.300 6     -1633.410          40.000    25202861.219 6 101481491.769 6     -1251.421          36.000
E09  24510285.430 7 128802416.563 7     -2173.957          45.000    24510282.117 7  98692719.872 7     -1665.702          47.000
E31  23612894.984 6 124086599.360 6       493.195          39.000    23612899.180 7  95079347.255 7       377.873          44.000
E33  25050611.195 8 131641857.602 8      2149.508          51.000    25050615.633 8 100868459.553 8      1647.022          51.000
> 2020 05 04 10 11 30.0000000  0 17        .000000000000
G12  20473618.375 8 107589612.131 8     -1282.523          51.000    20473616.406 8  83836037.641 8      -999.369          51.000
G24  22250882.094 8 116929201.206 8     -3003.660          51.000    22250882.188 8  91113646.252 8     -2340.514          51.000
G25  20263200.406 5 106483833.152 5       671.715          34.000    20263203.109 5  82974432.168 5       523.414          34.000
G29  21987992.188 8 115547661.213 8      2998.590          49.000    21987993.062 8  90037144.472 8      2336.564          49.000
R09  21143340.156 5 112904276.512 5     -2450.156          34.000    21143344.711 6  87814433.363 6     -1905.683          37.000
R10  19532585.398 8 104119666.837 8      -190.234          49.000
R20  19785834.625 6 105803759.316 6       694.547          40.000    19785838.906 7  82291824.481 7       540.203          47.000
R21  22055370.422 6 118022749.225 6      4294.691          41.000    22055374.461 4  91795480.435 4      3340.316          26.000
C11  22722317.492 8 118321142.139 8      2179.840          50.000    22722317.555 8  91493362.181 8      1685.470          51.000
C12  22472897.344 6 117022269.489 6     -1070.715          39.000    22472897.039 7  90489038.776 7      -827.939          43.000
C24  24379772.055 6 126951856.036 6     -2508.137          38.000
C25  21735916.523 8 113184632.780 8        16.691          51.000
E01  25212211.242 6 132491062.666 6     -1641.453          38.000    25212220.875 5 101519159.273 5     -1257.270          30.000
E09  24522736.500 7 128867849.139 7     -2185.617          44.000    24522733.250 7  98742856.494 7     -1674.652          47.000
E26  24345487.031 5 127936396.781 5      -547.207          33.000    24345493.156 6  98029216.494 6      -419.537          36.000
E31  23610112.820 7 124071978.828 7       484.242          42.000    23610117.039 7  95068144.497 7       371.064          44.000
E33  25038390.008 8 131577628.149 8      2135.133          51.000    25038393.328 8 100819244.808 8      1636.035          51.000
> 2020 05 04 10 12  0.0000000  0 18        .000000000000
G12  20480946.750 8 107628123.134 8     -1288.359          51.000    20480944.797 8  83866046.210 8     -1003.916          51.000
G24  22268034.164 8 117019336.051 8     -3008.805          51.000    22268034.773 8  91183881.165 8     -2344.523          51.000
G25  20259375.922 5 106463731.882 5       664.742          34.000    20259379.594 5  82958768.771 5       517.981          32.000
G29  21970884.977 8 115457761.122 8      2991.141          51.000    21970885.617 8  89967092.451 8      2330.759          51.000
G32  22181693.266 5 116565591.830 5      -570.121          30.000
R09  21157115.227 6 112977838.087 6     -2457.102          38.000    21157119.578 5  87871647.942 5     -1911.076          35.000
R10  19533673.070 8 104125464.061 8      -199.898          49.000
R20  19781994.227 6 105783223.024 6       670.754          39.000    19781998.508 7  82275851.825 7       521.697          47.000
R21  22031301.219 6 117893942.111 6      4288.887          39.000    22031320.773 4  91695360.065 4      3335.801          26.000
C11  22709774.836 8 118255832.092 8      2170.617          48.000    22709775.219 8  91442860.328 8      1678.471          51.000
C12  22479088.617 6 117054509.896 6     -1082.586          38.000    22479088.805 7  90513969.145 7      -836.934          43.000
C24  24394218.359 6 127027075.442 6     -2510.082          37.000
C25  21735829.508 8 113184180.590 8         9.867          51.000
E01  25221570.008 6 132540242.911 6     -1640.957          38.000
E09  24535214.578 7 128933425.234 7     -2189.770          45.000    24535212.305 7  98793103.066 7     -1677.899          47.000
E26                                                                  24348635.688 5  98041875.785 5      -427.310          35.000
E31  23607341.273 7 124057413.817 7       483.059          42.000    23607345.414 7  95056984.286 7       370.043          43.000
E33  25026211.070 8 131513621.630 8      2128.379          51.000    25026213.172 8 100770200.907 8      1630.815          51.000
> 2020 05 04 10 12 30.0000000  0 17        .000000000000
G02  22966170.555 5 120688057.336 5       510.043          34.000    22966181.258 4  94042672.559 4       397.436          26.000
G12  20488332.352 8 107666935.148 8     -1299.488          51.000    20488330.523 8  83896289.327 8     -1012.588          51.000
G24  22285239.422 8 117109750.650 8     -3019.148          50.000    22285240.664 8  91254334.089 8     -2352.583          50.000
G25  20255613.484 5 106443972.687 5       652.766          34.000    20255620.508 5  82943372.071 5       508.658          32.000
G29  21953845.000 8 115368211.728 8      2978.504          51.000    21953844.773 8  89897313.728 8      2320.915          51.000
R10  19534839.367 8 104131681.595 8      -215.047          49.000
R20  19778312.594 6 105763536.922 6       641.199          38.000    19778316.727 8  82260540.414 8       498.711          48.000
R21  22007289.367 5 117765433.688 5      4278.168          30.000
C11  22697308.211 7 118190919.040 7      2156.512          47.000    22697308.867 8  91392665.448 8      1667.509          51.000
C12  22485370.609 6 117087221.677 6     -1098.844          39.000    22485371.281 7  90539264.044 7      -849.789          43.000
C24  24408700.234 5 127102487.273 5     -2517.258          33.000
C25  21735806.586 8 113184061.807 8        -2.172          51.000
E01                                                                  25230958.273 5 101594601.074 5     -1261.616          32.000
E09  24547739.953 7 128999248.646 7     -2198.840          45.000    24547738.688 8  98843539.163 8     -1684.807          48.000
E26                                                                  24351866.234 6  98054873.693 6      -439.468          36.000
E31  23604600.680 7 124043010.409 7       476.641          42.000    23604604.570 7  95045947.893 7       365.284          44.000
E33  25014094.641 8 131449945.431 8      2116.340          51.000    25014095.914 8 100721410.101 8      1621.644          51.000
> 2020 05 04 10 13  0.0000000  0 17        .000000000000
G02  22963306.523 5 120672989.787 5       495.238          34.000    22963312.938 4  94030927.747 4       385.900          28.000
G06  23554588.367 6 123780197.474 6      -841.605          36.000    23554594.555 5  96452118.903 5      -655.790          33.000
G12  20495774.008 8 107706041.691 8     -1307.293          51.000    20495772.383 8  83926761.948 8     -1018.670          51.000
G24  22302496.086 7 117200438.011 7     -3026.414          47.000    22302498.422 7  91324999.535 7     -2358.248          46.000
G25  20251917.836 5 106424543.956 5       643.777          33.000    20251925.172 5  82928237.455 5       501.645          32.000
G29  21936870.898 8 115279009.107 8      2968.762          51.000    21936869.906 8  89827805.231 8      2313.321          51.000
R09  21184843.703 4 113125863.997 4     -2476.863          29.000    21184844.742 4  87986801.925 4     -1926.437          24.000
R10  19536083.508 8 104138314.816 8      -226.980          49.000
R20  19774788.852 6 105744695.638 6       615.023          39.000    19774792.961 8  82245886.073 8       478.352          48.000
C11  22684917.148 8 118126398.424 8      2145.285          48.000    22684917.773 8  91342774.015 8      1658.816          51.000
C12  22491742.055 6 117120397.585 6     -1112.551          40.000    22491742.047 7  90564917.779 7      -860.177          42.000
C25  21735846.688 8 113184271.216 8       -11.387          51.000
E01                                                                  25240355.641 5 101632474.436 5     -1262.933          35.000
E09  24560310.695 7 129065311.516 7     -2204.906          45.000    24560311.109 8  98894158.716 8     -1689.498          49.000
E26  24355170.367 6 127987280.253 6      -585.762          37.000    24355179.859 5  98068205.211 5      -449.181          35.000
E31  23601889.930 7 124028762.938 7       473.410          43.000    23601893.352 7  95035031.005 7       362.887          44.000
E33  25002039.633 8 131386595.114 8      2107.348          50.000    25002040.539 8 100672869.009 8      1614.682          51.000
> 2020 05 04 10 13 30.0000000  0 17        .000000000000
G02  22960519.195 5 120658322.157 5       485.359          33.000
G06  23559432.797 5 123805659.378 5      -852.668          31.000    23559444.352 5  96471959.286 5      -664.414          30.000
G12  20503253.062 8 107745344.686 8     -1309.844          51.000    20503251.609 8  83957387.640 8     -1020.657          51.000
G24  22319785.195 7 117291298.444 7     -3028.047          46.000    22319788.438 7  91395799.884 7     -2359.514          46.000
G25  20248267.711 5 106405359.871 5       638.996          31.000    20248273.328 4  82913288.850 4       497.919          29.000
G29  21919944.109 8 115190057.389 8      2964.355          51.000    21919942.781 8  89758492.243 8      2309.887          51.000
R10  19537387.219 8 104145265.360 8      -233.504          49.000
R20  19771404.961 6 105726600.321 6       594.262          38.000    19771409.078 8  82231811.939 8       462.204          48.000
R21  21959402.648 6 117509183.857 6      4267.316          40.000    21959408.969 5  91396041.912 5      3319.027          30.000
C11  22672583.688 8 118062174.887 8      2139.297          49.000    22672583.930 8  91293112.306 8      1654.213          51.000
C12  22498183.727 6 117153939.396 6     -1120.734          39.000    22498183.109 7  90590854.432 7      -866.581          43.000
C25  21735931.609 8 113184712.687 8       -15.180          51.000
E01                                                                  25249765.852 6 101670365.549 6     -1260.517          38.000
E09  24572908.141 7 129131514.198 7     -2205.504          46.000    24572910.102 8  98944885.409 8     -1689.893          48.000
E26  24358547.695 5 128005016.203 5      -593.398          35.000    24358553.711 5  98081794.939 5      -454.344          34.000
E31  23599190.234 7 124014574.088 7       475.371          44.000    23599193.461 7  95024159.047 7       364.398          45.000
E33  24990027.594 8 131323474.587 8      2103.641          48.000    24990029.258 8 100624503.983 8      1611.946          51.000
> 2020 05 04 10 14  0.0000000  0 16        .000000000000
G12  20510826.719 8 107785144.985 8     -1337.938          51.000    20510825.367 8  83988400.836 8     -1042.549          51.000
G24  22337164.523 7 117382632.731 7     -3055.512          46.000    22337168.828 7  91466969.479 7     -2380.918          46.000
G29  21903122.281 8 115101660.084 8      2934.289          51.000    21903121.344 8  89689611.263 8      2286.459          51.000
R09  21212810.820 6 113275212.123 6     -2509.289          36.000
R10  19538808.266 8 104152840.745 8      -266.035          50.000
R20  19768217.852 6 105709558.115 6       547.727          39.000    19768221.750 8  82218556.888 8       426.010          48.000
