     3.02           OBSERVATION DATA    M (MIXED)           RINEX VERSION / TYPE
SAVERINEX           SC600               20200512 145931 LCL PGM / RUN BY / DATE
       G = GPS       R = GLONASS       C = COMPASS          COMMENT
       S = SBAS      J = QZSS          E = GALILEO          COMMENT
BEAN                                                        MARKER NAME
1                                                           MARKER NUMBER
GEODETIC                                                    MARKER TYPE
Unige DICCA         GTER                                    OBSERVER / AGENCY
SC60291900056       SC600               2.12(191226)        REC # / TYPE / VERS
                    HEMA45          NONE                    ANT # / TYPE
  4509407.8091   693652.4678  4442337.6214                  APPROX POSITION XYZ
        0.0000        0.0000        0.0000                  ANTENNA: DELTA H/E/N
G    8 C1C L1C D1C S1C C2Y L2Y D2Y S2Y                      SYS / # / OBS TYPES
R    8 C1C L1C D1C S1C C2P L2P D2P S2P                      SYS / # / OBS TYPES
C    8 C1I L1I D1I S1I C7I L7I D7I S7I                      SYS / # / OBS TYPES
E    8 C1C L1C D1C S1C C7Q L7Q D7Q S7Q                      SYS / # / OBS TYPES
DBHZ                                                        COMMENT
     30.000                                                 INTERVAL
  2020    05    12    12    00    0.0000000     GPS         TIME OF FIRST OBS
  2020    05    12    12    59   30.0000000     GPS         TIME OF LAST OBS
     0                                                      RCV CLOCK OFFS APPL
G L1C  0.00000                                              SYS / PHASE SHIFT
G L2Y  0.00000                                              SYS / PHASE SHIFT
R L1C  0.00000                                              SYS / PHASE SHIFT
R L2P  0.25000                                              SYS / PHASE SHIFT
C L1I  0.00000                                              SYS / PHASE SHIFT
C L7I  0.00000                                              SYS / PHASE SHIFT
E L1C  0.50000                                              SYS / PHASE SHIFT
E L7Q -0.25000                                              SYS / PHASE SHIFT
 14 R05  1 R06 -4 R07  5 R08  6 R09 -2 R10 -7 R11  0 R12 -1 GLONASS SLOT / FRQ #
    R16 -1 R19  3 R20  2 R21  4 R22 -3 R23  3               GLONASS SLOT / FRQ #
 C1C   71.950 C2C   71.950 C2P   71.950                     GLONASS COD/PHS/BIS
    18                                                      LEAP SECONDS
*** Above antenna height is from mark to ANTENNA BOTTOM.    COMMENT
    17     4        0.0000        ANT MEASURE TYPE/HEIGT    COMMENT
    0.0000    0.0000    0.0458    0.0405    0.0000          COMMENT
                    BASE STATION                            COMMENT
                                                            END OF HEADER
> 2020 05 12 12 00  0.0000000  0 18        .000000000000
G18  21820056.156 8 114665233.399 8      2909.023          50.000    21820057.812 7  89349514.488 7      2266.772          47.000
G21  21822537.008 8 114678265.489 8      2496.246          48.000    21822537.281 7  89359661.947 7      1945.127          45.000
G25  21780173.602 7 114455566.667 7     -2450.074          43.000    21780175.438 7  89186168.385 7     -1909.149          43.000
G26  22367946.523 5 117544304.354 5      2738.125          34.000    22367937.383 5  91592967.555 5      2133.598          33.000
G29  20491491.906 8 107683516.876 8     -1142.363          51.000    20491491.094 8  83909238.392 8      -890.150          51.000
G31  21133541.523 6 111057542.926 6      -156.977          39.000    21133538.188 6  86538308.056 6      -122.319          39.000
R10  23124914.859 5 123268759.385 5     -4024.641          35.000
R11  19334945.602 8 103320101.931 8     -1174.840          51.000    19334948.008 8  80360041.801 8      -913.764          49.000
R21  19526177.062 7 104488515.730 7     -1605.383          47.000    19526178.859 7  81268890.584 7     -1248.631          44.000
R22  20226193.273 8 107968786.057 8      2588.219          51.000    20226199.156 8  83975750.355 8      2013.059          50.000
C11  22441490.156 8 116858747.500 8      1624.434          49.000    22441490.984 8  90362621.130 8      1256.200          51.000
C12  21968905.578 8 114397931.212 8     -1398.203          51.000    21968905.117 8  88459758.961 8     -1081.098          51.000
C24  24036568.031 8 125164785.720 8     -2915.953          50.000
C25  21966815.492 8 114386975.264 8      -108.176          51.000
E13  23901673.562 8 125604148.531 8      1800.227          51.000    23901676.508 8  96242161.350 8      1379.448          51.000
E15  23704681.414 8 124568953.926 8     -1080.141          51.000    23704684.094 7  95448949.937 7      -827.538          43.000
E27  23647439.406 8 124268124.212 8     -1147.625          51.000    23647442.492 8  95218441.786 8      -879.325          51.000
E30  26439940.898 5 138942826.659 5     -2688.312          34.000
> 2020 05 12 12 00 30.0000000  0 17        .000000000000
G18  21803496.000 8 114578209.396 8      2885.414          48.000    21803497.547 7  89281703.566 7      2248.375          46.000
G21  21808335.008 8 114603630.766 8      2472.066          50.000    21808334.352 7  89301505.052 7      1926.286          44.000
G25  21794198.492 7 114529267.408 7     -2470.395          43.000    21794200.180 7  89243597.508 7     -1924.983          42.000
G29  20498058.312 8 107718023.903 8     -1165.258          51.000    20498057.586 8  83936126.984 8      -907.993          51.000
G31  21134503.227 6 111062596.017 6      -186.902          39.000    21134498.594 6  86542245.533 6      -145.635          39.000
R10  23147592.969 5 123389653.343 5     -4042.879          34.000
R11  19341615.242 8 103355743.940 8     -1208.586          50.000    19341618.062 8  80387763.335 8      -940.011          49.000
R21  19535242.352 8 104537027.794 8     -1636.227          48.000    19535244.398 7  81306622.165 7     -1272.624          45.000
R22  20211711.578 8 107891479.274 8      2558.129          51.000    20211716.789 8  83915622.843 8      1989.656          50.000
C11  22432175.070 8 116810242.423 8      1602.105          48.000    22432175.930 8  90325113.961 8      1238.753          51.000
C12  21977001.695 8 114440090.454 8     -1419.535          51.000    21977001.484 8  88492359.156 8     -1097.693          51.000
C24  24053401.648 8 125252443.197 8     -2935.023          49.000
C25  21967494.875 8 114390513.901 8      -134.914          51.000
E13  23891439.180 8 125550368.819 8      1777.902          51.000    23891442.938 8  96200953.524 8      1362.271          51.000
E15  23710892.242 8 124601592.015 8     -1103.027          51.000    23710894.406 7  95473958.329 7      -845.048          42.000
E27  23654029.789 8 124302756.156 8     -1168.305          51.000    23654032.688 8  95244977.940 8      -895.200          51.000
E30  26455309.609 6 139023589.316 6     -2703.094          37.000
> 2020 05 12 12 01  0.0000000  0 17        .000000000000
G18  21787001.086 7 114491531.157 7      2885.141          47.000    21787002.836 7  89214162.054 7      2248.162          45.000
G21  21794202.500 8 114529360.315 8      2471.188          51.000    21794201.164 7  89243632.004 7      1925.601          44.000
G25  21808271.039 7 114603218.251 7     -2467.418          42.000    21808272.398 7  89301221.507 7     -1922.663          42.000
G29  20504686.484 8 107752855.530 8     -1164.832          51.000    20504685.859 8  83963268.494 8      -907.661          51.000
G31  21135569.156 6 111068200.546 6      -194.141          37.000    21135566.133 6  86546612.657 6      -151.281          36.000
R10  23170306.734 5 123510735.300 5     -4037.777          33.000
R11  19348404.844 8 103392029.875 8     -1218.742          50.000    19348408.312 8  80415985.704 8      -947.911          48.000
R21  19544412.008 7 104586093.804 7     -1643.113          45.000    19544413.773 7  81344784.615 7     -1277.974          44.000
R22  20197330.336 8 107814707.371 8      2551.789          51.000    20197334.320 8  83855911.361 8      1984.725          48.000
C11  22422920.680 8 116762052.558 8      1602.629          50.000    22422921.500 8  90287850.501 8      1239.294          51.000
C12  21985152.203 8 114482532.198 8     -1417.852          51.000    21985152.062 8  88525177.787 8     -1096.303          51.000
C24  24070275.844 8 125340313.861 8     -2930.977          48.000
C25  21968259.656 8 114394497.594 8      -138.660          51.000
E13  23881263.547 8 125496898.084 8      1778.812          51.000    23881267.508 8  96159982.447 8      1363.034          51.000
E15  23717164.734 8 124634554.307 8     -1102.578          51.000    23717166.141 6  95499215.164 6      -844.740          41.000
E27  23660669.258 8 124337646.502 8     -1165.664          51.000    23660672.141 8  95271712.096 8      -893.177          51.000
E30  26470692.844 6 139104426.046 6     -2694.273          37.000
> 2020 05 12 12 01 30.0000000  0 18        .000000000000
G18  21770552.469 7 114405096.693 7      2876.375          45.000    21770554.320 7  89146810.503 7      2241.331          44.000
G21  21780119.773 8 114455351.308 8      2461.832          51.000    21780117.969 7  89185962.692 7      1918.314          44.000
G25  21822370.836 7 114677314.074 7     -2473.059          43.000    21822372.586 7  89358958.456 7     -1927.059          43.000
G26  22321184.828 5 117298594.992 5      2726.742          32.000    22321174.859 5  91401483.235 5      2124.722          31.000
G29  20511356.188 8 107787905.911 8     -1172.613          50.000    20511355.742 8  83990580.467 8      -913.725          50.000
G31  21136720.430 6 111074251.853 6      -210.219          37.000    21136718.422 6  86551327.953 6      -163.804          36.000
R10  23193036.695 6 123631897.536 6     -4041.016          37.000
R11  19355295.109 8 103428853.096 8     -1237.148          50.000    19355299.172 8  80444625.994 8      -962.227          49.000
R21  19553663.711 7 104635604.710 7     -1658.438          47.000    19553665.727 7  81383293.104 7     -1289.896          44.000
R22  20183028.945 8 107738365.861 8      2536.754          49.000    20183032.250 7  83796534.635 7      1973.031          47.000
C11  22413707.383 8 116714074.490 8      1595.086          51.000    22413707.719 8  90250750.811 8      1233.349          51.000
C12  21993336.742 8 114525151.421 8     -1424.328          51.000    21993336.609 8  88558133.646 8     -1101.333          51.000
C24  24087170.664 8 125428292.654 8     -2935.301          48.000
C25  21969090.383 8 114398823.182 8      -150.535          51.000
E13  23871127.469 8 125443632.472 8      1771.375          51.000    23871130.719 8  96119168.553 8      1357.305          51.000
E15  23723478.891 8 124667735.114 8     -1110.391          51.000    23723480.359 7  95524639.460 7      -850.897          42.000
E27  23667338.055 8 124372690.914 8     -1171.387          51.000    23667340.930 8  95298564.300 8      -897.634          51.000
E30  26486070.812 6 139185236.770 6     -2693.938          38.000
> 2020 05 12 12 02  0.0000000  0 17        .000000000000
G18  21754194.156 8 114319133.681 8      2850.777          48.000    21754195.477 7  89079826.358 7      2221.388          43.000
G21  21766129.922 8 114381831.486 8      2435.715          51.000    21766127.633 7  89128674.569 7      1897.960          44.000
G25  21836541.250 7 114751779.289 7     -2495.031          43.000    21836543.117 7  89416983.279 7     -1944.180          44.000
G29  20518110.180 8 107823398.772 8     -1197.227          50.000    20518109.625 8  84018237.226 8      -932.904          50.000
G31  21137999.422 6 111080975.037 6      -242.309          36.000    21137998.008 6  86556566.791 6      -188.809          36.000
R10  23215823.867 5 123753365.677 5     -4061.164          34.000
R11  19362329.203 8 103466442.562 8     -1272.617          51.000    19362333.805 8  80473862.198 8      -989.813          49.000
R21  19563041.664 7 104685786.796 7     -1690.719          46.000    19563043.656 7  81422323.587 7     -1315.003          43.000
R22  20168850.203 8 107662685.017 8      2504.840          49.000    20168853.844 7  83737671.761 7      1948.209          46.000
C11  22404577.961 8 116666531.703 8      1570.824          51.000    22404577.484 8  90213987.685 8      1214.682          51.000
C12  22001597.852 8 114568169.659 8     -1447.316          51.000    22001597.797 8  88591398.070 8     -1119.151          51.000
C24  24104129.430 8 125516601.222 8     -2955.703          50.000
C25  21970029.844 8 114403714.314 8      -179.094          51.000
E13  23861073.766 8 125390797.891 8      1747.238          51.000    23861076.109 8  96078684.921 8      1338.811          51.000
E15  23729877.211 8 124701358.491 8     -1134.914          51.000    23729878.828 7  95550402.827 7      -869.684          42.000
E27  23674079.172 8 124408114.736 8     -1193.922          51.000    23674081.383 8  95325707.215 8      -914.778          51.000
E30  26501485.453 6 139266246.093 6     -2710.703          37.000    26501485.969 5 106710501.751 5     -2076.832          32.000
> 2020 05 12 12 02 30.0000000  0 17        .000000000000
G18  21737925.523 8 114233639.468 8      2847.363          49.000    21737925.289 7  89013207.551 7      2218.728          43.000
G21  21752232.102 8 114308797.476 8      2431.668          51.000    21752229.734 7  89071764.988 7      1894.809          45.000
G25  21850780.781 7 114826608.171 7     -2495.098          43.000    21850782.430 7  89475291.463 7     -1944.232          43.000
G29  20524947.203 8 107859327.686 8     -1199.504          51.000    20524946.484 8  84046233.774 8      -934.678          51.000
G31  21139405.062 6 111088365.497 6      -252.090          37.000    21139405.734 6  86562325.574 6      -196.437          37.000
R10  23238683.250 5 123875263.531 5     -4059.066          30.000
R11  19369506.375 8 103504792.815 8     -1285.562          51.000    19369510.516 8  80503690.167 8      -999.882          49.000
R21  19572543.016 7 104736631.832 7     -1700.387          46.000    19572544.812 7  81461869.736 7     -1322.523          42.000
R22  20154795.789 8 107587661.051 8      2495.285          51.000    20154798.727 8  83679319.805 8      1940.777          48.000
C11  22395531.000 8 116619419.235 8      1568.578          51.000    22395529.953 8  90177557.350 8      1213.000          51.000
C12  22009934.453 8 114611580.447 8     -1448.172          51.000    22009934.352 8  88624966.043 8     -1119.864          51.000
C24  24121150.586 8 125605233.016 8     -2954.352          50.000
C25  21971076.812 8 114409166.254 8      -185.805          50.000
E13  23851101.172 8 125338389.879 8      1745.195          51.000    23851102.938 8  96038528.138 8      1337.192          51.000
E15  23736358.445 8 124735417.967 8     -1137.176          50.000    23736359.586 7  95576500.353 7      -871.307          42.000
E27  23680891.727 8 124443913.000 8     -1194.148          51.000    23680892.977 8  95353137.034 8      -915.006          51.000
E30  26516936.516 6 139347448.315 6     -2704.824          37.000    26516939.906 5 106772721.557 5     -2072.528          35.000
> 2020 05 12 12 03  0.0000000  0 17        .000000000000
G18  21721712.531 8 114148437.820 8      2833.391          49.000    21721711.453 7  88946816.702 7      2207.837          44.000
G21  21738392.781 8 114236072.242 8      2417.324          51.000    21738390.953 7  89015096.022 7      1883.632          46.000
G25  21865055.242 6 114901621.260 6     -2505.352          41.000    21865057.023 6  89533743.160 6     -1952.225          41.000
G29  20531832.984 8 107895512.456 8     -1212.227          51.000    20531832.414 8  84074429.697 8      -944.592          51.000
G31  21140904.414 6 111096243.401 6      -272.758          38.000    21140906.766 6  86568464.218 6      -212.539          37.000
R10  23261546.695 4 123997132.683 4     -4065.965          29.000
R11  19376791.867 8 103543721.607 8     -1309.121          51.000    19376795.672 8  80533968.090 8     -1018.205          49.000
R21  19582133.898 7 104787955.004 7     -1720.520          45.000    19582136.242 7  81501787.759 7     -1338.182          43.000
R22  20140831.609 8 107513114.033 8      2475.141          51.000    20140833.844 8  83621338.812 8      1925.109          49.000
C11  22386532.344 8 116572560.306 8      1556.004          50.000    22386531.102 8  90141323.071 8      1203.144          51.000
C12  22018312.320 8 114655205.134 8     -1459.480          51.000    22018311.938 8  88658699.403 8     -1128.554          51.000
C24  24138199.219 8 125694009.423 8     -2963.363          50.000
C25  21972197.422 8 114415002.278 8      -202.586          49.000
E13  23841175.594 8 125286230.391 8      1732.691          51.000    23841177.328 8  95998561.771 8      1327.653          51.000
E15  23742888.492 8 124769733.616 8     -1149.926          50.000    23742889.883 7  95602794.170 7      -881.064          42.000
E27  23687741.656 8 124479907.078 8     -1204.887          51.000    23687742.602 8  95380716.867 8      -923.234          50.000
E30  26532390.641 6 139428664.013 6     -2708.715          38.000    26532396.242 6 106834951.722 6     -2075.868          36.000
> 2020 05 12 12 03 30.0000000  0 17        .000000000000
G18  21705574.578 8 114063631.453 8      2822.027          49.000    21705573.977 7  88880733.850 7      2198.982          47.000
G21  21724631.734 8 114163757.847 8      2405.406          51.000    21724630.547 7  88958747.166 7      1874.343          46.000
G25  21879383.828 6 114976918.113 6     -2512.883          39.000    21879385.430 6  89592415.997 6     -1958.094          39.000
G29  20538786.359 8 107932051.934 8     -1222.191          51.000    20538785.898 8  84102902.018 8      -952.357          51.000
G31  21142515.586 6 111104709.535 6      -289.797          38.000    21142520.258 6  86575061.190 6      -225.819          38.000
R10  23284439.758 5 124119155.039 5     -4072.211          31.000
R11  19384204.812 8 103583330.909 8     -1329.910          51.000    19384208.266 8  80564775.294 8     -1034.378          48.000
R21  19591832.258 7 104839855.369 7     -1737.836          46.000    19591834.898 6  81542154.728 6     -1351.653          40.000
R22  20126975.594 8 107439147.139 8      2457.637          51.000    20126978.164 8  83563809.030 8      1911.498          49.000
C11  22377600.727 8 116526054.525 8      1545.934          49.000    22377600.195 8  90105361.836 8      1195.435          51.000
C12  22026749.992 8 114699141.647 8     -1468.109          51.000    22026749.461 8  88692673.902 8     -1135.202          51.000
C24  24155294.273 8 125783028.258 8     -2969.590          49.000
C25  21973410.633 8 114421322.168 8      -217.094          49.000
E13  23831316.336 8 125234420.314 8      1722.863          51.000    23831318.156 8  95958863.137 8      1320.116          51.000
E15  23749486.195 8 124804404.466 8     -1159.930          49.000    23749488.523 7  95629360.139 7      -888.690          43.000
E27  23694647.711 8 124516197.432 8     -1212.996          51.000    23694648.547 8  95408523.710 8      -929.427          50.000
E30  26547867.398 6 139509993.005 6     -2711.055          37.000    26547873.523 6 106897268.641 6     -2077.430          37.000
> 2020 05 12 12 04  0.0000000  0 17        .000000000000
G18  21689506.547 8 113979192.883 8      2806.438          50.000    21689506.305 7  88814937.550 7      2186.831          47.000
G21  21710943.562 8 114091825.867 8      2389.453          51.000    21710942.773 7  88902696.290 7      1861.912          47.000
G25  21893759.734 6 115052467.974 6     -2524.020          36.000    21893761.836 6  89651286.035 6     -1966.772          37.000
G29  20545801.328 8 107968914.905 8     -1236.137          51.000    20545800.648 8  84131626.402 8      -963.223          51.000
G31  21144232.875 5 111113733.758 5      -312.293          35.000    21144236.219 5  86582093.109 5      -243.345          35.000
R10  23307379.727 5 124241431.969 5     -4080.871          34.000
R11  19391739.375 8 103623589.791 8     -1354.762          51.000    19391742.000 8  80596087.746 8     -1053.707          48.000
R21  19601633.047 7 104892299.600 7     -1759.105          46.000    19601635.047 7  81582944.644 7     -1368.193          42.000
R22  20113221.672 8 107365731.240 8      2436.027          49.000    20113225.172 8  83506707.776 8      1894.688          48.000
C11  22368730.992 8 116479872.403 8      1532.168          48.000    22368731.578 8  90069650.895 8      1184.736          51.000
C12  22035241.484 8 114743358.704 8     -1480.492          51.000    22035240.891 8  88726865.340 8     -1144.807          51.000
C24  24172429.555 8 125872258.382 8     -2979.867          49.000
C25  21974711.227 8 114428096.527 8      -235.270          49.000
E13  23821518.078 8 125182930.352 8      1709.043          51.000    23821519.844 8  95919409.780 8      1309.559          51.000
E15  23756145.445 8 124839399.238 8     -1173.770          48.000    23756147.836 7  95656174.326 7      -899.394          44.000
E27  23701604.367 8 124552754.179 8     -1224.918          51.000    23701605.180 8  95436534.676 8      -938.568          51.000
E30  26563360.266 6 139591404.640 6     -2717.039          39.000    26563365.570 6 106959648.893 6     -2081.896          37.000
> 2020 05 12 12 04 30.0000000  0 17        .000000000000
G18  21673519.938 8 113895180.770 8      2794.871          51.000    21673519.711 7  88749473.554 7      2177.822          46.000
G21  21697339.219 8 114020334.574 8      2377.188          51.000    21697338.648 7  88846988.789 7      1852.354          47.000
G25  21908194.594 6 115128326.531 6     -2531.922          39.000    21908197.188 6  89710396.584 6     -1972.923          39.000
G29  20552888.195 8 108006156.040 8     -1246.102          51.000    20552887.477 8  84160645.473 8      -970.988          51.000
G31  21146067.109 5 111123371.924 5      -329.473          35.000    21146069.227 5  86589603.379 5      -256.735          35.000
R10  23330363.344 5 124363944.976 5     -4086.055          35.000
R11  19399405.742 8 103664555.147 8     -1375.707          51.000    19399408.438 8  80627949.649 8     -1069.997          48.000
R21  19611545.430 7 104945341.717 7     -1776.398          45.000    19611548.102 6  81624199.661 6     -1381.643          40.000
R22  20099581.422 8 107292924.992 8      2418.301          49.000    20099585.938 7  83450080.701 7      1880.901          47.000
C11  22359934.422 8 116434069.753 8      1521.926          49.000    22359935.758 8  90034233.418 8      1176.847          51.000
C12  22043797.398 8 114787910.585 8     -1489.098          51.000    22043796.680 8  88761315.668 8     -1151.474          51.000
C24  24189615.953 8 125961753.961 8     -2985.977          50.000
C25  21976110.023 8 114435381.441 8      -249.859          49.000
E13  23811791.648 8 125131817.391 8      1698.957          51.000    23811793.383 8  95880245.313 8      1301.843          51.000
E15  23762876.859 8 124874772.991 8     -1183.918          48.000    23762878.953 7  95683278.881 7      -907.131          44.000
E27  23708622.344 8 124589633.702 8     -1233.191          51.000    23708623.281 8  95464792.989 8      -944.880          51.000
E30  26578879.594 6 139672954.595 6     -2719.199          39.000    26578884.016 6 107022135.151 6     -2083.476          37.000
> 2020 05 12 12 05  0.0000000  0 17        .000000000000
G18  21657604.695 8 113811542.826 8      2780.703          51.000    21657604.023 7  88684301.128 7      2166.782          45.000
G21  21683808.570 8 113949231.296 8      2362.523          51.000    21683808.203 7  88791583.645 7      1840.927          46.000
G25  21922678.297 6 115204438.370 6     -2542.355          41.000    21922681.344 6  89769704.439 6     -1981.059          41.000
G29  20560036.273 8 108043719.280 8     -1258.543          51.000    20560035.867 8  84189915.522 8      -980.683          51.000
G31  21148007.711 5 111133569.233 5      -350.375          35.000    21148007.969 5  86597549.358 5      -273.023          35.000
R10  23353377.562 5 124486636.011 5     -4093.824          31.000
R11  19407193.430 8 103706170.728 8     -1399.074          51.000    19407196.539 8  80660317.301 8     -1088.169          48.000
R21  19621558.977 7 104998923.224 7     -1796.078          45.000    19621560.805 6  81665874.134 6     -1396.950          40.000
R22  20086046.250 8 107220674.267 8      2398.027          51.000    20086050.617 7  83393885.686 7      1865.132          47.000
C11  22351200.922 8 116388592.653 8      1509.453          50.000    22351202.180 8  89999067.659 8      1167.196          51.000
C12  22052406.891 8 114832741.562 8     -1499.977          51.000    22052406.141 8  88795981.821 8     -1159.901          51.000
C24  24206842.891 8 126051459.290 8     -2994.719          49.000
C25  21977596.602 8 114443123.000 8      -266.723          49.000
E13  23802126.586 8 125081027.324 8      1686.586          51.000    23802128.320 8  95841328.272 8      1292.304          51.000
E15  23769669.703 7 124910469.719 7     -1196.242          47.000    23769672.203 7  95710630.912 7      -916.607          45.000
E27  23715691.156 8 124626781.376 8     -1243.812          51.000    23715692.617 8  95493256.769 8      -953.024          51.000
E30  26594414.703 6 139754587.507 6     -2723.578          39.000    26594418.398 6 107084684.946 6     -2086.826          38.000
> 2020 05 12 12 05 30.0000000  0 16        .000000000000
G18  21641764.336 8 113728299.449 8      2768.254          51.000    21641762.984 7  88619436.201 7      2157.084          43.000
G21  21670355.164 8 113878535.486 8      2349.816          49.000    21670354.781 7  88736496.011 7      1831.029          45.000
G25  21937213.805 6 115280820.865 6     -2550.527          41.000    21937217.148 7  89829223.212 7     -1987.424          42.000
G29  20567248.766 8 108081621.321 8     -1268.922          51.000    20567248.438 8  84219449.564 8      -988.770          51.000
G31  21150057.789 6 111144343.500 6      -368.605          38.000    21150056.609 6  86605944.825 6      -287.228          37.000
R11  19415105.844 8 103748454.725 8     -1420.512          51.000    19415109.625 8  80693204.823 8     -1104.842          49.000
R21  19631674.836 7 105053059.240 7     -1813.730          46.000    19631677.570 6  81707979.974 6     -1410.679          40.000
R22  20072619.703 8 107148998.551 8      2379.707          51.000    20072623.266 8  83338137.940 8      1850.886          48.000
C11  22342533.859 8 116343459.191 8      1498.832          51.000    22342534.664 8  89964167.614 8      1158.986          51.000
C12  22061072.977 8 114877867.924 8     -1508.926          51.000    22061072.328 8  88830876.389 8     -1166.891          51.000
C24  24224113.375 8 126141390.599 8     -3001.301          48.000
C25  21979174.375 8 114451339.399 8      -281.688          49.000
E13  23792526.609 8 125030578.807 8      1676.059          51.000    23792528.219 8  95802672.940 8      1284.214          51.000
E15  23776527.078 7 124946506.114 7     -1206.793          46.000    23776530.180 7  95738243.225 7      -924.599          45.000
E27  23722814.367 8 124664215.282 8     -1252.484          51.000    23722816.594 8  95521939.892 8      -959.711          51.000
E30  26609968.797 5 139836328.783 5     -2726.047          34.000    26609972.016 6 107147311.665 6     -2088.684          38.000
> 2020 05 12 12 06  0.0000000  0 17        .000000000000
G18  21626000.820 8 113645461.882 8      2754.711          50.000    21625998.422 6  88554887.546 6      2146.531          41.000
G21  21656981.289 8 113808257.941 8      2335.859          50.000    21656980.430 7  88681734.298 7      1820.150          44.000
G25  21951802.484 7 115357481.905 7     -2559.727          43.000    21951805.609 7  89888959.064 7     -1994.592          43.000
G29  20574527.047 8 108119869.619 8     -1280.469          50.000    20574526.750 8  84249253.413 8      -997.768          50.000
G31  21152219.516 6 111155703.365 6      -388.012          38.000    21152216.086 6  86614796.694 6      -302.347          38.000
R10  23399521.531 5 124732625.538 5     -4106.547          35.000
R11  19423144.961 8 103791415.780 8     -1442.922          51.000    19423149.367 8  80726618.941 8     -1122.273          49.000
R21  19641897.016 7 105107756.120 7     -1832.152          43.000    19641899.102 6  81750521.929 6     -1425.007          40.000
R22  20059302.797 8 107077908.164 8      2360.172          51.000    20059305.766 7  83282845.464 7      1835.692          47.000
C11  22333934.664 8 116298678.207 8      1487.039          51.000    22333934.875 8  89929540.137 8      1149.885          51.000
C12  22069797.141 8 114923296.878 8     -1519.125          51.000    22069796.484 8  88866004.924 8     -1174.602          51.000
C24  24241427.992 7 126231555.120 7     -3008.973          45.000
C25  21980845.219 8 114460039.672 8      -297.777          50.000
E13  23782993.508 8 124980481.271 8      1664.352          51.000    23782995.133 8  95764286.536 8      1275.276          51.000
E15  23783450.500 7 124982889.806 7     -1218.367          47.000    23783454.133 7  95766121.645 7      -933.629          46.000
E27  23729993.781 8 124701944.371 8     -1262.266          51.000    23729996.273 8  95550849.208 8      -967.235          51.000
E30                                                                  26625545.719 6 107210021.611 6     -2091.495          38.000
> 2020 05 12 12 06 30.0000000  0 17        .000000000000
G18  21610311.445 8 113563015.004 8      2741.539          49.000    21610308.789 7  88490643.315 7      2136.267          42.000
G21  21643684.320 8 113738382.761 8      2322.203          50.000    21643682.648 7  88627286.126 7      1809.509          44.000
G25  21966440.203 6 115434403.334 6     -2568.352          41.000    21966443.523 6  89948897.805 6     -2001.316          40.000
G29  20581867.719 8 108158445.323 8     -1291.504          50.000    20581867.484 8  84279312.391 8     -1006.367          50.000
G31  21154489.539 6 111167630.915 6      -407.250          40.000    21154483.711 6  86624090.923 6      -317.335          40.000
R10  23422649.750 6 124855891.548 6     -4112.273          37.000
R11  19431307.648 8 103835035.240 8     -1465.156          51.000    19431312.188 8  80760545.165 8     -1139.566          49.000
R21  19652218.320 7 105162992.549 7     -1850.258          45.000    19652221.406 6  81793483.653 6     -1439.089          40.000
R22  20046092.109 8 107007386.683 8      2341.066          51.000    20046095.008 7  83227995.445 7      1820.829          47.000
C11  22325399.906 8 116254232.490 8      1475.805          51.000    22325399.320 8  89895171.931 8      1141.095          51.000
C12  22078575.852 8 114969009.690 8     -1528.727          51.000    22078575.180 8  88901352.966 8     -1182.087          51.000
C24  24258782.914 7 126321933.999 7     -3016.359          44.000
C25  21982605.836 8 114469206.719 8      -313.551          51.000
E13  23773523.992 8 124930717.814 8      1652.984          51.000    23773525.898 8  95726156.121 8      1266.563          51.000
E15  23790436.414 7 125019601.907 7     -1229.379          46.000    23790440.188 7  95794251.688 7      -941.971          46.000
E27  23737226.031 8 124739951.277 8     -1271.746          51.000    23737228.422 8  95579971.394 8      -974.473          51.000
E30                                                                  26641136.000 6 107272800.853 6     -2094.201          37.000
> 2020 05 12 12 07  0.0000000  0 17        .000000000000
G18  21594701.000 8 113480983.490 8      2727.805          49.000    21594699.391 7  88426722.671 7      2125.562          43.000
G21  21630468.641 8 113668934.116 8      2308.340          49.000    21630466.312 7  88573170.326 7      1798.706          43.000
G25  21981131.055 6 115511606.594 6     -2577.590          38.000    21981134.945 6  90009056.206 6     -2008.512          38.000
G29  20589274.719 8 108197369.176 8     -1302.773          51.000    20589274.578 8  84309642.670 8     -1015.148          51.000
G31  21156871.875 6 111180148.341 6      -426.398          40.000    21156866.508 6  86633844.717 6      -332.262          40.000
R10  23445813.344 6 124979358.179 6     -4118.227          38.000
R11  19439597.664 8 103879335.332 8     -1487.488          51.000    19439602.055 8  80795000.802 8     -1156.935          49.000
R21  19662645.711 7 105218788.521 7     -1868.691          44.000    19662647.773 6  81836880.451 6     -1453.430          38.000
R22  20032992.219 8 106937457.785 8      2321.590          51.000    20032995.297 7  83173606.308 7      1805.681          47.000
C11  22316933.758 8 116210144.301 8      1464.156          51.000    22316932.195 8  89861080.146 8      1132.175          51.000
C12  22087412.867 8 115015026.726 8     -1538.516          51.000    22087412.367 8  88936936.257 8     -1189.642          51.000
C24  24276184.828 7 126412547.663 7     -3023.840          47.000
C25  21984460.508 8 114478862.794 8      -329.621          51.000
E13  23764122.266 8 124881311.192 8      1641.449          51.000    23764124.531 8  95688299.119 8      1257.734          51.000
E15  23797489.109 7 125056663.358 7     -1240.746          46.000    23797492.500 7  95822649.429 7      -950.666          46.000
E27  23744515.523 8 124778258.266 8     -1281.434          51.000    23744517.758 8  95609323.507 8      -981.845          51.000
E30  26656744.062 5 140082124.099 5     -2736.328          35.000    26656747.180 6 107335665.885 6     -2096.505          36.000
> 2020 05 12 12 07 30.0000000  0 16        .000000000000
G18  21579160.789 8 113399321.917 8      2715.199          48.000    21579160.164 7  88363090.250 7      2115.737          45.000
G21  21617325.203 8 113599866.189 8      2295.223          48.000    21617322.477 7  88519351.199 7      1788.485          43.000
G25  21995865.508 6 115589043.173 6     -2585.453          36.000    21995869.758 6  90069396.439 6     -2014.639          36.000
G29  20596738.633 8 108236591.950 8     -1313.094          51.000    20596738.508 8  84340205.870 8     -1023.190          51.000
G31  21159356.969 7 111193207.386 7      -444.941          43.000    21159352.852 7  86644020.536 7      -346.711          43.000
R10  23469004.070 6 125102974.332 6     -4123.793          39.000
R11  19448005.914 8 103924266.898 8     -1508.941          50.000    19448010.172 8  80829947.576 8     -1173.621          49.000
R21  19673167.195 7 105275092.076 7     -1885.715          43.000    19673168.781 6  81880672.131 6     -1466.670          38.000
R22  20019994.172 8 106868074.452 8      2303.000          51.000    20019997.578 7  83119641.522 7      1791.222          47.000
C11  22308526.859 8 116166366.418 8      1453.348          51.000    22308524.359 8  89827228.303 8      1123.839          51.000
C12  22096298.875 8 115061299.271 8     -1547.336          50.000    22096298.492 8  88972717.124 8     -1196.544          51.000
C24  24293623.539 8 126503347.315 8     -3030.418          50.000
C25  21986399.930 8 114488960.853 8      -344.652          51.000
E13  23754779.391 8 124832214.253 8      1630.738          51.000    23754781.828 8  95650679.396 8      1249.551          51.000
E15  23804599.031 7 125094025.164 7     -1251.188          46.000    23804602.461 7  95851277.303 7      -958.534          46.000
E27  23751853.086 8 124816817.674 8     -1290.250          51.000    23751855.227 8  95638868.999 8      -988.630          51.000
> 2020 05 12 12 08  0.0000000  0 16        .000000000000
G18  21563701.828 7 113318087.734 7      2700.980          47.000    21563702.391 7  88299790.829 7      2104.660          47.000
G21  21604264.828 8 113531235.029 8      2280.805          49.000    21604262.062 7  88465872.400 7      1777.250          43.000
G25  22010655.984 7 115666767.546 7     -2595.289          42.000    22010659.797 6  90129960.872 6     -2022.303          41.000
G29  20604269.594 8 108276167.209 8     -1324.750          51.000    20604269.367 8  84371043.732 8     -1032.273          51.000
G31  21161955.656 7 111206862.709 7      -464.734          42.000    21161952.148 7  86654661.063 7      -362.131          42.000
R10  23492232.516 6 125226793.569 6     -4130.211          38.000
R11  19456542.992 8 103969885.419 8     -1531.844          51.000    19456546.852 8  80865428.636 8     -1191.434          48.000
R21  19683793.992 7 105331956.253 7     -1904.410          44.000    19683795.547 6  81924899.782 6     -1481.208          38.000
R22  20007108.844 8 106799293.715 8      2282.922          51.000    20007112.141 8  83066145.452 8      1775.609          48.000
C11  22300189.648 8 116122953.642 8      1441.277          51.000    22300186.492 8  89793658.798 8      1114.541          50.000
C12  22105244.234 8 115107880.346 8     -1557.617          50.000    22105243.695 8  89008736.535 8     -1204.316          51.000
C24  24311107.891 8 126594385.887 8     -3038.242          50.000
C25  21988434.945 8 114499555.705 8      -361.207          51.000
E13  23745505.719 8 124783482.610 8      1618.621          51.000    23745508.609 8  95613339.585 8      1240.239          51.000
E15  23811776.141 7 125131741.026 7     -1262.711          46.000    23811779.945 7  95880176.483 7      -967.592          47.000
E27  23759249.211 8 124855684.601 8     -1300.348          51.000    23759251.312 8  95668650.108 8      -996.370          51.000
> 2020 05 12 12 08 30.0000000  0 16        .000000000000
G18  21548323.148 8 113237273.356 8      2687.250          48.000    21548324.555 8  88236818.554 8      2093.961          48.000
G21  21591286.359 8 113463032.825 8      2266.535          50.000    21591283.984 7  88412727.848 7      1766.131          44.000
G25  22025499.906 7 115744769.013 7     -2604.133          43.000    22025503.328 7  90190741.165 7     -2029.197          43.000
G29  20611865.461 8 108316083.801 8     -1335.898          51.000    20611865.195 8  84402147.554 8     -1040.960          51.000
G31  21164665.742 7 111221104.042 7      -484.191          42.000    21164662.891 7  86665758.186 7      -377.292          42.000
R10  23515495.180 5 125350803.554 5     -4136.836          35.000
R11  19465206.523 8 104016180.289 8     -1554.070          51.000    19465209.570 8  80901435.746 8     -1208.724          48.000
R21  19694523.328 6 105389367.922 6     -1922.430          41.000    19694525.219 6  81969553.321 6     -1495.220          38.000
R22  19994334.891 8 106731106.784 8      2263.398          51.000    19994338.266 8  83013111.166 8      1760.421          48.000
C11  22291920.469 8 116079896.185 8      1429.734          51.000    22291917.258 8  89760364.057 8      1105.465          51.000
C12  22114246.500 8 115154758.604 8     -1567.219          50.000    22114246.070 8  89044985.762 8     -1211.852          51.000
C24  24328635.461 8 126685652.055 8     -3045.645          49.000
C25  21990563.758 8 114510637.741 8      -377.129          51.000
E13  23736299.578 8 124735106.986 8      1606.980          51.000    23736302.930 8  95576272.570 8      1231.290          51.000
E15  23819018.641 7 125169799.802 7     -1273.984          45.000    23819022.156 7  95909338.400 7      -976.155          47.000
E27  23766701.961 8 124894849.282 8     -1310.098          51.000    23766703.836 8  95698659.370 8     -1003.838          51.000
> 2020 05 12 12 09  0.0000000  0 17        .000000000000
G12  24643899.656 4 129504565.949 4     -3269.859          29.000
G18  21533026.859 8 113156889.318 8      2671.914          49.000    21533028.727 8  88174181.652 8      2082.011          48.000
G21  21578391.547 8 113395269.397 8      2251.117          51.000    21578389.695 7  88359925.211 7      1754.120          45.000
G25  22040397.930 6 115823055.157 6     -2614.754          41.000    22040399.977 6  90251743.278 6     -2037.474          41.000
G29  20619527.680 8 108356348.958 8     -1348.289          51.000    20619527.539 8  84433522.993 8     -1050.615          51.000
G31  21167488.344 6 111235939.582 6      -504.613          40.000    21167486.469 6  86677318.331 6      -393.208          40.000
R10  23538793.742 5 125475009.411 5     -4143.191          32.000
R11  19473998.023 8 104063159.342 8     -1577.652          51.000    19474000.938 8  80937974.991 8     -1227.066          48.000
R21  19705355.344 6 105447332.510 6     -1941.617          40.000    19705357.867 6  82014636.916 6     -1510.147          37.000
R22  19981674.117 8 106663523.127 8      2242.359          51.000    19981677.797 8  82960546.088 8      1744.054          49.000
C11  22283721.047 8 116037202.379 8      1416.738          51.000    22283718.680 8  89727350.496 8      1095.500          51.000
C12  22123307.234 8 115201940.630 8     -1578.160          51.000    22123306.984 8  89081469.893 8     -1220.334          51.000
C24  24346207.477 7 126777152.376 7     -3054.301          47.000
C25  21992787.633 8 114522215.285 8      -394.488          51.000
E13  23727162.812 8 124687096.117 8      1593.945          51.000    23727166.555 8  95539485.029 8      1221.353          51.000
E15  23826327.820 7 125208208.394 7     -1286.438          45.000    23826330.672 7  95938768.355 7      -985.733          47.000
E27  23774212.938 8 124934319.961 8     -1321.160          51.000    23774214.539 8  95728903.116 8     -1012.362          51.000
> 2020 05 12 12 09 30.0000000  0 16        .000000000000
G18  21517809.211 8 113076918.460 8      2658.824          50.000    21517811.320 8  88111866.732 8      2071.811          48.000
G21  21565576.820 8 113327926.962 8      2237.805          50.000    21565575.609 7  88307450.604 7      1743.747          45.000
G25  22055345.898 6 115901605.490 6     -2622.707          38.000    22055347.133 6  90312951.297 6     -2043.671          38.000
G29  20627252.164 8 108396941.313 8     -1358.426          51.000    20627252.180 8  84465153.392 8     -1058.514          51.000
G31  21170420.078 6 111251349.111 6      -523.371          40.000    21170419.203 6  86689325.757 6      -407.822          40.000
R10  23562126.758 5 125599389.937 5     -4148.762          34.000
R11  19482913.898 8 104110802.018 8     -1599.168          51.000    19482916.594 8  80975030.374 8     -1243.800          48.000
R21  19716286.578 6 105505826.904 6     -1958.590          40.000    19716287.805 6  82060132.491 6     -1523.348          36.000
R22  19969123.453 8 106596524.078 8      2223.531          51.000    19969126.703 8  82908435.696 8      1729.410          48.000
C11  22275587.852 8 115994852.947 8      1405.984          51.000    22275586.727 8  89694603.225 8      1087.205          51.000
C12  22132422.492 8 115249405.676 8     -1586.836          51.000    22132422.164 8  89118172.852 8     -1226.958          51.000
C24  24363819.352 7 126868865.916 7     -3060.711          44.000
C25  21995102.898 8 114534269.213 8      -409.672          51.000
E13  23718091.633 8 124639430.998 8      1583.098          50.000    23718095.961 8  95502962.429 8      1213.068          51.000
E15  23833699.477 7 125246945.957 7     -1296.793          44.000    23833702.312 7  95968450.380 7      -993.539          47.000
E27  23781778.336 8 124974077.171 8     -1330.000          51.000    23781780.172 8  95759366.389 8     -1019.097          51.000
> 2020 05 12 12 10  0.0000000  0 16        .000000000000
G18  21502671.055 8 112997366.320 8      2644.996          51.000    21502673.227 7  88049878.085 7      2061.039          47.000
G21  21552843.016 8 113261010.536 8      2223.840          50.000    21552842.297 7  88255307.944 7      1732.862          45.000
G25  22070343.406 5 115980422.608 5     -2631.156          34.000    22070346.133 5  90374367.124 5     -2050.255          33.000
G29  20635039.305 8 108437862.626 8     -1368.973          51.000    20635039.297 8  84497040.113 8     -1066.732          51.000
G31  21173461.906 6 111267335.481 6      -542.027          41.000    21173461.758 6  86701782.670 6      -422.359          41.000
R10  23585494.227 5 125723945.211 5     -4154.203          34.000
R11  19491954.422 8 104159110.751 8     -1621.043          51.000    19491957.023 8  81012603.823 8     -1260.811          48.000
R21  19727317.453 6 105564851.428 6     -1975.516          38.000    19727318.164 6  82106040.450 6     -1536.512          36.000
R22  19956683.109 8 106530114.191 8      2204.234          51.000    19956685.508 7  82856783.590 7      1714.405          47.000
C11  22267521.500 8 115952851.237 8      1394.625          50.000    22267521.273 8  89662124.844 8      1078.416          51.000
C12  22141592.328 8 115297155.342 8     -1595.949          51.000    22141591.969 8  89155095.917 8     -1234.150          51.000
C24  24381471.305 7 126960794.281 7     -3067.254          42.000
C25  21997509.945 8 114546802.857 8      -425.387          51.000
E13  23709087.406 8 124592115.403 8      1571.703          51.000    23709091.578 8  95466707.640 8      1204.277          51.000
E15  23841133.820 7 125286014.365 7     -1307.305          44.000    23841137.430 8  95998385.927 8     -1001.773          48.000
E27  23789398.844 8 125014124.136 8     -1339.398          51.000    23789400.930 8  95790051.694 8     -1026.274          51.000
> 2020 05 12 12 10 30.0000000  0 16        .000000000000
G18  21487611.930 8 112918229.204 8      2630.820          51.000    21487613.367 7  87988212.825 7      2049.990          44.000
G21  21540189.445 8 113194515.839 8      2209.289          49.000    21540189.016 7  88203493.899 7      1721.524          45.000
G25  22085390.094 6 116059499.604 6     -2640.344          37.000    22085394.398 6  90435985.548 6     -2057.411          37.000
G29  20642887.617 8 108479105.673 8     -1380.238          51.000    20642887.492 8  84529177.541 8     -1075.510          51.000
G31  21176612.305 6 111283892.386 6      -561.422          39.000    21176612.219 6  86714684.154 6      -437.469          40.000
R10  23608892.898 4 125848683.050 4     -4160.312          28.000
R11  19501118.484 8 104208078.878 8     -1643.344          51.000    19501120.844 8  81050690.115 8     -1278.156          48.000
R21  19738444.008 6 105624396.790 6     -1993.535          39.000    19738445.578 5  82152353.557 5     -1550.527          35.000
R22  19944351.352 8 106464288.245 8      2184.367          51.000    19944352.484 7  82805585.668 7      1698.952          46.000
C11  22259520.984 8 115911191.343 8      1382.805          50.000    22259520.906 8  89629910.791 8      1069.381          51.000
C12  22150815.438 8 115345182.218 8     -1605.637          51.000    22150815.062 8  89192233.328 8     -1241.547          51.000
C24  24399163.594 7 127052929.973 7     -3074.652          42.000
C25  22000007.648 8 114559810.451 8      -441.578          51.000
E13  23700149.359 8 124545143.846 8      1559.812          51.000    23700152.188 8  95430716.435 8      1195.223          51.000
E15  23848629.711 7 125325406.336 7     -1318.633          43.000    23848633.609 8  96028569.370 8     -1010.342          48.000
E27  23797073.352 8 125054454.945 8     -1349.215          51.000    23797075.336 8  95820954.524 8     -1033.802          51.000
> 2020 05 12 12 11  0.0000000  0 17        .000000000000
G18  21472633.250 8 112839514.448 8      2617.121          51.000    21472633.180 7  87926876.696 7      2039.315          44.000
G21  21527617.398 8 113128448.943 8      2195.414          49.000    21527617.102 7  88152013.223 7      1710.712          46.000
G25  22100488.828 6 116138840.913 6     -2648.375          38.000    22100493.391 6  90497809.904 6     -2063.672          38.000
G26  22032227.609 5 115780137.100 5      2601.125          30.000
G29  20650797.852 8 108520673.935 8     -1390.617          51.000    20650797.508 8  84561568.382 8     -1083.598          51.000
G31  21179872.070 6 111301024.105 6      -580.492          40.000    21179871.758 6  86728033.469 6      -452.332          39.000
R10  23632321.539 5 125973572.837 5     -4165.352          32.000
R11  19510406.531 8 104257710.599 8     -1665.086          51.000    19510408.742 7  81089292.547 7     -1295.070          47.000
R21  19749669.281 6 105684465.049 6     -2010.531          41.000    19749671.336 5  82199073.255 5     -1563.750          35.000
R22  19932129.719 8 106399052.517 8      2164.988          50.000    19932131.305 8  82754846.826 8      1683.883          48.000
C11  22251587.539 8 115869878.466 8      1371.688          51.000    22251587.312 8  89597965.078 8      1060.718          51.000
C12  22160092.438 8 115393489.727 8     -1614.480          51.000    22160092.117 8  89229587.745 8     -1248.392          51.000
C24  24416897.914 7 127145276.386 7     -3081.129          43.000
C25  22002597.484 8 114573297.050 8      -457.125          51.000
E13  23691278.086 8 124498521.830 8      1548.684          51.000    23691279.578 8  95394993.067 8      1186.690          51.000
E15  23856187.789 6 125365125.508 6     -1328.898          41.000    23856191.523 8  96059003.533 8     -1018.241          48.000
E27  23804802.859 8 125095074.632 8     -1358.359          51.000    23804805.273 8  95852078.690 8     -1040.800          51.000
> 2020 05 12 12 11 30.0000000  0 16        .000000000000
G18  21457732.297 8 112761207.386 8      2603.199          51.000    21457730.680 7  87865858.241 7      2028.470          44.000
G21  21515123.891 8 113062794.808 8      2181.273          48.000    21515123.836 7  88100854.177 7      1699.694          46.000
G25  22115635.039 6 116218428.789 6     -2657.137          41.000    22115638.445 6  90559826.421 6     -2070.496          41.000
G29  20658766.492 8 108562549.206 8     -1401.102          51.000    20658766.125 8  84594198.453 8     -1091.767          51.000
G31  21183238.414 6 111318713.383 6      -598.934          40.000    21183237.586 6  86741817.297 6      -466.702          40.000
R10  23655778.203 5 126098613.029 5     -4170.965          33.000
R11  19519815.375 8 104307988.156 8     -1686.898          51.000    19519817.492 7  81128397.295 7     -1312.032          47.000
R21  19760987.977 6 105745035.756 6     -2027.621          40.000    19760991.672 5  82246183.871 5     -1577.039          35.000
R22  19920016.227 8 106334390.804 8      2145.578          51.000    19920018.727 8  82704554.384 8      1668.783          48.000
C11  22243717.500 8 115828895.862 8      1360.441          50.000    22243717.523 8  89566274.736 8      1051.892          51.000
C12  22169419.758 8 115442059.613 8     -1623.512          51.000    22169419.492 8  89267145.066 8     -1255.454          51.000
C24  24434669.867 7 127237815.142 7     -3088.066          44.000
C25  22005276.016 8 114587246.037 8      -472.844          51.000
E13  23682470.180 8 124452232.917 8      1537.156          51.000    23682471.188 8  95359524.956 8      1177.824          51.000
E15  23863804.531 6 125405153.611 6     -1339.660          40.000    23863808.555 8  96089674.417 8     -1026.484          49.000
E27  23812584.641 8 125135966.323 8     -1367.812          51.000    23812587.164 8  95883411.283 8     -1048.082          51.000
> 2020 05 12 12 12  0.0000000  0 16        .000000000000
G18  21442911.680 8 112683322.780 8      2589.109          51.000    21442909.766 7  87805168.959 7      2017.488          46.000
G21  21502711.078 7 112997567.625 7      2167.277          46.000    21502711.477 7  88050027.802 7      1688.788          46.000
G25  22130830.109 7 116298274.940 7     -2665.945          42.000    22130832.984 7  90622044.163 7     -2077.363          42.000
G29  20666795.648 8 108604742.435 8     -1411.664          51.000    20666795.273 8  84627076.290 8     -1099.998          51.000
G31  21186713.227 6 111336972.175 6      -618.207          41.000    21186711.945 7  86756044.883 7      -481.720          42.000
R10  23679265.602 5 126223812.858 5     -4175.496          35.000
R11  19529347.250 8 104358923.582 8     -1708.711          51.000    19529349.414 7  81168013.709 7     -1328.997          46.000
R21  19772403.727 6 105806118.648 6     -2044.566          40.000    19772406.977 5  82293692.736 5     -1590.218          34.000
R22  19908013.086 8 106270316.812 8      2126.141          51.000    19908015.766 7  82654719.047 7      1653.665          47.000
C11  22235913.047 8 115788255.891 8      1349.066          50.000    22235913.688 8  89534849.335 8      1043.150          51.000
C12  22178799.594 8 115490902.664 8     -1632.531          51.000    22178799.195 8  89304913.593 8     -1262.461          51.000
C24  24452480.695 7 127330557.058 7     -3094.750          44.000
C25  22008045.727 8 114601669.882 8      -488.574          51.000
E13  23673728.305 8 124406290.143 8      1525.711          51.000    23673729.219 8  95324322.065 8      1169.024          51.000
E15  23871482.133 6 125445501.830 6     -1350.180          41.000    23871486.656 8  96120590.567 8     -1034.625          49.000
E27  23820420.766 8 125177142.485 8     -1377.285          51.000    23820422.914 8  95914961.836 8     -1055.275          51.000
> 2020 05 12 12 12 30.0000000  0 15        .000000000000
G18  21428174.094 8 112605875.515 8      2574.438          51.000    21428172.617 7  87744820.456 7      2006.058          47.000
G21  21490382.133 8 112932781.631 8      2152.309          48.000    21490382.867 7  87999545.187 7      1677.124          46.000
G25  22146076.281 7 116378391.166 7     -2674.633          42.000    22146078.758 7  90684472.369 7     -2084.129          42.000
G29  20674887.477 8 108647265.122 8     -1422.777          51.000    20674886.758 8  84660210.844 8     -1108.658          51.000
G31  21190298.703 6 111355812.720 6      -637.785          41.000    21190297.148 6  86770725.859 6      -496.975          40.000
R11  19539004.219 8 104410528.607 8     -1731.156          51.000    19539006.344 7  81208150.908 7     -1346.455          46.000
R21  19783915.680 6 105867723.297 6     -2062.051          39.000    19783919.008 5  82341607.481 5     -1603.814          35.000
R22  19896123.125 8 106206844.680 8      2105.844          51.000    19896124.938 7  82605351.813 7      1637.875          47.000
C11  22228176.961 8 115747971.103 8      1337.098          51.000    22228177.875 8  89503698.589 8      1033.820          51.000
C12  22188234.086 8 115540029.968 8     -1642.145          51.000    22188233.445 8  89342901.916 8     -1269.853          51.000
C24  24470332.078 7 127423512.967 7     -3101.941          44.000
C25  22010909.148 8 114616581.234 8      -504.984          51.000
E13  23665054.836 8 124360706.611 8      1513.609          51.000    23665055.680 8  95289394.437 8      1159.725          51.000
E15  23879223.016 6 125486181.468 6     -1361.344          41.000    23879227.344 8  96151760.641 8     -1043.152          49.000
E27  23828313.250 8 125218615.805 8     -1387.285          51.000    23828315.164 8  95946740.072 8     -1062.967          51.000
> 2020 05 12 12 13  0.0000000  0 15        .000000000000
G18  21413519.414 8 112528865.659 8      2559.703          50.000    21413518.703 8  87684812.783 8      1994.574          48.000
G21  21478137.844 8 112868436.064 8      2137.426          51.000    21478138.211 7  87949405.793 7      1665.527          46.000
G25  22161372.656 6 116458774.672 6     -2683.898          41.000    22161374.469 6  90747108.836 6     -2091.349          41.000
G29  20683041.148 8 108690113.180 8     -1433.715          51.000    20683040.102 8  84693598.943 8     -1117.180          51.000
G31  21193994.195 6 111375232.169 6      -656.773          41.000    21193992.945 6  86785857.854 6      -511.775          41.000
R11  19548785.977 8 104462800.174 8     -1753.500          51.000    19548787.992 7  81248806.533 7     -1363.833          47.000
R21  19795523.414 6 105929844.492 6     -2079.398          40.000    19795526.961 5  82389923.948 5     -1617.316          32.000
R22  19884345.031 8 106143973.067 8      2085.699          51.000    19884346.695 8  82556451.696 8      1622.214          48.000
C11  22220508.820 8 115708039.562 8      1325.203          51.000    22220509.484 8  89472820.969 8      1024.692          51.000
C12  22197722.398 8 115589437.786 8     -1651.668          51.000    22197721.758 8  89381107.165 8     -1277.108          51.000
C24  24488223.398 7 127516679.100 7     -3109.059          45.000
C25  22013865.734 8 114631977.967 8      -521.277          51.000
E13  23656449.055 8 124315480.595 8      1501.551          51.000    23656449.953 8  95254740.743 8      1150.563          51.000
E15  23887026.836 6 125527188.968 6     -1372.652          39.000    23887030.312 8  96183181.921 8     -1051.557          49.000
E27  23836261.844 8 125260384.130 8     -1397.223          51.000    23836263.297 8  95978744.346 8     -1070.554          51.000
> 2020 05 12 12 13 30.0000000  0 15        .000000000000
G18  21398945.180 8 112452278.775 8      2546.066          51.000    21398944.984 8  87625134.681 8      1983.948          48.000
G21  21465975.039 8 112804515.778 8      2123.645          51.000    21465974.602 7  87899597.810 7      1654.791          46.000
G25  22176717.062 7 116539407.769 7     -2691.797          43.000    22176718.258 7  90809939.809 7     -2097.504          43.000
G29  20691253.375 8 108733269.259 8     -1443.555          51.000    20691252.492 8  84727227.066 8     -1124.848          51.000
G31  21197796.758 7 111395213.210 7      -675.199          43.000    21197795.453 7  86801427.480 7      -526.129          43.000
R11  19558688.992 8 104515720.346 8     -1774.680          51.000    19558691.742 8  81289966.603 8     -1380.309          48.000
R21  19807225.062 6 105992461.985 6     -2095.469          40.000    19807226.312 5  82438626.379 5     -1629.806          33.000
R22  19872676.391 8 106081685.902 8      2066.641          51.000    19872677.836 7  82508006.156 7      1607.387          47.000
C11  22212905.031 8 115668444.655 8      1314.406          50.000    22212905.227 8  89442203.685 8      1016.255          51.000
C12  22207260.977 8 115639108.200 8     -1659.840          51.000    22207260.547 8  89419515.503 8     -1283.578          51.000
C24  24506152.234 7 127610037.412 7     -3115.051          47.000
C25  22016912.469 8 114647843.609 8      -536.512          51.000
E13  23647907.820 8 124270595.870 8      1490.535          51.000    23647908.891 8  95220348.570 8      1142.077          51.000
E15  23894889.609 6 125568506.202 6     -1382.543          40.000    23894892.625 8  96214840.605 8     -1059.142          50.000
E27  23844263.195 8 125302430.734 8     -1406.090          51.000    23844264.555 8  96010961.846 8     -1077.394          51.000
> 2020 05 12 12 14  0.0000000  0 16        .000000000000
G18  21384452.211 8 112376118.256 8      2531.418          51.000    21384452.242 8  87565788.807 8      1972.533          48.000
G21  21453893.727 8 112741023.526 8      2109.145          51.000    21453892.445 7  87850123.364 7      1643.492          47.000
G25  22192108.898 6 116620290.992 6     -2700.621          40.000    22192109.992 6  90872965.640 6     -2104.380          40.000
G26  21943777.938 5 115315331.322 5      2562.559          33.000
G29  20699524.102 8 108776732.754 8     -1454.086          51.000    20699523.461 8  84761094.726 8     -1133.054          51.000
G31  21201706.531 7 111415756.581 7      -694.332          45.000    21201704.875 7  86817435.285 7      -541.038          45.000
