     3.02           OBSERVATION DATA    M (MIXED)           RINEX VERSION / TYPE
SAVERINEX           SC600               20200518 075931 LCL PGM / RUN BY / DATE
       G = GPS       R = GLONASS       C = COMPASS          COMMENT
       S = SBAS      J = QZSS          E = GALILEO          COMMENT
BEAN                                                        MARKER NAME
1                                                           MARKER NUMBER
GEODETIC                                                    MARKER TYPE
Unige DICCA         GTER                                    OBSERVER / AGENCY
SC60291900056       SC600               2.12(191202)        REC # / TYPE / VERS
                    HEMA45          NONE                    ANT # / TYPE
  4509407.8091   693652.4678  4442337.6214                  APPROX POSITION XYZ
        0.0000        0.0000        0.0000                  ANTENNA: DELTA H/E/N
G    8 C1C L1C D1C S1C C2Y L2Y D2Y S2Y                      SYS / # / OBS TYPES
R    8 C1C L1C D1C S1C C2P L2P D2P S2P                      SYS / # / OBS TYPES
C    8 C1I L1I D1I S1I C7I L7I D7I S7I                      SYS / # / OBS TYPES
E    8 C1C L1C D1C S1C C7Q L7Q D7Q S7Q                      SYS / # / OBS TYPES
DBHZ                                                        COMMENT
     30.000                                                 INTERVAL
  2020    05    18    05    00    0.0000000     GPS         TIME OF FIRST OBS
  2020    05    18    05    59   30.0000000     GPS         TIME OF LAST OBS
     0                                                      RCV CLOCK OFFS APPL
G L1C  0.00000                                              SYS / PHASE SHIFT
G L2Y  0.00000                                              SYS / PHASE SHIFT
R L1C  0.00000                                              SYS / PHASE SHIFT
R L2P  0.25000                                              SYS / PHASE SHIFT
C L1I  0.00000                                              SYS / PHASE SHIFT
C L7I  0.00000                                              SYS / PHASE SHIFT
E L1C  0.50000                                              SYS / PHASE SHIFT
E L7Q -0.25000                                              SYS / PHASE SHIFT
 13 R01  1 R02 -4 R03  5 R04  6 R05  1 R10 -5 R12 -1 R13 -2 GLONASS SLOT / FRQ #
    R14 -7 R15  0 R17  4 R22 -3 R23  3                      GLONASS SLOT / FRQ #
 C1C   71.950 C2C   71.950 C2P   71.950                     GLONASS COD/PHS/BIS
    18                                                      LEAP SECONDS
*** Above antenna height is from mark to ANTENNA BOTTOM.    COMMENT
    17     4        0.0000        ANT MEASURE TYPE/HEIGT    COMMENT
    0.0000    0.0000    0.0458    0.0405    0.0000          COMMENT
                    BASE STATION                            COMMENT
                                                            END OF HEADER
> 2020 05 18 05 00  0.0000000  0 17        .000000000000
G13  20330489.406 8 106837437.825 8      -982.117          50.000    20330488.617 8  83249927.465 8      -765.289          49.000
G15  20380441.703 7 107099932.681 7       640.121          46.000    20380440.734 7  83454496.279 7       498.796          45.000
G17  23319434.125 5 122544447.158 5      2203.281          34.000    23319434.297 5  95489174.415 5      1716.843          34.000
G19  24375043.258 7 128091706.388 7      3403.664          47.000    24375039.148 6  99811700.859 6      2652.206          39.000
G28  21586983.883 6 113440365.581 6     -1958.625          39.000    21586982.312 5  88395079.750 5     -1526.201          34.000
R03  22104505.906 7 118327126.397 7     -4194.176          42.000    22104511.773 6  92032184.542 6     -3262.137          38.000
R04  19381819.078 8 103788765.008 8     -1106.578          51.000    19381819.969 7  80724597.853 7      -860.672          47.000
R14  19338567.438 7 103085365.514 7      -615.805          42.000    19338570.930 6  80177505.400 6      -478.959          41.000
R15  21148315.375 7 113010182.656 7      2660.125          45.000    21148317.688 6  87896816.653 6      2068.986          39.000
C05  39793787.250 6 207216691.994 6        19.500          37.000    39793783.883 6 160233079.602 6        15.070          38.000
C14  22243142.289 8 115825900.302 8      -756.586          48.000    22243139.266 8  89563920.387 8      -585.013          50.000
C24  22646897.727 5 117928237.716 5      1489.367          31.000
C26  21696848.484 8 112981141.114 8     -1100.969          51.000
E07  24701083.633 8 129805071.819 8     -2154.559          51.000    24701085.930 8  99461003.373 8     -1650.893          51.000
E21  26758451.094 6 140616662.632 6      2637.688          37.000    26758449.266 7 107745193.095 7      2021.010          43.000
E27  23311511.789 8 122502838.587 8       705.719          51.000    23311515.297 8  93865854.183 8       540.749          51.000
E30  23488620.961 8 123433520.020 8     -1932.574          48.000    23488621.477 7  94578937.731 7     -1480.825          45.000
> 2020 05 18 05 00 30.0000000  0 16        .000000000000
G13  20336132.289 8 106867091.584 8      -994.848          51.000    20336131.734 8  83273034.274 8      -775.206          50.000
G15  20376829.969 7 107080953.061 7       625.316          45.000    20376828.750 7  83439706.935 7       487.260          46.000
G17  23306882.250 5 122478492.259 5      2194.852          30.000    23306884.133 4  95437796.355 4      1710.259          28.000
G19  24355614.125 7 127989605.937 7      3403.168          46.000    24355609.078 6  99732142.052 6      2651.819          37.000
G28  21598195.570 6 113499285.550 6     -1969.434          37.000    21598194.469 6  88440991.456 6     -1534.621          37.000
R03  22128033.484 6 118453063.609 6     -4201.699          40.000    22128036.656 6  92130135.712 6     -3267.985          40.000
R04  19388084.445 8 103822316.248 8     -1130.207          51.000    19388085.500 7  80750693.246 7      -879.050          46.000
R14  19342071.891 7 103104043.783 7      -629.465          44.000    19342074.156 6  80192032.907 6      -489.587          41.000
R15  21133409.805 7 112930533.107 7      2649.961          44.000    21133411.836 6  87834867.008 6      2061.081          38.000
C05  39793668.070 6 207216071.051 6        21.844          37.000    39793664.664 6 160232599.453 6        16.954          38.000
C14  22247541.453 8 115848810.935 8      -770.871          49.000    22247539.039 8  89581636.341 8      -595.996          50.000
C26  21703208.242 8 113014258.982 8     -1106.887          51.000
E07  24713403.086 8 129869809.386 8     -2161.242          51.000    24713405.352 8  99510607.461 8     -1656.074          51.000
E21  26743403.758 5 140537575.855 5      2634.770          35.000    26743400.664 7 107684594.202 7      2018.900          43.000
E27  23307506.836 8 122481794.444 8       697.324          51.000    23307511.195 8  93849729.450 8       534.248          51.000
E30  23499665.867 8 123491561.551 8     -1936.742          48.000    23499666.555 7  94623411.080 7     -1484.051          45.000
> 2020 05 18 05 01  0.0000000  0 16        .000000000000
G13  20341853.656 8 106897156.992 8     -1008.305          51.000    20341853.312 8  83296461.843 8      -785.692          49.000
G15  20373307.984 7 107062444.877 7       609.859          45.000    20373306.492 7  83425284.974 7       475.215          46.000
G19  24336192.758 7 127887547.183 7      3402.008          45.000    24336187.383 6  99652615.812 6      2650.918          37.000
G28  21609472.031 6 113558545.499 6     -1980.145          39.000    21609470.922 6  88487167.958 6     -1542.973          38.000
R03  22151608.281 4 118579248.059 4     -4208.691          29.000    22151607.805 6  92228279.124 6     -3273.430          40.000
R04  19394486.250 8 103856600.812 8     -1154.293          48.000    19394488.016 7  80777358.981 7      -897.786          46.000
R14  19345657.453 7 103123156.552 7      -643.535          42.000    19345659.727 6  80206898.372 6      -500.527          41.000
R15  21118565.781 7 112851212.248 7      2639.254          45.000    21118568.211 6  87773173.073 6      2052.753          39.000
C05  39793539.977 6 207215403.514 6        24.215          37.000    39793536.398 6 160232083.264 6        18.344          38.000
C14  22252027.352 8 115872171.792 8      -785.520          49.000    22252025.391 8  89599700.453 8      -607.380          51.000
C24  22629798.305 6 117839231.825 6      1476.555          38.000
C26  21709607.086 8 113047579.105 8     -1113.328          51.000
E07  24725764.711 8 129934771.762 8     -2168.516          51.000    24725767.195 8  99560383.794 8     -1661.506          51.000
E21  26728377.977 5 140458599.920 5      2631.086          34.000    26728372.742 7 107624080.223 7      2016.239          43.000
E27  23303555.219 8 122461027.475 8       688.312          51.000    23303559.586 8  93833817.072 8       527.417          51.000
E30  23510738.547 8 123549749.986 8     -1941.367          48.000    23510740.242 7  94667997.005 7     -1487.538          45.000
> 2020 05 18 05 01 30.0000000  0 18        .000000000000
G13  20347662.375 8 106927681.294 8     -1022.121          51.000    20347662.312 8  83320246.993 8      -796.458          49.000
G15  20369884.828 7 107044456.203 7       593.938          47.000    20369883.109 7  83411267.825 7       462.808          47.000
G17  23281961.719 5 122347520.713 5      2174.305          31.000    23281965.438 5  95335775.251 5      1694.282          30.000
G19  24316788.297 6 127785580.486 6      3400.516          41.000    24316780.961 5  99573161.379 5      2649.759          34.000
G24  22465357.938 5 118056235.250 5      2669.039          33.000    22465359.391 5  91991869.582 5      2079.771          33.000
G28  21620822.102 5 113618190.629 5     -1991.441          35.000    21620821.523 5  88533644.635 5     -1551.769          33.000
R03  22175221.102 5 118705718.039 5     -4217.180          32.000    22175230.578 6  92326677.891 6     -3280.029          39.000
R04  19401033.703 7 103891666.108 7     -1178.707          47.000    19401035.914 7  80804631.967 7      -916.772          45.000
R14  19349333.336 7 103142749.818 7      -657.891          42.000    19349334.820 6  80222137.573 6      -511.696          38.000
R15  21103792.430 7 112772268.596 7      2628.148          44.000    21103795.352 6  87711772.447 6      2044.115          40.000
C05  39793411.875 6 207214736.120 6        25.180          37.000    39793408.203 6 160231567.151 6        19.543          38.000
C14  22256608.859 8 115896029.112 8      -800.520          50.000    22256606.969 8  89618148.442 8      -618.910          51.000
C24  22621328.289 6 117795113.360 6      1469.035          40.000
C26  21716053.734 8 113081147.234 8     -1120.023          51.000
E07  24738177.453 8 130000005.209 8     -2175.918          51.000    24738180.039 8  99610367.852 8     -1667.250          51.000
E21  26713382.344 6 140379782.571 6      2627.730          36.000    26713374.203 6 107563687.815 6      2013.309          41.000
E27  23299665.570 8 122440584.435 8       679.141          51.000    23299669.492 8  93818152.916 8       520.339          51.000
E30  23521848.023 8 123608131.088 8     -1946.199          48.000    23521850.773 7  94712730.556 7     -1491.220          45.000
> 2020 05 18 05 02  0.0000000  0 19        .000000000000
G05  24616061.820 4 129358269.654 4     -3639.906          29.000
G13  20353562.281 8 106958685.036 8     -1041.125          51.000    20353562.133 8  83344405.721 8      -811.266          48.000
G15  20366564.633 7 107027008.572 7       572.793          47.000    20366563.219 7  83397672.264 7       446.332          47.000
G17  23269609.695 5 122282579.059 5      2158.695          31.000    23269612.250 4  95285171.257 4      1682.109          28.000
G19  24297405.367 6 127683729.426 6      3393.289          40.000    24297396.852 5  99493796.944 5      2644.115          33.000
G24  22450155.375 5 117976348.968 5      2659.094          30.000
G28  21632248.820 6 113678233.912 6     -2008.352          39.000    21632248.516 6  88580440.546 6     -1564.955          38.000
R03  22198915.539 6 118832511.886 6     -4230.934          38.000    22198917.055 6  92425293.117 6     -3290.726          38.000
R04  19407730.750 7 103927531.719 7     -1208.723          46.000    19407733.438 7  80832527.426 7      -940.118          46.000
R14  19353102.133 6 103162842.516 6      -678.074          40.000    19353103.461 6  80237765.203 6      -527.388          38.000
R15  21089093.273 7 112693723.841 7      2611.723          42.000    21089096.695 6  87650682.088 6      2031.337          39.000
C05  39793287.555 6 207214088.958 6        21.461          37.000    39793283.875 6 160231066.720 6        16.574          38.000
C14  22261289.734 8 115920402.512 8      -820.785          50.000    22261287.711 8  89636995.498 8      -634.698          51.000
C24  22612910.359 7 117751282.190 7      1456.590          42.000
C26  21722551.492 8 113114982.592 8     -1132.055          51.000
E07  24750645.266 8 130065529.307 8     -2188.699          50.000    24750648.312 8  99660574.611 8     -1676.992          51.000
E21  26698421.180 6 140301144.981 6      2618.508          38.000    26698408.578 6 107503433.084 6      2006.464          37.000
E27  23295841.352 8 122420485.372 8       664.516          51.000    23295844.695 8  93802752.323 8       509.165          51.000
E30  23532997.883 8 123666723.848 8     -1956.324          48.000    23533001.234 7  94757626.286 7     -1498.882          45.000
> 2020 05 18 05 02 30.0000000  0 17        .000000000000
G13  20359540.750 8 106990101.568 8     -1055.664          51.000    20359540.305 8  83368886.123 8      -822.595          49.000
G15  20363334.938 8 107010036.829 8       556.266          48.000    20363333.930 8  83384447.510 8       433.454          48.000
G19  24278033.391 7 127581930.940 7      3390.734          42.000    24278025.773 6  99414473.372 6      2642.128          37.000
G24  22434987.906 5 117896661.421 5      2653.457          35.000    22435005.461 5  91867606.965 5      2067.644          32.000
G28  21643739.367 6 113738616.631 6     -2019.820          41.000    21643738.680 6  88627491.959 6     -1573.889          37.000
R03  22222647.859 6 118959534.929 6     -4239.566          41.000    22222645.609 5  92524088.799 5     -3297.441          35.000
R04  19414565.047 7 103964129.168 7     -1233.801          47.000    19414567.891 7  80860992.092 7      -959.623          46.000
R14  19356952.188 7 103183365.336 7      -692.766          42.000    19356953.492 6  80253727.408 6      -538.818          37.000
R15  21074456.477 7 112615510.575 7      2600.109          43.000    21074459.609 6  87589849.613 6      2022.313          40.000
C05  39793154.570 6 207213396.234 6        22.023          37.000    39793150.961 6 160230531.031 6        17.359          38.000
C14  22266056.711 8 115945225.562 8      -836.414          49.000    22266054.383 8  89656190.215 8      -646.790          49.000
C24  22604535.102 6 117707672.532 6      1448.328          41.000
C26  21729087.688 8 113149018.322 8     -1139.363          51.000
E07  24763155.828 8 130131276.814 8     -2196.840          50.000    24763159.680 8  99710952.537 8     -1683.260          51.000
E21  26683480.242 6 140222621.311 6      2614.027          37.000    26683462.297 5 107443265.606 5      2003.297          32.000
E27  23292069.727 8 122400663.475 8       654.566          51.000    23292072.422 8  93787564.109 8       501.590          51.000
E30  23544175.055 7 123725460.406 7     -1961.770          47.000    23544178.336 7  94802632.194 7     -1503.177          44.000
> 2020 05 18 05 03  0.0000000  0 18        .000000000000
G05  24657609.898 5 129576604.795 5     -3637.363          31.000    24657608.391 5 100968773.310 5     -2834.321          31.000
G13  20365612.531 8 107022008.347 8     -1070.004          51.000    20365611.734 8  83393748.521 8      -833.769          50.000
G15  20360210.836 8 106993619.424 8       539.656          48.000    20360209.914 8  83371654.696 8       420.511          48.000
G19  24258687.664 7 127480265.358 7      3388.344          44.000    24258682.211 6  99335253.489 6      2640.271          41.000
G24  22419855.789 5 117817148.038 5      2648.184          32.000
G28  21655308.219 6 113799409.434 6     -2031.746          38.000    21655307.219 6  88674862.967 6     -1583.176          38.000
R03  22246435.656 6 119086871.488 6     -4248.055          40.000    22246431.188 5  92623128.282 5     -3304.046          31.000
R04  19421550.938 8 104001536.794 8     -1258.613          50.000    19421553.625 8  80890086.909 8      -978.921          48.000
R14  19360896.719 6 103204395.285 6      -707.539          40.000    19360897.430 6  80270083.979 6      -550.308          37.000
R15  21059897.547 7 112537708.990 7      2588.320          44.000    21059900.633 6  87529337.283 6      2013.141          41.000
C05  39793027.594 6 207212734.836 6        23.438          37.000    39793024.047 6 160230019.595 6        18.126          38.000
C14  22270924.539 8 115970574.534 8      -852.031          50.000    22270921.602 8  89675791.626 8      -658.830          49.000
C24  22596216.375 6 117664361.223 6      1440.684          37.000
C26  21735677.016 8 113183330.420 8     -1146.652          51.000
E07  24775724.039 8 130197324.535 8     -2204.848          51.000    24775728.703 8  99761560.497 8     -1689.429          51.000
E21  26668575.664 5 140144309.836 5      2609.520          31.000
E27  23288365.555 8 122381196.058 8       644.691          51.000    23288367.602 8  93772647.503 8       494.017          51.000
E30  23555394.172 7 123784417.026 7     -1967.070          46.000    23555396.711 7  94847806.734 7     -1507.314          44.000
> 2020 05 18 05 03 30.0000000  0 16        .000000000000
G13  20371772.406 8 107054377.946 8     -1087.137          51.000    20371771.375 8  83418971.555 8      -847.120          50.000
G15  20357187.117 8 106977729.323 8       520.375          49.000    20357186.266 8  83359272.801 8       405.487          49.000
G19  24239362.758 7 127378708.688 7      3382.867          45.000    24239359.188 7  99256118.429 7      2636.000          43.000
G24  22404762.086 5 117737830.463 5      2640.254          35.000    22404761.086 5  91743732.414 5      2057.344          34.000
G28  21666949.289 7 113860582.242 7     -2045.922          42.000    21666947.641 6  88722530.094 6     -1594.228          38.000
R03  22270275.688 6 119214489.575 6     -4258.945          41.000    22270268.883 4  92722386.727 4     -3312.519          28.000
R04  19428682.969 8 104039724.931 8     -1286.414          51.000    19428685.195 8  80919788.793 8     -1000.544          48.000
R14  19364930.656 7 103225902.169 7      -725.148          42.000    19364932.195 6  80286811.570 6      -564.007          38.000
R15  21045410.891 7 112460291.131 7      2573.684          42.000    21045413.672 6  87469123.358 6      2001.751          40.000
C05  39792901.312 6 207212078.154 6        21.625          37.000    39792897.750 6 160229511.021 6        16.773          38.000
C14  22275887.992 8 115996421.177 8      -870.336          50.000    22275884.875 8  89695777.871 8      -672.884          50.000
C24  22587947.680 5 117621320.593 5      1429.473          34.000
C26  21742313.891 8 113217890.223 8     -1156.508          51.000
E07  24788344.328 8 130263643.742 8     -2215.512          51.000    24788349.312 8  99812376.476 8     -1697.636          51.000
E27  23284723.281 8 122362054.784 8       632.230          51.000    23284724.836 8  93757980.810 8       484.454          51.000
E30  23566649.617 7 123843564.449 7     -1975.129          47.000    23566651.469 7  94893127.449 7     -1513.339          44.000
> 2020 05 18 05 04  0.0000000  0 17        .000000000000
G13  20378018.562 8 107087201.098 8     -1101.844          51.000    20378017.414 8  83444548.015 8      -858.580          50.000
G15  20354262.148 8 106962358.657 8       503.512          48.000    20354261.375 8  83347295.641 8       392.344          48.000
G17  23220827.758 5 122026272.196 5      2111.711          32.000
G19  24220056.781 7 127277255.176 7      3379.809          44.000    24220055.328 7  99177063.792 7      2633.620          44.000
G24  22389704.891 5 117658700.808 5      2634.531          32.000    22389705.125 5  91682072.929 5      2052.885          32.000
G28  21678660.656 7 113922124.178 7     -2057.684          43.000    21678658.859 6  88770484.779 6     -1603.393          37.000
R03  22294166.398 7 119342376.748 7     -4267.602          42.000    22294159.055 4  92821854.409 4     -3319.249          29.000
R04  19435958.484 8 104078683.604 8     -1311.652          51.000    19435960.188 8  80950089.973 8     -1020.177          48.000
R14  19369052.742 7 103247875.090 7      -740.461          42.000    19369055.164 6  80303901.621 6      -575.911          39.000
R15  21030991.500 5 112383248.419 5      2561.391          35.000    21030996.320 6  87409201.198 6      1992.190          38.000
C05  39792773.914 6 207211415.318 6        21.957          37.000    39792770.477 6 160228998.461 6        17.157          38.000
C14  22280945.438 8 116022756.012 8      -886.152          51.000    22280942.789 8  89716141.638 8      -685.232          51.000
C24  22579727.805 5 117578541.750 5      1421.207          31.000
C26  21748996.492 8 113252687.901 8     -1164.121          51.000
E07  24801014.656 8 130330224.654 8     -2223.910          51.000    24801019.664 8  99863392.997 8     -1703.990          51.000
E27  23281141.258 8 122343230.359 8       622.055          51.000    23281141.906 8  93743556.910 8       476.645          51.000
E30  23577939.266 7 123902892.352 7     -1980.750          47.000    23577941.211 7  94938586.468 7     -1517.759          44.000
> 2020 05 18 05 04 30.0000000  0 17        .000000000000
G13  20384363.914 8 107120545.589 8     -1113.477          51.000    20384362.570 8  83470530.713 8      -867.644          50.000
G15  20351449.164 8 106947576.743 8       489.645          49.000    20351448.070 8  83335777.252 8       381.541          48.000
G17  23208822.992 6 121963186.645 6      2103.059          37.000    23208837.445 6  95036304.964 6      1638.747          36.000
G19  24200783.680 7 127175976.340 7      3379.762          44.000    24200783.617 7  99098145.215 7      2633.578          44.000
G28  21690454.641 6 113984100.707 6     -2066.664          39.000    21690453.398 6  88818778.168 6     -1610.385          38.000
R03  22318119.250 6 119470599.077 6     -4272.852          41.000    22318113.953 5  92921582.793 5     -3323.332          34.000
R04  19443390.922 8 104118481.232 8     -1333.703          51.000    19443391.914 8  80981043.673 8     -1037.325          48.000
R14  19373275.031 7 103270381.499 7      -752.250          45.000    19373277.578 6  80321406.608 6      -585.086          38.000
R15  21016656.555 6 112306651.229 6      2552.676          41.000    21016660.641 6  87349625.525 6      1985.414          36.000
C05  39792658.594 6 207210814.841 6        25.594          37.000    39792655.203 6 160228534.127 6        19.733          38.000
C14  22286109.562 8 116049645.985 8      -898.957          51.000    22286107.562 8  89736934.645 8      -695.088          51.000
C24  22571573.602 5 117536092.378 5      1416.145          32.000
C26  21755737.531 8 113287790.136 8     -1168.496          51.000
E07  24813747.531 8 130397134.613 8     -2229.090          51.000    24813752.555 8  99914661.654 8     -1707.995          51.000
E21  26624032.516 6 139910217.448 6      2595.824          36.000    26624048.062 5 107203959.193 5      1988.933          35.000
E27  23277632.641 8 122324790.627 8       614.992          51.000    23277631.977 8  93729427.767 8       471.246          51.000
E30  23589276.117 7 123962467.589 7     -1983.305          46.000    23589278.453 7  94984235.012 7     -1519.639          44.000
> 2020 05 18 05 05  0.0000000  0 17        .000000000000
G13  20390783.984 8 107154283.337 8     -1134.551          51.000    20390782.859 8  83496819.834 8      -884.066          50.000
G15  20348723.898 8 106933255.696 8       466.227          50.000    20348722.641 8  83324617.993 8       363.293          50.000
G17  23196872.305 6 121900381.292 6      2085.047          39.000    23196894.273 5  94987365.763 5      1624.709          32.000
G19  24181519.422 7 127074746.598 7      3370.191          42.000    24181520.266 7  99019264.880 7      2626.123          42.000
G28  21702306.219 7 114046381.214 7     -2084.551          42.000    21702304.531 6  88867308.445 6     -1624.328          37.000
R03  22342109.531 6 119599021.906 6     -4287.574          41.000    22342106.383 6  93021467.173 6     -3334.780          36.000
R04  19450955.047 8 104158985.447 8     -1365.582          51.000    19450955.570 8  81012546.937 8     -1062.122          48.000
R14  19377572.680 7 103293288.910 7      -773.840          44.000    19377574.375 6  80339223.420 6      -601.875          39.000
R15  21002383.180 7 112230368.885 7      2534.094          45.000    21002384.914 6  87290294.866 6      1970.965          38.000
C05  39792530.750 6 207210149.219 6        19.910          37.000    39792527.359 6 160228019.416 6        15.305          38.000
C14  22291355.680 8 116076962.838 8      -921.137          51.000    22291354.125 8  89758057.749 8      -712.281          51.000
C24  22563461.016 6 117493844.864 6      1401.336          37.000
C26  21762512.305 8 113323068.312 8     -1182.305          51.000
E07  24826518.164 8 130464244.031 8     -2243.809          51.000    24826523.148 8  99966083.144 8     -1719.273          51.000
E21  26609251.375 6 139832530.606 6      2584.391          41.000    26609256.516 5 107144432.916 5      1980.352          35.000
E27  23274172.516 8 122306606.459 8       598.387          51.000    23274171.234 8  93715494.447 8       458.504          51.000
E30  23600635.453 7 124022160.050 7     -1995.098          47.000    23600637.898 7  95029973.376 7     -1528.753          44.000
> 2020 05 18 05 05 30.0000000  0 17        .000000000000
G13  20397290.883 8 107188477.548 8     -1146.770          51.000    20397289.922 8  83523464.645 8      -893.590          50.000
G15  20346098.664 8 106919460.353 8       451.723          50.000    20346097.430 8  83313868.367 8       351.992          50.000
G17  23184991.148 5 121837941.974 5      2076.156          35.000    23185018.117 4  94938769.527 4      1617.763          29.000
G19  24162278.039 7 126973633.082 7      3369.203          45.000    24162278.711 7  98940475.118 7      2625.353          44.000
G28  21714227.359 6 114109027.230 6     -2094.047          41.000    21714224.938 6  88916123.463 6     -1631.728          37.000
R03  22366149.156 6 119727706.604 6     -4293.273          40.000    22366146.906 6  93121555.269 6     -3339.213          38.000
R04  19458662.477 8 104200260.147 8     -1387.984          51.000    19458663.227 8  81044649.460 8     -1079.543          48.000
R14  19381957.109 7 103316659.968 7      -785.934          45.000    19381959.844 6  80357400.963 6      -611.282          41.000
R15  20988181.320 7 112154467.177 7      2524.207          43.000    20988182.109 6  87231260.237 6      1963.275          40.000
C05  39792402.523 6 207209481.624 6        23.016          37.000    39792399.109 6 160227503.196 6        17.637          38.000
C14  22296695.625 8 116104769.081 8      -934.375          51.000    22296694.586 8  89779559.270 8      -722.572          51.000
C24  22555400.398 6 117451862.341 6      1395.984          38.000
C26  21769332.852 8 113358584.732 8     -1187.207          51.000
E07  24839338.688 8 130531615.851 8     -2249.445          51.000    24839343.438 8 100017705.692 8     -1723.631          51.000
E21  26594501.078 7 139755005.577 7      2582.121          43.000    26594496.922 5 107085030.662 5      1978.440          35.000
E27  23270772.641 8 122288741.260 8       590.828          51.000    23270771.719 8  93701805.543 8       452.671          51.000
E30  23612028.945 7 124082032.229 7     -1998.098          47.000    23612031.258 7  95075849.422 7     -1531.031          44.000
> 2020 05 18 05 06  0.0000000  0 18        .000000000000
G13  20403883.336 8 107223122.164 8     -1165.516          50.000    20403882.578 8  83550460.426 8      -908.194          50.000
G15  20343572.484 8 106906185.397 8       430.613          50.000    20343571.445 8  83303524.238 8       335.543          50.000
G17  23173177.164 5 121775865.659 5      2059.781          35.000    23173173.055 5  94890277.185 5      1605.024          34.000
G19  24143058.594 7 126872632.948 7      3361.543          46.000    24143058.547 7  98861773.757 7      2619.384          43.000
G28  21726216.641 6 114172030.664 6     -2109.328          40.000    21726214.477 6  88965217.062 6     -1643.629          38.000
G30  23860991.031 5 125390320.576 5     -2891.016          30.000
R03  22390235.414 6 119856643.501 6     -4305.422          37.000    22390234.531 6  93221839.529 6     -3348.661          39.000
R04  19466512.438 8 104242298.126 8     -1417.293          51.000    19466513.531 8  81077345.671 8     -1102.339          48.000
R14  19386427.133 7 103340486.925 7      -805.004          43.000    19386430.102 6  80375932.994 6      -626.114          41.000
R15  20974048.422 7 112078940.241 7      2508.016          42.000    20974048.617 6  87172517.139 6      1950.682          38.000
C05  39792272.797 6 207208806.114 6        19.359          37.000    39792269.328 6 160226980.835 6        14.973          38.000
C14  22302128.125 8 116133058.014 8      -954.191          51.000    22302127.109 8  89801434.029 8      -737.808          51.000
C24  22547389.297 6 117410138.800 6      1383.145          37.000
C26  21776197.828 8 113394332.401 8     -1198.645          51.000
E07  24852207.852 8 130599243.124 8     -2261.684          51.000    24852212.320 8 100069523.963 8     -1733.017          51.000
E21  26579779.531 7 139677636.945 7      2573.059          44.000    26579772.297 6 107025748.231 6      1971.618          37.000
E27  23267432.094 8 122271188.533 8       576.648          51.000    23267431.609 8  93688356.045 8       441.856          51.000
E30  23623455.320 7 124142076.600 7     -2007.570          45.000    23623457.242 7  95121857.407 7     -1538.265          44.000
> 2020 05 18 05 06 30.0000000  0 17        .000000000000
G13  20410567.992 8 107258251.679 8     -1179.152          49.000    20410567.547 8  83577834.058 8      -918.820          49.000
G15  20341152.094 8 106893466.074 8       414.574          50.000    20341151.484 8  83293613.049 8       323.045          50.000
G17  23161440.180 5 121714189.301 5      2048.570          33.000    23161436.578 5  94842217.838 5      1596.295          32.000
G19  24123868.242 8 126771784.099 8      3358.812          48.000    24123867.406 7  98783190.224 7      2617.256          43.000
G28  21738280.156 6 114235423.586 6     -2119.668          41.000    21738277.703 6  89014614.134 6     -1651.689          39.000
R03  22414374.219 6 119985864.171 6     -4312.266          37.000    22414374.789 6  93322344.484 6     -3353.984          38.000
R04  19474511.109 8 104285132.993 8     -1441.258          50.000    19474512.695 8  81110661.659 8     -1120.978          48.000
R14  19390988.500 7 103364802.376 7      -818.840          45.000    19390991.805 7  80394845.001 7      -636.878          42.000
R15  20959992.344 7 112003823.699 7      2497.066          44.000    20959990.859 6  87114093.247 6      1942.166          38.000
C05  39792148.031 6 207208156.704 6        20.805          37.000    39792144.617 6 160226478.636 6        16.456          37.000
C14  22307659.492 8 116161863.008 8      -968.891          50.000    22307657.984 8  89823707.846 8      -749.208          50.000
C24  22539434.109 6 117368708.381 6      1376.043          38.000
C26  21783113.531 8 113430344.409 8     -1204.895          51.000
E07  24865132.164 8 130667159.397 8     -2268.750          51.000    24865135.922 8 100121563.664 8     -1738.378          51.000
E21  26565093.391 7 139600459.731 7      2569.242          44.000    26565086.117 6 106966612.450 6      1968.673          40.000
E27  23264157.531 8 122253982.290 8       567.656          51.000    23264156.977 8  93675172.026 8       434.951          51.000
E30  23634920.664 7 124202326.239 7     -2011.863          43.000    23634922.367 7  95168022.683 7     -1541.591          43.000
> 2020 05 18 05 07  0.0000000  0 16        .000000000000
G13  20417333.156 8 107293803.526 8     -1193.113          50.000    20417332.891 8  83605536.798 8      -929.699          50.000
G15  20338825.867 8 106881241.232 8       398.195          51.000    20338825.445 8  83284087.190 8       310.282          51.000
G19  24104695.523 8 126671027.756 8      3355.977          48.000    24104694.102 7  98704678.806 7      2615.050          42.000
G28  21750405.523 6 114299141.987 6     -2130.180          41.000    21750402.547 5  89064264.758 5     -1659.880          35.000
R03  22438553.883 6 120115301.884 6     -4319.516          37.000    22438554.500 6  93423018.336 6     -3359.620          37.000
R04  19482646.922 8 104328700.386 8     -1465.461          51.000    19482648.734 8  81144547.376 8     -1139.806          48.000
R14  19395629.648 7 103389541.999 7      -832.820          45.000    19395633.320 6  80414086.928 6      -647.752          41.000
R15  20946002.398 7 111929055.455 7      2485.551          44.000    20946000.578 6  87055940.193 6      1933.203          38.000
C05  39792016.422 6 207207471.992 6        22.215          37.000    39792013.242 6 160225949.171 6        17.395          38.000
C14  22313278.266 8 116191121.937 8      -983.844          51.000    22313276.438 8  89846332.682 8      -760.785          51.000
C24  22531524.070 7 117327509.649 7      1368.316          42.000
C26  21790068.086 8 113466558.473 8     -1211.504          51.000
E07  24878099.703 8 130735301.870 8     -2276.176          51.000    24878102.320 8 100173776.691 8     -1744.101          51.000
E21  26550431.477 7 139523412.705 7      2564.805          44.000    26550425.781 7 106907576.415 7      1965.399          42.000
E27  23260936.953 8 122237060.198 8       558.285          51.000    23260936.531 8  93662205.738 8       427.795          51.000
E30  23646412.656 7 124262717.799 7     -2016.344          43.000    23646414.359 7  95214296.756 7     -1545.060          43.000
> 2020 05 18 05 07 30.0000000  0 16        .000000000000
G13  20424185.672 8 107329813.656 8     -1208.117          50.000    20424185.695 8  83633596.632 8      -941.393          50.000
G15  20336600.758 8 106869547.829 8       380.699          51.000    20336600.211 8  83274975.431 8       296.649          51.000
G19  24085547.734 8 126570402.618 8      3351.711          48.000    24085545.609 7  98626269.599 7      2611.720          42.000
G28  21762599.000 6 114363219.039 6     -2142.043          38.000    21762595.836 6  89114194.928 6     -1669.121          37.000
R03  22462779.445 6 120244989.626 6     -4327.332          37.000    22462781.398 5  93523886.590 5     -3365.703          35.000
R04  19490925.922 8 104373035.313 8     -1490.793          49.000    19490927.938 7  81179030.079 7     -1159.506          47.000
R14  19400357.086 7 103414739.990 7      -847.781          45.000    19400359.641 6  80433685.327 6      -659.388          41.000
R15  20932083.820 6 111854672.193 6      2472.758          37.000    20932081.359 6  86998086.443 6      1923.250          37.000
C05  39791884.992 6 207206786.276 6        22.293          37.000    39791881.859 6 160225419.697 6        17.447          38.000
C14  22318990.992 8 116220869.219 8      -999.832          51.000    22318989.508 8  89869335.166 8      -773.191          51.000
C24  22523664.961 7 117286577.655 7      1359.914          42.000
C26  21797068.141 8 113503008.822 8     -1219.234          51.000
E07  24891117.016 8 130803705.169 8     -2284.672          51.000    24891118.305 8 100226189.568 8     -1750.629          51.000
E21  26535800.906 7 139446531.931 7      2559.656          44.000    26535797.617 7 106848667.784 7      1961.421          44.000
E27  23257776.875 8 122220457.342 8       547.891          51.000    23257777.383 8  93649484.075 8       419.758          51.000
E30  23657937.977 7 124323285.585 7     -2022.047          42.000    23657939.672 7  95260705.811 7     -1549.364          42.000
> 2020 05 18 05 08  0.0000000  0 16        .000000000000
G13  20431127.422 8 107366291.577 8     -1223.684          51.000    20431127.438 8  83662020.958 8      -953.520          50.000
G15  20334478.766 8 106858396.700 8       362.785          51.000    20334478.328 8  83266286.214 8       282.690          51.000
G19  24066426.930 7 126469922.322 7      3347.008          44.000    24066425.273 7  98547973.275 7      2608.058          43.000
G28  21774861.633 6 114427662.393 6     -2154.184          37.000    21774859.445 6  89164410.595 6     -1678.575          37.000
R03  22487053.156 6 120374934.033 6     -4335.629          38.000    22487057.117 5  93624954.426 5     -3372.156          35.000
R04  19499350.188 8 104418146.849 8     -1516.617          50.000    19499352.164 7  81214116.801 7     -1179.591          46.000
R14  19405171.883 7 103440404.445 7      -863.121          45.000    19405174.273 6  80453646.586 6      -671.316          41.000
R15  20918235.375 6 111780684.528 6      2459.551          40.000    20918235.227 6  86940540.323 6      1912.981          38.000
C05  39791755.469 6 207206111.429 6        22.551          37.000    39791752.203 6 160224897.861 6        17.498          38.000
C14  22324799.336 8 116251114.095 8     -1016.375          51.000    22324798.523 8  89892722.411 8      -785.986          51.000
C24  22515857.008 6 117245922.455 6      1350.723          40.000
C26  21804115.094 8 113539704.458 8     -1227.195          51.000
E07  24904185.602 8 130872378.434 8     -2293.637          51.000    24904186.172 8 100278809.317 8     -1757.441          51.000
E21  26521204.273 7 139369828.125 7      2553.875          45.000    26521202.945 7 106789894.740 7      1956.832          45.000
E27  23254679.602 8 122204183.370 8       537.020          51.000    23254680.875 8  93637014.404 8       411.453          51.000
E30  23669498.641 6 124384038.204 6     -2028.098          41.000    23669500.312 7  95307256.517 7     -1554.209          42.000
> 2020 05 18 05 08 30.0000000  0 17        .000000000000
G13  20438157.453 8 107403232.893 8     -1238.953          51.000    20438156.883 8  83690806.385 8      -965.418          50.000
G15  20332459.273 8 106847783.868 8       344.938          51.000    20332458.531 8  83258016.463 8       268.782          51.000
G17  23115196.422 5 121471160.461 5      1999.223          32.000
G19  24047332.656 7 126369585.548 7      3342.242          43.000    24047331.883 7  98469788.808 7      2604.342          43.000
G28  21787192.867 7 114492465.568 7     -2166.090          42.000    21787191.961 6  89214906.568 6     -1687.862          37.000
R03  22511374.508 6 120505127.087 6     -4343.422          37.000    22511378.773 5  93726215.661 5     -3378.220          31.000
R04  19507918.836 8 104464028.793 8     -1542.102          49.000    19507919.961 7  81249802.747 7     -1199.412          45.000
R14  19410073.133 7 103466528.877 7      -878.227          46.000    19410075.383 6  80473965.607 6      -683.065          41.000
R15  20904461.875 6 111707088.132 6      2446.711          38.000    20904462.875 6  86883298.704 6      1903.000          39.000
C05  39791626.953 6 207205441.940 6        22.551          37.000    39791623.562 6 160224380.158 6        17.272          38.000
C14  22330702.422 8 116281851.205 8     -1032.621          51.000    22330701.961 8  89916490.290 8      -798.512          51.000
C24  22508100.086 6 117205539.502 6      1341.676          38.000
C26  21811207.891 8 113576639.909 8     -1235.059          51.000
E07  24917303.891 8 130941316.181 8     -2302.238          49.000    24917304.883 8 100331631.760 8     -1764.038          51.000
E21  26506640.859 7 139293297.304 7      2548.215          46.000    26506640.484 7 106731254.217 7      1952.570          45.000
E27  23251644.211 8 122188233.254 8       526.449          51.000    23251645.758 8  93624792.870 8       403.407          51.000
E30  23681093.695 6 124444969.752 6     -2033.895          38.000    23681095.242 7  95353944.315 7     -1558.585          42.000
> 2020 05 18 05 09  0.0000000  0 16        .000000000000
G13  20445274.477 8 107440631.536 8     -1254.297          51.000    20445273.133 8  83719948.167 8      -977.377          49.000
G15  20330541.180 8 106837704.015 8       327.000          51.000    20330540.094 8  83250162.024 8       254.802          51.000
G19  24028265.195 7 126269389.421 7      3337.203          43.000    24028265.539 7  98391713.896 7      2600.418          42.000
G28  21799591.445 7 114557620.254 7     -2177.816          43.000    21799590.211 5  89265676.398 5     -1697.003          35.000
R03  22535741.398 6 120635558.951 6     -4351.812          36.000    22535744.234 4  93827662.658 4     -3384.743          27.000
R04  19516629.719 8 104510673.794 8     -1567.715          50.000    19516629.891 7  81286082.180 7     -1219.331          44.000
R14  19415058.859 7 103493105.426 7      -893.445          45.000    19415060.695 6  80494636.260 6      -694.902          41.000
R15  20890756.727 4 111633877.720 4      2433.734          29.000    20890762.773 6  86826357.224 6      1892.901          39.000
C05  39791498.406 6 207204771.958 6        22.324          37.000    39791494.836 6 160223862.091 6        17.250          38.000
C14  22336698.867 8 116313073.902 8     -1048.996          51.000    22336698.234 8  89940633.644 8      -811.081          51.000
C24  22500394.633 6 117165422.805 6      1332.535          39.000
C26  21818345.641 8 113613808.346 8     -1242.930          51.000
E07  24930470.719 8 131010511.560 8     -2310.891          49.000    24930472.828 8 100384651.630 8     -1770.608          51.000
E21  26492109.258 7 139216934.125 7      2542.656          46.000    26492109.164 7 106672742.179 7      1948.236          45.000
E27  23248669.258 8 122172600.635 8       515.746          51.000    23248671.281 8  93612814.621 8       395.167          51.000
E30  23692720.961 6 124506072.970 6     -2039.918          39.000    23692722.883 6  95400763.659 6     -1562.803          41.000
> 2020 05 18 05 09 30.0000000  0 17        .000000000000
G13  20452477.398 8 107478482.525 8     -1269.246          51.000    20452475.969 8  83749442.402 8      -989.026          48.000
G15  20328723.914 8 106828153.830 8       309.402          51.000    20328722.734 8  83242720.303 8       241.093          51.000
G19  24009225.359 7 126169333.292 7      3332.785          47.000    24009225.656 7  98313748.059 7      2596.975          45.000
G28  21812055.812 7 114623119.958 7     -2189.090          43.000    21812053.859 5  89316715.111 5     -1705.781          33.000
G30  23976770.352 5 125998778.329 5     -2904.074          31.000
R03  22560151.930 6 120766221.847 6     -4359.543          36.000    22560152.500 4  93929316.386 4     -3390.753          25.000
R04  19525481.625 8 104558075.790 8     -1592.758          50.000    19525481.109 7  81322950.417 7     -1238.812          44.000
R14  19420128.305 7 103520127.834 7      -908.191          45.000    19420130.703 7  80515653.664 7      -706.371          42.000
R15  20877125.016 6 111561037.475 6      2421.402          39.000    20877134.305 6  86769712.983 6      1883.310          38.000
C05  39791368.805 6 207204097.165 6        22.207          37.000    39791365.188 6 160223340.260 6        17.471          38.000
C14  22342787.398 8 116344777.008 8     -1064.828          51.000    22342785.992 8  89965148.476 8      -823.384          51.000
C24  22492740.875 7 117125567.990 7      1323.887          42.000
C26  21825527.281 8 113651204.484 8     -1250.438          51.000
E07  24943686.297 8 131079959.361 8     -2319.184          51.000    24943688.719 8 100437864.890 8     -1777.082          51.000
E21  26477608.594 7 139140734.844 7      2537.168          45.000    26477608.570 7 106614355.714 7      1944.028          45.000
E27  23245753.867 8 122157280.675 8       505.426          51.000    23245756.742 8  93601075.956 8       387.265          51.000
E30  23704379.281 6 124567342.144 6     -2045.090          39.000    23704382.195 6  95447710.166 6     -1567.071          41.000
> 2020 05 18 05 10  0.0000000  0 17        .000000000000
G13  20459765.070 8 107516779.628 8     -1284.152          51.000    20459763.641 8  83779284.256 8     -1000.638          48.000
G15  20327006.352 8 106819128.114 8       291.945          51.000    20327005.352 8  83235687.272 8       227.490          51.000
G19  23990212.016 7 126069414.340 7      3328.102          47.000    23990212.125 7  98235889.127 7      2593.326          45.000
G24  22211905.523 5 116724329.016 5      2556.605          33.000
G28  21824584.172 7 114688956.338 7     -2200.129          43.000    21824582.391 5  89368016.140 5     -1714.386          33.000
R03  22584603.656 6 120897105.908 6     -4366.516          36.000
R04  19534473.250 8 104606227.133 8     -1617.598          50.000    19534472.664 7  81360401.432 7     -1258.135          44.000
R14  19425279.406 7 103547587.881 7      -922.793          43.000    19425283.031 7  80537011.467 7      -717.728          42.000
R15  20863568.266 6 111488585.680 6      2408.789          40.000    20863575.805 6  86713361.657 6      1873.506          37.000
C05  39791237.141 6 207203411.319 6        23.293          37.000    39791233.516 6 160222809.951 6        17.707          37.000
C14  22348966.508 8 116376953.491 8     -1080.555          51.000    22348964.125 8  89990029.355 8      -835.514          51.000
C24  22485137.156 7 117085968.862 7      1315.590          44.000
C26  21832751.203 8 113688821.207 8     -1257.672          51.000
E07  24956948.984 8 131149652.418 8     -2327.258          51.000    24956950.812 8 100491266.048 8     -1783.238          50.000
E21  26463137.789 7 139064693.787 7      2532.184          43.000    26463138.172 7 106556090.466 7      1940.068          46.000
E27  23242896.992 8 122142266.720 8       495.270          51.000    23242900.312 8  93589571.755 8       379.510          51.000
E30  23716068.211 6 124628769.732 6     -2050.512          41.000    23716071.914 6  95494778.036 6     -1571.138          40.000
> 2020 05 18 05 10 30.0000000  0 17        .000000000000
G13  20467133.156 8 107555499.737 8     -1298.090          51.000    20467131.648 8  83809455.760 8     -1011.499          48.000
G15  20325384.289 8 106810604.541 8       275.445          51.000    20325383.273 8  83229045.511 8       214.633          51.000
G19  23971221.141 8 125969612.949 8      3324.555          48.000    23971220.906 7  98158121.840 7      2590.565          44.000
G24  22197322.047 6 116647733.872 6      2551.152          36.000
G28  21837171.586 6 114755104.022 6     -2210.512          41.000    21837169.953 6  89419559.790 6     -1722.477          37.000
R03  22609090.844 5 121028183.968 5     -4372.820          34.000
R04  19543600.547 8 104655102.771 8     -1641.508          51.000    19543599.969 7  81398415.778 7     -1276.728          45.000
R14  19430507.844 7 103575460.006 7      -936.023          44.000    19430511.414 7  80558689.756 7      -728.021          42.000
R15  20850076.977 6 111416487.046 6      2397.168          38.000    20850083.969 6  86657284.946 6      1864.464          38.000
C05  39791098.961 6 207202691.603 6        24.191          37.000    39791095.352 6 160222253.391 6        18.845          38.000
C14  22355231.602 8 116409579.665 8     -1095.266          50.000    22355228.953 8  90015257.946 8      -846.983          51.000
C24  22477578.422 7 117046602.503 7      1308.078          44.000
C26  21840012.820 8 113726634.699 8     -1263.980          51.000
E07  24970253.359 8 131219566.750 8     -2334.438          51.000    24970254.219 8 100544836.742 8     -1788.779          49.000
E21  26448692.125 6 138988788.595 6      2527.496          40.000    26448694.398 8 106497929.282 8      1936.674          48.000
E27  23240094.164 8 122127535.224 8       486.012          51.000    23240097.406 8  93578283.973 8       372.369          51.000
E30  23727783.008 7 124690331.287 7     -2054.676          42.000    23727787.219 6  95541948.578 6     -1574.374          40.000
> 2020 05 18 05 11  0.0000000  0 18        .000000000000
G13  20474583.086 8 107594650.647 8     -1315.125          50.000    20474582.086 8  83839962.936 8     -1024.773          49.000
G15  20323859.430 8 106802591.628 8       255.723          51.000    20323858.398 8  83222801.670 8       199.261          51.000
G19  23952254.672 8 125869939.927 8      3317.238          48.000    23952253.516 7  98080454.559 7      2584.861          42.000
G24  22182785.219 5 116571321.479 5      2542.543          34.000
G28  21849819.266 6 114821568.987 6     -2223.582          41.000    21849817.453 5  89471350.646 5     -1732.661          34.000
G30  24026604.562 5 126260655.635 5     -2913.270          34.000    24026606.961 5  98384918.921 5     -2270.077          33.000
R03  22633614.758 5 121159460.884 5     -4382.066          33.000    22633616.203 4  94235186.986 4     -3408.277          25.000
R04  19552864.516 8 104704709.465 8     -1668.684          51.000    19552864.258 7  81436998.730 7     -1297.865          46.000
R14  19435815.172 7 103603750.565 7      -952.801          44.000    19435819.070 7  80580693.524 7      -741.067          43.000
R15  20836653.938 6 111344750.525 6      2382.145          39.000    20836660.352 6  86601489.852 6      1852.779          38.000
C05  39790955.750 6 207201945.998 6        22.359          37.000    39790952.195 6 160221676.834 6        17.341          38.000
C14  22361584.680 8 116442662.613 8     -1113.207          51.000    22361582.422 8  90040839.759 8      -860.802          51.000
C24  22470065.547 7 117007476.920 7      1297.383          44.000
C26  21847313.523 8 113764652.065 8     -1273.523          51.000
E07  24983600.758 8 131289709.480 8     -2344.711          51.000    24983600.516 8 100598582.407 8     -1796.618          48.000
E21  26434274.086 6 138913027.834 6      2520.293          39.000    26434278.711 8 106439878.773 8      1931.005          50.000
E27  23237346.477 8 122113093.809 8       473.711          51.000    23237349.836 8  93567218.466 8       362.979          51.000
E30  23739524.781 7 124752033.648 7     -2061.965          42.000    23739529.047 6  95589226.971 6     -1580.031          40.000
> 2020 05 18 05 11 30.0000000  0 18        .000000000000
G13  20482132.266 8 107634322.344 8     -1329.047          51.000    20482131.688 8  83870875.915 8     -1035.621          49.000
G15  20322449.234 8 106795180.632 8       238.996          51.000    20322448.289 8  83217026.860 8       186.231          51.000
G17  23048012.672 5 121118157.418 5      1921.754          32.000    23048020.805 5  94377767.322 5      1497.468          31.000
G19  23933330.133 7 125770489.253 7      3313.266          45.000    23933328.812 7  98002960.528 7      2581.768          44.000
G24  22168288.102 5 116495139.286 5      2535.375          33.000
G28  21862544.078 7 114888438.985 7     -2233.723          42.000    21862542.453 6  89523457.092 6     -1740.566          36.000
G30  24043246.273 5 126348105.419 5     -2915.391          33.000    24043249.023 5  98453061.626 5     -2271.733          31.000
R04  19562281.828 8 104755137.415 8     -1692.574          51.000    19562282.234 8  81476220.432 8     -1316.450          48.000
R14  19441217.688 7 103632549.461 7      -966.469          43.000    19441221.969 7  80603092.667 7      -751.698          42.000
R15  20823316.180 5 111273468.062 5      2370.902          35.000    20823320.242 5  86546048.008 5      1844.038          34.000
C05  39790824.727 6 207201264.996 6        23.367          37.000    39790821.172 6 160221149.466 6        18.132          37.000
C14  22368042.812 8 116476290.948 8     -1128.094          51.000    22368041.164 8  90066843.311 8      -872.347          51.000
C24  22462615.180 7 116968681.496 7      1289.867          43.000
C26  21854670.367 8 113802961.777 8     -1279.887          51.000
E07  24997008.359 8 131360169.989 8     -2352.035          51.000    24997007.516 8 100652571.552 8     -1802.191          48.000
E21  26419901.891 7 138837502.352 7      2515.465          42.000    26419907.883 8 106382008.583 8      1927.482          50.000
E27  23234671.039 8 122099032.296 8       464.316          51.000    23234674.492 8  93556444.060 8       355.781          51.000
E30  23751310.367 6 124813965.662 6     -2066.113          41.000    23751314.164 6  95636681.334 6     -1583.374          40.000
> 2020 05 18 05 12  0.0000000  0 18        .000000000000
G13  20489766.922 8 107674442.326 8     -1345.832          51.000    20489766.258 8  83902138.222 8     -1048.700          50.000
G15  20321140.023 8 106788300.261 8       219.516          51.000    20321138.812 8  83211665.523 8       171.051          51.000
G17  23037083.430 5 121060714.125 5      1907.199          31.000    23037091.570 5  94333044.405 5      1486.129          31.000
G19  23914434.008 7 125671192.274 7      3306.176          44.000    23914433.062 7  97925586.266 7      2576.238          43.000
G28  21875332.164 7 114955640.220 7     -2246.797          42.000    21875330.477 5  89575821.676 5     -1750.751          35.000
G30  24059899.219 5 126435621.183 5     -2919.234          31.000    24059905.250 5  98521255.754 5     -2274.728          31.000
R03  22682817.016 5 121422879.061 5     -4397.152          32.000
R04  19571838.469 8 104806311.743 8     -1719.215          51.000    19571839.484 8  81516022.681 8     -1337.167          48.000
R14  19446701.445 7 103661781.328 7      -982.605          43.000    19446705.133 6  80625828.553 6      -764.249          41.000
R15  20810045.070 5 111202574.435 5      2356.207          30.000    20810047.250 4  86490901.011 4      1832.596          25.000
C05  39790692.273 6 207200575.163 6        22.223          37.000    39790688.734 6 160220616.043 6        17.051          37.000
C14  22374591.734 8 116510392.346 8     -1145.684          51.000    22374590.742 8  90093212.650 8      -885.800          51.000
C24  22455214.539 7 116930144.766 7      1279.316          44.000
C26  21862069.438 8 113841491.522 8     -1289.074          51.000
E07  25010462.727 8 131430875.208 8     -2361.867          50.000    25010462.500 8 100706748.221 8     -1809.730          50.000
E21  26405561.594 7 138762140.683 7      2508.312          46.000    26405567.883 8 106324263.918 8      1922.023          50.000
E27  23232054.281 8 122085278.147 8       452.391          51.000    23232057.273 8  93545905.158 8       346.628          51.000
E30  23763125.914 6 124876053.996 6     -2073.141          39.000    23763128.680 6  95684255.491 6     -1588.651          40.000
> 2020 05 18 05 12 30.0000000  0 16        .000000000000
G13  20497495.086 8 107715053.822 8     -1361.949          51.000    20497494.195 8  83933783.522 8     -1061.262          49.000
G15  20319940.070 8 106781994.416 8       200.508          51.000    20319938.594 8  83206751.865 8       156.240          51.000
G19  23895575.555 7 125572095.586 7      3299.703          43.000    23895575.773 7  97848368.038 7      2571.200          42.000
G28  21888190.891 7 115023212.976 7     -2258.656          44.000    21888189.391 5  89628475.752 5     -1759.992          34.000
G30  24076570.398 5 126523215.004 5     -2922.254          30.000    24076580.688 4  98589517.931 4     -2277.075          29.000
R04  19581542.258 8 104858274.748 8     -1745.320          51.000    19581543.742 8  81556438.335 8     -1357.471          49.000
R14  19452273.938 7 103691488.116 7      -998.086          42.000    19452277.914 6  80648933.801 6      -776.289          41.000
R15  20796857.898 6 111132099.653 6      2341.910          40.000    20796859.344 5  86436077.364 5      1821.486          30.000
C05  39790566.523 6 207199920.355 6        21.277          37.000    39790563.008 6 160220109.692 6        16.335          38.000
C14  22381239.594 8 116545008.666 8     -1162.531          51.000    22381238.750 8  90119980.168 8      -898.937          51.000
C24  22447871.695 7 116891909.460 7      1269.238          43.000
C26  21869518.812 8 113880283.123 8     -1297.504          51.000
E07  25023971.969 8 131501867.401 8     -2371.312          50.000    25023973.023 8 100761144.790 8     -1816.989          51.000
E21  26391261.164 7 138686986.602 7      2501.590          47.000    26391266.719 8 106266678.313 8      1916.779          50.000
E27  23229503.961 8 122071874.078 8       440.848          51.000    23229506.492 8  93535634.498 8       337.750          51.000
E30  23774979.305 6 124938340.446 6     -2079.828          40.000    23774980.664 6  95731981.450 6     -1593.467          39.000
> 2020 05 18 05 13  0.0000000  0 15        .000000000000
G13  20505310.508 8 107756124.167 8     -1374.477          51.000    20505309.617 8  83965786.358 8     -1071.021          49.000
G15  20318843.211 8 106776230.990 8       185.234          51.000    20318841.797 8  83202260.885 8       144.338          51.000
G19  23876750.375 7 125473169.982 7      3296.898          46.000    23876750.086 7  97771283.176 7      2569.012          42.000
G28  21901113.875 7 115091123.001 7     -2267.082          45.000    21901112.594 5  89681392.617 5     -1766.554          32.000
R04  19591386.758 8 104910991.674 8     -1767.625          51.000    19591388.562 8  81597440.373 8     -1374.819          48.000
R14  19457929.383 7 103721635.057 7     -1009.895          42.000    19457933.336 6  80672381.435 6      -785.474          40.000
R15  20783743.812 6 111062018.194 6      2331.973          40.000    20783749.305 5  86381569.568 5      1813.760          34.000
C05  39790441.383 6 207199268.443 6        23.812          37.000    39790437.773 6 160219605.598 6        18.302          38.000
C14  22387979.867 8 116580106.934 8     -1175.812          51.000    22387978.688 8  90147120.366 8      -909.264          51.000
C24  22440580.070 7 116853943.363 7      1263.152          42.000
C26  21877012.312 8 113919303.619 8     -1302.340          51.000
E07  25037529.875 8 131573113.199 8     -2376.949          50.000    25037531.969 8 100815735.729 8     -1821.356          51.000
E21  26376993.891 7 138612008.320 7      2498.430          45.000    26376998.500 8 106209227.418 8      1914.423          51.000
E27  23227013.625 8 122058787.166 8       433.023          51.000    23227015.922 8  93525606.855 8       331.827          51.000
E30  23786863.742 7 125000791.408 7     -2082.305          42.000    23786863.758 6  95779833.458 6     -1595.442          39.000
> 2020 05 18 05 13 30.0000000  0 16        .000000000000
G13  20513201.711 8 107797593.174 8     -1390.641          49.000    20513200.758 8  83998099.848 8     -1083.616          49.000
G15  20317838.336 8 106770951.308 8       166.371          51.000    20317837.148 8  83198146.822 8       129.640          51.000
G17  23004764.594 5 120890889.278 5      1867.297          34.000    23004765.383 5  94200664.192 5      1455.040          34.000
