     3.02           OBSERVATION DATA    M (MIXED)           RINEX VERSION / TYPE
SAVERINEX           SC600               20200507 155930 LCL PGM / RUN BY / DATE
       G = GPS       R = GLONASS       C = COMPASS          COMMENT
       S = SBAS      J = QZSS          E = GALILEO          COMMENT
BEAN                                                        MARKER NAME
1                                                           MARKER NUMBER
GEODETIC                                                    MARKER TYPE
Unige DICCA         GTER                                    OBSERVER / AGENCY
SC60291900056       SC600               2.12(191226)        REC # / TYPE / VERS
                    HEMA45          NONE                    ANT # / TYPE
  4509407.8091   693652.4678  4442337.6214                  APPROX POSITION XYZ
        0.0000        0.0000        0.0000                  ANTENNA: DELTA H/E/N
G    8 C1C L1C D1C S1C C2Y L2Y D2Y S2Y                      SYS / # / OBS TYPES
R    8 C1C L1C D1C S1C C2P L2P D2P S2P                      SYS / # / OBS TYPES
C    8 C1I L1I D1I S1I C7I L7I D7I S7I                      SYS / # / OBS TYPES
E    8 C1C L1C D1C S1C C7Q L7Q D7Q S7Q                      SYS / # / OBS TYPES
DBHZ                                                        COMMENT
     30.000                                                 INTERVAL
  2020    05    07    13    00    0.0000000     GPS         TIME OF FIRST OBS
  2020    05    07    13    59   30.0000000     GPS         TIME OF LAST OBS
     0                                                      RCV CLOCK OFFS APPL
G L1C  0.00000                                              SYS / PHASE SHIFT
G L2Y  0.00000                                              SYS / PHASE SHIFT
R L1C  0.00000                                              SYS / PHASE SHIFT
R L2P  0.25000                                              SYS / PHASE SHIFT
C L1I  0.00000                                              SYS / PHASE SHIFT
C L7I  0.00000                                              SYS / PHASE SHIFT
E L1C  0.50000                                              SYS / PHASE SHIFT
E L7Q -0.25000                                              SYS / PHASE SHIFT
 12 R01  1 R02 -4 R03  5 R08  6 R10 -5 R12 -1 R13 -2 R14 -7 GLONASS SLOT / FRQ #
    R15  0 R17  4 R18 -3 R23  3                             GLONASS SLOT / FRQ #
 C1C   71.950 C2C   71.950 C2P   71.950                     GLONASS COD/PHS/BIS
    18                                                      LEAP SECONDS
*** Above antenna height is from mark to ANTENNA BOTTOM.    COMMENT
    17     4        0.0000        ANT MEASURE TYPE/HEIGT    COMMENT
    0.0000    0.0000    0.0458    0.0405    0.0000          COMMENT
                    BASE STATION                            COMMENT
                                                            END OF HEADER
> 2020 05 07 13 00  0.0000000  0 16        .000000000000
G18  20720258.953 8 108885711.795 8      1592.840          50.000    20720259.578 8  84846027.130 8      1241.177          50.000
G21  20872727.859 8 109686986.124 8      1098.195          51.000    20872725.398 7  85470389.559 7       855.737          47.000
G25  23017014.445 6 120955190.475 6     -3094.020          39.000    23017014.523 6  94250801.210 6     -2410.927          38.000
G29  21185237.984 8 111329178.806 8     -1921.336          51.000    21185237.609 8  86750030.094 8     -1497.145          51.000
G31  21538720.289 8 113186736.075 8     -1607.238          51.000    21538720.227 8  88197462.014 8     -1252.393          51.000
R14  20354500.641 8 108500938.561 8     -2967.637          51.000    20354501.523 7  84389599.023 7     -2308.165          46.000
R15  19368952.227 6 103501801.295 6      1104.887          39.000    19368953.648 6  80501414.740 6       859.356          37.000
R17  19265697.562 8 103094772.649 8       695.379          51.000    19265700.023 7  80184789.629 7       540.850          47.000
R18  22247044.961 7 118756286.043 7      3482.965          47.000    22247052.391 7  92366005.796 7      2708.976          43.000
R24  20614703.016 5 110236099.270 5     -2910.410          33.000    20614702.555 4  85739178.543 4     -2263.652          29.000
C26  21810317.414 8 113572048.916 8      -400.566          51.000
E11  22612713.484 8 118830650.685 8       899.395          49.000    22612712.422 8  91052056.891 8       689.039          51.000
E12  22950142.758 7 120603809.677 7     -1902.961          43.000    22950142.703 6  92410786.814 6     -1458.044          41.000
E24  22820891.820 8 119924591.047 8     -1940.145          49.000    22820907.953 8  91890335.021 8     -1486.568          51.000
E25  23624310.531 7 124146589.046 7       759.711          43.000    23624312.156 7  95125318.024 7       582.104          44.000
E36  26388858.516 6 138674353.917 6      2815.926          36.000
> 2020 05 07 13 00 30.0000000  0 16        .000000000000
G18  20711217.344 8 108838197.576 8      1575.199          51.000    20711218.219 8  84809003.093 8      1227.428          51.000
G21  20866507.391 8 109654296.447 8      1081.805          51.000    20866504.734 8  85444917.102 8       842.965          48.000
G25  23034699.445 5 121048126.477 5     -3100.562          33.000    23034699.117 5  94323218.844 5     -2416.026          32.000
G29  21196231.547 8 111386950.678 8     -1929.340          51.000    21196231.250 8  86795047.128 8     -1503.382          51.000
G31  21547944.875 8 113235212.758 8     -1624.027          50.000    21547944.836 8  88235236.037 8     -1265.476          50.000
R14  20371255.109 8 108590247.902 8     -2985.719          51.000    20371256.086 8  84459061.806 8     -2322.229          48.000
R15  19362818.211 6 103469015.246 6      1081.547          39.000    19362818.148 6  80475914.492 6       841.200          36.000
R17  19261856.055 8 103074216.809 8       675.574          51.000    19261858.438 7  80168801.743 7       525.447          47.000
R18  22227502.492 8 118651960.413 8      3472.570          48.000    22227507.211 7  92284863.708 7      2700.891          45.000
R24  20631067.602 5 110323552.983 5     -2921.156          32.000    20631062.562 5  85807203.704 5     -2272.016          31.000
C26  21812673.664 8 113584316.894 8      -416.793          51.000
E11  22607615.320 8 118803859.688 8       887.316          49.000    22607614.281 8  91031528.734 8       679.913          51.000
E12  22961029.570 7 120661019.986 7     -1910.754          43.000    22961029.203 6  92454623.268 6     -1464.078          41.000
E24  22831994.789 8 119982932.425 8     -1948.867          51.000    22832010.336 8  91935038.161 8     -1493.306          51.000
E25  23620003.945 7 124123959.878 7       749.441          43.000    23620006.547 7  95107978.769 7       574.220          45.000
E36  26372798.961 5 138589997.237 5      2810.449          33.000
> 2020 05 07 13 01  0.0000000  0 14        .000000000000
G18  20702286.195 8 108791263.106 8      1554.262          51.000    20702287.102 8  84772430.799 8      1211.113          51.000
G21  20860389.703 8 109622149.048 8      1062.012          50.000    20860387.469 8  85419867.208 8       827.545          48.000
G29  21207279.516 8 111445007.961 8     -1940.535          51.000    21207279.188 8  86840286.552 8     -1512.108          51.000
G31  21557273.984 8 113284238.652 8     -1643.934          50.000    21557273.586 8  88273438.002 8     -1280.990          50.000
R14  20388119.453 8 108680145.734 8     -3006.949          49.000    20388121.477 8  84528982.319 8     -2338.738          49.000
R15  19356822.297 6 103436974.615 6      1054.988          40.000    19356821.766 6  80450993.999 6       820.549          37.000
R17  19258133.648 8 103054299.309 8       652.699          51.000    19258136.406 7  80153310.375 7       507.655          47.000
R18  22208027.594 7 118547997.495 7      3458.840          47.000    22208031.203 7  92204003.720 7      2690.209          46.000
C26  21815132.773 8 113597120.131 8      -436.230          51.000
C29  23537474.648 4 122565798.211 4     -2434.066          28.000
E11  22602593.578 8 118777470.022 8       872.246          49.000    22602592.586 8  91011308.080 8       668.317          51.000
E12  22971969.320 6 120718509.161 6     -1921.621          41.000    22971968.500 6  92498673.380 6     -1472.441          41.000
E24  22843157.273 8 120041586.311 8     -1960.996          51.000    22843171.820 8  91979980.735 8     -1502.599          51.000
E25  23615765.273 7 124101685.997 7       735.871          44.000    23615768.688 7  95090911.748 7       563.969          45.000
> 2020 05 07 13 01 30.0000000  0 16        .000000000000
G18  20693444.562 8 108744798.635 8      1539.430          51.000    20693445.430 8  84736224.735 8      1199.559          51.000
G21  20854354.383 8 109590433.672 8      1048.449          51.000    20854352.336 7  85395153.928 7       816.970          47.000
G25  23070188.117 6 121234651.770 6     -3114.621          36.000    23070188.938 5  94468571.741 5     -2426.981          34.000
G29  21218360.469 8 111503238.265 8     -1945.555          51.000    21218359.992 8  86885660.790 8     -1516.017          51.000
G31  21566686.195 8 113333701.468 8     -1657.547          50.000    21566685.273 8  88311980.418 8     -1291.595          50.000
R14  20405071.961 7 108770517.299 7     -3021.824          46.000    20405075.891 8  84599271.335 8     -2350.305          50.000
R15  19350944.539 6 103405569.315 6      1034.660          40.000    19350945.844 6  80426567.602 6       804.733          37.000
R17  19254509.789 8 103034906.754 8       636.039          51.000    19254512.031 7  80138227.278 7       494.697          46.000
R18  22188598.375 7 118444286.348 7      3451.156          43.000    22188603.086 7  92123339.529 7      2684.233          46.000
R24  20663979.742 5 110499584.758 5     -2941.707          35.000
C26  21817673.367 8 113610348.713 8      -449.562          51.000
C29  23551482.898 4 122638748.973 4     -2435.047          29.000
E11  22597627.008 8 118751370.588 8       863.738          49.000    22597626.188 8  90991309.821 8       661.745          51.000
E12  22982941.000 6 120776164.703 6     -1926.301          40.000    22982940.250 6  92542851.018 6     -1475.967          41.000
E24  22854358.000 8 120100441.279 8     -1966.723          51.000    22854371.875 8  92025077.372 8     -1506.996          51.000
E25  23611573.547 7 124079657.564 7       728.566          44.000    23611577.086 7  95074032.828 7       558.213          45.000
> 2020 05 07 13 02  0.0000000  0 17        .000000000000
G18  20684706.094 8 108698876.098 8      1520.449          51.000    20684706.812 8  84700440.943 8      1184.766          50.000
G21  20848414.672 8 109559221.150 8      1030.836          49.000    20848412.812 8  85370832.484 8       803.249          48.000
G25  23087988.391 5 121328187.791 5     -3122.629          34.000    23087989.148 5  94541456.923 5     -2433.217          33.000
G29  21229487.609 8 111561711.645 8     -1954.492          51.000    21229487.055 8  86931224.455 8     -1522.981          51.000
G31  21576194.727 8 113383669.958 8     -1675.207          50.000    21576193.578 8  88350916.886 8     -1305.356          50.000
R14  20422126.148 7 108861431.577 7     -3040.762          47.000    20422131.875 8  84669982.478 8     -2365.034          50.000
R15  19345200.094 7 103374873.362 7      1010.102          42.000    19345200.914 5  80402692.974 5       785.635          35.000
R17  19250997.133 8 103016110.259 8       615.332          50.000    19250999.188 7  80123607.787 7       478.592          47.000
R18  22169229.742 7 118340900.311 7      3439.527          45.000    22169235.789 7  92042928.139 7      2675.185          45.000
R24  20680522.875 6 110587985.295 6     -2953.070          37.000
C26  21820309.000 8 113624072.641 8      -467.039          51.000
C29  23565520.766 4 122711849.583 4     -2439.625          27.000
E11  22592729.109 8 118725632.022 8       850.820          50.000    22592728.250 8  90971588.070 8       651.927          51.000
E12  22993957.359 7 120834055.880 7     -1934.711          42.000    22993957.500 7  92587209.189 7     -1482.525          42.000
E24  22865609.977 8 120159567.620 8     -1976.590          51.000    22865623.031 8  92070381.924 8     -1514.485          51.000
E25  23607442.133 7 124057946.379 7       717.266          44.000    23607445.305 7  95057396.988 7       549.590          45.000
E36                                                                  26324811.172 6 105999082.750 6      2140.824          39.000
> 2020 05 07 13 02 30.0000000  0 17        .000000000000
G18  20676075.969 8 108653524.796 8      1503.824          49.000    20676076.828 8  84665102.263 8      1171.811          49.000
G21  20842575.789 8 109528540.103 8      1015.520          48.000    20842574.695 7  85346925.195 7       791.314          47.000
G25  23105829.539 5 121421933.234 5     -3128.004          32.000    23105837.711 5  94614534.177 5     -2437.412          32.000
G29  21240666.062 8 111620454.830 8     -1960.707          50.000    21240665.305 8  86976998.352 8     -1527.824          50.000
G31  21585804.781 8 113434170.546 8     -1690.496          50.000    21585803.508 8  88390267.974 8     -1317.270          50.000
R14  20439288.359 8 108952914.957 8     -3057.152          51.000    20439294.086 8  84741136.192 8     -2377.788          50.000
R15  19339593.914 6 103344917.714 6       988.039          41.000    19339593.656 6  80379394.153 6       768.475          36.000
R17  19247601.211 8 102997937.692 8       597.113          51.000    19247603.336 7  80109473.544 7       464.421          47.000
R18  22149928.805 7 118237869.739 7      3430.148          46.000    22149934.727 7  91962793.263 7      2667.896          46.000
R24  20697118.391 4 110676708.544 4     -2961.133          29.000
C26  21823044.961 8 113638319.813 8      -481.852          51.000
C29  23579600.211 5 122785147.052 5     -2443.090          30.000
E11  22587905.398 8 118700282.408 8       840.156          50.000    22587904.234 8  90952164.331 8       643.726          51.000
E12  23005023.469 7 120892209.403 7     -1940.988          43.000    23005024.445 6  92631768.347 6     -1487.224          41.000
E24  22876918.719 8 120218993.027 8     -1984.070          51.000    22876930.812 8  92115915.598 8     -1520.166          50.000
E25  23603376.391 7 124036581.714 7       708.043          44.000    23603379.656 7  95041026.650 7       542.655          46.000
E36                                                                  26308872.711 6 105934913.980 6      2137.759          41.000
> 2020 05 07 13 03  0.0000000  0 17        .000000000000
G18  20667545.969 7 108608701.465 7      1482.109          47.000    20667547.109 7  84630174.979 7      1154.887          47.000
G21  20836829.922 8 109498346.077 8       995.055          49.000    20836829.102 8  85323397.397 8       775.367          49.000
G25  23123714.016 6 121515896.170 6     -3138.652          38.000    23123719.555 6  94687752.066 6     -2445.703          37.000
G29  21251887.172 8 111679422.145 8     -1972.551          50.000    21251886.227 8  87022946.917 8     -1537.053          50.000
G31  21595507.523 8 113485157.189 8     -1710.746          51.000    21595506.109 8  88429997.813 8     -1333.049          51.000
R14  20456548.859 8 109044919.850 8     -3078.723          51.000    20456554.281 8  84812695.521 8     -2394.562          50.000
R15  19334118.258 7 103315659.487 7       960.617          43.000    19334118.617 6  80356637.734 6       747.147          37.000
R17  19244313.664 8 102980343.157 8       573.676          51.000    19244315.461 7  80095788.893 7       446.195          47.000
R18  22130686.727 7 118135151.114 7      3415.520          47.000    22130691.289 7  91882901.050 7      2656.518          45.000
R24  20713740.352 5 110765677.642 5     -2975.500          30.000
C26  21825872.898 8 113653046.106 8      -501.953          51.000
C29  23593699.820 5 122858517.540 5     -2451.020          31.000
E11  22583147.133 8 118675277.223 8       824.582          49.000    22583145.836 8  90933004.505 8       631.820          51.000
E12  23016130.734 7 120950579.253 7     -1952.414          42.000    23016131.625 6  92676493.269 6     -1495.943          41.000
E24  22888275.594 8 120278672.602 8     -1996.734          51.000    22888285.625 8  92161644.025 8     -1529.953          49.000
E25  23599368.133 7 124015520.207 7       694.016          44.000    23599371.945 7  95024888.585 7       531.688          47.000
E36                                                                  26292963.570 7 105870857.635 7      2130.893          42.000
> 2020 05 07 13 03 30.0000000  0 16        .000000000000
G18  20659122.586 7 108564439.741 7      1467.090          47.000    20659124.117 7  84595685.314 7      1143.187          47.000
G21  20831183.344 8 109468672.060 8       981.559          50.000    20831182.367 8  85300274.794 8       764.851          49.000
G25  23141638.688 6 121610081.334 6     -3141.742          40.000    23141641.383 6  94761143.055 6     -2448.111          40.000
G29  21263156.891 8 111738644.830 8     -1977.164          50.000    21263156.023 8  87069094.441 8     -1540.647          50.000
G31  21605308.602 8 113536660.483 8     -1724.238          50.000    21605307.148 8  88470130.250 8     -1343.562          50.000
R14  20473912.680 8 109137476.755 8     -3093.266          51.000    20473918.039 8  84884684.174 8     -2405.876          50.000
R15  19328779.906 7 103287133.740 7       939.680          43.000    19328780.414 6  80334451.046 6       730.865          37.000
R17  19241140.078 8 102963358.931 8       557.152          51.000    19241141.586 7  80082578.951 7       433.341          46.000
R18  22111509.359 7 118032779.097 7      3407.695          46.000    22111512.383 7  91803278.389 7      2650.433          45.000
C26  21828799.094 8 113668283.657 8      -515.340          51.000
C29  23607823.188 5 122932037.294 5     -2452.316          30.000
E11  22578460.492 8 118650648.796 8       815.922          49.000    22578459.078 8  90914133.389 8       625.208          50.000
E12  23027285.242 7 121009196.415 7     -1956.785          42.000    23027285.336 6  92721407.703 6     -1499.205          41.000
E24  22899686.562 8 120338638.440 8     -2002.488          51.000    22899695.516 8  92207591.800 8     -1534.359          49.000
E25  23595423.961 7 123994795.410 7       686.328          45.000    23595428.180 7  95009008.531 7       525.978          47.000
E36                                                                  26277089.031 7 105806939.393 7      2129.292          42.000
> 2020 05 07 13 04  0.0000000  0 16        .000000000000
G18  20650800.391 7 108520708.952 7      1448.484          47.000    20650802.352 7  84561609.412 7      1128.692          47.000
G21  20825629.742 8 109439486.686 8       964.355          50.000    20825628.734 8  85277532.960 8       751.446          49.000
G25  23159598.117 7 121704455.862 7     -3149.402          42.000    23159600.133 7  94834681.640 7     -2454.080          42.000
G29  21274469.062 8 111798090.012 8     -1985.660          49.000    21274468.203 8  87115415.346 8     -1547.271          49.000
G31  21615201.289 8 113588647.061 8     -1741.297          49.000    21615200.070 8  88510639.266 8     -1356.855          49.000
R14  20491373.242 8 109230551.093 8     -3111.488          50.000    20491378.688 8  84957075.273 8     -2420.046          48.000
R15  19323572.289 7 103259310.669 7       915.250          42.000    19323573.469 6  80312810.847 6       711.858          37.000
R17  19238074.062 8 102946951.704 8       536.879          49.000    19238075.570 7  80069817.761 7       417.572          46.000
R18  22092390.516 7 117930723.084 7      3396.219          45.000    22092393.242 7  91723901.514 7      2641.503          45.000
C26  21831817.156 8 113684000.977 8      -532.211          51.000
C29  23621965.758 5 123005673.675 5     -2457.152          32.000
E11  22573839.531 8 118626365.418 8       803.344          49.000    22573837.648 8  90895526.645 8       615.552          49.000
E12  23038480.648 6 121068027.771 6     -1964.824          41.000    23038480.289 6  92766486.266 6     -1505.691          41.000
E24  22911145.664 8 120398858.329 8     -2011.863          51.000    22911154.547 8  92253734.269 8     -1541.605          50.000
E25  23591538.383 7 123974376.736 7       675.090          46.000    23591542.352 7  94993363.048 7       517.423          47.000
E36                                                                  26261243.031 7 105743135.698 7      2124.647          42.000
> 2020 05 07 13 04 30.0000000  0 17        .000000000000
G18  20642582.016 8 108477521.526 8      1430.301          49.000    20642584.008 8  84527956.887 8      1114.520          49.000
G21  20820171.219 8 109410801.272 8       947.629          49.000    20820170.125 8  85255180.697 8       738.412          49.000
G25  23177595.438 6 121799029.937 6     -3155.941          41.000    23177597.359 6  94908375.690 6     -2459.175          41.000
G29  21285825.375 8 111857767.549 8     -1993.359          49.000    21285824.586 8  87161917.320 8     -1553.270          49.000
G31  21625187.477 8 113641125.964 8     -1757.602          49.000    21625186.320 8  88551531.920 8     -1369.560          49.000
R14  20508931.984 8 109324151.654 8     -3128.906          49.000    20508937.328 7  85029875.665 7     -2433.594          46.000
R15  19318498.828 7 103232203.830 7       891.371          43.000    19318500.469 6  80291727.770 6       693.289          37.000
R17  19235117.484 8 102931132.268 8       517.383          50.000    19235119.570 7  80057513.775 7       402.409          46.000
R18  22073333.484 7 117828995.926 7      3385.250          47.000    22073336.734 7  91644780.478 7      2632.975          46.000
R24  20764056.602 5 111034678.366 5     -3003.590          33.000    20764040.781 5  86360287.228 5     -2336.132          30.000
C26  21834929.273 8 113700209.116 8      -548.605          51.000
C29  23636132.984 5 123079436.433 5     -2460.926          33.000
E11  22569286.164 8 118602438.143 8       791.270          49.000    22569283.977 8  90877192.759 8       606.342          49.000
E12  23049718.883 7 121127083.013 7     -1972.352          42.000    23049718.516 6  92811736.377 6     -1511.477          41.000
E24  22922655.164 8 120459343.017 8     -2020.805          51.000    22922665.250 8  92300079.664 8     -1548.388          51.000
E25  23587713.594 7 123954276.461 7       664.559          46.000    23587717.266 7  94977961.547 7       509.123          47.000
E36  26245431.195 5 137920674.118 5      2767.113          35.000    26245427.664 6 105679455.885 6      2120.426          41.000
> 2020 05 07 13 05  0.0000000  0 16        .000000000000
G18  20634472.008 8 108434902.173 8      1411.934          50.000    20634473.570 8  84494746.984 8      1100.208          50.000
G21  20814812.234 8 109382639.649 8       930.691          49.000    20814811.023 8  85233236.588 8       725.214          49.000
G25  23195634.469 6 121893826.053 6     -3162.828          39.000    23195636.047 6  94982242.782 6     -2464.541          39.000
G29  21297230.109 8 111917699.776 8     -2001.242          48.000    21297229.219 8  87208617.759 8     -1559.409          48.000
G31  21635271.766 8 113694119.105 8     -1774.254          50.000    21635270.289 8  88592825.248 8     -1382.539          50.000
R14  20526593.734 8 109418299.844 8     -3146.543          50.000    20526598.500 7  85103102.003 7     -2447.311          47.000
R15  19313564.453 7 103205839.426 7       867.105          42.000    19313566.617 6  80271222.114 6       674.415          37.000
R17  19232275.562 8 102915923.820 8       497.559          50.000    19232277.344 7  80045684.972 7       386.990          45.000
R18  22054343.016 8 117727623.456 8      3373.859          48.000    22054347.172 7  91565935.279 7      2624.113          45.000
C26  21838139.961 8 113716931.364 8      -565.230          51.000
C29  23650327.945 5 123153347.528 5     -2465.121          32.000
E11  22564805.172 8 118578890.442 8       779.211          49.000    22564803.055 8  90859149.727 8       597.019          49.000
E12  23061003.898 7 121186384.367 7     -1980.164          42.000    23061003.766 6  92857175.055 6     -1517.316          40.000
E24  22934219.148 8 120520115.727 8     -2029.883          50.000    22934230.727 8  92346645.780 8     -1555.374          51.000
E25  23583954.000 7 123934519.360 7       653.594          46.000    23583957.859 8  94962822.977 8       500.719          48.000
E36  26229651.570 6 137837752.869 6      2761.605          39.000    26229647.492 6 105615918.830 6      2116.092          40.000
> 2020 05 07 13 05 30.0000000  0 16        .000000000000
G18  20626465.508 8 108392827.151 8      1393.551          49.000    20626466.984 8  84461961.260 8      1085.884          49.000
G21  20809548.297 8 109354977.520 8       913.898          49.000    20809547.070 8  85211681.660 8       712.126          49.000
G25  23213710.320 6 121988818.435 6     -3169.414          39.000    23213711.812 6  95056262.783 6     -2469.676          39.000
G29  21308678.273 7 111977860.800 7     -2009.184          47.000    21308677.148 7  87255496.465 7     -1565.598          47.000
G31  21645449.008 8 113747599.973 8     -1790.742          50.000    21645447.195 8  88634498.622 8     -1395.387          50.000
R14  20544353.523 8 109512968.121 8     -3164.129          50.000    20544357.945 8  85176732.838 8     -2460.989          49.000
R15  19308764.922 7 103180194.451 7       843.145          42.000    19308767.133 6  80251276.033 6       655.779          38.000
R17  19229542.445 8 102901300.192 8       477.848          50.000    19229544.570 7  80034311.070 7       371.659          46.000
R18  22035414.281 7 117626582.065 7      3362.609          47.000    22035419.469 7  91487347.513 7      2615.363          45.000
C26  21841444.750 8 113734143.009 8      -581.824          50.000
C29  23664548.859 5 123227381.426 5     -2469.070          34.000
E11  22560391.695 8 118555697.461 8       767.461          48.000    22560389.992 8  90841378.498 8       587.980          50.000
E12  23072330.609 6 121245905.565 6     -1987.691          41.000    23072330.430 6  92902782.157 6     -1523.060          40.000
E24  22945833.125 8 120581151.250 8     -2038.719          50.000    22945846.172 8  92393413.249 8     -1562.192          51.000
E25  23580255.297 7 123915081.743 7       642.664          47.000    23580259.133 8  94947929.177 8       492.434          48.000
E36  26213903.117 6 137754994.099 6      2755.855          41.000    26213897.914 6 105552506.303 6      2111.800          40.000
> 2020 05 07 13 06  0.0000000  0 16        .000000000000
G18  20618563.297 8 108351299.885 8      1375.355          51.000    20618564.547 8  84429602.361 8      1071.703          50.000
G21  20804379.477 7 109327817.305 7       897.246          47.000    20804378.867 7  85190517.846 7       699.150          47.000
G25  23231823.320 6 122084008.309 6     -3175.965          41.000    23231825.203 6  95130436.653 6     -2474.778          41.000
G29  21320170.172 7 112038251.558 7     -2016.656          47.000    21320168.891 7  87302554.151 7     -1571.423          47.000
G31  21655719.008 8 113801569.300 8     -1806.832          49.000    21655717.258 8  88676552.631 8     -1407.921          49.000
R14  20562210.742 8 109608156.297 8     -3181.289          49.000    20562215.273 8  85250768.044 8     -2474.336          49.000
R15  19304100.836 7 103155273.262 7       818.832          44.000    19304103.930 6  80231892.840 6       636.869          38.000
R17  19226919.156 8 102887263.176 8       458.449          49.000    19226921.422 7  80023393.389 7       356.572          45.000
R18  22016548.523 8 117525875.837 8      3351.488          49.000    22016554.344 7  91409020.442 7      2606.713          45.000
C26  21844844.031 8 113751846.262 8      -598.023          49.000
C29  23678791.117 5 123301678.460 5     -2473.832          30.000
E11  22556045.898 8 118532861.358 8       755.395          48.000    22556044.711 8  90823880.712 8       578.806          50.000
E12  23083699.141 6 121305647.407 6     -1994.918          39.000    23083698.562 6  92948558.358 6     -1528.484          40.000
E24  22957497.812 8 120642451.429 8     -2047.480          50.000    22957511.695 8  92440383.514 8     -1568.879          51.000
E25  23576618.031 7 123895966.955 7       632.016          47.000    23576621.508 8  94933282.771 8       484.257          49.000
E36  26198185.906 6 137672401.153 6      2750.562          41.000    26198180.547 6 105489220.868 6      2107.469          39.000
> 2020 05 07 13 06 30.0000000  0 16        .000000000000
G18  20610765.398 8 108310319.112 8      1356.746          51.000    20610765.945 8  84397669.259 8      1057.202          50.000
G21  20799305.625 7 109301156.786 7       880.180          47.000    20799305.812 7  85169743.425 7       685.854          46.000
G25  23249973.484 7 122179392.309 7     -3182.723          42.000    23249974.477 7  95204761.774 7     -2480.044          42.000
G29  21331705.273 7 112098868.925 7     -2024.586          46.000    21331703.773 7  87349788.444 7     -1577.602          46.000
G31  21666080.797 8 113856022.575 8     -1823.305          48.000    21666079.602 8  88718983.727 8     -1420.757          48.000
R14  20580163.977 8 109703859.445 8     -3198.816          48.000    20580169.438 8  85325203.799 8     -2487.971          49.000
R15  19299572.688 7 103131075.534 7       794.488          43.000    19299575.672 6  80213072.421 6       617.935          39.000
R17  19224404.383 8 102873808.927 8       438.605          49.000    19224407.273 7  80012928.997 7       341.141          46.000
R18  21997746.125 8 117425503.654 8      3339.926          51.000    21997751.570 7  91330953.244 7      2597.723          45.000
C26  21848337.422 8 113770038.698 8      -614.652          48.000
C29  23693056.023 5 123375956.868 5     -2477.844          33.000
E11  22551767.719 8 118510379.713 8       743.184          48.000    22551766.641 8  90806654.511 8       569.491          49.000
E12  23095108.906 6 121365606.143 6     -2002.617          38.000    23095107.844 6  92994500.770 6     -1534.389          39.000
E24  22969212.242 8 120704013.471 8     -2056.629          50.000    22969226.875 8  92487554.431 8     -1575.897          51.000
E25  23573041.805 8 123877173.793 8       620.871          48.000    23573045.086 8  94918882.800 8       475.744          48.000
E36  26182499.070 7 137589972.637 7      2744.707          42.000    26182494.977 6 105426061.427 6      2103.096          37.000
> 2020 05 07 13 07  0.0000000  0 16        .000000000000
G18  20603067.602 8 108269865.846 8      1338.906          50.000    20603068.008 8  84366147.244 8      1043.304          48.000
G21  20794323.617 8 109274976.618 8       863.969          48.000    20794324.031 8  85149343.280 8       673.222          48.000
G25  23268156.414 6 122274949.394 6     -3188.723          41.000    23268157.625 6  95279221.770 6     -2484.722          41.000
G29  21343279.453 7 112159691.617 7     -2031.578          46.000    21343277.977 7  87397182.731 7     -1583.048          46.000
G31  21676530.523 8 113910937.888 8     -1838.816          49.000    21676529.961 8  88761774.870 8     -1432.844          48.000
R14  20598209.078 7 109800054.783 7     -3215.520          47.000    20598215.117 7  85400022.397 7     -2500.960          46.000
R15  19295176.180 7 103107583.075 7       770.547          44.000    19295179.641 6  80194800.482 6       599.314          41.000
R17  19221994.930 8 102860916.810 8       419.742          49.000    19221998.430 7  80002901.785 7       326.463          46.000
R18  21979002.953 8 117325447.047 8      3329.258          51.000    21979007.625 7  91253131.512 7      2589.423          45.000
C26  21851920.984 8 113788700.423 8      -630.555          49.000
C29  23707338.797 5 123450334.765 5     -2480.988          31.000
E11  22547553.492 8 118488232.377 8       732.043          49.000    22547552.273 8  90789684.472 8       560.907          49.000
E12  23106555.945 6 121425760.424 6     -2009.324          38.000    23106554.500 6  93040592.994 6     -1539.624          39.000
E24  22980972.750 8 120765816.981 8     -2064.867          50.000    22980988.352 8  92534910.356 8     -1582.213          51.000
E25  23569523.109 8 123858683.396 8       610.570          48.000    23569526.336 8  94904714.824 8       467.819          48.000
E36  26166839.688 6 137507689.656 6      2739.523          41.000    26166837.523 5 105363013.460 5      2099.142          34.000
> 2020 05 07 13 07 30.0000000  0 16        .000000000000
G18  20595481.242 8 108229998.604 8      1319.371          51.000    20595481.281 7  84335081.894 7      1028.081          47.000
G21  20789444.016 8 109249333.815 8       846.047          48.000    20789444.617 8  85129361.876 8       659.257          48.000
G25  23286382.844 6 122370736.048 6     -3196.980          40.000    23286385.695 6  95353860.680 6     -2491.154          40.000
G29  21354903.484 7 112220775.795 7     -2040.234          46.000    21354901.977 7  87444780.762 7     -1589.793          46.000
G31  21687078.891 8 113966370.830 8     -1856.195          50.000    21687079.117 8  88804969.356 8     -1446.386          50.000
R14  20616358.055 8 109896797.924 8     -3233.711          49.000    20616362.977 7  85475267.004 7     -2515.112          43.000
R15  19290923.562 7 103084856.567 7       745.031          46.000    19290927.273 7  80177124.285 7       579.469          42.000
R17  19219701.203 8 102848644.056 8       398.906          48.000    19219705.062 7  79993356.305 7       310.260          46.000
R18  21960329.578 8 117225765.831 8      3316.570          50.000    21960332.828 7  91175601.726 7      2579.555          43.000
C26  21855606.008 8 113807888.163 8      -648.125          50.000
C29  23721649.633 5 123524856.861 5     -2487.273          30.000
E11  22543413.633 8 118466476.715 8       718.883          49.000    22543412.672 8  90773014.572 8       550.823          50.000
E12  23118050.711 6 121486166.233 6     -2017.504          36.000    23118049.281 6  93086877.909 6     -1545.781          39.000
E24  22992790.383 8 120827918.943 8     -2074.793          50.000    22992806.688 8  92582494.970 8     -1589.794          51.000
E25  23566073.344 8 123840554.317 8       598.359          49.000    23566076.281 8  94890823.713 8       458.612          49.000
E36  26151218.984 6 137425610.601 6      2732.812          41.000
> 2020 05 07 13 08  0.0000000  0 16        .000000000000
G18  20587999.570 8 108190680.634 8      1301.230          51.000    20587998.539 7  84304444.549 7      1013.949          45.000
G21  20784659.578 7 109224191.105 7       829.598          47.000    20784660.422 7  85109770.188 7       646.443          47.000
G25  23304645.945 6 122466713.380 6     -3202.520          41.000    23304650.234 6  95428648.137 6     -2495.473          40.000
G29  21366569.836 7 112282082.668 7     -2047.367          43.000    21366568.367 7  87492552.319 7     -1595.351          44.000
G31  21697718.484 8 114022282.170 8     -1871.785          50.000    21697719.250 8  88848536.614 8     -1458.534          50.000
R14  20634602.234 8 109994048.031 8     -3250.266          49.000    20634605.711 7  85550905.870 7     -2527.987          43.000
R15  19286807.070 7 103062859.448 7       720.930          46.000    19286811.023 7  80160015.398 7       560.720          43.000
R17  19217516.547 8 102836951.439 8       379.887          49.000    19217520.086 7  79984262.036 7       295.467          46.000
R18  21941718.875 8 117126423.558 8      3305.562          49.000    21941720.531 6  91098335.572 6      2570.996          41.000
C26  21859385.086 8 113827564.310 8      -664.250          50.000
C29  23735982.391 5 123599499.655 5     -2489.855          31.000
E11  22539340.977 8 118445074.846 8       707.238          48.000    22539340.211 8  90756615.768 8       541.865          50.000
E12  23129585.320 5 121546784.347 5     -2024.383          35.000    23129584.578 6  93133325.540 6     -1551.138          38.000
E24  23004657.531 8 120890281.170 8     -2083.266          51.000    23004674.211 8  92630278.966 8     -1596.268          51.000
E25  23562685.242 8 123822749.898 8       587.980          48.000    23562688.039 8  94877181.358 8       450.489          49.000
E36  26135630.258 6 137343698.731 6      2727.457          39.000
> 2020 05 07 13 08 30.0000000  0 16        .000000000000
G18  20580621.742 8 108151910.145 8      1283.637          51.000    20580620.156 7  84274233.826 7      1000.239          46.000
G21  20779969.852 8 109199546.010 8       813.727          48.000    20779970.602 8  85090566.234 8       634.073          49.000
G25  23322945.148 7 122562877.675 7     -3208.406          42.000    23322950.047 7  95503581.300 7     -2500.060          42.000
G29  21378277.734 6 112343608.187 6     -2054.273          41.000    21378276.484 6  87540494.258 6     -1600.733          41.000
G31  21708448.320 8 114078666.881 8     -1886.824          51.000    21708449.141 8  88892472.716 8     -1470.256          51.000
R14  20652940.586 8 110091799.820 8     -3266.211          49.000    20652943.695 7  85626935.040 7     -2540.386          46.000
R15  19282827.188 7 103041590.893 7       697.273          46.000    19282830.945 7  80143473.180 7       542.321          43.000
R17  19215439.641 8 102825835.216 8       361.469          49.000    19215442.484 7  79975616.090 7       281.142          46.000
R18  21923171.680 8 117027418.569 8      3294.973          50.000    21923172.875 6  91021331.761 6      2562.757          41.000
C26  21863257.117 8 113847725.988 8      -679.730          49.000
C29  23750338.547 5 123674262.198 5     -2493.352          33.000
E11  22535335.227 8 118424023.888 8       696.309          49.000    22535334.117 8  90740485.793 8       533.556          50.000
E12  23141159.438 6 121607610.556 6     -2030.410          36.000    23141159.508 6  93179932.649 6     -1555.655          37.000
E24  23016573.984 8 120952900.411 8     -2091.121          51.000    23016590.055 8  92678259.912 8     -1602.329          51.000
E25  23559358.398 8 123805268.460 8       577.852          48.000    23559361.453 8  94863786.479 8       442.686          50.000
E36  26120073.477 6 137261952.251 6      2722.215          38.000
> 2020 05 07 13 09  0.0000000  0 16        .000000000000
G18  20573349.688 8 108113695.453 8      1264.754          51.000    20573348.398 8  84244456.186 8       985.523          48.000
G21  20775376.461 8 109175405.994 8       796.527          48.000    20775376.781 8  85071755.831 8       620.671          48.000
G25  23341281.594 7 122659235.073 7     -3215.160          42.000    23341286.781 7  95578664.951 7     -2505.320          42.000
G29  21390028.211 6 112405358.800 6     -2062.059          39.000    21390027.320 6  87588611.609 6     -1606.799          39.000
G31  21719269.562 8 114135530.548 8     -1903.137          51.000    21719269.883 8  88936782.027 8     -1482.967          51.000
R14  20671374.758 8 110190058.093 8     -3283.410          50.000    20671377.414 8  85703358.169 8     -2553.763          48.000
R15  19278985.250 8 103021060.149 8       672.344          48.000    19278988.797 7  80127504.814 7       522.934          44.000
R17  19213471.609 8 102815301.863 8       341.625          49.000    19213474.227 7  79967423.475 7       265.708          45.000
R18  21904689.898 8 116928760.077 8      3283.141          49.000    21904692.211 7  90944597.399 7      2553.557          43.000
C26  21867223.633 8 113868380.280 8      -696.340          50.000
C29  23764717.227 5 123749143.569 5     -2498.199          34.000
E11  22531397.391 8 118403330.982 8       684.172          49.000    22531396.461 8  90724630.182 8       524.245          51.000
E12  23152774.672 6 121668652.905 6     -2037.887          37.000    23152775.234 6  93226703.810 6     -1561.665          36.000
E24  23028540.859 8 121015783.494 8     -2100.230          51.000    23028555.984 8  92726443.030 8     -1609.306          51.000
E25  23556094.789 8 123788118.426 8       566.355          49.000    23556098.031 8  94850645.528 8       433.940          50.000
E36  26104550.414 6 137180379.400 6      2716.234          36.000
> 2020 05 07 13 09 30.0000000  0 16        .000000000000
G18  20566181.891 8 108076027.643 8      1246.477          51.000    20566181.039 8  84215104.660 8       971.280          49.000
G21  20770877.070 8 109151761.039 8       780.094          48.000    20770877.219 8  85053331.199 8       607.865          48.000
G25  23359652.859 7 122755774.699 7     -3221.312          43.000    23359658.336 7  95653890.571 7     -2510.117          43.000
G29  21401819.633 6 112467323.128 6     -2069.426          38.000    21401818.789 6  87636895.509 6     -1612.537          37.000
G31  21730179.727 8 114192861.173 8     -1918.805          51.000    21730179.391 8  88981455.193 8     -1495.172          51.000
R14  20689901.297 8 110288810.164 8     -3299.898          51.000    20689903.906 8  85780165.311 8     -2566.588          49.000
R15  19275280.273 8 103001259.289 8       647.816          49.000    19275283.672 7  80112104.133 7       503.854          44.000
R17  19211610.266 8 102805340.180 8       322.469          49.000    19211612.562 7  79959675.489 7       250.809          45.000
R18  21886271.234 7 116830439.471 7      3271.715          47.000    21886275.094 7  90868125.857 7      2544.667          45.000
C26  21871283.375 8 113889517.112 8      -712.648          51.000
C29  23779116.141 4 123824132.735 4     -2501.316          29.000
E11  22527525.828 8 118382986.107 8       672.254          49.000    22527525.336 8  90709041.265 8       514.993          51.000
E12  23164428.609 5 121729896.022 5     -2045.621          35.000    23164429.336 5  93273630.325 5     -1566.945          35.000
E24  23040555.914 8 121078920.113 8     -2108.871          51.000    23040569.977 8  92774820.404 8     -1615.936          51.000
E25  23552892.719 8 123771290.953 8       555.441          49.000    23552896.078 8  94837751.744 8       425.541          51.000
E36  26089060.844 6 137098971.316 6      2710.770          38.000
> 2020 05 07 13 10  0.0000000  0 17        .000000000000
G18  20559118.680 8 108038910.535 8      1227.926          51.000    20559118.344 8  84186182.268 8       956.828          50.000
G21  20766472.508 8 109128614.553 8       763.035          49.000    20766472.570 8  85035294.976 8       594.573          49.000
G25  23378059.328 7 122852498.435 7     -3227.328          45.000    23378064.656 7  95729259.646 7     -2514.804          44.000
G29  21413652.273 6 112529503.066 6     -2076.555          37.000    21413651.414 6  87685347.408 6     -1618.095          38.000
G31  21741178.828 8 114250660.017 8     -1934.531          51.000    21741177.727 8  89026493.210 8     -1507.427          51.000
R14  20708519.453 8 110388056.436 8     -3316.562          51.000    20708522.711 8  85857356.794 8     -2579.552          49.000
R15  19271712.656 8 102982193.310 8       623.168          49.000    19271715.555 7  80097275.030 7       484.686          45.000
R17  19209856.039 8 102795952.322 8       303.297          49.000    19209858.008 7  79952373.833 7       235.898          45.000
R18  21867915.820 7 116732461.893 7      3260.023          45.000    21867921.133 7  90791921.044 7      2535.574          44.000
R24  20952630.953 5 112043132.600 5     -3106.016          33.000
C26  21875436.109 8 113911139.234 8      -729.016          51.000
C29  23793536.469 5 123899191.962 5     -2505.176          30.000
E11  22523721.109 8 118362992.006 8       660.426          50.000    22523720.461 8  90693721.112 8       506.011          50.000
E12  23176121.406 5 121791339.375 5     -2051.734          34.000    23176121.812 5  93320713.385 5     -1572.114          35.000
E24  23052619.344 8 121142312.722 8     -2117.535          51.000    23052632.891 8  92823393.918 8     -1622.485          51.000
E25  23549752.883 8 123754790.137 8       544.418          49.000    23549756.289 8  94825108.243 8       417.175          51.000
E36  26073604.102 6 137017732.050 6      2705.133          39.000
> 2020 05 07 13 10 30.0000000  0 16        .000000000000
G18  20552162.781 8 108002357.160 8      1208.992          51.000    20552162.641 8  84157699.125 8       942.072          50.000
G21  20762165.195 8 109105978.454 8       746.055          50.000    20762164.719 8  85017656.451 8       581.341          49.000
G25  23396503.008 7 122949417.285 7     -3233.793          44.000    23396507.703 7  95804780.790 7     -2519.839          44.000
G29  21425527.930 6 112591909.637 6     -2083.863          39.000    21425527.617 6  87733975.876 6     -1623.790          39.000
G31  21752268.523 8 114308936.867 8     -1950.438          51.000    21752266.586 8  89071903.720 8     -1519.821          51.000
R14  20727231.734 8 110487806.481 8     -3333.293          50.000    20727235.695 7  85934940.065 7     -2592.564          47.000
R15  19268285.031 8 102963876.211 8       598.137          49.000    19268287.953 7  80083028.389 7       465.217          45.000
R17  19208211.180 8 102787149.446 8       283.684          49.000    19208212.883 7  79945527.156 7       220.643          45.000
R18  21849626.898 7 116634840.462 7      3248.223          45.000    21849633.273 7  90715993.282 7      2526.398          43.000
C26  21879684.328 8 113933258.310 8      -745.527          51.000
C29  23807980.203 5 123974406.655 5     -2508.930          35.000
E11  22519985.266 8 118343360.574 8       648.441          50.000    22519984.125 8  90678678.854 8       496.891          50.000
E12  23187855.500 5 121853002.659 5     -2058.973          35.000    23187855.055 5  93367961.089 5     -1577.600          35.000
E24  23064733.203 8 121205972.860 8     -2126.453          50.000    23064746.461 8  92872172.443 8     -1629.387          51.000
E25  23546677.734 8 123738629.053 8       532.926          50.000    23546681.148 8  94812725.065 8       408.447          51.000
E36  26058181.430 6 136936674.541 6      2698.617          37.000
> 2020 05 07 13 11  0.0000000  0 17        .000000000000
G18  20545314.289 8 107966367.346 8      1188.391          51.000    20545314.242 8  84129655.102 8       926.019          51.000
G21  20757954.961 8 109083851.547 8       727.129          51.000    20757953.609 8  85000414.692 8       566.594          49.000
G25  23414983.148 7 123046529.199 7     -3242.234          44.000    23414987.719 7  95880452.347 7     -2526.416          44.000
G29  21437446.328 5 112654540.712 5     -2092.953          34.000    21437446.477 5  87782779.329 5     -1630.870          33.000
G31  21763448.438 8 114367689.029 8     -1968.215          51.000    21763446.680 8  89117684.591 8     -1533.677          51.000
R14  20746037.469 7 110588056.481 7     -3351.926          47.000    20746041.602 7  86012912.223 7     -2607.056          46.000
R15  19264997.477 8 102946308.690 8       571.164          49.000    19265000.242 7  80069364.742 7       444.236          46.000
R17  19206675.203 8 102778929.547 8       262.379          50.000    19206676.750 7  79939133.888 7       204.072          45.000
R18  21831405.625 7 116537575.696 7      3234.258          46.000    21831411.547 7  90640342.985 7      2515.534          43.000
R24  20987580.352 5 112230019.664 5     -3125.719          32.000
C26  21884027.844 8 113955873.018 8      -763.875          51.000
C29  23822447.125 5 124049744.618 5     -2514.773          30.000
E11  22516318.273 8 118324090.592 8       634.441          50.000    22516316.766 8  90663913.551 8       486.115          50.000
E12  23199630.727 6 121914878.467 6     -2067.934          37.000    23199629.430 5  93415371.585 5     -1584.365          35.000
E24  23076897.547 8 121269899.002 8     -2137.156          51.000    23076910.906 8  92921154.777 8     -1637.546          51.000
E25  23543667.000 8 123722807.750 8       519.773          50.000    23543670.352 8  94800602.233 8       398.304          51.000
E36  26042792.398 5 136855797.675 5      2690.859          34.000
> 2020 05 07 13 11 30.0000000  0 13        .000000000000
G18  20538579.258 8 107930974.878 8      1170.391          51.000    20538579.414 8  84102076.555 8       911.993          50.000
G21  20753847.781 8 109062266.869 8       711.062          51.000    20753846.203 8  84983595.482 8       554.078          49.000
G25  23433505.898 7 123143865.916 7     -3247.715          43.000    23433510.391 7  95956299.112 7     -2530.690          43.000
G31  21774724.695 8 114426947.405 8     -1983.090          51.000    21774723.297 8  89163859.910 8     -1545.268          51.000
R14  20764942.211 7 110688837.087 7     -3367.566          46.000    20764947.281 7  86091297.138 7     -2619.215          46.000
R15  19261856.906 8 102929526.150 8       546.969          50.000    19261859.469 7  80056311.641 7       425.417          47.000
R17  19205254.102 8 102771325.124 8       243.906          49.000    19205255.664 7  79933219.340 7       189.705          45.000
R18  21813258.047 7 116440702.751 7      3223.234          45.000    21813263.789 7  90564997.380 7      2506.957          44.000
C26  21888472.547 8 113979015.783 8      -779.582          51.000
E11  22512726.336 8 118305214.851 8       623.082          50.000    22512724.625 8  90649450.319 8       477.576          50.000
E12  23211452.398 6 121976997.248 6     -2074.137          37.000    23211451.062 5  93462969.045 5     -1589.058          35.000
E24  23089119.023 8 121334123.564 8     -2145.070          51.000    23089132.125 8  92970365.807 8     -1643.616          51.000
E25  23540727.398 8 123707360.191 8       509.301          51.000    23540730.305 8  94788765.794 8       390.354          51.000
> 2020 05 07 13 12  0.0000000  0 13        .000000000000
G18  20531943.398 8 107896103.917 8      1153.750          51.000    20531943.492 8  84074904.382 8       899.026          50.000
G21  20749829.227 8 109041147.956 8       696.391          51.000    20749827.594 8  84967139.205 8       542.642          49.000
G25  23452056.250 7 123241349.770 7     -3251.906          43.000    23452060.367 7  96032260.497 7     -2533.953          43.000
G31  21786082.352 8 114486633.033 8     -1996.477          51.000    21786081.516 8  89210368.165 8     -1555.696          51.000
R14  20783933.602 8 110790067.976 8     -3381.859          49.000    20783938.328 8  86170032.274 8     -2630.335          48.000
R15  19258848.859 8 102913452.462 8       523.961          49.000    19258851.586 7  80043809.867 7       407.525          47.000
R17  19203932.914 8 102764256.810 8       226.762          49.000    19203934.695 7  79927721.761 7       176.370          45.000
R18  21795170.023 8 116344145.245 8      3213.305          48.000    21795175.234 7  90489897.114 7      2499.240          44.000
C26  21893003.703 8 114002610.309 8      -793.961          51.000
E11  22509194.750 8 118286656.401 8       613.449          49.000    22509192.906 8  90635230.221 8       469.995          51.000
E12  23223304.961 5 122039291.939 5     -2079.254          34.000    23223304.828 6  93510693.670 6     -1593.210          36.000
E24  23101382.484 8 121398569.431 8     -2151.789          51.000    23101396.297 8  93019746.383 8     -1648.806          51.000
E25  23537844.727 8 123692210.824 8       500.012          51.000    23537847.102 8  94777157.830 8       383.105          51.000
> 2020 05 07 13 12 30.0000000  0 14        .000000000000
G18  20525414.750 8 107861796.087 8      1133.879          51.000    20525414.945 8  84048171.006 8       883.542          51.000
G21  20745906.977 8 109020535.654 8       678.262          51.000    20745905.211 8  84951077.681 8       528.516          50.000
G25  23470642.227 7 123339020.370 7     -3258.945          43.000    23470645.375 7  96108367.422 7     -2539.441          42.000
G31  21797528.844 8 114546785.012 8     -2013.062          51.000    21797528.664 8  89257239.809 8     -1568.620          51.000
R14  20803017.102 8 110891787.947 8     -3398.973          50.000    20803021.625 8  86249147.754 8     -2643.648          49.000
R15  19255981.680 8 102898130.643 8       497.867          51.000    19255984.234 7  80031892.900 7       387.230          47.000
R17  19202719.578 8 102757765.269 8       206.543          49.000    19202721.461 7  79922672.778 7       160.645          45.000
R18  21777149.805 8 116247945.851 8      3200.395          49.000    21777153.133 7  90415075.414 7      2489.196          43.000
C26  21897629.445 8 114026696.633 8      -811.328          51.000
C29  23865958.586 5 124276309.598 5     -2524.969          30.000
E11  22505731.242 8 118268455.860 8       600.621          49.000    22505729.391 8  90621284.345 8       460.228          50.000
E12  23235195.867 5 122101777.837 5     -2086.047          33.000    23235197.727 5  93558575.547 5     -1599.103          35.000
E24  23113695.766 8 121463276.853 8     -2161.582          51.000    23113710.039 8  93069327.357 8     -1656.187          51.000
E25  23535026.742 8 123677401.416 8       487.746          51.000    23535028.953 8  94765810.353 8       373.742          51.000
> 2020 05 07 13 13  0.0000000  0 15        .000000000000
G18  20518991.938 8 107828044.493 8      1115.676          51.000    20518992.219 8  84021871.070 8       869.358          51.000
G21  20742079.273 8 109000422.296 8       661.941          50.000    20742077.922 8  84935404.966 8       515.798          50.000
G25  23489262.148 6 123436869.017 6     -3264.652          41.000    23489264.773 6  96184613.075 6     -2543.888          41.000
G31  21809062.148 8 114607393.505 8     -2028.020          51.000    21809062.461 8  89304467.196 8     -1580.275          51.000
R14  20822189.742 8 110993986.279 8     -3414.730          49.000    20822194.281 8  86328635.307 8     -2655.901          48.000
R15  19253253.977 8 102883554.768 8       473.207          50.000    19253256.805 7  80020556.095 7       368.047          47.000
R17  19201612.328 8 102751841.462 8       187.836          48.000    19201614.289 7  79918065.389 7       146.095          44.000
R18  21759195.094 7 116152098.512 7      3188.926          46.000    21759196.961 7  90340527.546 7      2480.279          44.000
C26  21902347.820 8 114051266.872 8      -827.238          51.000
C29  23880510.195 5 124352082.129 5     -2527.652          30.000
E11  22502334.398 8 118250605.356 8       588.855          49.000    22502332.625 8  90607606.676 8       451.237          51.000
E12  23247125.305 5 122164466.964 5     -2093.352          34.000    23247127.484 5  93606607.759 5     -1603.682          35.000
E24  23126057.688 8 121528237.628 8     -2169.695          51.000    23126071.781 8  93119102.469 8     -1662.533          51.000
E25  23532272.250 8 123662925.379 8       476.711          51.000    23532274.383 8  94754718.321 8       365.296          51.000
E36  25981563.258 5 136534036.436 5      2669.051          33.000    25981568.391 6 104617007.614 6      2045.117          39.000
> 2020 05 07 13 13 30.0000000  0 16        .000000000000
G18  20512675.836 8 107794854.051 8      1097.363          51.000    20512676.016 8  83996008.396 8       855.088          50.000
G21  20738347.172 8 108980811.728 8       645.625          50.000    20738346.414 8  84920124.021 8       503.087          50.000
G25  23507916.508 6 123534898.756 6     -3270.242          41.000    23507919.008 6  96260999.808 6     -2548.244          41.000
G29  21497694.516 6 112971115.642 6     -2127.020          38.000
G31  21820682.883 8 114668460.365 8     -2042.844          51.000    21820682.867 8  89352051.757 8     -1591.826          51.000
R14  20841451.211 7 111096664.375 7     -3430.219          47.000    20841456.555 7  86408496.006 7     -2667.948          47.000
R15  19250667.078 8 102869730.603 8       448.570          51.000    19250669.797 7  80009803.954 7       348.888          47.000
R17  19200612.055 8 102746488.518 8       169.352          49.000    19200614.211 7  79913902.000 7       131.718          45.000
R18  21741305.578 7 116056608.755 7      3177.289          43.000    21741308.828 7  90266257.727 7      2471.225          46.000
C26  21907159.938 8 114076324.748 8      -843.090          51.000
C29  23895084.625 5 124427973.966 5     -2529.973          30.000
E11  22499004.977 8 118233108.713 8       577.629          49.000    22499003.414 8  90594200.165 8       442.557          51.000
E12  23259092.445 6 122227353.955 6     -2099.301          36.000    23259093.805 5  93654792.322 5     -1608.370          35.000
E24  23138468.531 8 121593455.344 8     -2177.879          51.000    23138481.688 8  93169074.455 8     -1668.827          50.000
E25  23529582.195 8 123648787.822 8       465.918          51.000    23529584.266 8  94743885.643 8       357.020          51.000
E36  25966346.766 6 136454052.328 6      2663.402          38.000    25966349.891 6 104555721.091 6      2040.828          41.000
> 2020 05 07 13 14  0.0000000  0 15        .000000000000
G18  20506464.586 8 107762213.478 8      1078.789          51.000    20506464.672 8  83970574.190 8       840.615          50.000
G21  20734708.508 8 108961692.133 8       629.117          49.000    20734707.945 8  84905225.638 8       490.221          49.000
G25  23526602.969 6 123633096.471 6     -3276.059          41.000    23526605.492 6  96337517.444 6     -2552.773          41.000
G29  21509825.297 6 113034893.855 6     -2133.598          38.000    21509823.500 6  88079127.000 6     -1662.541          38.000
G31  21832388.438 8 114729971.736 8     -2057.777          51.000    21832387.773 8  89399982.677 8     -1603.463          51.000
R14  20860799.461 7 111199807.127 7     -3445.832          47.000    20860804.953 7  86488718.139 7     -2680.092          44.000
R15  19248218.930 8 102856647.498 8       423.766          51.000    19248221.398 8  79999628.208 8       329.595          48.000
R17  19199715.562 8 102741692.965 8       150.648          48.000    19199718.273 7  79910172.126 7       117.171          44.000
R18  21723481.305 7 115961465.730 7      3165.617          46.000    21723486.117 7  90192257.601 7      2462.147          47.000
C26  21912063.172 8 114101857.984 8      -859.074          51.000
E11  22495740.531 8 118215953.650 8       566.320          49.000    22495739.047 8  90581055.378 8       433.874          51.000
E12  23271094.297 6 122290424.463 6     -2105.441          36.000    23271094.266 5  93703119.020 5     -1613.329          34.000
E24  23150925.969 8 121658917.428 8     -2186.141          51.000    23150938.234 8  93219233.660 8     -1674.990          50.000
E25  23526954.312 8 123634977.789 8       454.816          51.000    23526956.531 8  94733303.922 8       348.514          51.000
E36  25951161.398 7 136374236.971 7      2657.656          42.000    25951162.305 6 104494563.874 6      2036.437          41.000
> 2020 05 07 13 14 30.0000000  0 16        .000000000000
G18  20500362.742 8 107730148.370 8      1059.137          50.000    20500362.859 8  83945588.407 8       825.304          50.000
G21  20731167.906 8 108943088.207 8       611.445          49.000    20731167.648 8  84890729.082 8       476.451          49.000
