     3.02           OBSERVATION DATA    M (MIXED)           RINEX VERSION / TYPE
SAVERINEX           SC600               20200512 215931 LCL PGM / RUN BY / DATE
       G = GPS       R = GLONASS       C = COMPASS          COMMENT
       S = SBAS      J = QZSS          E = GALILEO          COMMENT
BEAN                                                        MARKER NAME
1                                                           MARKER NUMBER
GEODETIC                                                    MARKER TYPE
Unige DICCA         GTER                                    OBSERVER / AGENCY
SC60291900056       SC600               2.12(191226)        REC # / TYPE / VERS
                    HEMA45          NONE                    ANT # / TYPE
  4509407.8091   693652.4678  4442337.6214                  APPROX POSITION XYZ
        0.0000        0.0000        0.0000                  ANTENNA: DELTA H/E/N
G    8 C1C L1C D1C S1C C2Y L2Y D2Y S2Y                      SYS / # / OBS TYPES
R    8 C1C L1C D1C S1C C2P L2P D2P S2P                      SYS / # / OBS TYPES
C    8 C1I L1I D1I S1I C7I L7I D7I S7I                      SYS / # / OBS TYPES
E    8 C1C L1C D1C S1C C7Q L7Q D7Q S7Q                      SYS / # / OBS TYPES
DBHZ                                                        COMMENT
     30.000                                                 INTERVAL
  2020    05    12    19    00    0.0000000     GPS         TIME OF FIRST OBS
  2020    05    12    19    59   30.0000000     GPS         TIME OF LAST OBS
     0                                                      RCV CLOCK OFFS APPL
G L1C  0.00000                                              SYS / PHASE SHIFT
G L2Y  0.00000                                              SYS / PHASE SHIFT
R L1C  0.00000                                              SYS / PHASE SHIFT
R L2P  0.25000                                              SYS / PHASE SHIFT
C L1I  0.00000                                              SYS / PHASE SHIFT
C L7I  0.00000                                              SYS / PHASE SHIFT
E L1C  0.50000                                              SYS / PHASE SHIFT
E L7Q -0.25000                                              SYS / PHASE SHIFT
 12 R01  1 R02 -4 R03  5 R08  6 R10 -5 R12 -1 R13 -2 R14 -7 GLONASS SLOT / FRQ #
    R15  0 R17  4 R22 -3 R23  3                             GLONASS SLOT / FRQ #
 C1C   71.950 C2C   71.950 C2P   71.950                     GLONASS COD/PHS/BIS
    18                                                      LEAP SECONDS
*** Above antenna height is from mark to ANTENNA BOTTOM.    COMMENT
    17     4        0.0000        ANT MEASURE TYPE/HEIGT    COMMENT
    0.0000    0.0000    0.0458    0.0405    0.0000          COMMENT
                    BASE STATION                            COMMENT
                                                            END OF HEADER
> 2020 05 12 19 00  0.0000000  0 17        .000000000000
G03  22190193.711 7 116610233.639 7      2747.426          47.000    22190194.562 7  90865135.774 7      2140.851          47.000
G08  21539900.625 8 113192944.114 8     -2584.258          51.000    21539902.680 8  88202277.973 8     -2013.707          51.000
G11  19875863.406 8 104448375.972 8      -366.137          49.000    19875862.258 8  81388322.078 8      -285.301          49.000
G14  21982223.094 5 115517382.350 5       697.547          32.000    21982224.047 5  90013529.677 5       543.573          30.000
G22  20932968.148 8 110003498.073 8      1204.539          51.000    20932964.898 8  85717004.221 8       938.602          51.000
G27  24006922.273 6 126157153.736 6     -3702.875          37.000    24006920.320 6  98304304.061 6     -2885.360          37.000
G32  22114580.930 5 116212941.480 5      -851.637          34.000    22114607.445 5  90555592.416 5      -663.598          35.000
R02  19239876.555 8 102667701.655 8      1194.027          51.000    19239877.523 7  79852660.253 7       928.688          46.000
R17  19215124.312 8 102824014.328 8       901.078          50.000    19215125.219 7  79974229.408 7       700.842          45.000
R24  20884867.984 8 111680743.393 8     -2660.977          51.000    20884869.742 7  86862841.659 7     -2069.648          45.000
C05                                                                  39665927.508 6 159718255.873 6       -23.418          37.000
C14  25220827.289 5 131331467.892 5     -3022.324          30.000    25220830.703 6 101553805.421 6     -2336.557          37.000
C27  21578960.852 8 112367332.117 8       616.117          51.000
C28  22891276.391 8 119200862.348 8     -2314.656          51.000
E19  26415542.688 7 138814589.176 7      2890.668          43.000    26415547.273 6 106364430.826 6      2214.796          40.000
E26  24397151.508 7 128207879.198 7     -1957.785          42.000    24397157.148 6  98237226.005 6     -1500.232          38.000
E33  23439656.836 8 123176221.154 8       185.996          51.000    23439657.789 8  94381769.785 8       142.561          51.000
> 2020 05 12 19 00 30.0000000  0 17        .000000000000
G03  22174541.312 7 116527982.239 7      2736.840          47.000    22174543.508 7  90801043.790 7      2132.602          46.000
G08  21554695.727 8 113270691.391 8     -2598.035          51.000    21554698.047 8  88262860.251 8     -2024.443          51.000
G11  19878008.281 8 104459646.945 8      -384.320          50.000    19878007.062 8  81397104.644 8      -299.470          49.000
G14  21978290.875 6 115496717.280 6       680.141          38.000    21978290.891 5  89997427.135 5       529.974          33.000
G22  20926132.484 8 109967575.554 8      1191.078          51.000    20926129.227 8  85689012.674 8       928.113          51.000
G27  24028076.031 5 126268317.235 5     -3707.906          34.000    24028074.797 5  98390924.867 5     -2889.281          34.000
G32  22119496.711 6 116238773.646 6      -870.391          38.000    22119520.688 6  90575721.661 6      -678.220          37.000
R02  19233234.992 8 102632264.105 8      1169.250          51.000    19233236.828 8  79825097.713 8       909.420          49.000
R17  19210126.172 8 102797268.506 8       882.742          50.000    19210127.023 7  79953427.109 7       686.577          45.000
R24  20899839.859 8 111760805.134 8     -2675.637          50.000    20899841.500 7  86925111.904 7     -2081.051          44.000
C05                                                                  39666105.391 6 159718972.228 6       -23.687          37.000
C14  25238251.609 5 131422193.807 5     -3025.684          32.000    25238253.773 6 101623960.504 6     -2339.675          36.000
C27  21575452.547 8 112349065.081 8       602.406          51.000
C28  22904645.383 8 119270473.912 8     -2325.312          51.000
E19  26399061.148 7 138727974.236 7      2884.473          45.000    26399065.133 6 106298063.574 6      2210.031          41.000
E26  24408349.070 6 128266717.786 6     -1964.059          39.000    24408352.523 5  98282310.036 5     -1504.850          34.000
E33  23438620.305 8 123170774.182 8       177.844          51.000    23438621.641 8  94377596.129 8       136.288          51.000
> 2020 05 12 19 01  0.0000000  0 18        .000000000000
G03  22158944.648 8 116446021.671 8      2727.113          48.000    22158947.172 8  90737178.460 8      2125.026          48.000
G08  21569564.422 8 113348828.226 8     -2611.113          50.000    21569567.219 8  88323746.087 8     -2034.634          50.000
G11  19880252.141 8 104471437.823 8      -401.773          50.000    19880250.625 8  81406292.338 8      -313.070          50.000
G14  21974459.789 6 115476580.130 6       662.348          36.000    21974457.930 5  89981735.811 5       516.112          34.000
G22  20919368.766 8 109932031.910 8      1178.387          51.000    20919365.453 8  85661316.338 8       918.223          51.000
G27  24049252.070 5 126379599.901 5     -3711.461          35.000    24049250.836 5  98477638.542 5     -2892.047          34.000
G32  22124518.109 6 116265161.881 6      -888.934          36.000    22124541.867 6  90596284.090 6      -692.669          36.000
R02  19226728.438 8 102597545.902 8      1145.309          51.000    19226731.555 8  79798094.690 8       890.796          50.000
R03  22387811.414 5 119843710.877 5      4097.008          33.000    22387805.172 4  93211773.004 4      3186.562          26.000
R17  19205226.898 8 102771052.210 8       865.004          50.000    19205227.992 7  79933036.653 7       672.781          46.000
R24  20914889.148 8 111841284.049 8     -2689.566          49.000    20914891.383 7  86987706.607 7     -2091.888          45.000
C05                                                                  39666281.328 6 159719680.803 6       -23.388          37.000
C14  25255693.781 5 131513015.959 5     -3028.871          34.000    25255695.359 6 101694189.969 6     -2342.402          37.000
C27  21572019.383 8 112331188.125 8       589.336          51.000
C28  22918070.344 8 119340379.429 8     -2335.133          51.000
E19  26382610.570 7 138641522.809 7      2878.965          46.000    26382613.922 7 106231821.595 7      2205.951          43.000
E26  24419576.844 5 128325721.783 5     -1969.801          35.000    24419577.664 5  98327519.838 5     -1509.193          31.000
E33  23437626.125 8 123165550.110 8       170.410          51.000    23437627.711 8  94373593.272 8       130.571          51.000
> 2020 05 12 19 01 30.0000000  0 18        .000000000000
G03  22143406.188 8 116364366.194 8      2716.926          48.000    22143408.336 8  90673550.864 8      2117.088          48.000
G08  21584509.094 8 113427365.611 8     -2624.355          50.000    21584512.289 8  88384944.033 8     -2044.952          50.000
G11  19882597.438 8 104483762.044 8      -419.410          50.000    19882595.539 8  81415895.620 8      -326.813          50.000
G14  21970731.312 5 115456985.096 5       643.844          35.000    21970730.227 5  89966467.001 5       501.709          34.000
G22  20912679.453 8 109896880.139 8      1165.336          51.000    20912676.109 8  85633925.336 8       908.051          51.000
G27  24070453.359 5 126491086.728 5     -3715.258          33.000    24070452.062 5  98564477.760 5     -2895.006          32.000
G32  22129647.969 6 116292084.221 6      -907.867          36.000    22129673.477 5  90617289.862 5      -707.411          35.000
R02  19220359.203 8 102563561.079 8      1120.820          51.000    19220363.180 8  79771662.046 8       871.752          49.000
R03  22364876.422 5 119720938.573 5      4088.348          34.000
R17  19200429.367 8 102745381.093 8       846.844          51.000    19200430.539 7  79913070.237 7       658.656          46.000
R24  20930018.805 8 111922192.467 8     -2703.984          49.000    20930021.797 7  87050635.353 7     -2103.099          45.000
C05                                                                  39666457.984 6 159720391.769 6       -23.696          38.000
C14  25273156.234 5 131603945.732 5     -3032.715          33.000    25273157.391 6 101764502.600 6     -2344.994          37.000
C27  21568664.031 8 112313715.514 8       575.875          51.000
C28  22931553.359 8 119410591.132 8     -2345.316          51.000
E19  26366193.531 7 138555249.698 7      2872.996          46.000    26366196.578 7 106165716.248 7      2201.357          44.000
E26  24430838.094 5 128384904.103 5     -1975.199          35.000    24430836.055 5  98372853.447 5     -1513.829          33.000
E33  23436677.023 8 123160562.922 8       162.488          51.000    23436678.703 8  94369771.922 8       124.525          51.000
> 2020 05 12 19 02  0.0000000  0 17        .000000000000
G03  22127928.109 8 116283028.568 8      2706.926          48.000    22127930.469 7  90610170.930 7      2109.296          47.000
G08  21599532.305 8 113506313.739 8     -2637.289          51.000    21599535.266 8  88446462.047 8     -2055.030          50.000
G11  19885046.539 8 104496631.757 8      -437.043          50.000    19885044.352 8  81425923.964 8      -340.553          50.000
G14  21967107.922 6 115437944.471 6       626.422          36.000    21967106.625 5  89951628.013 5       488.112          31.000
G22  20906067.227 8 109862131.858 8      1152.637          51.000    20906063.742 8  85606848.753 8       898.158          51.000
G32  22134888.359 6 116319619.716 6      -926.492          40.000    22134910.250 6  90638746.249 6      -721.939          40.000
R02  19214129.906 8 102530322.410 8      1096.652          51.000    19214134.602 8  79745809.778 8       852.952          49.000
R03  22341996.508 5 119598461.286 5      4078.730          35.000
R17  19195736.367 8 102720269.235 8       828.891          51.000    19195738.031 7  79893538.783 7       644.693          47.000
R24  20945231.344 8 112003541.458 8     -2717.832          50.000    20945234.352 7  87113906.757 7     -2113.869          45.000
C05                                                                  39666637.352 6 159721114.083 6       -23.340          38.000
C14  25290641.008 5 131694993.009 5     -3035.953          32.000    25290641.789 6 101834906.109 6     -2347.175          36.000
C27  21565388.719 8 112296659.983 8       562.598          51.000
C28  22945096.164 8 119481119.802 8     -2355.117          48.000
E19  26349812.531 7 138469168.073 7      2867.383          46.000    26349815.398 7 106099757.606 7      2196.972          44.000
E26  24442135.969 6 128444276.566 6     -1980.844          36.000    24442134.445 6  98418344.696 6     -1518.002          36.000
E33  23435775.359 8 123155825.051 8       154.883          51.000    23435777.195 8  94366141.600 8       118.655          51.000
> 2020 05 12 19 02 30.0000000  0 17        .000000000000
G03  22112504.383 7 116201976.500 7      2696.430          47.000    22112507.117 8  90547013.458 8      2101.114          48.000
G08  21614627.266 8 113585637.475 8     -2650.789          51.000    21614629.055 8  88508272.716 8     -2065.553          51.000
G11  19887593.117 8 104510013.894 8      -455.012          49.000    19887590.906 8  81436351.596 8      -354.555          49.000
G14  21963583.781 6 115419425.895 6       608.211          36.000    21963582.617 5  89937197.988 5       473.928          32.000
G22  20899525.547 8 109827754.055 8      1139.293          51.000    20899522.023 8  85580060.869 8       887.764          51.000
G32  22140232.273 6 116347700.062 6      -945.301          39.000    22140254.773 5  90660627.360 5      -736.571          33.000
R02  19208034.484 8 102497796.191 8      1071.910          51.000    19208039.117 8  79720511.628 8       833.708          48.000
R03  22319166.547 5 119476247.746 5      4069.238          32.000    22319176.695 4  92925983.903 4      3164.966          27.000
R17  19191142.180 8 102695685.058 8       810.312          51.000    19191144.094 7  79874417.763 7       630.243          47.000
R24  20960520.258 8 112085296.272 8     -2732.328          51.000    20960523.023 7  87177493.811 7     -2125.144          46.000
C05                                                                  39666813.172 6 159721822.213 6       -23.696          38.000
C14  25308141.125 5 131786122.985 5     -3038.953          31.000    25308142.789 5 101905373.558 5     -2349.902          35.000
C27  21562187.430 8 112279989.616 8       548.863          51.000
C28  22958693.117 7 119551931.554 7     -2365.602          45.000
E19  26333461.984 7 138383246.006 7      2860.887          47.000    26333464.453 7 106033921.219 7      2192.165          44.000
E26  24453463.922 6 128503806.000 6     -1987.391          39.000    24453464.484 6  98463958.100 6     -1522.872          39.000
E33  23434915.039 8 123151303.957 8       146.711          51.000    23434916.898 8  94362677.393 8       112.403          51.000
> 2020 05 12 19 03  0.0000000  0 17        .000000000000
G03  22097133.094 7 116121199.299 7      2699.160          47.000    22097136.070 7  90484070.191 7      2103.242          47.000
G08  21629791.141 8 113665323.076 8     -2650.891          50.000    21629791.609 8  88570365.340 8     -2065.629          50.000
G11  19890235.016 8 104523897.200 8      -459.816          49.000    19890232.867 8  81447169.754 8      -358.298          49.000
G14  21960157.086 6 115401418.479 6       602.801          40.000    21960157.594 6  89923166.307 6       469.718          36.000
G22  20893051.930 8 109793734.857 8      1139.301          51.000    20893048.461 8  85553552.421 8       887.767          51.000
G27  24134190.961 5 126826045.378 5     -3715.223          32.000
R02  19202070.352 8 102465971.105 8      1060.738          51.000    19202074.875 8  79695758.802 8       825.022          48.000
R03  22296383.562 5 119354289.164 5      4072.719          31.000    22296390.367 4  92831127.352 4      3167.673          29.000
R17  19186644.594 8 102671618.690 8       805.113          51.000    19186646.656 7  79855699.479 7       626.199          47.000
R24  20975882.430 8 112167443.902 8     -2733.270          50.000    20975885.305 7  87241386.353 7     -2125.879          47.000
C05                                                                  39666983.305 6 159722507.289 6       -13.816          37.000
C14  25325654.500 5 131877322.554 5     -3029.914          32.000    25325656.781 5 101975894.787 5     -2343.024          34.000
C27  21559058.055 8 112263694.025 8       548.129          51.000
C28  22972341.977 7 119623013.971 7     -2362.703          46.000
E19  26317140.289 8 138297473.643 8      2867.914          48.000    26317141.844 7 105968199.573 7      2197.490          43.000
E26  24464819.773 7 128563480.523 7     -1980.145          43.000    24464822.484 6  98509682.661 6     -1517.343          41.000
E33  23434093.977 8 123146988.716 8       151.676          51.000    23434095.547 8  94359370.908 8       116.225          51.000
> 2020 05 12 19 03 30.0000000  0 20        .000000000000
G03  22081787.203 8 116040556.192 8      2676.266          48.000    22081789.719 8  90421231.434 8      2085.405          48.000
G08  21644996.422 8 113745226.608 8     -2676.738          50.000    21644996.438 8  88632627.825 8     -2085.770          51.000
G11  19892945.414 8 104538140.348 8      -490.441          49.000    19892943.367 8  81458268.297 8      -382.162          49.000
G14  21956800.922 6 115383781.269 6       571.918          39.000    21956800.469 5  89909423.021 5       445.653          30.000
G22  20886619.602 8 109759932.349 8      1113.543          51.000    20886616.094 8  85527212.826 8       867.696          51.000
G27  24155446.594 5 126937727.896 5     -3731.773          31.000    24155444.906 5  98912510.691 5     -2907.875          31.000
G32  22151214.102 6 116405408.393 6      -982.605          38.000    22151207.250 6  90705499.298 6      -765.670          38.000
R01  21557183.836 5 115235503.084 5     -3544.043          31.000
R02  19196211.234 8 102434703.904 8      1023.168          51.000    19196215.305 8  79671439.874 8       795.797          48.000
R03  22273620.602 5 119232444.158 5      4049.910          33.000    22273629.445 5  92736359.144 5      3149.936          31.000
R17  19182217.180 8 102647927.934 8       773.543          51.000    19182219.453 7  79837273.341 7       601.645          47.000
R24  20991290.789 8 112249838.967 8     -2760.445          49.000    20991293.602 7  87305471.377 7     -2147.013          46.000
C05                                                                  39667120.648 6 159723060.632 6       -23.600          37.000
C14  25343153.750 5 131968449.197 5     -3045.766          32.000    25343156.711 5 102046359.709 5     -2355.300          33.000
C27  21555973.906 8 112247633.747 8       521.805          51.000
C28  22986015.984 7 119694225.725 7     -2385.410          45.000
E07  25788210.359 5 135517953.253 5     -1854.117          33.000
E19  26300820.461 8 138211710.440 8      2848.902          48.000    26300820.953 7 105902484.963 7      2183.018          43.000
E26  24476176.891 7 128623158.212 7     -1998.777          43.000    24476180.523 7  98555409.704 7     -1531.653          42.000
E33  23433285.164 8 123142738.273 8       130.934          51.000    23433286.422 8  94356114.080 8       100.317          51.000
> 2020 05 12 19 04  0.0000000  0 20        .000000000000
G03  22066551.141 8 115960490.269 8      2665.340          48.000    22066552.797 8  90358842.459 8      2076.888          48.000
G08  21660327.078 8 113825788.935 8     -2690.574          50.000    21660327.820 8  88695403.670 8     -2096.551          50.000
G11  19895808.484 8 104553185.656 8      -509.027          50.000    19895806.281 8  81469991.911 8      -396.645          49.000
G14  21953599.117 6 115366956.909 6       553.312          40.000    21953598.664 5  89896313.189 5       431.153          32.000
G22  20880312.562 8 109726788.556 8      1099.715          51.000    20880308.969 8  85501386.512 8       856.921          51.000
G27  24176774.984 5 127049808.622 5     -3735.871          31.000    24176771.625 5  98999846.031 5     -2911.078          30.000
G32  22156874.133 6 116435229.093 6     -1002.445          37.000    22156874.133 5  90728741.449 5      -781.129          35.000
R01  21577119.648 4 115342077.999 4     -3556.910          29.000
R02  19190540.406 8 102404443.508 8       997.879          50.000    19190544.164 7  79647904.020 7       776.125          47.000
R03  22250963.094 5 119111165.958 5      4039.664          32.000    22250975.203 4  92642031.828 4      3141.967          28.000
R17  19177944.656 8 102625065.263 8       754.227          51.000    19177947.055 8  79819491.256 8       586.621          48.000
R24  21006828.383 7 112332930.294 7     -2775.430          47.000    21006831.711 7  87370097.966 7     -2158.668          46.000
C05                                                                  39667309.414 6 159723821.006 6       -24.285          37.000
C14  25360723.438 5 132059939.610 5     -3050.527          33.000    25360727.258 5 102117105.865 5     -2358.529          32.000
C27  21553019.359 8 112232248.005 8       507.418          51.000
C28  22999801.062 8 119766004.024 8     -2396.277          48.000
E07  25798832.617 5 135573783.025 5     -1865.105          32.000
E19  26284586.609 8 138126400.346 8      2841.996          48.000    26284586.180 7 105837117.549 7      2177.642          43.000
E26  24487618.586 6 128683281.181 6     -2005.375          41.000    24487623.625 7  98601477.898 7     -1536.724          42.000
E33  23432572.898 8 123138995.474 8       122.215          51.000    23432574.039 8  94353246.227 8        93.630          51.000
> 2020 05 12 19 04 30.0000000  0 18        .000000000000
G03  22051376.812 7 115880749.319 7      2653.887          47.000    22051378.273 8  90296706.712 8      2067.964          48.000
G08  21675734.398 8 113906754.580 8     -2704.215          48.000    21675736.219 8  88758493.773 8     -2107.180          48.000
G11  19898776.164 8 104568780.381 8      -527.672          50.000    19898773.805 8  81482143.647 8      -411.173          50.000
G14  21950504.367 5 115350693.349 5       534.398          35.000    21950504.219 4  89883640.308 4       416.427          28.000
G22  20874082.297 8 109694050.347 8      1085.703          51.000    20874079.000 8  85475876.247 8       846.002          51.000
G27  24198127.344 5 127162021.342 5     -3741.180          35.000    24198124.984 5  99087284.338 5     -2915.208          35.000
R02  19185010.039 8 102374933.427 8       972.410          50.000    19185013.422 7  79624951.713 7       756.319          47.000
R03  22228362.398 5 118990199.779 5      4027.770          31.000    22228375.852 4  92547947.177 4      3132.713          25.000
R17  19173779.414 8 102602774.873 8       734.711          51.000    19173781.688 8  79802154.282 8       571.442          48.000
R24  21022447.938 8 112416459.192 8     -2790.332          48.000    21022452.000 7  87435064.894 7     -2170.261          46.000
C05                                                                  39667501.438 6 159724594.490 6       -25.188          38.000
C14  25378314.117 5 132151541.023 5     -3054.094          34.000    25378318.352 5 102187937.951 5     -2361.743          30.000
C27  21550146.359 8 112217286.999 8       492.879          51.000
C28  23013647.195 8 119838097.201 8     -2407.051          50.000
E07  25809515.695 5 135629920.326 5     -1875.992          33.000
E19  26268390.625 8 138041291.359 8      2834.855          48.000    26268390.008 7 105771904.213 7      2172.249          43.000
E26  24499097.266 6 128743596.174 6     -2012.426          40.000    24499101.992 6  98647693.227 6     -1541.974          40.000
E33  23431909.188 8 123135507.911 8       113.367          51.000    23431910.289 8  94350573.935 8        86.824          51.000
> 2020 05 12 19 05  0.0000000  0 17        .000000000000
G03  22036249.570 7 115801256.585 7      2644.281          47.000    22036251.602 7  90234764.331 7      2060.479          47.000
G08  21691203.141 8 113988043.905 8     -2716.367          48.000    21691205.766 8  88821836.066 8     -2116.653          48.000
G11  19901833.562 8 104584846.803 8      -544.887          51.000    19901831.242 8  81494662.935 8      -424.584          50.000
G14  21947501.367 6 115334913.327 6       516.379          36.000    21947501.250 5  89871344.240 5       402.364          31.000
G22  20867914.484 8 109661639.792 8      1073.457          51.000    20867911.422 8  85450621.270 8       836.460          51.000
G27  24219489.375 6 127274285.293 6     -3744.371          38.000    24219489.266 6  99174762.678 6     -2917.695          38.000
R02  19179605.695 8 102346094.723 8       948.730          51.000    19179608.742 7  79602521.617 7       737.901          46.000
R03  22205807.461 5 118869469.060 5      4018.746          34.000    22205819.375 5  92454045.661 5      3125.697          32.000
R17  19169706.766 8 102580979.885 8       716.809          51.000    19169708.750 8  79785202.624 8       557.518          48.000
R24  21038135.227 8 112500345.735 8     -2803.477          50.000    21038138.719 7  87500309.948 7     -2180.485          44.000
C05                                                                  39667682.016 6 159725321.446 6       -24.406          37.000
C14  25395911.375 5 132243174.725 5     -3056.699          33.000    25395912.008 5 102258807.956 5     -2363.329          30.000
C27  21547340.289 8 112202674.701 8       479.910          51.000
C28  23027538.547 8 119910427.208 8     -2416.344          51.000
E19  26252217.867 7 137956307.462 7      2829.398          46.000    26252218.047 7 105706786.709 7      2168.127          42.000
E26  24510596.867 5 128804025.263 5     -2017.418          35.000    24510600.820 6  98693995.957 6     -1545.751          38.000
E33  23431279.414 8 123132198.488 8       106.039          51.000    23431280.469 8  94348038.141 8        81.269          51.000
> 2020 05 12 19 05 30.0000000  0 16        .000000000000
G03  22021178.508 8 115722059.110 8      2635.082          48.000    22021180.695 8  90173052.035 8      2053.311          48.000
G08  21706742.078 8 114069700.880 8     -2728.113          50.000    21706744.984 8  88885464.858 8     -2125.803          50.000
G11  19904989.547 8 104601431.295 8      -561.594          51.000    19904987.453 8  81507585.902 8      -437.609          51.000
G22  20861818.188 8 109629603.531 8      1061.539          51.000    20861814.930 8  85425657.971 8       827.176          51.000
G27  24240869.766 6 127386644.741 6     -3746.891          37.000    24240871.086 6  99262315.431 6     -2919.658          37.000
R02  19174336.188 8 102317975.124 8       925.184          51.000    19174338.391 7  79580650.831 7       719.587          46.000
R03  22183307.594 6 118749023.849 6      4009.953          38.000    22183317.469 6  92360366.134 6      3118.852          36.000
R17  19165735.648 8 102559729.208 8       699.145          51.000    19165737.680 8  79768674.310 8       543.779          49.000
R24  21053898.398 8 112584635.481 8     -2816.500          51.000    21053900.758 7  87565868.595 7     -2190.611          44.000
C05                                                                  39667859.844 6 159726037.291 6       -23.784          37.000
C14  25413523.000 5 132334884.810 5     -3058.648          31.000    25413522.898 5 102329723.983 5     -2364.422          30.000
C27  21544610.289 8 112188457.934 8       467.219          51.000
C28  23041483.727 8 119983038.869 8     -2425.242          50.000
E19  26236077.344 7 137871496.260 7      2824.078          44.000    26236079.023 7 105641801.535 7      2163.850          42.000
E26                                                                  24522130.047 6  98740421.445 6     -1549.738          37.000
E33  23430692.516 8 123129114.136 8        98.918          51.000    23430693.695 8  94345674.793 8        75.812          51.000
> 2020 05 12 19 06  0.0000000  0 16        .000000000000
G03  22006169.172 8 115643183.650 8      2624.176          49.000    22006170.672 8  90111590.700 8      2044.815          49.000
G08  21722355.750 8 114151749.378 8     -2740.996          51.000    21722358.227 8  88949398.742 8     -2135.844          51.000
G11  19908249.203 8 104618560.257 8      -579.648          51.000    19908247.141 8  81520933.125 8      -451.674          50.000
G22  20855797.984 8 109597966.075 8      1048.246          51.000    20855794.320 8  85401005.424 8       816.815          50.000
G27  24262273.148 5 127499123.345 5     -3751.051          35.000    24262274.344 6  99349961.093 6     -2922.897          36.000
R02  19169206.477 8 102290600.055 8       900.477          51.000    19169208.422 7  79559359.132 7       700.374          47.000
R03  22160866.852 6 118628893.307 6      3999.250          40.000    22160875.539 6  92266931.333 6      3110.531          39.000
R17  19161871.469 8 102539051.119 8       680.020          51.000    19161873.406 8  79752591.348 8       528.904          49.000
R24  21069742.156 8 112669353.519 8     -2830.668          51.000    21069743.711 7  87631760.353 7     -2201.631          46.000
C05                                                                  39668039.758 6 159726761.727 6       -24.119          37.000
C14  25431154.172 4 132426693.009 4     -3061.652          29.000    25431152.172 5 102400717.603 5     -2367.953          31.000
C27  21541961.352 8 112174663.303 8       453.152          51.000
C28  23055486.672 8 120055956.872 8     -2435.340          48.000
E19  26219974.742 7 137786885.162 7      2817.398          44.000    26219977.672 6 105576969.685 6      2158.792          40.000
E26                                                                  24533694.094 5  98786989.376 5     -1554.820          32.000
E33  23430153.461 8 123126281.334 8        90.613          51.000    23430154.992 8  94343504.194 8        69.470          51.000
> 2020 05 12 19 06 30.0000000  0 17        .000000000000
G03  21991218.219 8 115564614.001 8      2611.992          49.000    21991220.078 8  90050367.665 8      2035.322          50.000
G08  21738040.375 8 114234170.596 8     -2755.391          51.000    21738042.164 8  89013623.036 8     -2147.058          51.000
G11  19911609.188 8 104636216.653 8      -599.199          51.000    19911606.773 8  81534691.358 8      -466.908          50.000
G14  21939110.352 6 115290823.315 6       460.789          36.000
G22  20849850.609 8 109566710.535 8      1033.613          51.000    20849846.523 8  85376650.476 8       805.413          50.000
G27  24283699.352 4 127611685.825 4     -3756.234          28.000    24283697.172 4  99437680.512 4     -2926.936          28.000
R02  19164212.836 8 102263952.862 8       874.289          51.000    19164214.641 7  79538633.554 7       680.003          47.000
R03  22138482.125 6 118509063.108 6      3987.473          37.000    22138490.234 6  92173730.113 6      3101.368          39.000
R17  19158111.492 8 102518930.612 8       659.484          51.000    19158113.383 8  79736942.067 8       512.932          49.000
R24  21085662.367 8 112754481.391 8     -2846.266          51.000    21085663.930 7  87697970.851 7     -2213.765          47.000
C05                                                                  39668218.578 6 159727481.695 6       -25.191          37.000
C14  25448800.727 4 132518582.909 4     -3066.598          28.000    25448798.594 5 102471774.138 5     -2370.940          31.000
C27  21539390.234 8 112161274.847 8       437.680          51.000
C28  23069544.156 7 120129163.333 7     -2446.922          47.000
E19  26203907.500 7 137702458.147 7      2809.266          44.000    26203909.242 6 105512278.922 6      2152.518          38.000
E26                                                                  24545288.945 5  98833709.619 5     -1560.294          33.000
E33  23429659.094 8 123123683.709 8        80.906          51.000    23429660.992 8  94341513.799 8        61.984          51.000
> 2020 05 12 19 07  0.0000000  0 17        .000000000000
G03  21976330.562 8 115486377.682 8      2604.844          48.000    21976333.320 8  89989404.309 8      2029.748          48.000
G08  21753800.688 8 114316988.901 8     -2764.688          51.000    21753801.891 8  89078156.752 8     -2154.305          51.000
G11  19915074.492 8 104654427.057 8      -613.879          51.000    19915071.977 8  81548881.269 8      -478.347          50.000
G14  21936524.273 6 115277238.448 6       445.930          38.000    21936527.977 5  89826415.793 5       347.481          31.000
G22  20843980.820 8 109535863.564 8      1023.898          51.000    20843976.453 8  85352613.911 8       797.843          50.000
R02  19159360.523 8 102238060.681 8       852.988          51.000    19159362.391 8  79518495.189 8       663.435          48.000
R03  22116158.109 5 118389563.110 5      3979.859          34.000    22116166.008 6  92080785.663 6      3095.443          38.000
R17  19154461.102 8 102499396.520 8       643.789          51.000    19154463.047 8  79721748.886 8       500.725          50.000
R24  21101663.742 8 112840045.002 8     -2856.852          51.000    21101665.164 7  87764520.284 7     -2221.993          46.000
C05                                                                  39668401.242 6 159728217.526 6       -22.739          37.000
C14                                                                  25466466.375 5 102542912.807 5     -2370.950          33.000
C27  21536902.195 8 112148319.877 8       427.020          51.000
C28  23083661.898 7 120202683.486 7     -2453.406          46.000
E07  25863741.320 5 135914880.049 5     -1922.613          34.000
E19  26187881.594 7 137618243.566 7      2805.945          45.000    26187880.000 6 105447750.937 6      2150.022          39.000
E26  24556920.523 6 129047481.203 6     -2038.965          37.000    24556923.773 5  98880556.280 5     -1562.189          35.000
E33  23429214.672 8 123121348.492 8        75.855          51.000    23429216.672 8  94339724.467 8        58.144          51.000
> 2020 05 12 19 07 30.0000000  0 17        .000000000000
G03  21961496.797 8 115408426.164 8      2592.883          48.000    21961500.281 8  89928662.845 8      2020.428          48.000
G08  21769626.555 8 114400152.729 8     -2778.543          51.000    21769627.328 8  89142959.713 8     -2165.098          51.000
G11  19918635.789 8 104673142.404 8      -632.871          50.000    19918633.383 8  81563464.646 8      -493.146          50.000
G14  21934038.195 6 115264172.356 6       426.289          40.000    21934042.047 5  89816234.519 5       332.176          34.000
G22  20838179.148 8 109505375.478 8      1009.684          51.000    20838174.750 8  85328856.977 8       786.763          50.000
R02  19154640.344 8 102212873.260 8       827.246          51.000    19154642.664 8  79498904.975 8       643.414          48.000
R03  22093887.586 6 118270345.637 6      3968.293          37.000    22093894.672 6  91988060.945 6      3086.450          38.000
R17  19150911.180 8 102480400.602 8       623.527          51.000    19150913.266 8  79706974.273 8       484.966          50.000
R24  21117736.312 8 112925992.582 8     -2871.906          51.000    21117737.812 7  87831368.424 7     -2233.705          47.000
C05                                                                  39668578.453 6 159728931.299 6       -24.038          37.000
C14                                                                  25484144.938 5 102614094.357 5     -2374.012          33.000
C27  21534488.305 8 112135750.400 8       411.957          51.000
C28  23097830.664 7 120276467.369 7     -2464.355          47.000
E07  25874752.945 5 135972743.955 5     -1934.203          32.000
E19  26171887.664 7 137534193.120 7      2798.242          46.000    26171884.781 6 105383348.712 6      2144.078          41.000
E26  24568582.406 5 129108765.553 5     -2045.641          35.000    24568586.258 5  98927514.444 5     -1567.765          35.000
E33  23428810.914 8 123119226.936 8        66.441          51.000    23428812.914 8  94338098.849 8        50.910          51.000
> 2020 05 12 19 08  0.0000000  0 16        .000000000000
G03  21946726.883 8 115330809.175 8      2583.566          50.000    21946729.398 8  89868182.126 8      2013.172          50.000
G08  21785526.859 8 114483709.119 8     -2789.879          51.000    21785527.750 8  89208068.565 8     -2173.935          51.000
G11  19922302.484 8 104692411.601 8      -649.707          50.000    19922300.133 8  81578479.598 8      -506.265          49.000
G14  21931660.062 6 115251674.317 6       408.895          40.000    21931660.375 5  89806495.802 5       318.619          34.000
G22  20832455.016 8 109475295.188 8       997.844          51.000    20832450.914 8  85305417.770 8       777.541          51.000
R02  19150061.555 8 102188440.078 8       803.797          51.000    19150064.391 8  79479901.422 8       625.175          48.000
R03  22071680.555 6 118151463.428 6      3959.125          40.000    22071686.562 6  91895597.102 6      3079.322          38.000
R17  19147471.664 8 102461994.526 8       605.602          51.000    19147473.633 8  79692658.434 8       471.023          49.000
R24  21133889.219 8 113012373.034 8     -2884.613          48.000    21133891.859 7  87898553.190 7     -2243.588          47.000
C05                                                                  39668759.469 6 159729660.485 6       -22.989          37.000
C14  25501842.281 4 132794784.546 4     -3071.926          28.000    25501843.555 5 102685354.978 5     -2375.045          32.000
C27  21532157.914 8 112123615.925 8       399.125          51.000
C28  23112060.312 8 120350562.711 8     -2473.148          49.000
E19  26155934.883 7 137450357.299 7      2792.824          47.000    26155932.633 7 105319110.911 7      2139.974          43.000
E26  24580279.906 5 129170244.469 5     -2050.402          35.000    24580285.938 6  98974621.548 6     -1571.474          36.000
E33  23428457.203 8 123117368.704 8        59.453          51.000    23428459.219 8  94336674.999 8        45.531          51.000
> 2020 05 12 19 08 30.0000000  0 17        .000000000000
G03  21932013.836 8 115253491.381 8      2571.859          50.000    21932015.359 8  89807934.562 8      2004.049          50.000
G08  21801494.406 8 114567619.640 8     -2803.297          51.000    21801495.828 8  89273453.358 8     -2184.387          51.000
G11  19926067.641 8 104712198.472 8      -668.598          49.000    19926065.375 8  81593897.938 8      -520.985          49.000
G14  21929383.109 6 115239708.591 6       389.746          36.000    21929383.375 5  89797171.910 5       303.701          33.000
G22  20826801.445 8 109445586.053 8       983.691          51.000    20826797.977 8  85282267.780 8       766.510          51.000
G32  22212665.492 6 116728344.895 6     -1168.137          36.000
R02  19145617.281 8 102164724.579 8       778.086          51.000    19145620.203 8  79461456.045 8       605.178          48.000
R03  22049530.461 7 118032882.532 7      3947.098          43.000    22049534.820 6  91803367.543 6      3069.968          38.000
R17  19144135.859 8 102444143.392 8       585.359          51.000    19144137.523 8  79678774.220 8       455.280          49.000
R24  21150115.961 8 113099148.286 8     -2899.410          49.000    21150119.117 7  87966045.069 7     -2255.094          45.000
C05                                                                  39668937.484 6 159730377.325 6       -23.950          37.000
C14                                                                  25519554.383 5 102756665.646 5     -2378.123          32.000
C27  21529904.422 8 112111881.466 8       384.070          51.000
C28  23126343.867 8 120424932.492 8     -2483.891          51.000
E19  26140016.477 8 137366701.481 8      2785.129          48.000    26140015.594 7 105255011.026 7      2134.057          45.000
E26  24592009.797 6 129231881.165 6     -2057.293          39.000    24592015.016 6  99021849.626 6     -1576.789          37.000
E33  23428146.891 8 123115738.216 8        50.148          51.000    23428148.719 8  94335425.645 8        38.464          51.000
> 2020 05 12 19 09  0.0000000  0 19        .000000000000
G03  21917366.578 8 115176520.782 8      2561.543          50.000    21917368.602 8  89747957.486 8      1996.008          50.000
G08  21817537.680 8 114651929.586 8     -2815.285          50.000    21817539.828 8  89339149.410 8     -2193.729          50.000
G11  19929940.289 8 104732550.347 8      -686.098          48.000    19929938.070 8  81609756.543 8      -534.622          48.000
G14  21927216.891 6 115228322.940 6       371.582          38.000    21927216.508 5  89788299.955 5       289.535          34.000
G22  20821227.383 8 109416294.916 8       971.207          51.000    20821224.492 8  85259443.534 8       756.785          51.000
G27  24391113.367 5 128176165.688 5     -3769.730          35.000
G32  22219389.359 6 116763695.026 6     -1185.973          38.000    22219383.180 4  90984711.559 4      -924.147          28.000
R02  19141316.531 8 102141774.926 8       753.895          51.000    19141319.797 8  79443606.340 8       586.362          49.000
R03  22027445.930 7 117914653.546 7      3936.762          45.000    22027448.891 6  91711411.687 6      3061.926          37.000
R17  19140912.891 8 102426897.147 8       566.504          51.000    19140914.391 8  79665360.475 8       440.614          49.000
R24  21166425.422 8 113186364.763 8     -2912.684          49.000    21166428.391 7  88033880.151 7     -2265.421          43.000
C05                                                                  39669121.500 6 159731117.857 6       -23.787          37.000
C14  25537283.523 4 132979336.364 4     -3076.738          28.000    25537285.898 5 102828061.073 5     -2379.905          30.000
C27  21527736.602 8 112100594.600 8       370.445          51.000
C28  23140688.984 8 120499622.324 8     -2493.266          51.000
E07  25908131.664 5 136148152.266 5     -1962.203          35.000
E19  26124141.352 8 137283273.947 8      2778.781          48.000    26124141.898 7 105191086.073 7      2129.151          46.000
E26  24603777.836 6 129293722.620 6     -2063.180          39.000    24603781.883 5  99069234.672 5     -1580.594          35.000
E33  23427889.031 8 123114383.179 8        42.289          51.000    23427890.672 8  94334387.358 8        32.418          51.000
> 2020 05 12 19 09 30.0000000  0 17        .000000000000
G03  21902768.852 8 115099809.390 8      2549.656          51.000    21902771.258 8  89688182.402 8      1986.745          51.000
G08  21833638.844 7 114736547.758 7     -2828.793          46.000    21833642.477 7  89405085.670 7     -2204.254          46.000
G11  19933903.609 8 104753378.510 8      -705.133          49.000    19933901.477 8  81625986.271 8      -549.454          49.000
G22  20815716.008 8 109387332.750 8       956.879          51.000    20815713.133 8  85236875.612 8       745.620          51.000
G27  24412637.562 6 128289289.233 6     -3774.555          36.000    24412636.039 5  99965665.530 5     -2941.214          35.000
G32  22226231.656 6 116799631.504 6     -1205.641          36.000    22226232.859 5  91012729.583 5      -939.469          34.000
R02  19137142.273 8 102119500.360 8       728.047          51.000    19137145.805 8  79426281.707 8       566.259          49.000
R03  22005410.328 7 117796689.244 7      3924.582          45.000    22005411.508 5  91619661.695 5      3052.453          35.000
R17  19137786.641 8 102410167.541 8       545.949          51.000    19137788.094 8  79652348.561 8       424.627          50.000
R24  21182800.641 8 113273931.109 8     -2927.742          50.000    21182803.281 7  88101987.262 7     -2277.136          44.000
C05                                                                  39669294.328 6 159731814.036 6       -24.723          37.000
C14                                                                  25555021.023 5 102899471.904 5     -2382.772          30.000
C27  21525638.102 8 112089668.347 8       355.223          51.000
C28  23155078.055 8 120574543.303 8     -2504.254          51.000
E19  26108292.758 8 137199987.487 8      2770.859          48.000    26108294.484 7 105127269.203 7      2123.201          47.000
E26  24615568.477 6 129355680.143 6     -2070.195          38.000    24615570.922 5  99116708.630 5     -1586.041          35.000
E33  23427666.898 8 123113215.558 8        32.934          51.000    23427668.453 8  94333492.675 8        25.187          51.000
> 2020 05 12 19 10  0.0000000  0 17        .000000000000
G03  21888234.461 8 115023430.121 8      2539.793          50.000    21888236.039 8  89628666.136 8      1979.062          50.000
G08  21849812.266 8 114821544.077 8     -2840.129          48.000    21849816.586 8  89471316.592 8     -2213.087          48.000
G11  19937971.273 8 104774755.045 8      -722.238          49.000    19937969.398 8  81642643.298 8      -562.786          49.000
G22  20810281.008 8 109358771.648 8       944.785          51.000    20810277.680 8  85214620.220 8       736.199          51.000
G27  24434187.602 5 128402530.056 5     -3776.762          35.000    24434183.938 5 100053905.041 5     -2942.931          35.000
G32  22233158.078 6 116836032.490 6     -1223.125          39.000    22233147.102 5  91041094.000 5      -953.075          34.000
R02  19133108.211 8 102097974.116 8       704.449          51.000    19133111.906 8  79409539.102 8       547.905          48.000
R03  21983437.711 7 117679065.657 7      3914.551          44.000    21983436.586 5  91528176.738 5      3044.654          31.000
R17  19134770.828 8 102394029.474 8       527.395          51.000    19134772.453 8  79639796.727 8       410.196          49.000
R24  21199255.219 8 113361919.341 8     -2940.551          50.000    21199257.586 7  88170422.422 7     -2287.098          43.000
C05                                                                  39669469.898 6 159732520.995 6       -24.122          37.000
C14  25572773.773 4 133164133.547 4     -3083.016          29.000    25572772.742 4 102970958.144 4     -2384.122          27.000
C27  21523622.773 8 112079175.001 8       341.953          51.000
C28  23169524.117 8 120649765.796 8     -2512.996          51.000
E19  26092484.508 7 137116915.589 7      2764.754          47.000    26092487.109 7 105063616.733 7      2118.606          47.000
E26  24627395.008 6 129417825.515 6     -2075.141          39.000    24627395.914 6  99164326.526 6     -1590.243          36.000
E33  23427494.266 8 123112308.086 8        25.270          51.000    23427495.953 8  94332797.320 8        19.392          51.000
> 2020 05 12 19 10 30.0000000  0 17        .000000000000
G03  21873769.461 8 114947416.053 8      2531.070          49.000    21873770.000 8  89569434.427 8      1972.263          49.000
G08  21866064.414 8 114906948.775 8     -2850.078          50.000    21866067.992 8  89537865.689 8     -2220.840          50.000
G11  19942149.586 8 104796712.244 8      -738.156          49.000    19942147.719 8  81659752.785 8      -575.187          50.000
G14  21921323.805 6 115197338.158 6       318.035          36.000    21921324.977 5  89764159.398 5       247.820          33.000
G22  20804928.305 8 109330643.267 8       933.828          51.000    20804924.852 8  85192702.031 8       727.661          51.000
G27  24455763.273 5 128515905.576 5     -3778.508          33.000    24455758.867 5 100142249.517 5     -2944.292          32.000
R02  19129220.297 8 102077228.420 8       682.055          51.000    19129223.969 8  79393403.575 8       530.487          49.000
R03  21961534.891 7 117561818.176 7      3905.508          43.000    21961529.273 5  91436984.304 5      3037.620          31.000
R17  19131871.938 8 102378517.863 8       510.156          50.000    19131873.602 8  79627732.130 8       396.788          49.000
R24  21215794.477 8 113450360.697 8     -2952.039          48.000    21215796.766 7  88239210.080 7     -2296.030          43.000
C05                                                                  39669654.211 6 159733263.434 6       -22.733          37.000
C14  25590548.664 4 133256698.614 4     -3083.012          28.000
C27  21521696.828 8 112069147.429 8       329.891          51.000
C28  23184033.820 8 120725320.661 8     -2520.555          51.000
E19  26076723.141 7 137034091.850 7      2760.109          46.000    26076726.352 7 105000154.423 7      2114.964          47.000
E26  24639263.273 6 129480190.764 6     -2079.121          41.000    24639264.633 6  99212112.780 6     -1592.883          37.000
E33  23427377.352 8 123111693.591 8        19.035          51.000    23427379.156 8  94332326.454 8        14.600          51.000
> 2020 05 12 19 11  0.0000000  0 18        .000000000000
G03  21859377.531 8 114871786.281 8      2511.180          50.000    21859378.320 8  89510502.151 8      1956.766          50.000
G08  21882397.883 8 114992778.148 8     -2871.445          51.000    21882400.055 8  89604745.674 8     -2237.493          51.000
G11  19946442.016 8 104819268.439 8      -765.312          50.000    19946439.953 8  81677329.037 8      -596.347          49.000
G14  21919590.812 6 115188220.992 6       290.328          39.000    21919590.266 4  89757059.202 4       226.233          29.000
G22  20799661.414 8 109302965.924 8       911.695          51.000    20799658.258 8  85171135.297 8       710.412          51.000
G27  24477365.641 5 128629431.944 5     -3790.281          33.000    24477363.289 5 100230711.507 5     -2953.475          32.000
G32  22247328.547 5 116910500.777 5     -1267.656          32.000    22247320.164 5  91099054.661 5      -987.787          31.000
R02  19125482.336 8 102057282.351 8       648.000          50.000    19125486.062 8  79377889.976 8       504.000          49.000
R03  21939706.023 6 117444968.502 6      3884.980          40.000    21939698.578 5  91346101.296 5      3021.655          34.000
R17  19129094.461 8 102363653.240 8       481.172          50.000    19129095.789 8  79616170.771 8       374.245          49.000
R24  21232421.328 8 113539272.678 8     -2975.082          49.000    21232423.844 7  88308363.849 7     -2313.953          44.000
C05                                                                  39669850.883 6 159734055.344 6       -29.967          37.000
C14  25608350.680 4 133349400.702 4     -3095.504          29.000
C27  21519864.211 8 112059604.637 8       306.652          51.000
C28  23198610.781 8 120801225.024 8     -2539.363          51.000
E19  26061012.656 7 136951535.815 7      2743.938          46.000    26061016.281 8 104936897.223 8      2102.486          48.000
E26  24651177.539 6 129542793.971 6     -2094.340          40.000    24651177.125 5  99260081.459 5     -1604.428          31.000
E33  23427319.797 8 123111391.088 8         1.383          51.000    23427321.562 8  94332094.659 8         1.066          51.000
> 2020 05 12 19 11 30.0000000  0 16        .000000000000
G03  21845032.258 8 114796401.016 8      2504.082          50.000    21845034.133 8  89451760.400 8      1951.233          50.000
G08  21898784.805 8 115078889.648 8     -2879.789          51.000    21898785.266 8  89671845.488 8     -2243.995          51.000
G11  19950821.625 8 104842282.949 8      -779.445          49.000    19950819.445 8  81695262.411 8      -607.363          50.000
G14  21917946.281 6 115179579.238 6       275.473          39.000    21917947.227 5  89750325.449 5       214.654          32.000
G22  20794453.430 8 109275598.608 8       902.398          51.000    20794450.336 8  85149810.115 8       703.168          51.000
G27  24498969.328 4 128742952.850 4     -3788.867          29.000    24498969.656 5 100319180.294 5     -2952.367          32.000
R02  19121867.195 8 102037992.461 8       627.207          50.000    19121870.727 8  79362886.740 8       487.828          48.000
R03  21917923.258 6 117328376.334 6      3877.234          36.000    21917918.578 6  91255418.518 6      3015.627          36.000
R17  19126411.023 8 102349294.230 8       465.387          49.000    19126412.398 8  79605002.654 8       361.967          49.000
R24  21249109.289 8 113628510.825 8     -2984.844          50.000    21249112.156 7  88377771.313 7     -2321.545          46.000
C05                                                                  39670033.102 6 159734788.979 6       -27.031          37.000
C27  21518098.031 8 112050408.233 8       296.070          51.000
C28  23213228.047 8 120877338.493 8     -2545.195          51.000
E19  26045326.891 7 136869108.474 7      2740.641          46.000    26045330.859 8 104873738.637 8      2100.067          48.000
E26  24663109.289 6 129605494.288 6     -2096.508          36.000
E33  23427295.148 8 123111260.595 8        -3.285          51.000    23427296.633 8  94331994.665 8        -2.517          51.000
> 2020 05 12 19 12  0.0000000  0 17        .000000000000
G01  20492095.547 6 107686720.775 6       972.066          36.000    20492102.234 6  83911718.534 6       757.454          36.000
G03  21830753.992 8 114721368.699 8      2497.387          50.000    21830756.656 8  89393293.663 8      1946.016          50.000
G08  21915244.812 8 115165388.353 8     -2887.629          49.000    21915244.891 8  89739247.011 8     -2250.103          49.000
G11  19955308.875 8 104865863.622 8      -793.367          50.000    19955306.656 8  81713636.950 8      -618.208          50.000
G14  21916413.078 6 115171520.690 6       261.148          40.000    21916411.914 5  89744046.125 5       203.489          33.000
G22  20789324.938 8 109248648.649 8       893.508          51.000    20789321.531 8  85128810.145 8       696.240          50.000
G32  22261951.930 6 116987354.673 6     -1295.246          37.000    22261955.531 6  91158961.581 6     -1009.283          37.000
R02  19118395.914 8 102019467.593 8       606.945          51.000    19118399.141 8  79348478.509 8       472.069          49.000
R03  21896207.297 6 117212153.926 6      3870.020          37.000    21896207.969 6  91165023.279 6      3010.015          38.000
R17  19123842.648 8 102335552.252 8       449.914          48.000    19123844.430 8  79594314.451 8       349.933          49.000
R24  21265879.094 8 113718183.403 8     -2994.148          51.000    21265881.836 7  88447516.605 7     -2328.782          47.000
C05                                                                  39670221.312 6 159735546.807 6       -24.134          37.000
C27  21516418.969 8 112041665.715 8       285.961          51.000
C28  23227905.656 8 120953766.658 8     -2550.656          51.000
E19  26029686.672 7 136786918.686 7      2737.750          46.000    26029690.945 8 104810762.061 8      2097.804          48.000
E26  24675078.773 5 129668399.239 5     -2098.285          35.000    24675083.516 5  99356325.719 5     -1607.765          32.000
E33  23427323.984 8 123111410.463 8        -7.516          51.000    23427324.977 8  94332109.515 8        -5.789          51.000
> 2020 05 12 19 12 30.0000000  0 15        .000000000000
G03  21816529.055 8 114646616.019 8      2486.930          51.000    21816531.398 8  89335044.814 8      1937.867          51.000
G08  21931763.703 7 115252198.191 7     -2899.109          47.000    21931764.664 7  89806890.976 7     -2259.046          47.000
G11  19959889.750 8 104889936.167 8      -810.879          50.000    19959887.617 8  81732394.763 8      -631.854          50.000
G14  21914976.812 6 115163971.659 6       242.898          41.000    21914974.117 4  89738163.763 4       189.272          25.000
G22  20784261.938 8 109222041.770 8       881.043          51.000    20784258.312 8  85108077.518 8       686.527          51.000
R02  19115053.750 8 102001632.853 8       582.777          51.000    19115056.852 8  79334607.063 8       453.271          48.000
R03  21874547.969 5 117096228.418 5      3859.016          35.000    21874552.656 6  91074859.050 6      3001.460          39.000
R17  19121376.156 8 102322353.914 8       430.695          48.000    19121377.961 8  79584049.086 8       334.985          48.000
R24  21282716.094 8 113808213.865 8     -3007.215          51.000    21282718.289 7  88517540.277 7     -2338.945          46.000
C05                                                                  39670401.320 6 159736271.930 6       -23.754          37.000
C27  21514813.461 8 112033304.481 8       272.164          51.000
C28  23242628.695 8 121030435.039 8     -2559.809          50.000
E19  26014078.195 7 136704893.727 7      2731.270          47.000    26014082.586 8 104747911.794 8      2092.725          49.000
E26  24687074.031 5 129731449.557 5     -2103.809          32.000
E33  23427392.141 8 123111767.154 8       -15.496          51.000    23427392.625 8  94332382.838 8       -11.901          51.000
> 2020 05 12 19 13  0.0000000  0 16        .000000000000
G01  20481128.523 6 107629056.388 6       948.824          37.000
G03  21802366.172 8 114572187.959 8      2475.094          51.000    21802367.508 8  89277048.955 8      1928.648          51.000
G08  21948350.133 8 115339361.137 8     -2911.652          48.000    21948351.906 8  89874810.147 8     -2268.817          48.000
G11  19964572.695 8 104914544.734 8      -829.535          50.000    19964570.539 8  81751570.270 8      -646.388          50.000
G14  21913646.023 6 115156976.504 6       223.691          37.000    21913644.945 6  89732713.029 6       174.311          36.000
G22  20779272.633 8 109195821.745 8       867.250          51.000    20779268.914 8  85087646.334 8       675.779          51.000
R02  19111849.414 8 101984532.560 8       557.520          51.000    19111852.266 8  79321306.854 8       433.629          48.000
R03  21852954.344 5 116980647.825 5      3846.562          33.000    21852960.789 6  90984963.070 6      2991.771          39.000
R17  19119019.898 7 102309745.829 7       410.062          47.000    19119021.758 8  79574242.834 8       318.938          48.000
R24  21299627.555 8 113898645.321 8     -3021.402          49.000    21299629.828 7  88587875.882 7     -2349.977          47.000
C05                                                                  39670581.578 6 159736998.222 6       -24.367          37.000
C27  21513289.805 8 112025369.259 8       257.031          51.000
C28  23257404.883 7 121107386.310 7     -2570.023          47.000
E19  25998510.031 7 136623079.440 7      2723.234          47.000    25998514.266 8 104685222.941 8      2086.640          48.000
E26  24699102.992 6 129794648.356 6     -2110.125          40.000
