     3.02           OBSERVATION DATA    M (MIXED)           RINEX VERSION / TYPE
SAVERINEX           SC600               20200510 235930 LCL PGM / RUN BY / DATE
       G = GPS       R = GLONASS       C = COMPASS          COMMENT
       S = SBAS      J = QZSS          E = GALILEO          COMMENT
BEAN                                                        MARKER NAME
1                                                           MARKER NUMBER
GEODETIC                                                    MARKER TYPE
Unige DICCA         GTER                                    OBSERVER / AGENCY
SC60291900056       SC600               2.12(191226)        REC # / TYPE / VERS
                    HEMA45          NONE                    ANT # / TYPE
  4509407.8091   693652.4678  4442337.6214                  APPROX POSITION XYZ
        0.0000        0.0000        0.0000                  ANTENNA: DELTA H/E/N
G    8 C1C L1C D1C S1C C2Y L2Y D2Y S2Y                      SYS / # / OBS TYPES
R    8 C1C L1C D1C S1C C2P L2P D2P S2P                      SYS / # / OBS TYPES
C    8 C1I L1I D1I S1I C7I L7I D7I S7I                      SYS / # / OBS TYPES
E    8 C1C L1C D1C S1C C7Q L7Q D7Q S7Q                      SYS / # / OBS TYPES
DBHZ                                                        COMMENT
     30.000                                                 INTERVAL
  2020    05    10    21    00    0.0000000     GPS         TIME OF FIRST OBS
  2020    05    10    21    59   30.0000000     GPS         TIME OF LAST OBS
     0                                                      RCV CLOCK OFFS APPL
G L1C  0.00000                                              SYS / PHASE SHIFT
G L2Y  0.00000                                              SYS / PHASE SHIFT
R L1C  0.00000                                              SYS / PHASE SHIFT
R L2P  0.25000                                              SYS / PHASE SHIFT
C L1I  0.00000                                              SYS / PHASE SHIFT
C L7I  0.00000                                              SYS / PHASE SHIFT
E L1C  0.50000                                              SYS / PHASE SHIFT
E L7Q -0.25000                                              SYS / PHASE SHIFT
 11 R01  1 R02 -4 R07  5 R08  6 R09 -2 R10 -5 R11  0 R12 -1 GLONASS SLOT / FRQ #
    R21  4 R22 -3 R23  3                                    GLONASS SLOT / FRQ #
 C1C   71.950 C2C   71.950 C2P   71.950                     GLONASS COD/PHS/BIS
    18                                                      LEAP SECONDS
*** Above antenna height is from mark to ANTENNA BOTTOM.    COMMENT
    17     4        0.0000        ANT MEASURE TYPE/HEIGT    COMMENT
    0.0000    0.0000    0.0458    0.0405    0.0000          COMMENT
                    BASE STATION                            COMMENT
                                                            END OF HEADER
> 2020 05 10 21 00  0.0000000  0 16        .000000000000
G01  20837444.719 8 109501496.810 8     -1673.660          51.000    20837445.195 8  85325858.899 8     -1304.151          51.000
G03  20320050.883 7 106782590.422 7       141.957          47.000    20320052.391 8  83207255.492 8       110.619          48.000
G04  21892846.938 8 115047680.639 8      2939.355          49.000    21892847.727 7  89647559.435 7      2290.407          46.000
G11  22687375.836 7 119222949.824 7     -3661.309          46.000    22687375.781 7  92900994.315 7     -2852.968          43.000
G22  21092922.516 8 110844055.188 8     -1271.164          51.000    21092918.680 8  86371981.620 8      -990.517          49.000
R01  19227385.023 7 102781395.046 7      -317.922          46.000    19227390.086 6  79941128.523 6      -247.273          40.000
R02  22176631.078 8 118338755.816 8      3345.637          48.000    22176634.664 7  92041304.399 7      2602.168          44.000
R23  20099705.344 8 107519834.030 8     -2862.207          50.000    20099711.086 7  83626570.240 7     -2226.164          42.000
R24  19241249.570 8 102891617.226 8       369.633          51.000    19241251.523 8  80026815.305 8       287.492          48.000
C05                                                                  39705162.898 6 159876237.395 6       -28.221          36.000
C19  21489151.266 8 111899650.940 8       189.812          51.000
C22  24517423.648 7 127668698.919 7      2520.648          46.000
C29  23814923.664 8 124010561.987 8     -3083.977          51.000
E03  23989664.836 8 126066616.100 8     -1230.980          50.000    23989668.055 8  96596537.226 8      -943.228          51.000
E08  22029366.336 8 115765114.088 8      1517.082          51.000    22029368.117 8  88703142.858 8      1162.472          51.000
E15  23569704.133 8 123859633.252 8     -1478.469          51.000    23569708.039 8  94905454.304 8     -1132.945          51.000
> 2020 05 10 21 00 30.0000000  0 17        .000000000000
G01  20847025.656 8 109551844.176 8     -1684.402          51.000    20847025.758 8  85365090.605 8     -1312.521          51.000
G03  20319259.875 7 106778434.920 7       133.613          47.000    20319261.766 7  83204017.447 7       104.114          47.000
G04  21876087.320 8 114959607.774 8      2930.602          50.000    21876089.016 8  89578931.244 8      2283.589          48.000
G11  22708287.578 7 119332841.894 7     -3666.273          47.000    22708287.672 6  92986624.509 6     -2856.836          41.000
G22  21100189.867 8 110882245.484 8     -1276.449          50.000    21100186.031 8  86401740.310 8      -994.636          49.000
R01  19229207.148 7 102791134.952 7      -333.160          46.000    19229212.453 6  79948704.033 6      -259.125          40.000
R02  22157836.016 7 118238463.791 7      3338.781          45.000    22157840.703 7  91963299.571 7      2596.833          44.000
R23  20115798.711 8 107605926.869 8     -2878.926          48.000    20115804.992 6  83693531.300 6     -2239.168          41.000
R24  19239232.883 8 102880832.418 8       347.781          51.000    19239235.031 8  80018427.119 8       270.497          48.000
C05                                                                  39705362.031 6 159877039.012 6       -26.357          36.000
C19  21488075.008 8 111894046.815 8       182.176          51.000
C20  23665382.180 5 123231880.017 5     -2304.730          31.000
C22  24502906.578 7 127593103.560 7      2517.598          46.000
C29  23832700.047 8 124103127.006 8     -3088.504          51.000
E03  23996706.984 8 126103623.215 8     -1237.684          49.000    23996710.125 8  96624893.334 8      -948.280          51.000
E08  22020721.742 8 115719686.562 8      1509.844          51.000    22020724.305 8  88668334.779 8      1156.896          51.000
E15  23578163.430 8 123904085.343 8     -1486.375          51.000    23578167.070 8  94939515.007 8     -1138.908          51.000
> 2020 05 10 21 01  0.0000000  0 16        .000000000000
G01  20856682.836 8 109602593.483 8     -1698.328          51.000    20856682.805 8  85404635.475 8     -1323.373          51.000
G03  20318532.367 8 106774611.515 8       122.012          49.000    20318534.469 8  83201038.168 8        95.074          49.000
G04  21859394.141 8 114871883.956 8      2918.281          51.000    21859396.406 8  89510575.036 8      2273.985          48.000
G11  22729243.219 7 119442964.452 7     -3674.414          47.000    22729242.898 6  93072434.272 6     -2863.183          39.000
G22  21107502.766 8 110920675.884 8     -1284.898          50.000    21107499.305 8  86431686.091 8     -1001.217          49.000
R01  19231130.164 7 102801413.620 7      -351.527          46.000    19231135.281 6  79956698.557 6      -273.410          40.000
R02  22139095.320 7 118138461.689 7      3328.656          45.000    22139101.727 7  91885520.238 7      2588.958          46.000
R23  20132001.727 8 107692602.834 8     -2898.875          50.000    20132007.680 6  83760945.924 6     -2254.681          40.000
R24  19237355.188 8 102870791.125 8       322.371          51.000    19237356.969 8  80010617.230 8       250.733          48.000
C05                                                                  39705559.211 6 159877832.743 6       -26.270          36.000
C19  21487058.266 8 111888752.898 8       171.383          51.000
C22  24488423.859 7 127517686.504 7      2511.078          47.000
C29  23850518.320 8 124195912.055 8     -3096.438          51.000
E03  24003802.180 8 126140907.838 8     -1247.500          50.000    24003804.953 8  96653462.077 8      -955.775          51.000
E08  22012134.352 8 115674559.001 8      1499.355          51.000    22012137.328 8  88633756.538 8      1148.899          51.000
E15  23586682.672 8 123948852.213 8     -1497.363          51.000    23586685.758 8  94973816.887 8     -1147.309          51.000
> 2020 05 10 21 01 30.0000000  0 17        .000000000000
G01  20866417.305 8 109653748.610 8     -1711.023          51.000    20866417.141 8  85444496.579 8     -1333.265          51.000
G03  20317868.891 8 106771124.150 8       111.566          48.000    20317871.023 8  83198320.754 8        86.935          49.000
G04  21842768.617 8 114784515.671 8      2907.258          50.000    21842770.859 8  89442495.859 8      2265.396          48.000
G11  22750243.336 7 119553319.609 7     -3681.480          47.000    22750241.523 6  93158425.278 6     -2868.686          39.000
G22  21114862.055 8 110959349.986 8     -1292.273          50.000    21114858.945 8  86461821.771 8     -1006.966          49.000
R01  19233154.430 7 102812233.696 7      -368.781          46.000    19233159.180 6  79965114.174 6      -286.830          40.000
R02  22120410.375 7 118038755.704 7      3319.504          46.000    22120418.070 7  91807971.198 7      2581.839          46.000
R23  20148314.500 8 107779864.305 8     -2917.504          50.000    20148320.148 6  83828815.953 6     -2269.170          39.000
R24  19235617.695 8 102861499.166 8       298.238          51.000    19235619.445 8  80003390.156 8       231.963          49.000
C05                                                                  39705755.211 5 159878622.018 5       -25.732          35.000
C19  21486101.789 8 111883772.983 8       161.641          51.000
C20  23691980.352 5 123370344.163 5     -2314.605          33.000
C22  24473975.961 7 127442452.579 7      2505.656          45.000
C29  23868378.781 8 124288919.467 8     -3102.949          50.000
E03  24010950.688 8 126178473.179 8     -1255.785          49.000    24010953.680 8  96682245.918 8      -962.231          51.000
E08  22003604.773 8 115629736.107 8      1489.941          51.000    22003607.938 8  88599411.738 8      1141.667          51.000
E15  23595262.570 8 123993938.046 8     -1507.215          51.000    23595265.242 8  95008363.145 8     -1154.876          51.000
> 2020 05 10 21 02  0.0000000  0 17        .000000000000
G01  20876227.086 8 109705299.546 8     -1725.805          51.000    20876226.984 8  85484666.122 8     -1344.786          51.000
G03  20317267.266 8 106767962.869 8        99.156          48.000    20317269.336 8  83195857.444 8        77.265          48.000
G04  21826209.336 8 114697495.473 8      2894.008          51.000    21826211.242 7  89374687.932 7      2255.071          47.000
G11  22771285.203 7 119663895.129 7     -3690.379          46.000    22771283.406 6  93244587.967 6     -2875.620          41.000
G22  21122265.859 8 110998257.584 8     -1301.578          50.000    21122262.969 8  86492139.397 8     -1014.217          49.000
R01  19235277.945 7 102823584.105 7      -388.059          45.000    19235282.523 6  79973942.294 6      -301.820          40.000
R02  22101779.492 7 117939337.640 7      3308.199          45.000    22101787.352 7  91730646.109 7      2573.047          44.000
R23  20164734.805 8 107867698.948 8     -2938.145          50.000    20164739.953 6  83897131.794 6     -2285.224          40.000
R24  19234018.625 8 102852948.185 8       271.820          51.000    19234020.570 8  79996739.378 8       211.416          49.000
C05                                                                  39705948.172 5 159879399.505 5       -26.083          35.000
C19  21485203.555 8 111879096.945 8       150.012          51.000
C20  23705334.688 5 123439857.857 5     -2320.207          34.000
C22  24459560.930 7 127367392.795 7      2498.254          44.000
C29  23886279.008 8 124382137.840 8     -3111.547          48.000
E03  24018150.344 8 126216308.400 8     -1266.422          49.000    24018153.797 8  96711236.581 8      -970.375          51.000
E08  21995131.297 8 115585208.562 8      1478.512          51.000    21995134.555 8  88565293.252 8      1132.925          51.000
E15  23603901.453 8 124039332.977 8     -1519.133          51.000    23603903.523 8  95043146.258 8     -1163.975          51.000
> 2020 05 10 21 02 30.0000000  0 17        .000000000000
G01  20886116.516 8 109757269.044 8     -1739.664          51.000    20886116.883 8  85525161.815 8     -1355.582          51.000
G03  20316732.031 8 106765150.545 8        87.461          48.000    20316733.898 8  83193666.021 8        68.151          48.000
G04  21809721.133 8 114610848.708 8      2881.562          50.000    21809722.672 7  89307170.995 7      2245.376          47.000
G11  22792372.656 7 119774712.124 7     -3698.465          45.000    22792371.766 7  93330938.854 7     -2881.924          42.000
G22  21129718.523 8 111037421.354 8     -1310.176          50.000    21129715.539 8  86522656.637 8     -1020.916          50.000
R01  19237504.719 7 102835486.467 7      -406.254          46.000    19237509.094 6  79983199.699 6      -315.972          40.000
R02  22083207.461 7 117840231.677 7      3297.848          47.000    22083213.695 7  91653563.724 7      2564.996          42.000
R23  20181266.094 8 107956128.090 8     -2958.016          51.000    20181271.367 7  83965909.973 7     -2300.682          42.000
R24  19232562.656 8 102845163.424 8       246.223          51.000    19232564.523 8  79990684.572 8       191.510          48.000
C05                                                                  39706142.664 6 159880182.039 6       -26.430          36.000
C19  21484367.898 8 111874747.198 8       139.102          51.000
C20  23718714.500 5 123509519.485 5     -2325.480          34.000
C22  24445183.562 7 127292530.689 7      2491.590          44.000
C29  23904223.922 8 124475588.302 8     -3119.301          48.000
E03  24025405.828 8 126254435.602 8     -1276.180          49.000    24025408.914 8  96740450.950 8      -977.858          51.000
E08  21986718.609 8 115540999.896 8      1467.918          51.000    21986721.594 8  88531419.099 8      1124.750          51.000
E15  23612603.336 8 124085060.009 8     -1530.188          51.000    23612604.688 8  95078183.853 8     -1172.463          51.000
> 2020 05 10 21 03  0.0000000  0 17        .000000000000
G01  20896085.148 8 109809654.366 8     -1752.746          51.000    20896085.828 8  85565981.534 8     -1365.776          51.000
G03  20316262.648 8 106762684.530 8        76.773          48.000    20316264.688 8  83191744.449 8        59.823          48.000
G04  21793303.789 8 114524575.182 8      2869.902          49.000    21793304.844 7  89239944.907 7      2236.288          47.000
G11  22813504.898 7 119885766.037 7     -3705.234          44.000    22813505.102 7  93417474.372 7     -2887.196          43.000
G22  21137219.359 8 111076838.336 8     -1317.746          50.000    21137216.211 8  86553371.188 8     -1026.815          49.000
R01  19239833.727 7 102847937.092 7      -423.699          45.000    19239838.055 6  79992883.515 6      -329.544          40.000
R02  22064694.414 8 117741437.240 8      3288.492          49.000    22064697.367 6  91576723.718 6      2557.719          41.000
R23  20197907.656 8 108045146.801 8     -2976.695          51.000    20197913.227 7  84035146.691 7     -2315.207          42.000
R24  19231249.711 8 102838143.774 8       221.574          50.000    19231251.797 8  79985224.844 8       172.336          48.000
C05                                                                  39706338.219 6 159880969.913 6       -25.932          36.000
C19  21483594.531 8 111870720.926 8       129.219          51.000
C20  23732120.562 5 123579325.464 5     -2328.840          35.000
C22  24430845.250 7 127217864.516 7      2485.891          45.000
C29  23922213.641 8 124569266.660 8     -3126.055          49.000
E03  24032716.250 8 126292851.320 8     -1285.031          50.000    24032718.688 8  96769886.377 8      -984.592          51.000
E08  21978366.250 8 115497108.113 8      1458.074          51.000    21978368.773 8  88497787.754 8      1117.223          51.000
E15  23621367.500 8 124131116.672 8     -1540.395          51.000    23621368.703 8  95113474.017 8     -1180.296          51.000
> 2020 05 10 21 03 30.0000000  0 17        .000000000000
G01  20906131.523 8 109862448.189 8     -1766.852          51.000    20906132.367 8  85607119.578 8     -1376.767          51.000
G03  20315857.828 8 106760557.577 8        65.020          49.000    20315860.180 8  83190087.077 8        50.665          48.000
G04  21776956.539 8 114438670.248 8      2857.004          48.000    21776957.305 7  89173006.031 7      2226.237          47.000
G11  22834680.555 7 119997047.437 7     -3713.555          44.000    22834681.414 7  93504187.138 7     -2893.679          42.000
G22  21144766.828 8 111116500.963 8     -1326.453          51.000    21144763.719 8  86584277.149 8     -1033.600          49.000
R01  19242263.969 7 102860927.446 7      -442.207          45.000    19242268.477 6  80002987.125 6      -343.939          41.000
R02  22046239.164 8 117642949.601 8      3277.613          48.000    22046240.102 7  91500122.355 7      2549.261          43.000
R23  20214657.367 8 108134745.679 8     -2996.508          51.000    20214663.133 6  84104834.665 6     -2330.620          41.000
R24  19230078.820 8 102831883.576 8       195.695          51.000    19230081.039 8  79980355.810 8       152.207          48.000
C05                                                                  39706533.570 6 159881755.921 6       -25.959          36.000
C19  21482881.938 8 111867010.746 8       118.234          51.000
C20  23745552.383 4 123649267.816 4     -2332.160          29.000
C22  24416543.898 7 127143387.937 7      2479.129          46.000
C29  23940246.531 8 124663164.184 8     -3133.793          51.000
E03  24040079.828 8 126331547.482 8     -1294.621          50.000    24040082.227 8  96799536.694 8      -991.970          51.000
E08  21970072.938 8 115453526.687 8      1447.359          51.000    21970075.234 8  88464394.222 8      1109.067          51.000
E15  23630192.852 8 124177495.852 8     -1551.484          51.000    23630194.453 8  95149011.295 8     -1188.791          51.000
> 2020 05 10 21 04  0.0000000  0 17        .000000000000
G01  20916256.094 8 109915654.276 8     -1774.176          51.000    20916257.430 8  85648578.873 8     -1382.475          51.000
G03  20315518.438 8 106758773.572 8        59.973          49.000    20315520.641 8  83188696.951 8        46.732          49.000
G04  21760680.539 8 114353140.119 8      2851.078          48.000    21760681.391 7  89106359.241 7      2221.622          47.000
G11  22855900.141 7 120108558.246 7     -3714.598          44.000    22855901.180 6  93591078.695 6     -2894.492          41.000
G17  22207389.562 5 116700611.987 5      1059.484          31.000
G22  21152361.688 8 111156412.734 8     -1328.301          50.000    21152358.695 8  86615377.246 8     -1035.040          49.000
R01  19244795.609 7 102874460.077 7      -453.703          45.000    19244799.820 6  80013512.499 6      -352.880          40.000
R02  22027841.266 7 117544773.454 7      3273.660          44.000    22027843.148 7  91423763.259 7      2546.183          44.000
R23  20231515.711 8 108224926.289 8     -3009.363          50.000    20231520.734 6  84174975.133 6     -2340.613          41.000
R24  19229051.156 8 102826388.466 8       176.719          50.000    19229053.477 8  79976081.844 8       137.448          48.000
C05                                                                  39706729.656 6 159882546.425 6       -21.636          36.000
C19  21482230.703 8 111863620.297 8       113.871          51.000
C22  24402279.500 7 127069105.767 7      2479.156          43.000
C29  23958322.383 8 124757283.212 8     -3134.855          51.000
E03  24047497.336 8 126370527.190 8     -1297.832          49.000    24047500.164 8  96829404.290 8      -994.431          51.000
E08  21961839.633 8 115410260.207 8      1443.203          51.000    21961841.727 8  88431242.002 8      1105.807          51.000
E15  23639080.469 8 124224201.563 8     -1556.121          51.000    23639082.344 8  95184798.790 8     -1192.269          51.000
> 2020 05 10 21 04 30.0000000  0 16        .000000000000
G01  20926465.594 8 109969307.013 8     -1795.914          51.000    20926467.594 8  85690386.214 8     -1399.414          51.000
G03  20315250.867 8 106757367.049 8        40.512          49.000    20315252.695 8  83187600.962 8        31.568          49.000
G04  21744482.898 8 114268021.859 8      2830.238          48.000    21744483.992 7  89040033.374 7      2205.384          47.000
G11  22877169.812 7 120220331.285 7     -3730.184          45.000    22877170.055 6  93678174.566 6     -2906.637          39.000
G22  21160010.492 8 111196607.925 8     -1344.824          50.000    21160007.492 8  86646698.187 8     -1047.915          48.000
R01  19247435.219 7 102888568.765 7      -479.996          45.000    19247439.258 6  80024485.923 6      -373.330          41.000
R02  22009505.750 6 117446945.895 6      3254.812          40.000    22009511.570 7  91347675.153 7      2531.518          44.000
R23  20248488.422 8 108315721.979 8     -3036.922          49.000    20248493.648 6  84245594.060 6     -2362.047          41.000
R24  19228173.711 8 102821695.210 8       142.957          50.000    19228175.977 8  79972431.533 8       111.189          48.000
C05                                                                  39706933.227 5 159883365.087 5       -27.937          35.000
C19  21481647.805 8 111860583.505 8        95.238          51.000
C22  24388057.695 7 126995053.051 7      2464.527          42.000
C29  23976446.953 8 124851656.326 8     -3150.137          51.000
E03  24054975.359 8 126409824.073 8     -1315.367          49.000    24054978.523 8  96859514.913 8     -1007.870          51.000
E08  21953673.008 8 115367343.780 8      1424.539          51.000    21953674.812 8  88398357.990 8      1091.584          51.000
E15  23648036.523 8 124271268.427 8     -1575.066          50.000    23648038.852 8  95220863.018 8     -1206.863          51.000
> 2020 05 10 21 05  0.0000000  0 17        .000000000000
G01  20936743.617 8 110023319.751 8     -1804.859          51.000    20936746.258 8  85732474.076 8     -1406.384          51.000
G03  20315038.562 8 106756251.430 8        34.066          49.000    20315040.219 8  83186731.664 8        26.545          48.000
G04  21728347.680 8 114183231.364 8      2822.367          49.000    21728348.953 7  88973962.901 7      2199.250          46.000
G11  22898472.727 7 120332277.976 7     -3732.734          45.000    22898470.148 6  93765405.734 6     -2908.624          37.000
G14  23707026.922 5 124581267.093 5     -2879.734          31.000
G22  21167696.844 8 111236999.885 8     -1348.004          50.000    21167693.680 7  86678172.452 7     -1050.393          47.000
R01  19250165.516 7 102903164.220 7      -493.078          45.000    19250169.555 6  80035837.966 6      -383.505          39.000
R02  21991221.219 7 117349380.796 7      3249.387          46.000    21991228.328 7  91271791.192 7      2527.304          44.000
R23  20265558.883 8 108407042.303 8     -3051.066          48.000    20265565.344 6  84316621.012 6     -2373.049          41.000
R24  19227430.078 8 102817717.512 8       122.305          50.000    19227432.281 8  79969337.772 8        95.126          48.000
C05                                                                  39707127.305 6 159884146.972 6       -24.294          36.000
C19  21481116.180 8 111857814.393 8        89.402          51.000
C22  24373864.570 7 126921144.881 7      2462.801          42.000
C29  23994603.250 8 124946196.229 8     -3152.508          51.000
E03  24062497.023 8 126449350.798 8     -1319.738          48.000    24062500.070 8  96889801.633 8     -1011.201          50.000
E08  21945556.719 8 115324691.523 8      1418.953          51.000    21945558.094 8  88365676.396 8      1087.235          51.000
E15  23657044.867 8 124318610.069 8     -1580.945          51.000    23657047.922 8  95257137.757 8     -1211.419          51.000
> 2020 05 10 21 05 30.0000000  0 16        .000000000000
G01  20947101.891 8 110077752.881 8     -1821.035          51.000    20947104.719 8  85774889.500 8     -1418.988          51.000
G03  20314893.070 8 106755487.276 8        19.883          49.000    20314894.867 8  83186136.225 8        15.493          49.000
G04  21712286.797 8 114098831.620 8      2807.094          48.000    21712288.102 7  88908196.892 7      2187.346          46.000
G11  22919819.867 7 120444456.808 7     -3742.766          45.000    22919814.820 6  93852817.710 6     -2916.441          37.000
G22  21175432.109 8 111277648.704 8     -1358.938          50.000    21175428.914 7  86709846.861 7     -1058.912          46.000
R01  19252998.234 7 102918306.392 7      -513.582          45.000    19253001.570 6  80047615.208 6      -399.453          39.000
R02  21972999.898 8 117252141.365 8      3236.141          49.000    21973005.281 7  91196160.620 7      2517.001          44.000
R23  20282739.266 8 108498946.579 8     -3072.852          50.000    20282745.906 6  84388102.121 6     -2389.996          41.000
R24  19226832.055 8 102814518.442 8        93.992          49.000    19226834.242 7  79966849.604 7        73.105          47.000
C05                                                                  39707324.000 6 159884938.892 6       -26.666          36.000
C19  21480647.344 8 111855372.693 8        76.301          51.000
C22  24359712.305 7 126847442.057 7      2453.660          45.000
C29  24012802.172 8 125040961.309 8     -3162.262          50.000
E03  24070073.562 8 126489167.067 8     -1331.680          48.000    24070076.078 8  96920310.211 8     -1020.318          49.000
E08  21937502.273 8 115282364.614 8      1405.863          51.000    21937503.141 8  88333244.083 8      1077.205          51.000
E15  23666117.336 8 124366287.094 8     -1594.414          51.000    23666120.984 8  95293669.486 8     -1221.661          51.000
> 2020 05 10 21 06  0.0000000  0 17        .000000000000
G01  20957518.688 8 110132492.689 8     -1832.180          51.000    20957521.023 8  85817543.898 8     -1427.672          51.000
G03  20314792.945 8 106754961.021 8        11.191          50.000    20314794.742 8  83185726.150 8         8.721          50.000
G04  21696278.891 8 114014711.486 8      2796.965          48.000    21696280.297 7  88842648.740 7      2179.453          46.000
G11  22941189.188 7 120556752.369 7     -3747.570          45.000    22941184.594 6  93940320.701 6     -2920.185          38.000
G17  22184175.719 5 116578631.074 5       980.988          32.000    22184159.297 5  90840425.899 5       764.406          31.000
G22  21183194.539 8 111318440.455 8     -1364.559          49.000    21183191.266 7  86741632.633 7     -1063.292          45.000
R01  19255911.172 7 102933878.537 7      -528.695          45.000    19255914.875 6  80059726.909 6      -411.207          40.000
R02  21954818.641 8 117155113.958 8      3228.219          50.000    21954821.750 7  91120694.936 7      2510.837          44.000
R23  20300007.406 8 108591317.134 8     -3089.188          51.000    20300013.602 6  84459945.853 6     -2402.701          40.000
R24  19226358.367 8 102811983.957 8        70.984          49.000    19226360.156 7  79964878.353 7        55.213          47.000
C05                                                                  39707501.414 5 159885653.970 5       -24.394          35.000
C19  21480219.945 8 111853145.691 8        68.348          51.000
C22  24345578.711 7 126773832.917 7      2449.762          46.000
C29  24031021.594 8 125135837.450 8     -3166.812          48.000
E03  24077683.359 8 126529158.518 8     -1338.547          48.000    24077685.812 8  96950953.018 8     -1025.553          49.000
E08  21929488.211 8 115240250.113 8      1397.777          51.000    21929488.648 8  88300974.543 8      1071.030          51.000
E15  23675232.320 8 124414186.052 8     -1602.828          51.000    23675236.156 8  95330371.271 8     -1228.078          51.000
> 2020 05 10 21 06 30.0000000  0 16        .000000000000
G01  20968046.914 8 110187817.477 8     -1850.059          51.000    20968048.539 8  85860654.096 8     -1441.604          51.000
G03  20314791.164 8 106754951.075 8        -4.406          50.000    20314792.797 8  83185718.408 8        -3.433          50.000
G04  21680377.812 8 113931151.844 8      2779.750          48.000    21680379.266 7  88777537.341 7      2166.039          45.000
G11  22962633.102 7 120669440.973 7     -3759.109          45.000    22962630.188 6  94028130.022 6     -2929.176          41.000
G22  21191037.172 8 111359653.545 8     -1377.016          50.000    21191033.469 7  86773746.730 7     -1072.999          44.000
R01  19258957.406 7 102950162.844 7      -550.832          45.000    19258960.875 6  80072392.487 6      -428.425          39.000
R02  21936729.609 8 117058583.450 8      3213.230          48.000    21936731.500 7  91045615.681 7      2499.179          44.000
R23  20317415.609 8 108684435.190 8     -3112.465          51.000    20317421.188 6  84532370.939 6     -2420.806          40.000
R24  19226061.617 8 102810398.778 8        40.809          48.000    19226063.555 7  79963645.438 7        31.737          46.000
C05                                                                  39707713.031 6 159886504.994 6       -27.481          36.000
C19  21479886.453 8 111851409.058 8        53.477          51.000
C22  24331515.453 7 126700594.340 7      2438.844          43.000
C29  24049314.023 7 125231098.974 7     -3178.078          45.000
E03  24085379.484 7 126569602.731 7     -1351.773          47.000    24085382.344 8  96981942.751 8     -1035.840          49.000
E08  21921567.711 8 115198627.071 8      1383.051          51.000    21921567.922 8  88269081.592 8      1059.677          51.000
E15  23684442.562 8 124462585.450 8     -1617.871          51.000    23684446.523 8  95367456.524 8     -1239.647          51.000
> 2020 05 10 21 07  0.0000000  0 16        .000000000000
G01  20978636.859 8 110243466.838 8     -1861.844          51.000    20978638.086 8  85904017.210 8     -1450.787          51.000
G03  20314838.016 8 106755197.212 8       -14.188          49.000    20314839.422 8  83185910.214 8       -11.052          49.000
G04  21664534.766 8 113847894.821 8      2768.531          49.000    21664535.930 7  88712661.751 7      2157.300          46.000
G11  22984102.039 7 120782260.559 7     -3764.480          47.000    22984100.633 7  94116041.419 7     -2933.358          43.000
G22  21198910.391 8 111401027.435 8     -1383.422          50.000    21198906.227 7  86805986.128 7     -1077.991          43.000
R01  19262086.914 7 102966892.929 7      -566.723          45.000    19262090.531 6  80085404.786 6      -440.784          40.000
R02  21918682.805 7 116962286.768 7      3204.371          46.000    21918685.383 7  90970718.322 7      2492.292          45.000
R23  20334913.352 8 108778033.383 8     -3129.602          51.000    20334918.203 6  84605169.497 6     -2434.135          39.000
R24  19225893.867 8 102809499.764 8        16.930          49.000    19225895.273 7  79962946.219 7        13.168          46.000
C05                                                                  39707909.242 6 159887294.948 6       -26.517          36.000
C19  21479597.578 8 111849904.640 8        44.684          51.000
C22  24317470.977 6 126627469.272 6      2433.797          40.000
C29  24067630.711 7 125326486.464 7     -3183.379          44.000
E03  24093112.016 7 126610238.684 7     -1359.445          47.000    24093114.961 8  97013079.398 8     -1041.578          48.000
E08  21913691.508 8 115157235.902 8      1374.207          51.000    21913691.625 8  88237366.316 8      1052.973          51.000
E15  23693698.398 8 124511225.173 8     -1627.051          51.000    23693702.555 8  95404725.924 8     -1246.662          51.000
> 2020 05 10 21 07 30.0000000  0 16        .000000000000
G01  20989309.875 8 110299554.080 8     -1876.312          50.000    20989310.938 8  85947721.537 8     -1462.062          50.000
G03  20314955.117 8 106755812.934 8       -26.191          50.000    20314956.273 8  83186390.015 8       -20.409          50.000
G04  21648771.523 8 113765056.320 8      2754.828          49.000    21648772.328 7  88648112.315 7      2146.622          47.000
G11  23005617.516 8 120895322.555 8     -3772.344          49.000    23005616.664 7  94204141.663 7     -2939.489          44.000
G22  21206835.711 8 111442675.323 8     -1392.445          50.000    21206831.648 7  86838439.008 7     -1085.022          44.000
R01  19265321.344 7 102984182.940 7      -585.188          45.000    19265325.148 6  80098852.574 6      -455.149          38.000
R02  21900702.086 7 116866341.194 7      3192.715          47.000    21900705.719 7  90896094.064 7      2483.226          46.000
R23  20352521.688 8 108872225.167 8     -3149.109          51.000    20352526.266 6  84678429.761 6     -2449.307          40.000
R24  19225876.094 8 102809403.886 8        -9.738          49.000    19225877.164 7  79962871.633 7        -7.574          45.000
C05                                                                  39708111.617 5 159888110.058 5       -27.387          35.000
C19  21479374.992 8 111848744.743 8        33.406          51.000
C22  24303466.047 5 126554570.894 5      2426.738          31.000
C29  24085993.500 7 125422110.864 7     -3190.969          44.000
E03  24100902.523 7 126651179.043 7     -1369.496          47.000    24100905.078 8  97044449.282 8     -1049.327          48.000
E08  21905881.039 8 115116190.704 8      1362.766          51.000    21905881.461 8  88205916.138 8      1044.206          51.000
E15  23703021.703 8 124560218.751 8     -1638.586          51.000    23703025.891 8  95442266.484 8     -1255.591          51.000
> 2020 05 10 21 08  0.0000000  0 16        .000000000000
G01  21000052.430 8 110356008.598 8     -1887.617          50.000    21000053.648 8  85991712.088 8     -1470.871          50.000
G03  20315129.242 8 106756727.821 8       -35.215          51.000    20315130.211 8  83187102.924 8       -27.440          51.000
G04  21633074.805 8 113682568.362 8      2744.094          49.000    21633075.609 7  88583836.020 7      2138.255          47.000
G11  23027165.453 8 121008554.233 8     -3776.914          51.000    23027164.492 7  94292374.138 7     -2943.050          45.000
G22  21214799.758 8 111484526.610 8     -1398.164          50.000    21214796.023 7  86871050.391 7     -1089.478          44.000
R01  19268646.695 7 103001960.043 7      -600.434          43.000    19268650.352 6  80112679.240 6      -467.001          38.000
R02  21882774.789 7 116770676.493 7      3184.387          47.000    21882779.117 8  90821688.259 8      2476.748          48.000
R23  20370226.859 8 108966936.527 8     -3165.469          50.000    20370231.281 6  84752094.167 6     -2462.031          41.000
R24  19225995.414 8 102810040.750 8       -33.234          50.000    19225996.016 7  79963366.965 7       -25.849          45.000
C05                                                                  39708306.961 6 159888896.713 6       -25.436          36.000
C19  21479205.039 8 111847859.284 8        25.207          51.000
C22  24289497.117 5 126481830.576 5      2422.137          32.000
C29  24104387.797 6 125517900.777 6     -3195.555          41.000
E03  24108737.891 8 126692352.526 8     -1375.941          48.000    24108740.219 8  97075997.804 8     -1054.344          48.000
E08  21898122.734 8 115075421.661 8      1354.691          51.000    21898123.906 8  88174677.557 8      1037.980          51.000
E15  23712399.000 8 124609495.853 8     -1646.980          51.000    23712403.195 8  95480024.274 8     -1261.945          51.000
> 2020 05 10 21 08 30.0000000  0 18        .000000000000
G01  21010870.094 8 110412857.800 8     -1894.688          51.000    21010871.773 8  86036010.178 8     -1476.380          51.000
G03  20315365.555 8 106757969.485 8       -39.832          51.000    20315366.711 8  83188070.464 8       -31.038          51.000
G04  21617450.227 8 113600460.978 8      2737.438          49.000    21617451.508 8  88519856.259 8      2133.068          48.000
G11  23048750.445 8 121121981.795 8     -3777.168          51.000    23048749.516 7  94380759.223 7     -2943.251          44.000
G14  23823372.258 5 125192657.266 5     -2931.250          33.000
G22  21222807.703 8 111526608.642 8     -1399.664          50.000    21222804.164 7  86903841.582 7     -1090.647          44.000
G31  23361003.336 5 122762913.849 5       733.293          35.000
R01  19272068.266 7 103020250.830 7      -611.184          45.000    19272072.125 6  80126905.424 6      -475.365          38.000
R02  21864905.266 7 116675323.210 7      3180.211          47.000    21864910.977 8  90747524.642 8      2473.497          48.000
R23  20388033.617 8 109062193.096 8     -3177.141          49.000    20388038.406 6  84826182.595 6     -2471.109          41.000
R24  19226257.125 8 102811439.888 8       -52.348          50.000    19226257.492 7  79964455.186 7       -40.712          46.000
C05                                                                  39708500.531 6 159889676.465 6       -20.697          36.000
C19  21479092.891 8 111847275.382 8        21.340          51.000
C22  24275564.375 6 126409276.220 6      2422.309          37.000
C29  24122817.484 6 125613881.905 6     -3195.652          37.000
E03  24116622.719 8 126733785.981 8     -1378.574          48.000    24116625.156 7  97107745.523 7     -1056.328          47.000
E08  21890421.844 8 115034956.987 8      1350.586          50.000    21890424.062 8  88143672.193 8      1034.850          51.000
E15  23721835.344 8 124659084.197 8     -1651.328          51.000    23721839.547 8  95518020.534 8     -1265.276          51.000
> 2020 05 10 21 09  0.0000000  0 18        .000000000000
G01  21021746.586 8 110470014.503 8     -1915.715          51.000    21021748.453 8  86080547.863 8     -1492.765          51.000
G03  20315647.477 8 106759450.856 8       -58.840          51.000    20315648.828 8  83189224.801 8       -45.846          51.000
G04  21601881.883 8 113518649.457 8      2716.566          49.000    21601883.664 8  88456107.035 8      2116.805          48.000
G11  23070355.508 8 121235516.362 8     -3791.742          49.000    23070354.500 7  94469227.678 7     -2954.604          44.000
G14  23840150.859 5 125280835.884 5     -2947.863          33.000
G22  21230842.977 8 111568834.124 8     -1415.391          50.000    21230839.289 7  86936744.548 7     -1102.902          44.000
R01  19275568.938 7 103038965.015 7      -636.340          43.000    19275573.234 6  80141460.920 6      -494.931          38.000
R02  21847076.891 7 116580194.234 7      3161.715          47.000    21847084.133 8  90673535.455 8      2459.115          48.000
R23  20405925.383 8 109157904.033 8     -3203.520          49.000    20405931.078 7  84900624.402 7     -2491.626          43.000
R24  19226645.062 8 102813514.161 8       -86.020          50.000    19226645.508 7  79966068.507 7       -66.904          46.000
C05                                                                  39708676.023 6 159890382.908 6       -26.433          36.000
C19  21479022.055 8 111846906.546 8         3.336          51.000
C20  23894995.062 5 124427505.671 5     -2381.555          34.000
C22  24261652.422 6 126336822.661 6      2407.918          39.000
C29  24141268.453 6 125709966.400 6     -3209.871          38.000
E03  24124540.125 7 126775391.501 7     -1395.273          47.000    24124542.242 7  97139625.086 7     -1069.088          47.000
E08  21882762.367 8 114994710.254 8      1332.422          50.000    21882765.586 8  88112833.788 8      1020.968          51.000
E15  23731314.258 8 124708896.801 8     -1669.680          51.000    23731318.094 8  95556188.610 8     -1279.350          51.000
> 2020 05 10 21 09 30.0000000  0 19        .000000000000
G01  21032734.742 8 110527757.008 8     -1927.391          51.000    21032736.547 8  86125541.990 8     -1501.863          51.000
G03  20316028.062 8 106761450.463 8       -68.152          50.000    20316029.242 8  83190782.953 8       -53.106          50.000
G04  21586423.453 8 113437414.704 8      2705.285          49.000    21586425.141 8  88392807.242 8      2108.014          48.000
G11  23092032.977 7 121349434.064 7     -3796.438          46.000    23092032.281 7  94557994.703 7     -2958.263          44.000
G14  23857009.422 5 125369430.886 5     -2952.918          34.000
G22  21238958.469 8 111611481.123 8     -1421.492          50.000    21238954.695 7  86969975.976 7     -1107.656          43.000
R01  19279201.703 7 103058384.864 7      -651.684          42.000    19279206.234 6  80156565.253 6      -506.865          38.000
R02  21829344.758 8 116485573.583 8      3152.852          50.000    21829351.289 7  90599941.706 7      2452.218          46.000
R08  21362876.094 5 114397180.500 5     -3201.590          31.000
R23  20423954.891 8 109254350.652 8     -3219.719          49.000    20423961.180 7  84975638.425 7     -2504.226          43.000
R24  19227212.172 8 102816548.086 8      -109.797          51.000    19227213.055 7  79968428.229 7       -85.395          46.000
C05                                                                  39708886.375 5 159891229.783 5       -25.201          35.000
C19  21479045.453 8 111847028.495 8        -5.172          51.000
C20  23908742.953 5 124499083.495 5     -2383.527          32.000
C22  24247812.422 6 126264746.559 6      2403.816          38.000
C29  24159795.766 7 125806428.841 7     -3214.668          42.000
E03  24132543.109 7 126817446.739 7     -1402.176          47.000    24132544.625 7  97171849.263 7     -1074.442          47.000
E08  21875197.938 8 114954960.532 8      1323.785          51.000    21875201.617 8  88082376.231 8      1014.341          51.000
E15  23740888.945 8 124759212.177 8     -1678.457          51.000    23740892.109 8  95594741.923 8     -1286.078          51.000
> 2020 05 10 21 10  0.0000000  0 19        .000000000000
G01  21043768.852 8 110585740.859 8     -1944.719          51.000    21043770.305 8  86170724.184 8     -1515.365          51.000
G03  20316441.727 8 106763624.139 8       -83.289          49.000    20316442.484 8  83192476.720 8       -64.901          49.000
G04  21571009.688 8 113356414.884 8      2688.242          49.000    21571011.055 7  88329690.524 7      2094.737          47.000
G11  23113716.445 7 121463388.879 7     -3806.969          43.000    23113717.211 7  94646790.653 7     -2966.469          43.000
G14  23873880.133 5 125458093.203 5     -2964.738          33.000
G22  21247088.641 8 111654205.468 8     -1433.234          50.000    21247085.070 7  87003267.672 7     -1116.806          44.000
R01  19282900.414 7 103078158.802 7      -672.871          42.000    19282905.047 6  80171944.986 6      -523.344          37.000
R02  21811643.414 8 116391113.674 8      3137.957          50.000    21811648.094 7  90526472.969 7      2440.636          46.000
R08  21380823.758 5 114493290.261 5     -3212.777          31.000
R23  20442056.234 8 109351180.123 8     -3242.055          50.000    20442062.281 7  85050950.260 7     -2521.598          42.000
R24  19227893.641 8 102820192.937 8      -139.680          51.000    19227894.781 7  79971263.129 7      -108.640          46.000
C05                                                                  39709066.227 6 159891954.710 6       -27.907          36.000
C19  21479097.430 8 111847299.959 8       -19.367          51.000
C20  23922474.664 4 124570628.614 4     -2392.281          29.000
C22  24233975.289 5 126192707.806 5      2392.863          30.000
C29  24178329.898 7 125902926.513 7     -3224.777          45.000
E03  24140566.008 7 126859606.795 7     -1414.836          47.000    24140567.516 7  97204153.716 7     -1084.137          47.000
E08  21867663.336 8 114915364.260 8      1309.574          51.000    21867666.562 8  88052036.238 8      1003.377          51.000
E15  23750493.914 8 124809686.206 8     -1692.949          51.000    23750496.609 8  95633416.772 8     -1297.192          51.000
> 2020 05 10 21 10 30.0000000  0 17        .000000000000
G01  21054930.539 8 110644395.381 8     -1941.133          51.000    21054931.961 8  86216428.966 8     -1512.574          51.000
G03  20316970.102 8 106766401.395 8       -77.426          49.000    20316970.484 8  83194640.797 8       -60.332          49.000
G04  21555722.875 8 113276081.893 8      2691.797          50.000    21555723.688 7  88267093.419 7      2097.504          45.000
G11  23135488.203 7 121577808.291 7     -3796.332          42.000    23135490.594 7  94735948.680 7     -2958.178          42.000
G14  23890847.000 5 125547252.103 5     -2954.609          35.000
G22  21255315.219 8 111697436.545 8     -1424.223          50.000    21255312.039 7  87036954.215 7     -1109.784          44.000
R01  19286747.367 7 103098722.305 7      -673.012          42.000    19286752.102 6  80187938.818 6      -523.454          37.000
R02  21794054.062 8 116297252.476 8      3144.289          50.000    21794058.133 7  90453469.899 7      2445.561          47.000
R08  21398856.859 5 114589833.874 5     -3201.445          30.000
R23  20460310.758 8 109448827.242 8     -3242.766          51.000    20460315.797 6  85126898.070 6     -2522.151          41.000
R24  19228771.172 8 102824886.854 8      -148.352          51.000    19228772.680 7  79974913.949 7      -115.388          47.000
C05                                                                  39709297.281 6 159892885.193 6       -15.299          36.000
C19  21479259.828 8 111848146.276 8       -12.809          51.000
C29  24196951.703 7 125999883.443 7     -3214.594          47.000
E03  24148690.148 7 126902300.256 7     -1406.820          46.000    24148692.359 8  97236866.925 8     -1077.893          48.000
E08  21860239.789 8 114876351.513 8      1315.910          51.000    21860241.984 8  88022143.356 8      1008.271          51.000
E15  23760210.773 8 124860748.431 8     -1686.629          51.000    23760213.484 8  95672542.330 8     -1292.340          51.000
> 2020 05 10 21 11  0.0000000  0 20        .000000000000
G01  21066099.711 8 110703089.557 8     -1964.570          51.000    21066101.031 8  86262164.680 8     -1530.834          51.000
G03  20317493.320 8 106769151.433 8       -98.742          49.000    20317493.648 8  83196783.706 8       -76.942          49.000
G04  21540443.320 8 113195787.273 8      2668.391          49.000    21540443.453 7  88204526.213 7      2079.268          44.000
G11  23157229.391 7 121692059.410 7     -3812.953          44.000    23157231.992 7  94824975.554 7     -2971.132          42.000
G14  23907787.867 5 125636273.256 5     -2973.090          35.000
G22  21263518.211 8 111740543.291 8     -1442.223          50.000    21263515.141 7  87070543.866 7     -1123.810          44.000
G31  23341618.461 5 122661049.346 5       636.164          35.000    23341616.914 5  95580008.910 5       495.718          34.000
R01  19290621.844 7 103119431.946 7      -700.488          42.000    19290626.289 6  80204046.316 6      -544.824          37.000
R02  21776456.914 8 116203350.968 8      3123.059          50.000    21776461.180 7  90380435.427 7      2429.049          47.000
R08  21416852.695 5 114686226.357 5     -3218.145          30.000
R23  20478597.266 8 109546647.728 8     -3271.152          51.000    20478602.078 6  85202980.656 6     -2544.233          41.000
R24  19229725.062 8 102829989.164 8      -184.516          51.000    19229727.086 7  79978882.427 7      -143.509          46.000
C05                                                                  39709459.797 6 159893538.206 6       -22.778          36.000
C19  21479412.594 8 111848942.189 8       -33.086          51.000
C20  23950072.133 4 124714309.959 4     -2393.473          27.000
C22  24206453.633 6 126049342.312 6      2386.473          38.000
C29  24215540.422 7 126096672.978 7     -3230.852          47.000
E03  24156795.445 7 126944895.585 7     -1425.691          46.000    24156798.391 8  97269504.941 8     -1092.347          48.000
E08  21852807.070 8 114837292.074 8      1295.355          51.000    21852808.430 8  87992214.723 8       992.545          51.000
E15  23769919.125 8 124911768.149 8     -1707.332          51.000    23769922.609 8  95711635.343 8     -1308.215          51.000
> 2020 05 10 21 11 30.0000000  0 18        .000000000000
G01  21077379.359 8 110762364.807 8     -1983.324          50.000    21077380.594 8  86308353.195 8     -1545.447          50.000
G03  20318114.547 8 106772415.973 8      -115.102          50.000    20318115.133 8  83199327.519 8       -89.690          50.000
G04  21525274.484 8 113116075.064 8      2649.562          49.000    21525274.352 7  88142412.831 7      2064.594          44.000
G11  23179042.367 7 121806682.293 7     -3824.672          45.000    23179044.047 6  94914292.078 6     -2980.264          41.000
G14  23924806.039 5 125725705.302 5     -2985.051          33.000
G17  22129002.453 5 116288724.285 5       775.836          34.000    22128992.352 5  90614524.877 5       604.541          31.000
G22  21271800.570 8 111784067.134 8     -1455.449          50.000    21271797.539 7  87104458.533 7     -1134.116          44.000
R01  19294626.445 6 103140837.596 6      -722.910          40.000    19294630.617 6  80220695.180 6      -562.263          37.000
R02  21758955.781 8 116109961.171 8      3106.660          51.000    21758960.125 8  90307798.965 8      2416.294          48.000
R23  20497018.531 8 109645190.648 8     -3294.559          50.000    20497023.766 6  85279625.092 6     -2562.438          41.000
R24  19230858.680 8 102836052.349 8      -215.910          51.000    19230860.898 7  79983598.217 7      -167.930          46.000
C05                                                                  39709656.703 6 159894332.206 6       -26.844          36.000
C19  21479658.891 8 111850224.218 8       -48.551          51.000
C22  24192750.398 6 125977984.110 6      2374.344          39.000
C29  24234198.836 7 126193830.276 7     -3242.516          46.000
E03  24164985.430 7 126987933.663 7     -1439.781          47.000    24164988.109 8  97302482.168 8     -1103.161          48.000
E08  21845468.922 8 114798728.268 8      1279.398          51.000    21845469.367 8  87962665.848 8       980.321          51.000
E15  23779722.078 8 124963287.046 8     -1723.438          50.000    23779726.625 8  95751110.866 8     -1320.532          51.000
> 2020 05 10 21 12  0.0000000  0 18        .000000000000
G01  21088738.117 8 110822056.032 8     -2001.582          50.000    21088739.375 8  86354865.847 8     -1559.674          50.000
G03  20318802.336 8 106776030.128 8      -131.270          50.000    20318803.234 8  83202143.747 8      -102.288          50.000
G04  21510185.555 8 113036782.709 8      2631.090          49.000    21510185.578 7  88080626.612 7      2050.200          45.000
G11  23200894.547 7 121921510.047 7     -3836.012          47.000    23200894.969 6  95003768.216 6     -2989.103          40.000
G17  22124626.258 5 116265721.532 5       752.145          33.000    22124617.328 5  90596607.768 5       586.099          30.000
G22  21280130.805 8 111827842.729 8     -1468.340          50.000    21280127.961 7  87138569.377 7     -1144.161          44.000
R01  19298729.500 7 103162770.222 7      -744.793          42.000    19298733.000 6  80237753.885 6      -579.283          36.000
R02  21741519.633 8 116016916.747 8      3090.582          51.000    21741523.414 7  90235431.170 7      2403.789          47.000
R23  20515543.469 8 109744285.237 8     -3317.449          51.000    20515548.594 6  85356698.621 6     -2580.238          41.000
R24  19232141.031 8 102842909.605 8      -246.996          51.000    19232143.211 7  79988931.632 7      -192.111          47.000
C05                                                                  39709856.758 6 159895137.207 6       -30.783          36.000
C19  21479967.211 8 111851828.670 8       -63.762          51.000
C20  23977747.086 4 124858431.048 4     -2411.570          29.000
C22  24179088.898 6 125906840.506 6      2363.066          41.000
C29  24252895.703 7 126291190.386 7     -3253.707          46.000
E03  24173228.297 7 127031248.758 7     -1453.465          46.000    24173230.156 8  97335671.658 8     -1113.625          48.000
E08  21838193.852 8 114760495.738 8      1263.988          51.000    21838193.508 8  87933370.788 8       968.472          51.000
E15  23789588.977 8 125015140.228 8     -1738.891          50.000    23789594.391 8  95790842.554 8     -1332.445          51.000
> 2020 05 10 21 12 30.0000000  0 17        .000000000000
G01  21100167.289 8 110882115.114 8     -2008.684          51.000    21100168.102 8  86401665.116 8     -1565.208          51.000
G03  20319547.523 8 106779946.038 8      -136.070          51.000    20319548.484 8  83205195.091 8      -106.032          51.000
G04  21495167.945 8 112957864.618 8      2623.742          49.000    21495168.242 7  88019132.036 7      2044.477          46.000
G11  23222776.250 7 122036492.630 7     -3835.805          47.000    23222775.086 6  95093364.982 6     -2988.942          39.000
G22  21288499.766 8 111871822.142 8     -1469.887          49.000    21288497.117 7  87172839.037 7     -1145.366          44.000
G31  23331295.391 5 122606784.467 5       575.195          33.000
R01  19302921.703 7 103185179.598 7      -755.523          42.000    19302924.633 6  80255183.373 6      -587.632          36.000
R02  21724138.930 8 115924171.266 8      3086.027          50.000    21724142.109 7  90163295.860 7      2400.243          46.000
R23  20534162.617 8 109843880.723 8     -3328.766          51.000    20534167.141 7  85434161.769 7     -2589.040          42.000
R24  19233563.023 8 102850513.419 8      -266.496          51.000    19233565.539 7  79994845.694 7      -207.275          47.000
C05                                                                  39710051.234 6 159895919.849 6       -25.705          36.000
C19  21480328.352 8 111853707.905 8       -67.754          51.000
C22  24165457.844 6 125835864.906 6      2362.312          38.000
C29  24271622.477 7 126388704.239 7     -3253.480          47.000
E03  24181514.227 7 127074792.151 7     -1455.840          46.000    24181515.875 8  97369036.088 8     -1115.577          48.000
E08  21830972.430 8 114722547.138 8      1259.613          51.000    21830971.953 8  87904293.305 8       965.143          51.000
E15  23799510.945 8 125067279.869 8     -1743.234          51.000    23799516.578 8  95830793.735 8     -1335.785          51.000
> 2020 05 10 21 13  0.0000000  0 16        .000000000000
G01  21111702.352 8 110942729.590 8     -2025.895          51.000    21111702.297 8  86448897.155 8     -1578.622          51.000
G03  20320385.930 8 106784351.510 8      -151.137          50.000    20320386.734 8  83208627.918 8      -117.769          50.000
G04  21480257.781 8 112879510.939 8      2606.109          49.000    21480258.586 7  87958077.263 7      2030.738          47.000
G11  23244722.430 7 122151816.138 7     -3845.773          46.000    23244719.484 6  95183227.378 6     -2996.713          36.000
G22  21296943.273 8 111916193.413 8     -1481.797          49.000    21296940.516 7  87207414.028 7     -1154.647          44.000
R01  19307238.539 7 103208254.985 7      -776.121          42.000    19307241.367 6  80273130.903 6      -603.650          36.000
R02  21706850.164 8 115831916.599 8      3070.770          51.000    21706853.180 7  90091542.282 7      2388.379          46.000
R23  20552910.211 8 109944165.529 8     -3350.352          51.000    20552914.883 7  85512161.048 7     -2605.829          42.000
R24  19235160.328 8 102859056.030 8      -296.531          51.000    19235163.078 7  80001489.922 7      -230.635          47.000
C05                                                                  39710275.594 6 159896823.408 6       -29.191          36.000
C19  21480777.789 8 111856047.781 8       -81.883          51.000
C22  24151894.062 5 125765249.719 5      2352.449          30.000
C29  24290414.492 7 126486556.437 7     -3263.629          47.000
E03  24189879.055 7 127118750.856 7     -1468.246          45.000    24189881.242 8  97402718.744 8     -1125.080          49.000
E08  21823840.867 8 114685070.822 8      1245.184          51.000    21823840.719 8  87875577.708 8       954.123          51.000
E15  23809523.484 8 125119893.836 8     -1757.887          51.000    23809528.727 8  95871108.347 8     -1346.925          51.000
> 2020 05 10 21 13 30.0000000  0 16        .000000000000
G01  21123281.984 8 111003578.800 8     -2034.773          51.000    21123281.219 8  86496312.104 8     -1585.538          51.000
G03  20321256.508 8 106788925.965 8      -157.836          50.000    20321257.422 8  83212192.436 8      -122.989          50.000
G04  21465394.148 8 112801403.427 8      2596.910          49.000    21465395.586 7  87897214.295 7      2023.563          46.000
G11  23266671.867 7 122267158.029 7     -3847.477          45.000    23266667.578 5  95273104.128 5     -2998.037          35.000
G22  21305400.281 8 111960635.271 8     -1485.070          49.000    21305397.039 7  87242044.015 7     -1157.198          44.000
R01  19311618.469 7 103231668.977 7      -788.820          42.000    19311621.516 6  80291341.791 6      -613.527          36.000
R02  21689593.320 8 115739828.872 8      3064.141          51.000    21689595.969 7  90019918.551 7      2383.220          45.000
R23  20571724.844 8 110044811.149 8     -3363.387          51.000    20571729.859 7  85590440.967 7     -2615.967          42.000
R24  19236872.328 8 102868211.988 8      -317.977          51.000    19236875.422 8  80008611.231 8      -247.315          48.000
C05                                                                  39710469.062 6 159897602.588 6       -26.143          36.000
C19  21481254.438 8 111858530.353 8       -87.625          51.000
C22  24138338.359 5 125694666.739 5      2349.656          31.000
C29  24309210.141 7 126584427.709 7     -3265.215          47.000
E03  24198262.031 7 127162803.559 7     -1472.586          44.000    24198264.859 8  97436473.397 8     -1128.303          49.000
E08  21816738.469 8 114647746.809 8      1239.047          51.000    21816738.836 8  87846978.811 8       949.409          51.000
E15  23819565.352 8 125172661.525 8     -1764.004          51.000    23819570.188 8  95911540.744 8     -1351.660          51.000
> 2020 05 10 21 14  0.0000000  0 16        .000000000000
G01  21134938.766 8 111064834.331 8     -2048.453          51.000    21134938.062 8  86544043.663 8     -1596.197          51.000
G03  20322191.938 8 106793841.673 8      -169.359          50.000    20322193.305 8  83216022.855 8      -131.968          50.000
G04  21450610.453 8 112723716.596 8      2582.598          48.000    21450612.297 7  87836679.100 7      2012.414          45.000
