     3.02           OBSERVATION DATA    M (MIXED)           RINEX VERSION / TYPE
SAVERINEX           SC600               20200511 035931 LCL PGM / RUN BY / DATE
       G = GPS       R = GLONASS       C = COMPASS          COMMENT
       S = SBAS      J = QZSS          E = GALILEO          COMMENT
BEAN                                                        MARKER NAME
1                                                           MARKER NUMBER
GEODETIC                                                    MARKER TYPE
Unige DICCA         GTER                                    OBSERVER / AGENCY
SC60291900056       SC600               2.12(191226)        REC # / TYPE / VERS
                    HEMA45          NONE                    ANT # / TYPE
  4509407.8091   693652.4678  4442337.6214                  APPROX POSITION XYZ
        0.0000        0.0000        0.0000                  ANTENNA: DELTA H/E/N
G    8 C1C L1C D1C S1C C2Y L2Y D2Y S2Y                      SYS / # / OBS TYPES
R    8 C1C L1C D1C S1C C2P L2P D2P S2P                      SYS / # / OBS TYPES
C    8 C1I L1I D1I S1I C7I L7I D7I S7I                      SYS / # / OBS TYPES
E    8 C1C L1C D1C S1C C7Q L7Q D7Q S7Q                      SYS / # / OBS TYPES
DBHZ                                                        COMMENT
     30.000                                                 INTERVAL
  2020    05    11    01    00    0.0000000     GPS         TIME OF FIRST OBS
  2020    05    11    01    59   30.0000000     GPS         TIME OF LAST OBS
     0                                                      RCV CLOCK OFFS APPL
G L1C  0.00000                                              SYS / PHASE SHIFT
G L2Y  0.00000                                              SYS / PHASE SHIFT
R L1C  0.00000                                              SYS / PHASE SHIFT
R L2P  0.25000                                              SYS / PHASE SHIFT
C L1I  0.00000                                              SYS / PHASE SHIFT
C L7I  0.00000                                              SYS / PHASE SHIFT
E L1C  0.50000                                              SYS / PHASE SHIFT
E L7Q -0.25000                                              SYS / PHASE SHIFT
 13 R01  1 R02 -4 R03  5 R07  5 R08  6 R10 -5 R11  0 R12 -1 GLONASS SLOT / FRQ #
    R13 -2 R14 -7 R17  4 R18 -3 R23  3                      GLONASS SLOT / FRQ #
 C1C   71.950 C2C   71.950 C2P   71.950                     GLONASS COD/PHS/BIS
    18                                                      LEAP SECONDS
*** Above antenna height is from mark to ANTENNA BOTTOM.    COMMENT
    17     4        0.0000        ANT MEASURE TYPE/HEIGT    COMMENT
    0.0000    0.0000    0.0458    0.0405    0.0000          COMMENT
                    BASE STATION                            COMMENT
                                                            END OF HEADER
> 2020 05 11 01 00  0.0000000  0 15        .000000000000
G06  21863987.141 8 114896031.054 8     -2247.203          50.000    21863989.547 8  89529359.766 8     -1751.067          50.000
G07  21042438.203 8 110578731.239 8      1223.406          51.000    21042435.688 8  86165234.620 8       953.304          51.000
G09  20862918.727 8 109635476.639 8     -1488.590          50.000    20862919.234 8  85430232.081 8     -1159.940          50.000
G30  22368593.453 8 117547802.381 8      3081.594          51.000    22368594.016 8  91595680.240 8      2401.242          51.000
R02  20695326.250 6 110434328.698 6     -1970.262          39.000
R12  20569827.156 6 109880311.595 6     -1052.613          39.000    20569842.969 4  85462515.847 4      -818.696          28.000
R13  20696727.422 6 110519379.280 6      3121.879          40.000    20696729.375 6  85959502.196 6      2428.131          38.000
R18  22401676.891 8 119581666.324 8     -3440.594          48.000    22401680.438 7  93007934.268 7     -2676.017          44.000
C05  39784921.570 6 207170525.517 6       -12.828          37.000    39784918.445 6 160197376.915 6       -10.430          39.000
C12                                                                  25820250.141 6 103967423.146 6     -2142.816          40.000
C22  22350288.852 8 116383789.032 8     -1120.500          51.000
E07  23502960.070 8 123508872.713 8       193.230          50.000    23502962.883 8  94636682.681 8       148.018          51.000
E08                                                                  23391083.359 6  94186196.892 6     -1366.096          36.000
E26  24563962.102 8 129084482.650 8     -2082.496          49.000    24563966.719 8  98908893.744 8     -1595.634          49.000
E30  24478007.836 7 128632820.683 7      2367.969          43.000    24478011.281 8  98562819.504 8      1814.256          49.000
> 2020 05 11 01 00 30.0000000  0 16        .000000000000
G06  21876884.828 8 114963807.859 8     -2268.359          51.000    21876886.891 8  89582172.854 8     -1767.553          51.000
G07  21035523.211 8 110542393.313 8      1201.867          51.000    21035521.102 8  86136919.391 8       936.523          51.000
G09  20871466.648 8 109680396.269 8     -1503.223          49.000    20871467.281 8  85465234.362 8     -1171.345          49.000
G30  22351054.414 8 117455630.149 8      3066.156          51.000    22351054.305 8  91523857.730 8      2389.213          51.000
R02  20706455.445 6 110493713.604 6     -1985.273          36.000    20706463.703 4  85939513.629 4     -1544.105          26.000
R03  19790642.531 5 105940885.628 5      1046.570          34.000
R12  20575838.062 6 109912421.275 6     -1085.168          40.000
R13  20679267.586 6 110426143.163 6      3096.855          39.000    20679268.836 6  85886985.180 6      2408.665          39.000
R18  22421074.523 8 119685210.710 8     -3459.348          48.000    22421077.727 7  93088468.766 7     -2690.607          45.000
C05  39785021.711 6 207171046.909 6       -18.375          37.000    39785018.609 6 160197780.077 6       -14.299          39.000
C12                                                                  25836249.617 6 104031850.008 6     -2150.156          38.000
C22  22356794.289 8 116417665.251 8     -1135.051          51.000
E07  23501896.219 8 123503282.874 8       182.258          50.000    23501898.828 8  94632399.568 8       139.637          51.000
E08                                                                  23401287.391 6  94227303.189 6     -1372.633          36.000
E26  24575904.234 8 129147237.980 8     -2098.398          49.000    24575907.797 8  98956978.994 8     -1607.876          49.000
E30  24464538.484 7 128562045.444 7      2353.359          44.000    24464543.195 8  98508589.160 8      1803.289          50.000
> 2020 05 11 01 01  0.0000000  0 16        .000000000000
G06  21889876.180 8 115032075.771 8     -2282.137          51.000    21889877.672 8  89635368.596 8     -1778.291          51.000
G07  21028704.688 8 110506562.446 8      1187.461          51.000    21028702.953 8  86108999.257 8       925.297          51.000
G09  20880071.938 8 109725617.201 8     -1510.828          48.000    20880072.828 8  85500471.453 8     -1177.269          48.000
G30  22333576.523 8 117363780.774 8      3057.762          51.000    22333576.000 8  91452286.784 8      2382.671          51.000
R02  20717642.875 6 110553406.009 6     -1993.418          38.000    20717650.195 4  85985930.110 4     -1550.436          29.000
R03  19784796.461 5 105909581.234 5      1038.402          30.000
R12  20582004.398 6 109945361.460 6     -1110.113          36.000    20582017.148 4  85513094.156 4      -863.412          28.000
R13  20661922.289 6 110333519.622 6      3078.605          39.000    20661923.547 6  85814944.608 6      2394.468          41.000
R18  22440550.312 7 119789172.243 7     -3470.730          47.000    22440553.273 7  93169327.682 7     -2699.457          44.000
C05  39785126.648 6 207171593.745 6       -17.035          37.000    39785123.695 6 160198202.918 6       -13.284          39.000
C12                                                                  25852276.180 6 104096386.870 6     -2151.717          37.000
C22  22363356.641 8 116451837.659 8     -1142.473          51.000
E07  23500869.227 8 123497886.232 8       178.270          50.000    23500871.492 8  94628264.481 8       136.620          51.000
E08  23411532.258 5 123028426.461 5     -1792.719          35.000    23411520.281 5  94268503.011 5     -1373.755          33.000
E26  24587910.906 8 129210332.520 8     -2107.262          49.000    24587913.789 8  99005324.159 8     -1614.613          49.000
E30  24451127.539 7 128491568.239 7      2345.844          47.000    24451131.961 8  98454587.140 8      1797.495          51.000
> 2020 05 11 01 01 30.0000000  0 16        .000000000000
G02  22385180.734 5 117634911.827 5        -2.383          35.000
G06  21902959.086 8 115100824.916 8     -2299.992          51.000    21902959.641 8  89688939.340 8     -1792.205          51.000
G07  21021981.320 8 110471231.976 8      1168.980          51.000    21021979.641 8  86081469.052 8       910.894          51.000
G09  20888732.875 7 109771131.079 7     -1522.348          47.000    20888734.047 7  85535936.824 7     -1186.245          47.000
G30  22316158.523 8 117272248.948 8      3045.375          50.000    22316158.055 8  91380963.255 8      2373.019          50.000
R02  20728886.398 6 110613399.290 6     -2004.914          36.000    20728893.992 4  86032591.526 4     -1559.381          28.000
R03  19779021.070 5 105878639.937 5      1025.246          35.000
R12  20588324.227 6 109979123.182 6     -1139.430          38.000
R13  20644690.492 6 110241504.326 6      3056.723          38.000    20644692.742 7  85743377.184 7      2377.454          43.000
R18  22460100.945 7 119893538.550 7     -3486.070          43.000    22460104.383 7  93250501.460 7     -2711.388          44.000
C05  39785235.078 6 207172157.528 6       -19.176          36.000    39785232.211 6 160198639.665 6       -14.885          39.000
C12                                                                  25868327.320 5 104161026.129 5     -2156.318          35.000
C22  22369974.547 8 116486299.007 8     -1153.914          51.000
E07  23499877.680 8 123492675.405 8       170.277          51.000    23499879.742 8  94624271.773 8       130.448          51.000
E26  24599980.336 8 129273757.067 8     -2120.012          50.000    24599982.805 8  99053922.185 8     -1624.398          49.000
E30  24437772.797 8 128421383.540 8      2334.164          50.000    24437776.891 8  98400809.272 8      1788.590          51.000
> 2020 05 11 01 02  0.0000000  0 16        .000000000000
G04  23300689.797 5 122445950.812 5     -2854.484          31.000
G06  21916129.023 8 115170031.790 8     -2316.609          50.000    21916129.070 8  89742866.775 8     -1805.150          50.000
G07  21015349.508 8 110436381.645 8      1151.648          51.000    21015347.695 8  86054312.957 8       897.388          51.000
G09  20897445.266 7 109816915.934 7     -1532.723          47.000    20897446.641 7  85571613.369 7     -1194.329          47.000
G30  22298796.953 8 117181015.598 8      3034.117          50.000    22298796.875 8  91309872.309 8      2364.244          49.000
R02  20740182.977 5 110673671.819 5     -2015.988          33.000    20740183.992 4  86079466.160 4     -1567.988          25.000
R03  19773304.352 6 105848006.999 6      1013.953          36.000
R12  20594793.508 6 110013682.979 6     -1167.398          39.000    20594816.555 5  85566252.992 5      -907.977          30.000
R13  20627568.820 6 110150080.289 6      3035.473          38.000    20627572.461 7  85672269.638 7      2360.926          43.000
R18  22479721.273 7 119998283.709 7     -3500.102          42.000    22479726.367 7  93331969.955 7     -2722.298          44.000
C05  39785343.109 6 207172720.642 6       -20.566          37.000    39785340.219 6 160199074.329 6       -15.952          40.000
C12                                                                  25884398.797 5 104225749.596 5     -2160.426          32.000
C22  22376643.797 8 116521028.615 8     -1164.117          51.000
E07  23498917.492 8 123487629.412 8       163.473          51.000    23498919.461 8  94620405.362 8       125.249          51.000
E26  24612108.289 8 129337488.775 8     -2131.465          50.000    24612110.562 8  99102755.579 8     -1633.275          49.000
E30  24424470.266 8 128351472.198 8      2323.746          51.000    24424474.047 8  98347240.862 8      1780.623          51.000
> 2020 05 11 01 02 30.0000000  0 16        .000000000000
G06  21929384.117 8 115239685.743 8     -2328.836          51.000    21929384.109 8  89797142.568 8     -1814.677          51.000
G07  21008807.570 8 110402003.639 8      1138.395          51.000    21008805.914 8  86027524.904 8       887.061          51.000
G09  20906207.516 7 109862962.688 7     -1538.797          47.000    20906209.000 7  85607493.964 7     -1199.062          47.000
G30  22281490.766 8 117090074.646 8      3026.758          49.000    22281491.062 8  91239009.211 8      2358.513          49.000
R02  20751531.539 5 110734214.808 5     -2022.301          31.000    20751535.164 4  86126566.378 4     -1572.895          27.000
R03  19767639.742 5 105817675.469 5      1006.738          32.000
R12  20601410.562 5 110049030.966 5     -1191.227          33.000    20601422.109 4  85593745.804 4      -926.503          28.000
R13  20610557.578 6 110059243.072 6      3018.480          39.000    20610561.523 7  85601618.444 7      2347.707          43.000
R18  22499411.836 7 120103394.778 7     -3509.258          45.000    22499416.766 7  93413723.031 7     -2729.423          43.000
C05  39785449.000 6 207173272.304 6       -17.555          37.000    39785446.023 6 160199500.542 6       -14.003          39.000
C12                                                                  25900489.078 5 104290549.094 5     -2161.326          31.000
C22  22383363.039 8 116556018.525 8     -1170.219          51.000
E07  23497987.180 8 123482740.073 8       160.867          50.000    23497988.953 8  94616658.994 8       123.250          51.000
E08  23442344.906 5 123190338.561 5     -1802.879          35.000
E26  24624292.859 8 129401517.772 8     -2138.785          51.000    24624295.258 8  99151816.754 8     -1638.803          48.000
E30  24411218.578 8 128281827.865 8      2317.426          51.000    24411221.555 8  98293877.029 8      1775.714          51.000
> 2020 05 11 01 03  0.0000000  0 15        .000000000000
G02  22385630.250 5 117637252.648 5       -53.336          33.000
G06  21942702.484 8 115309673.050 8     -2343.488          50.000    21942702.328 8  89851678.124 8     -1826.095          50.000
G07  21002334.430 8 110367987.587 8      1122.723          50.000    21002332.781 8  86001018.893 8       874.849          50.000
G09  20914998.531 7 109909159.217 7     -1547.477          46.000    20914999.930 7  85643491.279 7     -1205.826          46.000
G30  22264219.227 7 116999316.953 7      3016.996          47.000    22264220.016 8  91168288.897 8      2350.903          48.000
R12  20608154.125 6 110085052.278 6     -1216.988          41.000    20608157.398 4  85621762.268 4      -946.553          29.000
R13  20593636.680 6 109968883.894 6      2998.723          41.000    20593640.078 7  85531339.039 7      2332.337          43.000
R18  22519149.969 7 120208754.523 7     -3521.234          46.000    22519153.422 7  93495669.431 7     -2738.741          43.000
C05  39785531.555 6 207173701.957 6       -17.016          37.000    39785528.570 6 160199833.152 6       -13.590          40.000
C12                                                                  25916576.891 5 104355337.336 5     -2163.262          30.000
C19  25861035.086 5 134665196.746 5     -2730.262          32.000
C22  22390111.492 8 116591158.685 8     -1178.887          51.000
E07  23497065.453 8 123477896.285 8       155.543          50.000    23497067.078 8  94612947.530 8       119.140          51.000
E26  24636512.445 8 129465731.031 8     -2148.629          50.000    24636515.242 8  99201019.104 8     -1646.331          48.000
E30  24397996.445 8 128212341.306 8      2308.508          51.000    24397998.969 8  98240634.106 8      1768.788          51.000
> 2020 05 11 01 03 30.0000000  0 14        .000000000000
G06  21956138.203 8 115380280.864 8     -2363.180          48.000    21956138.562 8  89906697.210 8     -1841.439          48.000
G07  20995985.250 8 110334622.715 8      1101.988          51.000    20995983.445 8  85975020.276 8       858.692          51.000
G09  20923873.078 8 109955794.259 8     -1561.117          49.000    20923874.250 8  85679830.261 8     -1216.455          49.000
G30  22247038.312 8 116909034.129 8      3002.203          48.000    22247039.984 8  91097938.635 8      2339.379          48.000
R12  20615077.992 5 110122039.362 5     -1248.055          32.000    20615080.484 5  85650530.128 5      -970.688          32.000
R13  20576861.195 6 109879299.605 6      2973.910          40.000    20576863.695 7  85461662.379 7      2313.041          42.000
R18  22538988.891 7 120314652.191 7     -3538.141          46.000    22538991.266 7  93578034.239 7     -2751.890          43.000
C05  39785645.984 6 207174298.089 6       -22.188          37.000    39785643.055 6 160200294.092 6       -16.888          39.000
C12                                                                  25932717.766 5 104420334.122 5     -2168.974          31.000
C19  25876787.391 4 134747221.193 4     -2737.438          29.000
C22  22396944.102 8 116626736.197 8     -1192.480          51.000
E07  23496207.523 8 123473387.701 8       145.426          51.000    23496209.031 8  94609492.910 8       111.385          51.000
E26  24648821.664 8 129530416.387 8     -2163.312          50.000    24648824.742 8  99250583.196 8     -1657.567          48.000
E30  24384859.312 8 128143303.906 8      2294.492          51.000    24384861.242 8  98187735.306 8      1758.070          51.000
> 2020 05 11 01 04  0.0000000  0 15        .000000000000
G06  21969649.328 7 115451287.714 7     -2374.289          46.000    21969650.938 7  89962027.223 7     -1850.095          46.000
G07  20989718.750 8 110301692.066 8      1089.770          51.000    20989717.289 8  85949360.026 8       849.171          51.000
G09  20932789.188 8 110002647.799 8     -1566.168          49.000    20932789.922 8  85716339.523 8     -1220.391          49.000
G30  22229907.070 8 116819009.157 8      2995.918          49.000    22229908.938 8  91027789.310 8      2334.482          49.000
R03  19750970.805 5 105728495.610 5       975.574          34.000    19750980.227 4  82233291.973 4       758.783          27.000
R12  20622140.750 6 110159768.061 6     -1270.395          40.000    20622141.633 5  85679874.532 5      -988.088          32.000
R13  20560189.516 6 109790272.032 6      2957.562          40.000    20560191.266 6  85392418.741 6      2300.326          41.000
R18  22558885.469 7 120420860.751 7     -3546.203          45.000    22558888.258 7  93660640.856 7     -2758.161          43.000
C05  39785750.547 6 207174842.068 6       -17.805          36.000    39785747.727 6 160200715.554 6       -14.015          40.000
C12                                                                  25948869.094 5 104485369.549 5     -2169.221          35.000
C19  25892546.977 5 134829285.635 5     -2737.816          30.000
C22  22403818.852 8 116662534.204 8     -1197.621          51.000
E07  23495371.648 8 123468995.364 8       143.711          50.000    23495373.266 8  94606127.359 8       110.101          51.000
E26  24661178.227 8 129595353.055 8     -2169.492          49.000    24661181.094 8  99300339.848 8     -1662.260          48.000
E30  24371765.734 8 128074498.647 8      2288.992          49.000    24371767.867 8  98135014.390 8      1753.834          51.000
> 2020 05 11 01 04 30.0000000  0 17        .000000000000
G04  23382274.742 5 122874691.579 5     -2860.371          31.000
G06  21983236.734 8 115522691.391 8     -2383.895          49.000    21983239.031 8  90017666.450 8     -1857.580          49.000
G07  20983534.859 8 110269195.761 8      1078.824          51.000    20983533.812 8  85924038.256 8       840.642          51.000
G09  20941746.664 8 110049719.361 8     -1569.793          48.000    20941747.141 8  85753018.632 8     -1223.215          48.000
G30  22212825.844 8 116729244.468 8      2990.715          50.000    22212827.492 8  90957842.817 8      2330.427          51.000
R03  19745531.469 5 105699367.013 5       969.672          32.000    19745534.227 4  82210636.332 4       754.186          27.000
R12  20629342.312 6 110198236.514 6     -1291.828          38.000    20629345.711 6  85709794.431 6     -1004.749          36.000
R13  20543622.555 6 109701805.484 6      2942.562          40.000    20543623.914 6  85323611.464 6      2288.660          41.000
R18  22578839.250 7 120527375.881 7     -3552.656          46.000    22578842.688 7  93743485.951 7     -2763.177          43.000
C05  39785845.477 6 207175336.389 6       -12.402          36.000    39785842.633 6 160201097.797 6        -9.995          40.000
C12                                                                  25965030.578 5 104550441.925 5     -2167.391          35.000
C19  25908315.898 4 134911399.668 4     -2735.418          28.000
C21  22406505.328 5 116676537.702 5      1507.137          30.000
C22  22410735.750 8 116698553.176 8     -1201.473          51.000
E07  23494557.945 8 123464719.702 8       143.480          50.000    23494559.781 8  94602851.206 8       109.913          51.000
E26  24673582.234 8 129660539.579 8     -2174.156          49.000    24673584.492 8  99350287.968 8     -1665.957          48.000
E30  24358715.992 7 128005927.721 7      2284.668          46.000    24358718.906 8  98082473.022 8      1750.569          51.000
> 2020 05 11 01 05  0.0000000  0 18        .000000000000
G02  22387680.266 6 117648027.220 6      -124.449          36.000
G04  23398643.141 5 122960693.190 5     -2866.566          30.000
G06  21996916.039 8 115594574.841 8     -2401.996          50.000    21996918.430 8  90073679.504 8     -1871.685          51.000
G07  20977450.008 8 110237219.763 8      1059.102          51.000    20977449.047 8  85899121.900 8       825.277          51.000
G09  20950761.484 7 110097093.467 7     -1582.352          46.000    20950761.961 7  85789933.500 7     -1233.004          46.000
G30  22195810.914 8 116639827.497 8      2976.672          51.000    22195812.219 8  90888167.283 8      2319.485          51.000
R02  20809020.711 6 111040939.256 6     -2067.660          36.000    20809032.500 5  86365205.404 5     -1608.174          33.000
R03  19740157.062 5 105670591.574 5       955.625          31.000    19740153.391 4  82188255.330 4       743.261          28.000
R12  20636698.164 6 110237529.521 6     -1321.422          39.000    20636702.484 5  85740355.722 5     -1027.770          35.000
R13  20527177.234 6 109613990.360 6      2918.039          39.000    20527178.672 6  85255310.820 6      2269.586          40.000
R18  22598866.078 7 120634279.683 7     -3567.965          47.000    22598869.273 7  93826633.381 7     -2775.084          42.000
C05                                                                  39785944.039 6 160201506.348 6       -12.641          39.000
C21  22397852.547 5 116631543.159 5      1497.977          34.000
C22  22417711.453 8 116734877.910 8     -1213.973          51.000
E07  23493782.625 8 123460646.229 8       134.414          50.000    23493784.836 8  94599729.979 8       103.008          51.000
E08  23494000.648 5 123461804.340 5     -1817.613          33.000    23493999.305 6  94600596.918 6     -1392.567          38.000
E26  24686050.031 8 129726059.633 8     -2187.543          51.000    24686051.977 8  99400491.634 8     -1676.169          48.000
E30  24345727.430 7 127937678.412 7      2271.570          46.000    24345731.258 8  98030178.111 8      1740.557          51.000
> 2020 05 11 01 05 30.0000000  0 16        .000000000000
G02  22388433.781 5 117651974.761 5      -144.805          35.000
G06  22010666.539 8 115666831.689 8     -2419.945          51.000    22010668.500 8  90129983.511 8     -1885.672          51.000
G07  20971444.320 8 110205660.947 8      1039.801          49.000    20971443.688 8  85874530.619 8       810.234          49.000
G09  20959813.875 7 110144665.348 7     -1594.043          46.000    20959814.430 7  85827002.486 7     -1242.108          46.000
G30  22178842.773 8 116550656.414 8      2963.012          51.000    22178843.562 8  90818683.368 8      2308.840          51.000
R02  20820676.539 5 111103077.827 5     -2080.484          32.000    20820668.539 5  86413535.620 5     -1618.142          30.000
R12  20644188.422 6 110277540.002 6     -1351.102          39.000    20644191.656 5  85771474.928 5     -1050.860          35.000
R13  20510834.773 6 109526724.900 6      2894.324          38.000    20510836.781 6  85187437.693 6      2251.138          40.000
R18  22618945.164 7 120741462.222 7     -3582.648          47.000    22618947.953 7  93909997.578 7     -2786.504          43.000
C05  39786035.109 6 207176324.182 6       -19.109          37.000    39786032.305 6 160201861.629 6       -15.036          40.000
C21  22389234.930 5 116586693.986 5      1487.371          34.000
C22  22424726.188 8 116771405.628 8     -1226.172          51.000
E07  23493026.039 8 123456671.166 8       125.754          50.000    23493028.602 8  94596684.158 8        96.384          51.000
E08  23504381.758 6 123516357.751 6     -1823.777          36.000    23504379.938 6  94642396.715 6     -1397.551          39.000
E26  24698561.562 8 129791807.624 8     -2200.539          51.000    24698563.172 8  99450869.957 8     -1686.079          49.000
E30  24332781.578 8 127869648.727 8      2258.789          50.000    24332785.227 8  97978051.512 8      1730.847          50.000
> 2020 05 11 01 06  0.0000000  0 16        .000000000000
G06  22024529.258 8 115739678.710 8     -2434.809          51.000    22024530.461 8  90186747.418 8     -1897.253          51.000
G07  20965559.688 8 110174738.915 8      1023.348          49.000    20965559.602 8  85850435.541 8       797.414          49.000
G09  20968945.711 7 110192653.549 7     -1603.395          46.000    20968946.016 7  85864395.886 7     -1249.398          46.000
G30  22161963.234 8 116461952.670 8      2952.102          50.000    22161963.719 8  90749563.604 8      2300.339          50.000
R02  20832397.992 5 111165651.528 5     -2090.008          30.000    20832400.211 5  86462190.655 5     -1625.562          35.000
R03  19729577.391 5 105613954.921 5       930.285          35.000    19729588.719 5  82144230.254 5       723.552          31.000
R12  20651854.289 6 110318488.580 6     -1377.449          39.000    20651857.180 6  85803323.844 6     -1071.349          36.000
R13  20494638.102 6 109440235.928 6      2873.285          39.000    20494640.367 6  85120168.505 6      2234.777          41.000
R18  22639117.211 8 120849141.676 8     -3594.312          48.000    22639120.391 7  93993748.244 7     -2795.576          44.000
C05  39786151.875 6 207176932.166 6       -19.480          37.000    39786149.102 6 160202331.741 6       -15.139          40.000
C21  22380688.328 5 116542208.641 5      1479.363          33.000
C22  22431821.312 8 116808353.888 8     -1235.477          51.000
E07  23492330.039 8 123453014.003 8       119.754          50.000    23492332.766 8  94593881.928 8        91.789          51.000
E08                                                                  23514805.219 6  94684378.490 6     -1400.175          37.000
E26  24711158.125 8 129858001.085 8     -2210.727          51.000    24711159.250 8  99501589.618 8     -1693.927          49.000
E30  24319920.391 8 127802059.931 8      2248.754          51.000    24319922.508 8  97926262.712 8      1723.056          48.000
> 2020 05 11 01 06 30.0000000  0 14        .000000000000
G06  22038459.164 8 115812880.292 8     -2446.656          51.000    22038460.773 8  90243787.597 8     -1906.488          51.000
G07  20959752.117 8 110144221.018 8      1009.691          49.000    20959752.164 8  85826655.363 8       786.773          49.000
G09  20978112.383 7 110240824.006 7     -1609.535          47.000    20978112.523 7  85901931.313 7     -1254.183          47.000
G30  22145128.031 8 116373485.141 8      2944.172          48.000    22145128.938 8  90680627.879 8      2294.160          48.000
R03  19724390.250 5 105586138.175 5       922.781          34.000    19724392.555 5  82122594.968 5       717.716          32.000
R12  20659650.484 6 110360136.404 6     -1400.445          39.000    20659653.758 6  85835716.621 6     -1089.232          37.000
R13  20478543.422 6 109354289.920 6      2855.012          39.000    20478545.891 7  85053321.619 7      2220.565          42.000
R18  22659336.789 7 120957076.471 7     -3602.953          47.000    22659340.938 7  94077697.549 7     -2802.297          43.000
C05  39786252.719 6 207177457.669 6       -16.812          37.000    39786250.031 6 160202738.103 6       -12.973          39.000
C21  22372169.961 5 116497857.085 5      1475.535          33.000
C22  22438953.023 8 116845491.771 8     -1241.836          51.000
E07  23491650.250 8 123449441.687 8       116.980          50.000    23491653.008 8  94591144.701 8        89.634          51.000
E26  24723794.891 8 129924405.094 8     -2217.672          51.000    24723796.008 8  99552470.600 8     -1699.261          50.000
E30  24307099.094 8 127734680.770 8      2241.770          49.000    24307099.711 8  97874634.559 8      1717.696          48.000
> 2020 05 11 01 07  0.0000000  0 16        .000000000000
G02  22391341.188 5 117667291.857 5      -193.832          32.000
G06  22052462.305 8 115886467.903 8     -2460.777          51.000    22052464.938 8  90301128.581 8     -1917.489          51.000
G07  20954028.266 8 110114142.193 8       993.875          50.000    20954028.008 8  85803217.314 8       774.448          50.000
G09  20987320.094 7 110289209.981 7     -1618.141          47.000    20987320.258 7  85939634.676 7     -1260.886          46.000
G30  22128344.227 8 116285289.937 8      2933.746          48.000    22128345.961 8  90611904.334 8      2286.036          48.000
R02  20855966.469 5 111291408.053 5     -2105.527          35.000    20855966.523 5  86559978.946 5     -1637.632          32.000
R03  19719247.766 5 105558594.261 5       911.867          32.000    19719247.172 5  82101171.964 5       709.224          33.000
R12  20667584.273 6 110402516.149 6     -1426.203          41.000    20667586.852 6  85868678.590 6     -1109.275          37.000
R13  20462557.289 6 109268925.446 6      2834.254          39.000    20462560.172 7  84986927.055 7      2204.423          43.000
R18  22679610.070 8 121065296.753 8     -3613.605          48.000    22679614.773 7  94161868.864 7     -2810.582          43.000
C05  39786344.320 6 207177933.557 6       -16.340          37.000    39786341.586 6 160203106.878 6       -12.843          39.000
C21  22363683.242 5 116453674.348 5      1468.391          31.000
C22  22446127.906 8 116882853.207 8     -1250.578          51.000
E07  23490993.141 8 123445988.393 8       111.527          51.000    23490995.758 8  94588498.674 8        85.450          51.000
E26  24736477.750 8 129991051.914 8     -2227.164          51.000    24736479.312 8  99603537.634 8     -1706.516          50.000
E30  24294323.789 7 127667547.186 7      2232.039          47.000    24294324.117 8  97823194.562 8      1710.297          48.000
> 2020 05 11 01 07 30.0000000  0 16        .000000000000
G02  22392503.781 5 117673383.408 5      -212.988          35.000
G06  22066545.961 8 115960479.061 8     -2475.348          51.000    22066549.273 8  90358799.639 8     -1928.842          51.000
G07  20948395.867 8 110084542.485 8       977.520          51.000    20948395.164 8  85780152.608 8       761.704          51.000
G09  20996576.156 7 110337850.613 7     -1626.758          46.000    20996576.477 7  85977536.483 7     -1267.603          46.000
G30  22111620.758 8 116197409.094 8      2922.945          50.000    22111623.016 8  90543425.736 8      2277.620          50.000
R02  20867824.656 5 111354680.496 5     -2114.844          35.000    20867829.492 4  86609190.768 4     -1644.882          29.000
R03  19714157.703 4 105531432.271 4       901.512          29.000    19714157.352 5  82079993.890 5       701.179          31.000
R12  20675661.586 5 110445665.910 5     -1451.930          35.000    20675664.672 6  85902239.618 6     -1129.270          38.000
R13  20446688.227 6 109184186.743 6      2813.121          40.000    20446691.594 7  84921019.209 7      2187.983          43.000
R18  22699944.070 7 121173838.550 7     -3624.746          47.000    22699948.273 7  94246290.229 7     -2819.247          43.000
C05  39786434.172 6 207178401.575 6       -16.977          37.000    39786431.445 6 160203468.750 6       -12.608          39.000
C22  22453353.422 8 116920478.063 8     -1259.719          51.000
E07  23490366.359 8 123442694.294 8       106.066          51.000    23490368.742 8  94585974.618 8        81.311          51.000
E08  23546121.406 5 123735698.164 5     -1833.629          33.000    23546126.055 5  94810489.903 5     -1405.123          34.000
E26  24749213.727 8 130057979.800 8     -2236.699          51.000    24749216.156 8  99654820.040 8     -1713.846          51.000
E30  24281602.602 7 127600701.072 7      2222.234          47.000    24281604.094 8  97771974.838 8      1702.811          49.000
> 2020 05 11 01 08  0.0000000  0 15        .000000000000
G02  22393778.031 5 117680073.779 5      -230.023          34.000
G06  22080723.773 8 116034985.164 8     -2489.305          50.000    22080728.062 8  90416856.353 8     -1939.718          50.000
G07  20942869.039 8 110055496.854 8       961.367          51.000    20942868.086 8  85757519.641 8       749.117          51.000
G09  21005894.492 7 110386819.119 7     -1635.254          46.000    21005895.016 7  86015693.761 7     -1274.224          45.000
G30  22094971.938 8 116109918.544 8      2912.309          50.000    22094974.594 8  90475251.296 8      2269.331          50.000
R02  20879741.953 5 111418299.894 5     -2124.543          33.000
R03  19709132.094 5 105504546.561 5       890.531          30.000    19709143.797 5  82059119.164 5       692.638          31.000
R12  20683897.117 6 110489659.552 6     -1477.855          39.000    20683900.883 6  85936456.823 6     -1149.446          37.000
R13  20430951.539 6 109100152.888 6      2791.809          40.000    20430955.117 7  84855659.577 7      2171.410          43.000
R18  22720351.273 7 121282772.473 7     -3635.113          46.000    22720355.055 7  94331016.581 7     -2827.313          43.000
C05  39786536.477 6 207178934.076 6       -16.023          37.000    39786533.688 6 160203880.553 6       -12.635          39.000
C22  22460643.859 8 116958439.817 8     -1268.523          51.000
E07  23489783.984 8 123439633.510 8       100.746          51.000    23489786.258 8  94583629.343 8        77.168          51.000
E26  24762016.516 8 130125260.935 8     -2245.980          50.000    24762020.203 8  99706373.139 8     -1721.003          51.000
E30  24268951.250 8 127534218.356 8      2212.527          50.000    24268953.781 8  97721033.540 8      1695.304          51.000
> 2020 05 11 01 08 30.0000000  0 15        .000000000000
G06  22094993.641 8 116109973.417 8     -2502.816          51.000    22094997.977 8  90475288.758 8     -1950.247          51.000
G07  20937445.617 8 110026995.202 8       945.852          51.000    20937444.469 8  85735310.581 8       737.027          51.000
G09  21015273.133 7 110436104.373 7     -1643.332          47.000    21015273.828 7  86054097.870 7     -1280.518          47.000
G30  22078395.914 8 116022810.109 8      2902.043          49.000    22078398.672 8  90407374.605 8      2261.332          49.000
R02  20891727.672 6 111482255.765 6     -2132.547          37.000    20891742.438 4  86708483.901 4     -1658.648          26.000
R03  19704193.367 5 105478110.373 5       880.914          32.000    19704198.547 5  82038543.877 5       685.158          31.000
R12  20692286.438 5 110534488.728 5     -1503.520          32.000    20692292.773 6  85971267.205 6     -1169.404          37.000
R13  20415345.484 6 109016817.140 6      2771.348          39.000    20415348.898 7  84790842.900 7      2155.493          43.000
R18  22740828.094 7 121392083.238 7     -3645.043          43.000    22740832.562 7  94416036.031 7     -2835.033          43.000
C05  39786649.227 6 207179522.077 6       -15.742          37.000    39786646.414 6 160204334.440 6       -12.294          39.000
C21  22338523.719 4 116322563.299 4      1448.453          29.000
C22  22467997.227 8 116996728.449 8     -1276.957          51.000
E07  23489244.133 8 123436795.911 8        95.625          51.000    23489246.445 8  94581455.075 8        73.364          51.000
E26  24774884.203 8 130192883.332 8     -2254.949          51.000    24774888.523 8  99758187.699 8     -1727.839          51.000
E30  24256368.242 8 127468090.575 8      2203.137          51.000    24256370.922 8  97670364.176 8      1688.097          51.000
> 2020 05 11 01 09  0.0000000  0 15        .000000000000
G06  22109325.289 8 116185284.834 8     -2517.996          51.000    22109328.164 8  90533972.953 8     -1962.075          51.000
G07  20932096.133 8 109998881.694 8       928.426          51.000    20932094.602 8  85713403.958 8       723.449          51.000
G09  21024682.203 7 110485549.081 7     -1653.234          47.000    21024683.266 7  86092626.236 7     -1288.235          47.000
G30  22061863.117 8 115935929.372 8      2889.918          49.000    22061865.930 8  90339675.332 8      2251.884          49.000
R02  20903745.781 4 111546389.332 4     -2144.191          28.000
R03  19699291.281 4 105451879.134 4       868.070          29.000    19699295.148 5  82018141.788 5       675.163          30.000
R12  20700804.102 6 110579982.948 6     -1530.023          40.000    20700811.180 6  86006651.543 6     -1190.021          38.000
R13  20399840.789 6 108934023.678 6      2748.305          38.000    20399844.305 7  84726448.009 7      2137.570          44.000
R18  22761344.750 7 121501607.448 7     -3656.617          44.000    22761350.539 7  94501221.499 7     -2844.036          42.000
C05  39786742.703 6 207180008.468 6       -16.766          37.000    39786739.758 6 160204710.566 6       -13.112          39.000
C21  22330209.289 5 116279269.573 5      1438.121          33.000
C22  22475383.438 8 117035189.073 8     -1287.168          51.000
E07  23488717.016 8 123434025.184 8        89.027          51.000    23488719.367 8  94579332.054 8        68.195          51.000
E26  24787787.023 8 130260688.718 8     -2265.492          51.000    24787790.914 8  99810142.472 8     -1735.918          51.000
E30  24243823.422 8 127402163.130 8      2191.980          50.000    24243826.195 8  97619848.365 8      1679.546          51.000
> 2020 05 11 01 09 30.0000000  0 16        .000000000000
G06  22123742.211 8 116261044.846 8     -2532.152          50.000    22123743.750 8  90593006.694 8     -1973.106          50.000
G07  20926844.734 8 109971284.811 8       911.938          51.000    20926843.078 8  85691899.907 8       710.601          51.000
G09  21034145.844 7 110535280.522 7     -1662.008          47.000    21034146.992 7  86131378.001 7     -1295.071          47.000
G30  22045398.062 7 115849406.430 7      2878.715          47.000    22045400.773 7  90272254.847 7      2243.154          47.000
R02  20915821.461 5 111610829.043 5     -2152.531          34.000    20915832.211 5  86808430.937 5     -1674.188          34.000
R03  19694463.359 5 105425974.799 5       857.727          30.000    19694461.328 4  81998016.452 4       667.121          29.000
R12  20709471.055 6 110626274.768 6     -1555.500          38.000    20709475.406 6  86042656.355 6     -1209.833          36.000
R13  20384462.914 6 108851906.965 6      2726.816          39.000    20384466.344 7  84662579.433 7      2120.854          44.000
R18  22781926.289 7 121611470.948 7     -3667.047          46.000    22781932.320 7  94586670.874 7     -2852.148          43.000
C05  39786841.148 6 207180521.256 6       -16.457          37.000    39786838.234 6 160205107.116 6       -13.118          40.000
C21  22321940.664 5 116236224.696 5      1430.684          30.000
C22  22482827.023 8 117073948.744 8     -1296.398          51.000
E07  23488226.906 8 123431449.567 8        83.250          51.000    23488229.328 8  94577358.535 8        63.738          51.000
E08  23588167.133 5 123956647.929 5     -1846.746          34.000
E26  24800748.844 8 130328803.336 8     -2274.938          51.000    24800752.031 8  99862334.188 8     -1743.185          51.000
E30  24231341.148 8 127336565.977 8      2181.625          51.000    24231343.695 8  97569585.631 8      1671.650          51.000
> 2020 05 11 01 10  0.0000000  0 14        .000000000000
G06  22138237.109 8 116337216.646 8     -2547.164          48.000    22138238.789 8  90652361.304 8     -1984.803          48.000
G07  20921685.047 8 109944170.554 8       894.535          51.000    20921683.352 8  85670771.919 8       697.040          51.000
G09  21043657.266 7 110585263.646 7     -1671.461          47.000    21043658.367 7  86170325.877 7     -1302.437          46.000
G30  22028994.609 7 115763209.086 7      2866.582          47.000    22028996.547 7  90205088.064 7      2233.700          47.000
R03  19689686.820 5 105400427.447 5       845.652          30.000    19689686.953 5  81978108.259 5       657.727          30.000
R12  20718279.836 6 110673327.213 6     -1582.230          40.000    20718282.008 6  86079252.673 6     -1230.624          37.000
R13  20369205.992 6 108770435.230 6      2703.641          39.000    20369209.016 7  84599212.495 7      2102.835          44.000
R18  22802564.414 8 121721633.977 8     -3678.332          48.000    22802570.125 7  94672353.183 7     -2860.925          43.000
C05  39786938.234 6 207181026.765 6       -18.238          37.000    39786935.328 6 160205497.964 6       -13.861          39.000
C22  22490321.430 8 117112973.743 8     -1306.484          51.000
E07  23487767.375 8 123429034.991 8        76.645          51.000    23487769.906 8  94575508.415 8        58.704          51.000
E08  23598717.664 6 124012095.276 6     -1851.078          39.000    23598726.719 5  95022276.988 5     -1418.350          34.000
E26  24813762.555 8 130397191.228 8     -2285.285          51.000    24813765.172 8  99914735.276 8     -1751.030          51.000
E30  24218915.625 8 127271266.822 8      2170.500          51.000    24218917.578 8  97519551.188 8      1663.065          51.000
> 2020 05 11 01 10 30.0000000  0 15        .000000000000
G06  22152813.992 8 116413820.420 8     -2560.172          48.000    22152816.406 8  90712052.532 8     -1994.939          48.000
G07  20916621.523 8 109917562.124 8       878.973          51.000    20916619.797 8  85650038.091 8       684.914          51.000
G09  21053220.789 7 110635520.450 7     -1679.223          45.000    21053221.711 7  86209487.019 7     -1308.485          45.000
G30  22012658.320 8 115677362.039 8      2856.148          49.000    22012658.656 8  90138194.273 8      2225.570          49.000
R02  20940135.914 6 111740537.789 6     -2171.215          36.000    20940136.789 5  86909298.149 5     -1688.723          32.000
R03  19684979.062 5 105375221.015 5       835.453          30.000    19684980.883 5  81958502.696 5       649.800          32.000
R12  20727234.633 6 110721161.262 6     -1606.762          37.000    20727237.289 6  86116456.948 6     -1249.697          36.000
R13  20354074.711 6 108689635.384 6      2682.410          41.000    20354077.547 7  84536368.161 7      2086.322          43.000
R18  22823262.242 7 121832115.124 7     -3687.586          47.000    22823267.367 7  94758282.887 7     -2868.125          43.000
C05  39787038.117 6 207181547.450 6       -17.188          36.000    39787035.414 6 160205900.627 6       -13.445          40.000
C22  22497871.000 8 117152286.772 8     -1314.750          51.000
E07  23487342.680 8 123426804.393 8        71.773          51.000    23487345.484 8  94573799.271 8        55.007          51.000
E08  23609287.039 6 124067652.728 6     -1853.074          37.000    23609299.688 5  95064865.993 5     -1420.328          30.000
E26  24826832.320 8 130465873.326 8     -2293.805          51.000    24826834.875 8  99967361.803 8     -1757.588          51.000
E30  24206551.156 8 127206290.261 8      2160.938          51.000    24206552.906 8  97469763.937 8      1655.843          51.000
> 2020 05 11 01 11  0.0000000  0 14        .000000000000
G02  22403515.477 6 117731238.698 6      -334.242          37.000
G06  22167458.461 8 116490778.710 8     -2570.184          48.000    22167460.734 8  90772020.043 8     -2002.740          48.000
G07  20911640.008 8 109891385.127 8       866.363          51.000    20911638.469 8  85629640.453 8       675.088          51.000
G09  21062821.930 7 110685975.297 7     -1684.094          45.000    21062823.461 7  86248802.471 7     -1312.281          45.000
G30  21996375.375 8 115591792.518 8      2848.520          51.000    21996374.805 8  90071516.752 8      2219.626          51.000
R03  19680320.023 5 105350286.391 5       827.660          34.000    19680323.711 5  81939109.070 5       643.739          33.000
R12  20736321.188 6 110769698.352 6     -1628.961          40.000    20736323.711 6  86154207.971 6     -1266.970          38.000
R13  20339056.016 7 108609434.436 7      2664.078          42.000    20339058.336 6  84473989.660 6      2072.064          41.000
R18  22844004.227 8 121942834.201 8     -3693.664          48.000    22844008.359 6  94844397.652 6     -2872.853          40.000
C05  39787126.742 6 207182009.374 6       -13.801          37.000    39787124.156 6 160206257.791 6       -10.388          40.000
C22  22505461.578 8 117191813.911 8     -1320.246          51.000
E07  23486938.773 8 123424683.160 8        69.758          51.000    23486941.852 8  94572173.923 8        53.466          51.000
E26  24839943.875 8 130534773.042 8     -2299.398          51.000    24839946.445 8 100020155.079 8     -1761.883          51.000
E30  24194233.703 8 127141563.345 8      2154.195          48.000    24194235.508 8  97420168.002 8      1650.674          51.000
> 2020 05 11 01 11 30.0000000  0 16        .000000000000
G06  22182187.414 8 116568180.243 8     -2590.000          50.000    22182189.016 8  90832332.922 8     -2018.182          50.000
G07  20906757.984 8 109865731.003 8       843.941          51.000    20906756.430 8  85609650.237 8       657.620          51.000
G09  21072478.023 7 110736718.646 7     -1698.902          47.000    21072479.828 7  86288342.750 7     -1323.820          46.000
G30  21980163.148 8 115506593.780 8      2831.027          51.000    21980162.836 8  90005128.139 8      2205.998          51.000
R02  20964645.875 5 111871352.958 5     -2192.660          35.000    20964641.969 5  87011020.662 5     -1705.399          31.000
R03  19675729.703 5 105325717.660 5       810.410          35.000    19675734.273 5  81920000.077 5       630.316          33.000
R12  20745555.922 6 110819028.990 6     -1660.027          39.000    20745560.016 6  86192576.340 6     -1291.132          37.000
R13  20324167.516 6 108529929.441 6      2636.027          41.000    20324169.008 6  84412152.494 6      2050.247          39.000
R18  22864806.938 7 122053878.997 7     -3709.484          47.000    22864809.273 6  94930765.785 6     -2885.158          38.000
C05  39787221.508 6 207182503.041 6       -19.254          36.000    39787218.938 6 160206639.542 6       -14.934          39.000
C21  22289296.484 5 116066181.494 5      1398.727          34.000
C22  22513110.852 8 117231645.703 8     -1335.305          51.000
E07  23486573.039 8 123422762.737 8        58.172          51.000    23486576.523 8  94570702.408 8        44.561          51.000
E08  23630470.828 5 124178967.452 5     -1861.492          33.000    23630482.391 5  95150151.662 5     -1426.494          35.000
E26  24853113.930 8 130603979.835 8     -2314.457          51.000    24853116.344 8 100073183.648 8     -1773.478          51.000
E30  24181981.062 8 127077179.199 8      2137.789          49.000    24181983.289 8  97370834.710 8      1638.181          50.000
> 2020 05 11 01 12  0.0000000  0 14        .000000000000
G06  22197002.328 8 116646032.613 8     -2600.051          51.000    22197003.547 8  90892997.092 8     -2026.014          51.000
G07  20901977.703 8 109840610.989 8       830.992          51.000    20901976.094 8  85590076.202 8       647.526          51.000
G09  21082190.852 7 110787759.990 7     -1703.914          45.000    21082191.758 7  86328115.234 7     -1327.725          45.000
G30  21964023.703 8 115421778.034 8      2823.246          51.000    21964024.188 8  89939037.943 8      2199.932          51.000
R03  19671211.672 5 105301526.709 5       802.332          34.000    19671216.805 5  81901184.849 5       624.036          33.000
R12  20754940.586 6 110869161.459 6     -1681.621          38.000    20754943.867 6  86231568.230 6     -1307.924          36.000
R13  20309411.875 6 108451134.280 6      2616.887          39.000    20309412.438 6  84350867.414 6      2035.359          39.000
R18  22885671.797 7 122165255.513 7     -3715.516          47.000    22885671.922 6  95017391.957 6     -2889.845          38.000
C05  39787324.398 6 207183038.784 6       -16.664          37.000    39787321.773 6 160207053.805 6       -12.644          39.000
C21  22281256.367 5 116024287.753 5      1394.473          34.000
C22  22520820.547 8 117271792.519 8     -1340.957          51.000
E07  23486247.633 8 123421053.542 8        55.836          51.000    23486251.453 8  94569392.751 8        42.831          51.000
E26  24866343.781 8 130673502.197 8     -2320.180          51.000    24866345.867 8 100126454.015 8     -1777.812          51.000
E30  24169796.227 8 127013149.977 8      2130.785          50.000    24169798.367 8  97321773.345 8      1632.665          49.000
> 2020 05 11 01 12 30.0000000  0 15        .000000000000
G04  23645888.180 5 124259950.779 5     -2906.711          30.000
G06  22211884.562 8 116724239.055 8     -2614.996          50.000    22211885.781 8  90953937.182 8     -2037.659          50.000
G07  20897281.195 8 109815930.846 8       813.113          51.000    20897279.867 8  85570844.922 8       633.595          51.000
G09  21091942.398 7 110839004.378 7     -1713.586          45.000    21091942.539 7  86368045.914 7     -1335.262          45.000
G30  21947939.289 8 115337253.149 8      2810.367          50.000    21947940.266 8  89873174.399 8      2189.897          50.000
R03  19666747.484 5 105277631.072 5       789.562          34.000    19666748.984 5  81882589.975 5       614.107          30.000
R12  20764457.289 6 110919997.562 6     -1708.555          40.000    20764460.703 5  86271107.417 5     -1328.876          35.000
R13  20294771.305 6 108372956.037 6      2593.164          38.000    20294771.922 6  84290062.111 6      2016.905          41.000
R18  22906580.008 7 122276863.449 7     -3726.246          47.000    22906579.984 7  95104198.111 7     -2898.194          42.000
C05  39787417.500 6 207183523.342 6       -17.465          36.000    39787414.859 6 160207428.521 6       -13.429          40.000
C21  22273246.219 5 115982571.667 5      1384.672          31.000
C22  22528572.789 8 117312161.236 8     -1351.438          51.000
E07  23485944.703 8 123419461.582 8        48.996          51.000    23485948.555 8  94568172.938 8        37.542          51.000
E26  24879614.836 8 130743244.092 8     -2330.551          51.000    24879616.766 8 100179892.599 8     -1785.663          51.000
E30  24157661.680 8 126949383.257 8      2119.094          51.000    24157663.414 8  97272913.155 8      1623.709          50.000
> 2020 05 11 01 13  0.0000000  0 16        .000000000000
G02  22412018.695 5 117775942.099 5      -406.406          32.000
G06  22226846.219 8 116802863.397 8     -2626.168          50.000    22226847.969 8  91015202.906 8     -2046.365          50.000
G07  20892681.156 8 109791757.550 8       798.867          51.000    20892679.945 8  85552008.611 8       622.494          51.000
G09  21101745.164 7 110890517.523 7     -1720.164          45.000    21101745.227 7  86408185.989 7     -1340.391          45.000
G30  21931922.828 8 115253087.546 8      2801.191          49.000    21931924.078 8  89807590.796 8      2182.747          49.000
R02  21001813.906 5 112069706.324 5     -2216.852          33.000    21001819.812 5  87165323.738 5     -1724.227          31.000
R03  19662348.984 6 105254075.413 6       780.562          36.000    19662347.250 5  81864268.952 5       607.101          30.000
R12  20774118.055 6 110971602.420 6     -1731.375          36.000    20774122.148 5  86311244.535 5     -1346.625          34.000
R13  20280260.102 6 108295466.122 6      2573.262          41.000    20280260.984 7  84229792.145 7      2001.429          43.000
R18  22927542.820 7 122388765.849 7     -3733.496          45.000    22927544.719 7  95191233.331 7     -2903.827          44.000
C05  39787513.383 6 207184021.757 6       -15.672          37.000    39787510.773 6 160207814.688 6       -11.841          40.000
C21  22265283.344 5 115941100.386 5      1379.938          35.000
C22  22536380.578 8 117352817.857 8     -1358.496          51.000
E07  23485676.938 8 123418053.519 8        45.527          51.000    23485680.469 8  94567094.031 8        34.879          51.000
E26  24892939.672 8 130813270.193 8     -2337.367          50.000    24892941.719 8 100233548.981 8     -1790.979          51.000
E30  24145590.508 8 126885947.378 8      2110.602          51.000    24145591.367 8  97224306.494 8      1617.250          51.000
> 2020 05 11 01 13 30.0000000  0 14        .000000000000
G02  22414390.164 6 117788393.775 6      -424.980          36.000
G06  22241876.312 8 116881847.324 8     -2640.047          50.000    22241878.938 8  91076748.831 8     -2057.179          50.000
G07  20888167.008 8 109768035.355 8       781.973          51.000    20888165.602 8  85533523.792 8       609.329          51.000
G09  21111588.250 7 110942242.973 7     -1728.949          46.000    21111587.867 7  86448491.505 7     -1347.230          46.000
G30  21915964.117 8 115169227.536 8      2789.043          48.000    21915966.055 7  89742245.310 7      2173.277          47.000
R03  19658004.898 5 105230816.382 5       769.113          34.000    19658002.438 5  81846178.686 5       598.202          30.000
R12  20783910.898 7 111023916.774 7     -1756.809          42.000    20783913.820 5  86351933.492 5     -1366.416          32.000
R13  20265868.281 6 108218612.031 6      2549.945          41.000    20265869.484 7  84170016.733 7      1983.291          43.000
R18  22948548.758 7 122500901.382 7     -3742.996          46.000    22948553.375 7  95278449.873 7     -2911.219          45.000
C05  39787601.562 6 207184480.817 6       -15.902          37.000    39787598.945 6 160208169.665 6       -12.103          40.000
C22  22544233.133 8 117393707.334 8     -1368.055          51.000
E07  23485433.617 8 123416773.903 8        39.320          51.000    23485436.672 8  94566113.542 8        30.164          51.000
E26  24906308.141 8 130883523.020 8     -2346.699          50.000    24906310.250 8 100287379.091 8     -1798.123          51.000
E30  24133572.047 8 126822788.498 8      2099.418          51.000    24133572.609 8  97175912.082 8      1608.687          51.000
> 2020 05 11 01 14  0.0000000  0 15        .000000000000
G02  22416858.969 6 117801355.084 6      -444.922          36.000    22416867.219 4  91793322.619 4      -346.702          26.000
G06  22256978.805 8 116961211.017 8     -2655.590          50.000    22256981.711 8  91138590.680 8     -2069.291          50.000
G07  20883743.258 8 109744787.771 8       763.125          51.000    20883741.688 8  85515408.801 8       594.643          51.000
G09  21121475.922 7 110994202.724 7     -1739.582          45.000    21121475.016 7  86488979.630 7     -1355.518          45.000
G30  21900068.641 8 115085697.965 8      2775.023          48.000    21900070.898 8  89677157.300 8      2162.356          48.000
R03  19653718.883 6 105207878.891 6       755.242          38.000    19653718.367 5  81828338.419 5       587.414          31.000
R12  20793841.852 5 111076961.973 5     -1784.047          32.000    20793843.852 5  86393190.840 5     -1387.586          33.000
R13  20251600.195 6 108142419.413 6      2525.066          41.000    20251601.844 7  84110755.799 7      1963.941          43.000
R18  22969602.234 7 122613288.879 7     -3754.184          46.000    22969608.711 7  95365862.385 7     -2919.921          44.000
C05  39787686.523 6 207184923.386 6       -18.258          37.000    39787683.703 6 160208511.118 6       -14.037          40.000
C22  22552134.469 8 117434852.510 8     -1379.586          51.000
E07  23485219.008 8 123415645.746 8        31.375          51.000    23485221.688 8  94565249.120 8        23.987          51.000
E08  23683751.250 6 124458963.160 6     -1876.645          38.000    23683750.266 5  95364665.437 5     -1437.892          35.000
E26  24919724.250 8 130954023.621 8     -2357.887          49.000    24919726.469 8 100341399.052 8     -1806.648          51.000
E30  24121611.117 8 126759931.348 8      2086.363          51.000    24121611.734 8  97127748.837 8      1598.696          51.000
> 2020 05 11 01 14 30.0000000  0 17        .000000000000
G02  22419442.242 6 117814919.364 6      -458.523          37.000
G06  22272171.219 8 117041045.798 8     -2665.035          51.000    22272173.547 8  91200799.604 8     -2076.651          51.000
G07  20879427.641 8 109722108.898 8       750.270          51.000    20879425.875 8  85497736.968 8       584.626          51.000
G09  21131425.859 7 111046490.088 7     -1744.441          45.000    21131425.430 7  86529723.029 7     -1359.305          45.000
G30  21884254.891 8 115002594.701 8      2766.820          50.000    21884256.625 8  89612401.514 8      2155.964          50.000
R02  21039454.125 6 112270543.374 6     -2243.539          36.000
R03  19649512.477 6 105185359.693 6       747.441          38.000    19649512.594 5  81810823.469 5       581.343          32.000
R12  20803925.297 6 111130830.388 6     -1805.469          41.000    20803928.250 5  86435088.504 5     -1404.257          33.000
R13  20237474.273 6 108066987.867 6      2505.879          41.000    20237476.203 7  84052086.819 7      1949.017          42.000
R18  22990720.453 7 122726019.427 7     -3759.496          46.000    22990727.383 7  95453541.706 7     -2924.053          43.000
C05  39787785.844 6 207185440.685 6       -15.059          37.000    39787782.992 6 160208911.138 6       -11.487          40.000
C21  22241627.586 4 115817977.704 4      1356.812          29.000
C22  22560102.984 8 117476346.637 8     -1385.184          51.000
E07  23485051.211 8 123414763.303 8        29.105          51.000    23485053.562 8  94564572.962 8        22.296          51.000
E08  23694468.188 5 124515273.508 5     -1875.992          34.000    23694461.898 5  95407812.264 5     -1437.125          32.000
E26  24933205.227 8 131024864.224 8     -2363.289          50.000    24933207.750 8 100395679.514 8     -1810.730          51.000
E30  24109725.766 8 126697471.700 8      2079.160          51.000    24109726.203 8  97079890.140 8      1593.075          51.000
> 2020 05 11 01 15  0.0000000  0 16        .000000000000
