     3.04           OBSERVATION DATA    M (MIXED)           RINEX VERSION / TYPE
Convert 2.6.2       NovAtel             20200519 123135 UTC PGM / RUN BY / DATE 
Rinex Version 3.04 Observation File                         COMMENT             
                                                            MARKER NAME         
                                                            MARKER NUMBER       
                                                            MARKER TYPE         
                                                            OBSERVER / AGENCY   
                    NovAtel GPSCard                         REC # / TYPE / VERS 
                                                            ANT # / TYPE        
        0.0000        0.0000        0.0000                  APPROX POSITION XYZ 
        0.0000        0.0000        0.0000                  ANTENNA: DELTA H/E/N
G    8 C1C L1C D1C S1C C2W L2W D2W S2W                      SYS / # / OBS TYPES 
R    8 C1C L1C D1C S1C C2P L2P D2P S2P                      SYS / # / OBS TYPES 
E    8 C1C L1C D1C S1C C7Q L7Q D7Q S7Q                      SYS / # / OBS TYPES 
C    8 C2I L2I D2I S2I C7I L7I D7I S7I                      SYS / # / OBS TYPES 
DBHZ                                                        SIGNAL STRENGTH UNIT
    30.000                                                  INTERVAL            
  2020    05    19    09    00    0.0000000     GPS         TIME OF FIRST OBS   
  2020    05    19    09    59   30.0000000     GPS         TIME OF LAST OBS    
G L1C  0.00000  07 G24 G06 G12 G25 G29 G32 G02              SYS / PHASE SHIFT   
G L2W  0.00000  07 G24 G06 G12 G25 G29 G32 G02              SYS / PHASE SHIFT   
R L1C  0.00000  06 R19 R07 R18 R09 R16 R20                  SYS / PHASE SHIFT   
R L2P  0.25000  05 R19 R07 R18 R09 R20                      SYS / PHASE SHIFT   
E L1C  0.50000  05 E02 E07 E30 E36 E15                      SYS / PHASE SHIFT   
E L7Q -0.25000  05 E02 E07 E30 E36 E15                      SYS / PHASE SHIFT   
C L2I  0.00000  03 C26 C24 C12                              SYS / PHASE SHIFT   
C L7I  0.00000  01 C12                                      SYS / PHASE SHIFT   
  6 R19  3 R07  5 R18 -3 R09 -2 R16 -1 R20  2               GLONASS SLOT / FRQ #
 C1C  -71.950 C2C  -71.950 C2P  -71.950                     GLONASS COD/PHS/BIS 
     0     0     0     0GPS                                 LEAP SECONDS        
                                                            END OF HEADER       
> 2020 05 19 09 00  0.0000000  0 15      -0.000000000000
G24  21926488.867 8 115224480.193 8     -2805.961          49.000    21926489.609 8  89785292.814 8     -2186.464          49.000  
G06  23506462.250 5 123527292.410 5      -443.195          35.000    23506467.625 5  96255066.317 5      -345.347          34.000  
G12  20333163.852 8 106851494.744 8     -1056.016          51.000    20333162.609 8  83260903.872 8      -822.870          51.000  
G25  20328495.078 5 106826941.543 5       852.520          32.000    20328498.945 5  83241792.165 5       664.298          32.000  
G29  22311538.953 8 117247910.257 8      3205.062          50.000    22311538.188 8  91362034.001 8      2497.452          50.000  
R19  19798540.492 6 105908462.809 6       838.816          40.000    19798542.375 7  82373256.492 7       652.413          45.000  
R07  23511886.875 4 125860561.687 4     -3743.016          28.000    23511888.031 4  97891560.739 4     -2911.238          29.000  
R18  21597941.594 5 115290865.14025     -3007.875          31.000    21597934.086 4  89670662.25924     -2339.459          27.000  
R09  19558221.961 5 104439426.435 5      1007.516          33.000    19558224.750 5  81230662.603 5       783.623          35.000  
E02  24710267.508 6 129853337.165 6     -1542.039          37.000    24710269.961 6  99498020.899 6     -1181.249          36.000  
E07  26186799.469 7 137612549.225 7     -1974.273          43.000    26186803.070 7 105443373.997 7     -1512.738          42.000  
E30  22330140.391 6 117345677.767 6       549.535          41.000    22330146.336 6  89914236.330 6       420.983          40.000  
C26  22824251.555 8 118851861.664 8     -2005.875          50.000                                                                  
C24  21868175.930 8 113873318.394 8       525.215          51.000                                                                  
C12  23133066.883 7 120459980.923 7      2755.129          45.000    23133068.016 8  93147324.464 8      2130.447          51.000  
> 2020 05 19 09 00 30.0000000  0 14      -0.000000000000
G24  21942533.000 7 115308797.632 7     -2816.121          46.000    21942534.922 7  89850994.701 7     -2194.384          46.000  
G06  23509044.438 6 123540863.834 6      -462.602          36.000    23509049.766 6  96265641.485 6      -360.466          37.000  
G12  20339219.148 8 106883315.701 8     -1066.414          51.000    20339218.109 8  83285699.412 8      -830.969          51.000  
G25  20323658.594 6 106801515.852 6       841.781          37.000    20323658.945 6  83221979.873 6       655.934          36.000  
G29  22293268.445 8 117151897.972 8      3194.855          50.000    22293266.922 8  91287219.264 8      2489.501          50.000  
R16  21665936.914 5 115735129.769 5     -2670.410          31.000                                                                  
R19  19793910.289 6 105883693.561 6       811.277          40.000    19793912.398 7  82353991.578 7       630.997          45.000  
R09  19552593.203 6 104409367.665 6       995.523          37.000    19552595.891 6  81207283.525 6       774.299          36.000  
E02  24719077.859 6 129899640.180 6     -1545.801          38.000    24719081.922 6  99533499.843 6     -1184.646          37.000  
E07  26198095.141 7 137671902.454 7     -1983.211          42.000    26198096.406 7 105488852.386 7     -1519.643          43.000  
E30  22327015.602 7 117329256.736 7       544.465          42.000    22327019.992 6  89901653.976 6       417.161          39.000  
C26  22835827.508 8 118912141.612 8     -2013.855          49.000                                                                  
C24  21865175.656 8 113857695.168 8       515.379          51.000                                                                  
C12  23117220.984 7 120377469.107 7      2744.820          46.000    23117223.344 8  93083521.080 8      2122.527          51.000  
> 2020 05 19 09 01  0.0000000  0 14      -0.000000000000
G24  21958637.516 7 115393430.825 7     -2826.344          46.000    21958640.047 7  89916942.625 7     -2202.346          45.000  
G06  23511739.352 5 123555026.622 5      -481.637          35.000    23511744.414 5  96276677.430 5      -375.301          35.000  
G12  20345336.430 8 106915462.864 8     -1077.113          51.000    20345335.617 8  83310749.128 8      -839.309          51.000  
G25  20318886.305 6 106776438.841 6       830.398          36.000    20318885.633 5  83202439.338 5       647.067          35.000  
G29  22275059.445 8 117056208.262 8      3184.180          51.000    22275057.266 8  91212655.897 8      2481.183          51.000  
R19  19789439.234 6 105859777.128 6       782.895          40.000    19789441.750 7  82335389.953 7       608.921          44.000  
R09  19547034.164 6 104379680.250 6       983.191          37.000    19547036.414 6  81184193.342 6       764.705          36.000  
E02  24727913.945 6 129946075.939 6     -1550.059          38.000    24727918.828 5  99569080.511 5     -1187.708          35.000  
E07  26209445.641 6 137731547.432 6     -1993.266          41.000    26209445.742 7 105534554.348 7     -1527.204          43.000  
E30  22323922.523 7 117313000.391 7       539.012          42.000    22323925.312 6  89889197.825 6       412.961          39.000  
E36  25087450.992 6 131835441.604 6      -310.172          36.000    25087449.547 5 101016760.827 5      -237.440          34.000  
C26  22847452.594 8 118972677.622 8     -2022.219          49.000                                                                  
C24  21862235.062 8 113842381.346 8       505.141          51.000                                                                  
C12  23101437.492 7 120295280.268 7      2734.008          46.000    23101440.086 8  93019967.467 8      2114.227          51.000  
> 2020 05 19 09 01 30.0000000  0 17      -0.000000000000
G24  21974804.664 8 115478389.618 8     -2836.629          50.000    21974807.312 8  89983144.220 8     -2210.361          50.000  
G06  23514548.938 6 123569791.193 6      -501.562          37.000    23514553.906 5  96288182.264 5      -390.828          32.000  
G32  22145120.859 5 116373401.794 5      -194.250          30.000                                                                  
G12  20351517.633 8 106947946.035 8     -1087.680          51.000    20351517.023 8  83336060.660 8      -847.543          50.000  
G25  20314182.297 5 106751721.168 5       818.750          35.000    20314181.867 6  83183178.876 6       637.990          36.000  
G29  22256914.102 8 116960853.411 8      3173.480          50.000    22256911.648 8  91138353.460 8      2472.846          50.000  
R16  21696031.172 5 115895919.21325     -2687.883          31.000                                                                  
R19  19785129.758 6 105836725.212 6       754.895          38.000    19785132.445 7  82317460.687 7       587.140          45.000  
R07  23574937.047 5 126198084.092 5     -3758.719          34.000    23574948.883 5  98154108.800 5     -2923.448          30.000  
R09  19541546.969 6 104350376.394 6       971.234          38.000    19541547.930 6  81161401.399 6       755.405          37.000  
E02  24736778.023 6 129992655.085 6     -1554.125          39.000    24736782.398 6  99604771.030 6     -1190.908          36.000  
E07  26220851.578 6 137791492.776 6     -2002.469          39.000    26220853.000 7 105580486.522 7     -1534.324          44.000  
E30  22320862.820 7 117296919.498 7       534.082          42.000    22320864.930 6  89876876.110 6       409.079          40.000  
E36  25089264.719 6 131844980.797 6      -325.391          37.000    25089268.328 5 101024073.240 5      -249.370          34.000  
C26  22859128.883 8 119033479.830 8     -2030.504          49.000                                                                  
C24  21859356.141 8 113827388.239 8       495.086          51.000                                                                  
C12  23085718.797 8 120213426.796 8      2723.488          48.000    23085720.727 8  92956673.236 8      2105.996          51.000  
> 2020 05 19 09 02  0.0000000  0 18      -0.000000000000
G24  21991027.336 8 115563637.506 8     -2847.211          51.000    21991030.094 8  90049571.068 8     -2218.610          51.000  
G02  23032909.984 5 121038760.680 5       817.957          34.000                                                                  
G06  23517466.422 4 123585122.113 4      -521.406          29.000                                                                  
G32  22146292.797 5 116379571.375 5      -214.934          32.000    22146293.883 4  90685370.607 4      -167.481          29.000  
G12  20357755.945 8 106980729.068 8     -1098.492          50.000    20357755.367 8  83361605.860 8      -855.971          50.000  
G25  20309539.945 5 106727328.094 5       806.715          35.000    20309539.539 5  83164171.278 5       628.609          33.000  
G29  22238826.086 8 116865800.511 8      3162.504          50.000    22238824.266 8  91064286.311 8      2464.290          50.000  
R16  21711147.383 5 115976690.727 5     -2697.770          31.000                                                                  
R19  19780975.234 6 105814502.695 6       726.184          38.000    19780978.117 7  82300176.521 7       564.810          45.000  
R07  23596016.508 5 126310916.911 5     -3764.387          33.000    23596025.930 4  98241867.550 4     -2927.860          29.000  
R09  19536125.344 6 104321422.126 6       958.738          38.000    19536124.773 6  81138881.357 6       745.682          37.000  
E02  24745661.867 6 130039342.550 6     -1559.156          37.000    24745668.562 6  99640544.510 6     -1194.496          38.000  
E07  26232307.539 6 137851701.886 6     -2012.176          40.000    26232311.250 7 105626620.777 7     -1541.807          44.000  
E30  22317829.375 6 117280979.410 6       527.891          41.000    22317831.836 6  89864662.282 6       404.515          41.000  
E36  25091162.414 6 131854959.852 6      -340.816          39.000    25091171.078 5 101031719.460 5      -261.058          35.000  
C26  22870849.633 8 119094513.240 8     -2039.066          48.000                                                                  
C24  21856532.266 8 113812682.066 8       484.590          51.000                                                                  
C12  23070058.391 8 120131875.846 8      2712.477          48.000    23070059.062 8  92893612.924 8      2097.405          50.000  
> 2020 05 19 09 02 30.0000000  0 14      -0.000000000000
G24  22007340.203 8 115649358.502 8     -2854.164          51.000    22007343.242 8  90116366.587 8     -2224.025          51.000  
G02  23028316.969 6 121014617.359 6       805.293          37.000                                                                  
G12  20364086.656 8 107013996.986 8     -1105.898          51.000    20364086.016 8  83387528.905 8      -861.739          51.000  
G29  22220831.336 8 116771237.495 8      3155.086          50.000    22220830.859 8  90990600.874 8      2458.509          50.000  
R16  21726355.977 5 116057908.74625     -2703.348          30.000                                                                  
R19  19777011.352 6 105793299.940 6       701.230          37.000    19777014.297 7  82283685.477 7       545.402          45.000  
R09  19530804.836 6 104293007.769 6       949.348          39.000    19530804.023 6  81116781.285 6       738.379          37.000  
E02  24754602.070 6 130086308.303 6     -1559.695          37.000    24754608.539 6  99676543.422 6     -1195.553          36.000  
E07  26243849.797 7 137912358.815 7     -2018.176          42.000    26243855.141 7 105673098.125 7     -1546.401          44.000  
E30  22314857.859 6 117265366.189 6       526.062          41.000    22314861.016 7  89852698.885 7       403.162          42.000  
E36  25093179.781 6 131865560.088 6      -352.344          38.000    25093190.227 6 101039841.744 6      -270.247          36.000  
C26  22882650.180 8 119155961.703 8     -2044.230          49.000                                                                  
C24  21853798.898 8 113798447.879 8       477.586          51.000                                                                  
C12  23054491.617 8 120050813.373 8      2704.898          48.000    23054491.375 8  92830930.306 8      2091.591          50.000  
> 2020 05 19 09 03  0.0000000  0 15      -0.000000000000
G24  22023664.031 8 115735137.752 8     -2870.969          51.000    22023667.031 8  90183207.527 8     -2237.122          51.000  
G02  23023767.508 5 120990710.840 5       782.500          31.000                                                                  
G06  23523656.898 5 123617636.490 5      -564.285          33.000    23523661.422 5  96325424.053 5      -439.718          34.000  
G12  20370430.789 8 107047335.267 8     -1123.266          51.000    20370430.070 8  83413506.777 8      -875.275          51.000  
G25  20300469.430 6 106679658.479 6       780.457          36.000    20300469.438 6  83127000.905 6       608.145          37.000  
G29  22202851.711 8 116676752.673 8      3137.340          50.000    22202852.227 8  90916976.350 8      2444.681          50.000  
R19  19773160.000 6 105772696.591 6       665.863          38.000    19773162.680 7  82267660.653 7       517.894          45.000  
R09  19525507.305 6 104264714.531 6       930.262          40.000    19525505.828 6  81094775.441 6       723.540          36.000  
E02  24763520.328 6 130133170.605 6     -1570.730          36.000    24763522.938 6  99712450.901 6     -1203.544          36.000  
E07  26255399.211 7 137973048.109 7     -2034.160          44.000    26255405.062 7 105719600.276 7     -1558.664          44.000  
E30  22311870.141 6 117249666.506 6       514.035          41.000    22311873.758 7  89840669.260 7       393.913          42.000  
E36  25095236.789 6 131876367.509 6      -374.316          36.000    25095245.664 5 101048122.762 5      -286.557          34.000  
C26  22894451.914 8 119217415.027 8     -2059.289          49.000                                                                  
C24  21851077.508 8 113784276.693 8       460.664          51.000                                                                  
C12  23038939.922 7 119969831.429 7      2687.254          47.000    23038939.672 8  92768309.922 8      2078.085          51.000  
> 2020 05 19 09 03 30.0000000  0 15      -0.000000000000
G24  22040070.219 8 115821351.848 8     -2874.164          50.000    22040073.125 8  90250387.320 8     -2239.609          50.000  
G02  23019335.367 5 120967420.220 5       773.402          34.000                                                                  
G32  22150491.586 5 116401629.86425      -270.684          34.000                                                                  
G12  20376860.234 8 107081121.964 8     -1126.715          51.000    20376859.422 8  83439834.061 8      -877.963          51.000  
G25  20296032.602 5 106656348.099 5       776.020          33.000    20296034.859 5  83108836.988 5       604.691          33.000  
G29  22184959.328 8 116582726.425 8      3133.758          49.000    22184960.336 8  90843709.147 8      2441.890          49.000  
R19  19769492.945 6 105753078.360 6       644.430          38.000    19769494.906 7  82252402.006 7       501.223          45.000  
R09  19520304.852 6 104236928.460 6       924.582          40.000    19520301.836 6  81073164.069 6       719.120          37.000  
E02  24772487.266 6 130180298.166 6     -1568.086          36.000    24772488.031 6  99748556.952 6     -1201.410          36.000  
E07  26267026.477 7 138034146.523 7     -2036.379          45.000    26267032.500 7 105766415.877 7     -1560.334          44.000  
E30  22308938.469 7 117234259.189 7       515.758          42.000    22308942.172 7  89828863.622 7       395.209          43.000  
E36  25097404.680 6 131887760.265 6      -382.387          37.000    25097407.867 5 101056852.262 5      -293.557          32.000  
C26  22906326.266 8 119279247.971 8     -2060.473          49.000                                                                  
C24  21848440.414 8 113770544.415 8       457.344          51.000                                                                  
C12  23023475.883 8 119889306.775 8      2683.441          48.000    23023475.984 8  92706043.172 8      2075.113          51.000  
> 2020 05 19 09 04  0.0000000  0 15      -0.000000000000
G24  22056506.336 8 115907726.339 8     -2879.992          48.000    22056509.438 8  90317692.074 8     -2244.150          48.000  
G02  23014970.164 5 120944473.987 5       760.609          33.000                                                                  
G32  22152099.641 5 116410052.218 5      -286.586          34.000    22152095.109 5  90709130.103 5      -223.308          33.000  
G12  20383322.867 8 107115082.895 8     -1133.289          51.000    20383321.844 8  83466297.106 8      -883.083          51.000  
G25  20291633.719 5 106633240.058 5       768.352          32.000    20291636.523 5  83090830.797 5       598.716          32.000  
G29  22167102.141 8 116488887.685 8      3126.359          48.000    22167103.359 8  90770588.049 8      2436.125          48.000  
R19  19765958.156 6 105734167.830 6       620.289          39.000    19765959.938 7  82237693.836 7       482.447          46.000  
R09  19515144.906 6 104209373.754 6       916.094          39.000    19515141.867 6  81051732.633 6       712.518          37.000  
E02  24781451.820 6 130227405.710 6     -1568.797          36.000    24781450.773 6  99784652.315 6     -1201.590          37.000  
E07  26278679.547 7 138095379.046 7     -2041.500          45.000    26278684.586 7 105813334.254 7     -1564.291          44.000  
E30  22306010.766 7 117218871.319 7       514.262          43.000    22306014.234 7  89817072.892 7       394.204          43.000  
E36  25099632.703 5 131899458.790 5      -393.578          33.000    25099634.461 5 101065820.602 5      -301.262          35.000  
C26  22918221.688 8 119341189.512 8     -2064.863          51.000                                                                  
C24  21845835.648 8 113756981.315 8       450.969          51.000                                                                  
C12  23008048.156 8 119808970.689 8      2676.254          48.000    23008048.328 8  92643922.220 8      2069.652          50.000  
> 2020 05 19 09 04 30.0000000  0 15      -0.000000000000
G24  22073024.344 7 115994532.376 7     -2893.324          46.000    22073027.859 7  90385333.118 7     -2254.542          46.000  
G02  23010722.359 5 120922144.674 5       741.820          34.000                                                                  
G12  20389870.227 8 107149488.566 8     -1146.805          51.000    20389868.953 8  83493106.696 8      -893.614          51.000  
G25  20287326.633 5 106610606.336 5       753.625          35.000    20287327.391 5  83073194.088 5       587.231          34.000  
G29  22149332.305 8 116395510.059 8      3112.352          48.000    22149333.398 8  90697826.263 8      2425.210          48.000  
R19  19762607.508 6 105716242.446 6       588.785          39.000    19762608.828 7  82223751.865 7       457.944          46.000  
R18  21754399.672 5 116126041.589 5     -3172.613          33.000    21754403.508 4  90320298.76524     -2467.589          25.000  
R09  19510079.203 6 104182327.729 6       900.676          37.000    19510076.391 6  81030696.844 6       700.523          37.000  
E02                                                                  24790464.031 6  99820945.196 6     -1207.100          39.000  
E07  26290409.688 7 138157015.688 7     -2053.836          45.000    26290413.250 7 105860562.252 7     -1573.743          44.000  
E30  22303138.430 7 117203774.885 7       505.820          43.000    22303141.734 7  89805505.507 7       387.532          44.000  
E36                                                                  25101974.586 5 101075235.829 5      -315.611          35.000  
C26  22930189.703 8 119403508.597 8     -2076.172          50.000                                                                  
C24  21843315.109 8 113743857.513 8       437.523          51.000                                                                  
C12  22992708.945 8 119729094.081 8      2662.250          49.000    22992708.539 8  92582156.571 8      2058.639          50.000  
> 2020 05 19 09 05  0.0000000  0 16      -0.000000000000
G24  22089572.164 7 116081496.446 7     -2904.707          45.000    22089576.320 7  90453097.331 7     -2263.409          45.000  
G02  23006540.820 5 120900162.517 5       723.660          33.000                                                                  
G32  22155664.383 5 116428794.828 5      -330.020          30.000    22155656.953 5  90723738.993 5      -257.164          31.000  
G12  20396450.547 8 107184067.377 8     -1158.863          51.000    20396449.125 8  83520051.202 8      -903.011          51.000  
G25  20283058.891 5 106588175.658 5       740.977          34.000    20283058.695 5  83055715.554 5       577.381          35.000  
G29  22131599.188 8 116302324.607 8      3099.762          49.000    22131599.938 8  90625214.222 8      2415.399          49.000  
R19  19759389.133 6 105699026.221 6       558.891          39.000    19759390.375 7  82210361.457 7       434.690          47.000  
R18  21772277.297 4 116221500.983 4     -3192.449          29.000    21772279.977 4  90394534.427 4     -2483.020          26.000  
R09  19505057.734 6 104155516.698 6       886.246          36.000    19505055.859 6  81009843.810 6       689.303          37.000  
E02  24799480.719 5 130322150.105 5     -1580.969          35.000    24799475.562 6  99857227.840 6     -1211.763          40.000  
E07  26302164.617 7 138218783.315 7     -2064.543          46.000    26302166.719 7 105907890.633 7     -1581.876          44.000  
E30  22300269.570 6 117188699.040 6       498.617          41.000    22300273.086 7  89793953.864 7       382.222          44.000  
E36  25104374.312 6 131924369.390 6      -428.453          39.000    25104371.633 5 101084889.627 5      -328.194          33.000  
C26  22942177.906 8 119465936.117 8     -2086.035          48.000                                                                  
C24  21840827.531 8 113730905.106 8       425.504          51.000                                                                  
C12  22977406.859 8 119649410.151 8      2649.535          49.000    22977405.508 8  92520539.926 8      2048.774          49.000  
> 2020 05 19 09 05 30.0000000  0 14      -0.000000000000
G24  22106197.391 7 116168867.929 7     -2922.586          45.000    22106202.000 7  90521179.067 7     -2277.337          45.000  
G02  23002474.461 6 120878779.749 6       699.059          36.000                                                                  
G12  20403111.320 8 107219069.234 8     -1177.375          51.000    20403109.844 8  83547325.348 8      -917.435          51.000  
G25  20278877.406 5 106566198.879 5       721.402          31.000    20278878.422 5  83038590.847 5       562.132          31.000  
G29  22113951.203 8 116209583.730 8      3080.270          50.000    22113951.102 8  90552948.610 8      2400.211          50.000  
R19  19756351.609 6 105682775.536 6       521.801          39.000    19756352.602 7  82197722.034 7       405.845          47.000  
R09  19500128.242 5 104129196.987 5       865.359          35.000    19500126.508 6  80989372.939 6       673.057          37.000  
E02                                                                  24808531.945 6  99893692.527 6     -1221.300          40.000  
E07  26313991.305 7 138280931.043 7     -2081.449          45.000    26313992.211 7 105955510.294 7     -1594.926          45.000  
E30  22297452.016 6 117173894.904 6       485.316          41.000    22297455.930 7  89782610.433 7       371.878          44.000  
E36  25106888.859 5 131937530.629 5      -451.523          35.000    25106873.680 5 101094976.896 5      -345.688          32.000  
C26  22954234.469 8 119528720.326 8     -2102.348          48.000                                                                  
C24  21838420.898 8 113718373.601 8       407.156          51.000                                                                  
C12  22962189.562 8 119570169.202 8      2630.219          48.000    22962187.328 8  92459265.794 8      2034.028          48.000  
> 2020 05 19 09 06  0.0000000  0 15      -0.000000000000
G24  22122880.289 7 116256539.474 7     -2921.039          47.000    22122884.953 7  90589494.581 7     -2276.135          47.000  
G02  22998500.859 5 120857891.143 5       694.375          32.000                                                                  
G12  20409832.211 8 107254387.426 8     -1176.305          51.000    20409830.812 8  83574845.996 8      -916.601          51.000  
G25  20274761.828 5 106544570.418 5       721.238          32.000    20274763.516 5  83021737.475 5       562.004          32.000  
G29  22096368.523 8 116117183.667 8      3080.539          51.000    22096367.008 8  90480948.578 8      2400.421          51.000  
R19  19753474.133 6 105667382.729 6       504.969          39.000    19753475.031 7  82185749.836 7       392.754          47.000  
R18  21808393.523 6 116414246.047 6     -3224.426          36.000    21808386.344 5  90544415.043 5     -2507.884          30.000  
R09  19495270.031 6 104103262.731 6       864.703          36.000    19495267.734 5  80969201.801 5       672.541          35.000  
E02  24817617.117 6 130417459.220 6     -1586.887          38.000    24817612.547 6  99930258.179 6     -1215.849          41.000  
E07  26325868.641 7 138343351.204 7     -2078.984          43.000    26325869.859 7 106003338.688 7     -1592.986          45.000  
E30  22294666.188 6 117159256.980 6       491.219          41.000    22294670.203 7  89771394.346 7       376.416          45.000  
E36  25109494.461 6 131951147.501 6      -455.266          38.000    25109466.781 5 101105411.380 5      -349.157          34.000  
C26  22966339.453 7 119591756.030 7     -2099.312          47.000                                                                  
C24  21836075.219 8 113706158.970 8       408.039          51.000                                                                  
C12  22947036.734 7 119491268.060 7      2630.461          46.000    22947034.641 8  92398254.487 8      2034.034          49.000  
> 2020 05 19 09 06 30.0000000  0 14      -0.000000000000
G24  22139619.930 8 116344504.231 8     -2941.488          48.000    22139624.328 8  90658038.532 8     -2292.070          48.000  
G02  22994620.258 5 120837492.344 5       667.992          30.000                                                                  
G12  20416612.000 8 107290015.469 8     -1197.109          51.000    20416610.719 8  83602608.081 8      -932.813          51.000  
G25  20270711.266 5 106523284.710 5       699.117          35.000    20270712.555 5  83005151.080 5       544.761          35.000  
G29  22078850.086 8 116025120.760 8      3058.785          51.000    22078847.531 8  90409211.282 8      2383.473          51.000  
R19  19750755.852 6 105652842.690 6       466.164          40.000    19750757.000 7  82174440.931 7       362.572          46.000  
R09  19490484.547 6 104077709.482 6       840.961          40.000    19490481.773 6  80949327.053 6       654.084          36.000  
E02  24826720.773 6 130465306.580 6     -1601.402          38.000    24826718.289 7  99966920.430 7     -1227.004          43.000  
E07  26337795.719 7 138406036.333 7     -2098.266          42.000    26337798.414 7 106051370.107 7     -1607.739          45.000  
E30  22291911.188 6 117144779.819 6       475.562          41.000    22291914.891 7  89760301.437 7       364.353          44.000  
E36  25112179.000 5 131965213.681 5      -480.992          35.000    25112145.062 5 101116189.160 5      -368.379          33.000  
C26  22978491.602 7 119655037.114 7     -2117.688          46.000                                                                  
C24  21833789.477 8 113694256.437 8       387.312          51.000                                                                  
C12  22931948.250 7 119412703.000 7      2608.781          46.000    22931946.820 8  92337503.046 8      2017.351          49.000  
> 2020 05 19 09 07  0.0000000  0 14      -0.000000000000
G24  22156427.281 8 116432822.715 8     -2934.770          50.000    22156430.469 8  90726858.098 8     -2286.837          50.000  
G02  22990846.320 5 120817703.659 5       667.586          34.000                                                                  
G12  20423462.453 8 107326014.833 8     -1191.090          51.000    20423461.164 8  83630659.509 8      -928.125          51.000  
G25  20266738.156 6 106502403.834 6       704.344          38.000    20266738.633 6  82988880.338 6       548.839          38.000  
G29  22061407.664 8 115933459.167 8      3063.941          50.000    22061405.219 8  90337786.718 8      2387.490          50.000  
R19  19748209.133 6 105639219.033 6       454.402          40.000    19748210.344 7  82163844.754 7       353.424          46.000  
R09  19485783.047 6 104052602.102 6       844.699          41.000    19485780.445 6  80929799.067 6       656.988          36.000  
E02  24835859.227 6 130513342.487 6     -1589.156          37.000    24835860.836 7 100003727.099 7     -1217.690          43.000  
E07  26349784.711 6 138469046.877 6     -2090.699          40.000    26349789.297 7 106099650.894 7     -1601.971          46.000  
E30  22289198.719 6 117130526.126 6       486.559          41.000    22289202.164 7  89749379.748 7       372.836          44.000  
E36                                                                  25114916.930 5 101127366.627 5      -366.939          33.000  
C26  22990702.859 7 119718625.136 7     -2109.781          46.000                                                                  
C24  21831575.805 8 113682728.651 8       392.922          51.000                                                                  
C12  22916937.273 8 119334537.529 8      2613.746          48.000    22916936.188 8  92277060.581 8      2021.202          50.000  
> 2020 05 19 09 07 30.0000000  0 14      -0.000000000000
G24  22173278.320 8 116521371.228 8     -2959.027          51.000    22173280.352 8  90795856.861 8     -2305.739          51.000  
G12  20430360.164 8 107362262.584 8     -1216.074          51.000    20430358.805 8  83658904.486 8      -947.591          51.000  
G25  20262818.680 5 106481805.845 5       678.445          35.000    20262819.758 5  82972829.959 5       528.662          34.000  
G29  22044018.109 8 115842078.632 8      3037.418          48.000    22044016.977 7  90266581.132 7      2366.820          47.000  
R16  21880776.641 5 116882815.930 5     -2796.289          32.000                                                                  
R19  19745810.570 6 105626387.709 6       410.695          41.000    19745811.586 7  82153864.847 7       319.430          45.000  
R09  19481142.141 6 104027817.843 6       816.996          40.000    19481140.672 6  80910522.448 6       635.445          37.000  
E02  24845010.984 6 130561444.595 6     -1608.227          39.000    24845014.984 7 100040584.519 7     -1232.218          42.000  
E07  26361811.719 6 138532258.736 6     -2114.344          38.000    26361819.211 8 106148085.918 8     -1619.951          48.000  
E30  22286505.664 7 117116373.802 7       466.168          42.000    22286508.398 7  89738535.742 7       357.448          44.000  
E36                                                                  25117764.945 5 101138833.826 5      -390.031          34.000  
C26  23002949.844 7 119782398.466 7     -2132.516          47.000                                                                  
C24  21829410.930 8 113671455.243 8       367.828          51.000                                                                  
C12  22901980.773 8 119256652.126 8      2587.887          49.000    22901979.750 8  92216834.684 8      2001.098          51.000  
> 2020 05 19 09 08  0.0000000  0 13      -0.000000000000
G24  22190179.797 8 116610185.871 8     -2964.133          51.000    22190180.695 8  90865062.991 8     -2309.718          51.000  
G12  20437312.016 8 107398795.021 8     -1221.688          51.000    20437310.711 8  83687371.304 8      -951.965          51.000  
G25  20258959.602 5 106461527.856 5       671.754          33.000    20258961.672 5  82957029.001 5       523.448          34.000  
G29  22026688.883 7 115751018.202 7      3030.730          47.000    22026689.570 7  90195624.941 7      2361.609          47.000  
R19  19743566.930 6 105614386.917 6       387.047          41.000    19743568.281 7  82144530.922 7       301.037          45.000  
R09  19476569.156 7 104003395.981 7       808.664          42.000    19476567.930 6  80891527.676 6       628.961          38.000  
E02  24854184.047 6 130609650.160 6     -1607.691          40.000    24854187.859 7 100077521.262 7     -1231.898          42.000  
E07  26373884.680 6 138595707.216 6     -2118.371          38.000    26373894.086 8 106196702.289 8     -1622.968          48.000  
E30  22283839.062 7 117102360.442 7       465.621          43.000    22283841.070 7  89727798.259 7       356.664          44.000  
E36  25120717.172 5 132010248.806 5      -519.133          34.000    25120693.820 5 101150626.809 5      -398.062          34.000  
C26  23015239.820 8 119846393.642 8     -2136.195          48.000                                                                  
C24  21827302.117 8 113660474.027 8       361.949          51.000                                                                  
C12  22887085.586 8 119179085.454 8      2580.945          49.000    22887084.633 8  92156855.233 8      1995.784          51.000  
> 2020 05 19 09 08 30.0000000  0 13      -0.000000000000
G24  22207136.219 8 116699289.909 8     -2974.066          51.000    22207136.438 8  90934494.662 8     -2317.455          51.000  
G12  20444322.664 8 107435636.615 8     -1232.387          51.000    20444321.477 8  83716079.025 8      -960.302          51.000  
G25  20255166.594 5 106441595.594 5       659.688          35.000    20255169.203 6  82941497.244 6       514.036          37.000  
G29  22009426.414 8 115660305.136 8      3018.820          48.000    22009428.125 8  90124939.427 8      2352.328          48.000  
R19  19741483.461 6 105603242.595 6       358.184          41.000    19741484.836 7  82135863.134 7       278.587          45.000  
R09  19472069.133 6 103979364.157 6       795.555          40.000    19472068.406 6  80872836.255 6       618.765          38.000  
E02  24863381.586 6 130657984.667 6     -1612.422          40.000    24863386.461 7 100114556.751 7     -1235.544          42.000  
E07  26386008.203 6 138659415.879 6     -2127.051          40.000    26386017.914 8 106245518.032 8     -1629.870          49.000  
E30  22281203.844 7 117088511.735 7       459.746          44.000    22281205.461 7  89717186.901 7       352.339          44.000  
E36                                                                  25123706.547 5 101162756.575 5      -409.813          33.000  
C26  23027577.133 8 119910635.475 8     -2144.723          48.000                                                                  
C24  21825254.352 8 113649810.987 8       350.957          51.000                                                                  
C12  22872256.305 8 119101864.362 8      2569.207          48.000    22872255.727 8  92097142.989 8      1986.587          51.000  
> 2020 05 19 09 09  0.0000000  0 14      -0.000000000000
G24  22224133.711 8 116788611.025 8     -2982.227          51.000    22224133.867 8  91004095.518 8     -2323.817          51.000  
G32  22174433.695 5 116527424.277 5      -486.465          32.000    22174436.477 5  90800588.312 5      -379.073          31.000  
G12  20451378.516 8 107472715.688 8     -1241.207          51.000    20451377.367 8  83744971.796 8      -967.175          51.000  
G25  20251424.906 5 106421937.861 5       649.355          32.000    20251430.391 5  82926179.484 5       505.985          32.000  
G29  21992217.656 8 115569870.096 8      3008.473          49.000    21992219.148 8  90054470.579 8      2344.265          49.000  
R19  19739546.781 6 105592882.829 6       330.848          41.000    19739548.148 7  82127805.565 7       257.326          45.000  
R09  19467628.430 6 103955651.634 6       783.613          41.000    19467628.328 6  80854393.121 6       609.477          39.000  
E02  24872590.555 6 130706377.119 6     -1615.648          40.000    24872596.367 6 100151636.642 6     -1237.744          41.000  
E07  26398167.867 7 138723311.950 7     -2134.297          43.000    26398177.023 8 106294477.328 8     -1635.395          49.000  
E30  22278586.758 7 117074757.031 7       455.504          45.000    22278588.078 7  89706647.567 7       348.975          45.000  
E36                                                                  25126792.906 5 101175181.350 5      -420.181          34.000  
C26  23039947.844 8 119975053.176 8     -2151.500          49.000                                                                  
C24  21823254.328 8 113639396.569 8       341.684          51.000                                                                  
C12  22857479.875 8 119024920.319 8      2558.902          48.000    22857479.867 8  92037644.982 8      1978.630          51.000  
> 2020 05 19 09 09 30.0000000  0 16      -0.000000000000
G24  22241178.734 8 116878182.760 8     -2992.172          51.000    22241179.812 8  91073891.645 8     -2331.563          51.000  
G06  23574532.227 5 123884993.781 5      -810.375          35.000                                                                  
G32  22177263.508 5 116542320.96825      -506.488          32.000    22177268.547 5  90812196.28325      -394.666          31.000  
G12  20458486.070 8 107510066.340 8     -1251.895          51.000    20458484.758 8  83774076.190 8      -975.503          51.000  
G25  20247742.477 5 106402590.403 5       636.594          33.000    20247749.359 5  82911103.645 5       496.047          33.000  
G29  21975069.156 8 115479750.913 8      2996.195          50.000    21975070.102 8  89984247.865 8      2334.698          50.000  
R19  19737763.531 6 105583343.644 6       301.984          40.000    19737764.688 7  82120386.193 7       234.877          46.000  
R18  21937835.602 5 117105239.632 5     -3349.027          33.000    21937846.062 5  91081906.055 5     -2604.797          33.000  
R09  19463254.062 6 103932296.006 6       770.355          38.000    19463255.367 6  80836227.598 6       599.169          39.000  
E02  24881817.109 6 130754863.073 6     -1619.875          41.000    24881823.180 6 100188788.235 6     -1241.449          39.000  
E07  26410369.523 7 138787429.069 7     -2143.160          42.000    26410377.328 8 106343605.966 8     -1642.073          48.000  
E30  22275994.367 7 117061132.128 7       449.730          45.000    22275995.711 7  89696207.706 7       344.653          45.000  
E36  25129957.953 5 132058827.606 5      -563.387          35.000    25129958.914 5 101187925.944 5      -431.929          34.000  
C26  23052359.133 8 120039681.591 8     -2160.195          48.000                                                                  
C24  21821309.070 8 113629266.911 8       330.602          51.000                                                                  
C12  22842763.547 8 118948290.169 8      2546.797          48.000    22842764.109 8  91978389.705 8      1969.385          51.000  
> 2020 05 19 09 10  0.0000000  0 16      -0.000000000000
G24  22258301.211 8 116968161.607 8     -3004.500          50.000    22258302.789 8  91144005.015 8     -2341.173          50.000  
G06  23579223.805 5 123909647.628 5      -832.164          34.000                                                                  
G32  22180221.445 5 116557875.942 5      -528.949          35.000    22180227.305 6  90824316.935 6      -412.162          36.000  
G12  20465675.250 8 107547845.629 8     -1264.891          51.000    20465673.664 8  83803514.585 8      -985.629          51.000  
G25  20244149.984 5 106383710.531 5       623.438          35.000    20244156.211 5  82896392.126 5       485.793          34.000  
G29  21958010.750 8 115390106.533 8      2981.758          51.000    21958011.570 8  89914395.125 8      2323.448          51.000  
R19  19736163.461 6 105574785.504 6       270.582          40.000    19736164.906 7  82113729.864 7       210.453          47.000  
R18  21956720.047 5 117206030.382 5     -3368.602          35.000    21956726.883 5  91160298.867 5     -2620.027          33.000  
R09  19458976.969 6 103909458.809 6       754.055          39.000    19458978.805 6  80818465.295 6       586.487          39.000  
E02  24891091.859 6 130803600.022 6     -1627.156          40.000    24891097.344 6 100226132.115 6     -1246.576          37.000  
E07  26422642.633 7 138851922.765 7     -2154.383          42.000    26422648.883 8 106393023.180 8     -1650.831          48.000  
E30  22273456.539 7 117047794.758 7       441.355          45.000    22273458.156 7  89685988.172 7       338.140          46.000  
E36  25133231.430 6 132076030.801 6      -581.227          38.000    25133232.812 5 101201112.505 5      -445.224          34.000  
C26  23064840.336 7 120104676.321 7     -2171.051          47.000                                                                  
C24  21819448.625 8 113619578.774 8       317.070          51.000                                                                  
C12  22828137.805 8 118872131.581 8      2532.363          48.000    22828138.594 8  91919499.072 8      1958.181          50.000  
> 2020 05 19 09 10 30.0000000  0 15      -0.000000000000
G24  22275475.070 8 117058411.402 8     -3012.777          51.000    22275476.969 8  91214329.480 8     -2347.619          51.000  
G06  23584023.188 5 123934867.811 5      -850.816          32.000    23584036.039 5  96572682.974 5      -662.971          33.000  
G12  20472920.266 8 107585918.333 8     -1274.008          51.000    20472918.500 8  83833181.617 8      -992.734          51.000  
G25  20240620.945 5 106365164.064 5       612.098          34.000    20240625.977 5  82881940.260 5       476.956          34.000  
G29  21941016.961 8 115300804.557 8      2970.988          50.000    21941018.117 8  89844809.190 8      2315.060          50.000  
R19  19734721.328 6 105567071.526 6       243.074          40.000    19734723.125 7  82107730.076 7       189.058          47.000  
R18  21975693.984 6 117307309.028 6     -3384.410          36.000    21975698.727 5  91239071.079 5     -2632.323          30.000  
R09  19454771.773 6 103887004.844 6       741.703          37.000    19454773.656 6  80801001.102 6       576.880          38.000  
E02  24900389.039 6 130852453.529 6     -1630.504          40.000    24900396.445 6 100263565.337 6     -1249.360          36.000  
E07  26434961.188 7 138916656.714 7     -2161.664          43.000    26434966.547 8 106442624.476 8     -1656.515          48.000  
E30  22270947.633 7 117034610.805 7       436.934          46.000    22270949.734 7  89675886.163 7       334.781          46.000  
E36                                                                  25136589.836 5 101214627.564 5      -455.811          32.000  
C26  23077366.922 8 120169903.711 8     -2178.047          49.000                                                                  
C24  21817647.531 8 113610199.787 8       307.422          51.000                                                                  
C12  22813577.352 8 118796313.057 8      2521.574          48.000    22813577.914 8  91860871.389 8      1949.799          48.000  
> 2020 05 19 09 11  0.0000000  0 14      -0.000000000000
G24  22292692.484 8 117148889.852 8     -3019.852          50.000    22292694.328 8  91284832.132 8     -2353.132          50.000  
G32  22186469.336 6 116590681.284 6      -563.957          37.000    22186472.438 4  90849889.911 4      -439.444          29.000  
G12  20480213.148 8 107624242.591 8     -1281.812          51.000    20480211.398 8  83863044.651 8      -998.818          51.000  
G29  21924080.445 8 115211805.902 8      2961.434          49.000    21924082.133 8  89775459.589 8      2307.611          49.000  
R19  19733429.305 6 105560160.226 6       216.836          39.000    19733431.133 7  82102354.615 7       168.647          47.000  
R18  21994749.477 5 117409029.984 5     -3398.609          32.000    21994754.602 4  91318187.280 4     -2643.366          28.000  
R09  19450631.289 6 103864894.143 6       731.402          39.000    19450633.102 6  80783803.872 6       568.869          39.000  
E02  24909700.648 6 130901382.792 6     -1632.168          37.000    24909711.109 5 100301056.589 5     -1250.539          35.000  
E07  26447317.375 7 138981588.163 7     -2167.844          44.000    26447322.211 8 106492377.102 8     -1660.986          48.000  
E30  22268460.164 7 117021539.749 7       433.699          46.000    22268462.602 7  89665870.658 7       332.411          46.000  
E36  25140051.625 6 132111862.109 6      -607.824          36.000    25140020.844 5 101228444.425 5      -465.790          32.000  
C26  23089930.445 8 120235322.877 8     -2183.977          48.000                                                                  
C24  21815898.156 8 113601090.335 8       298.988          51.000                                                                  
C12  22799074.914 8 118720795.782 8      2511.977          48.000    22799074.805 8  91802476.647 8      1942.541          49.000  
> 2020 05 19 09 11 30.0000000  0 15      -0.000000000000
G24  22310005.828 8 117239872.736 8     -3033.031          49.000    22310007.336 8  91355727.830 8     -2363.405          49.000  
G02  22960951.914 5 120660631.511 5       505.492          35.000    22960950.398 5  94021252.611 5       393.890          31.000  
G12  20487606.625 8 107663095.552 8     -1295.695          51.000    20487604.922 8  83893319.658 8     -1009.633          51.000  
G25  20233782.984 6 106329260.197 6       588.012          36.000    20233786.461 6  82853963.736 6       458.194          36.000  
G29  21907255.211 8 115123390.079 8      2945.707          50.000    21907256.914 8  89706564.130 8      2295.357          50.000  
R19  19732339.930 6 105554334.470 6       184.680          40.000    19732342.148 7  82097823.474 7       143.640          47.000  
R18  22013938.508 5 117511471.526 5     -3418.750          34.000    22013944.328 4  91397869.012 4     -2659.025          26.000  
R09  19446608.023 6 103843410.591 6       713.965          38.000    19446610.312 6  80767094.451 6       555.303          39.000  
E02  24919079.289 5 130950644.767 5     -1640.375          34.000                                                                  
E07  26459763.773 7 139046993.094 7     -2179.848          45.000    26459768.305 8 106542492.537 8     -1670.256          49.000  
E30  22266047.359 7 117008859.771 7       424.273          47.000    22266049.680 7  89656154.810 7       325.147          47.000  
E36  25143610.859 5 132130565.527 5      -626.746          35.000    25143580.602 5 101242778.470 5      -480.270          33.000  
C26  23102583.141 7 120301208.779 7     -2195.820          47.000                                                                  
C24  21814253.430 8 113592526.557 8       284.520          51.000                                                                  
C12  22784683.641 8 118645856.751 8      2496.461          48.000    22784682.805 8  91744529.037 8      1930.389          49.000  
> 2020 05 19 09 12  0.0000000  0 15      -0.000000000000
G24  22327330.742 8 117330918.030 8     -3040.598          48.000    22327331.836 8  91426672.239 8     -2369.298          48.000  
G02  22958098.859 5 120645643.041 5       489.918          34.000                                                                  
G12  20495016.680 8 107702035.586 8     -1304.234          51.000    20495015.039 8  83923662.515 8     -1016.287          51.000  
G25  20230444.523 6 106311706.146 6       578.207          37.000    20230444.648 6  82840285.161 6       450.548          37.000  
G29  21890458.031 8 115035118.074 8      2935.230          51.000    21890459.000 8  89637780.762 8      2287.196          51.000  
R19  19731369.844 6 105549144.893 6       157.137          40.000    19731372.078 7  82093787.118 7       122.214          46.000  
R18  22033178.273 5 117614181.215 5     -3432.379          33.000    22033184.969 4  91477754.289 4     -2669.632          29.000  
R09  19442618.742 6 103822107.655 6       702.285          40.000    19442621.312 6  80750525.474 6       546.222          40.000  
E02                                                                  24928447.094 5 100376519.508 5     -1258.872          35.000  
E07  26472216.305 7 139112428.703 7     -2186.383          46.000    26472220.617 8 106592631.471 8     -1675.335          49.000  
E30  22263625.219 7 116996130.246 7       420.418          47.000    22263627.242 7  89646401.004 7       322.025          46.000  
E36  25147180.016 5 132149324.218 5      -640.254          34.000    25147182.969 5 101257285.317 5      -490.037          34.000  
C26  23115241.523 8 120367124.087 8     -2202.379          48.000                                                                  
C24  21812629.641 8 113584072.361 8       275.246          51.000                                                                  
C12  22770319.852 7 118571060.722 7      2486.145          47.000    22770318.828 8  91686692.017 8      1922.345          50.000  
> 2020 05 19 09 12 30.0000000  0 17      -0.000000000000
G24  22344701.016 7 117422205.106 7     -3051.184          47.000    22344703.664 7  91497805.020 7     -2377.546          47.000  
G02  22955338.062 5 120631122.657 5       472.062          31.000                                                                  
G06  23604321.961 5 124041520.406 5      -927.895          33.000    23604321.633 5  96655744.706 5      -723.038          31.000  
G12  20502477.586 8 107741242.830 8     -1315.387          51.000    20502476.008 8  83954213.587 8     -1024.980          51.000  
G25  20227163.578 5 106294462.393 5       565.578          35.000    20227162.945 6  82826848.433 6       440.710          36.000  
G29  21873723.266 8 114947172.934 8      2922.031          51.000    21873723.297 8  89569252.103 8      2276.911          51.000  
R19  19730553.047 6 105544775.936 6       127.789          39.000    19730555.172 7  82090389.050 7        99.392          45.000  
R20  21776232.758 6 116446916.301 6      4168.223          38.000    21776237.312 7  90569834.989 7      3241.952          44.000  
R18  22052502.547 5 117717338.778 5     -3449.938          30.000    22052509.211 4  91557987.931 4     -2683.288          28.000  
R09  19438698.109 6 103801170.519 6       687.535          41.000    19438700.203 6  80734241.037 6       534.750          40.000  
E02                                                                  24937827.297 5 100414286.736 5     -1263.104          35.000  
E07  26484708.422 7 139178073.985 7     -2195.719          46.000    26484713.125 8 106642931.052 8     -1682.333          49.000  
E30  22261227.891 7 116983532.379 7       413.711          47.000    22261229.711 7  89636748.052 7       317.119          46.000  
E36  25150862.570 5 132168666.646 5      -655.684          35.000    25150862.984 5 101272106.187 5      -502.446          33.000  
C26  23127940.180 8 120433247.507 8     -2211.625          48.000                                                                  
C24  21811061.344 8 113575907.813 8       263.352          51.000                                                                  
C12  22756018.266 7 118496588.598 7      2472.918          47.000    22756017.648 8  91629105.433 8      1912.287          51.000  
> 2020 05 19 09 13  0.0000000  0 14      -0.000000000000
G24  22362139.695 8 117513847.970 8     -3081.598          48.000    22362143.336 8  91569215.067 8     -2401.246          48.000  
G12  20510011.133 8 107780832.248 8     -1346.988          51.000    20510009.672 8  83985062.448 8     -1049.602          51.000  
G25  20223961.727 6 106277644.976 6       532.113          36.000    20223963.438 6  82813743.968 6       414.634          36.000  
G29  21857073.008 8 114859672.269 8      2888.344          51.000    21857072.047 8  89501069.793 8      2250.658          51.000  
R19  19729911.797 6 105541345.140 6        77.492          40.000    19729913.852 7  82087720.657 7        60.272          45.000  
R20  21752877.680 6 116322025.301 6      4134.246          40.000    21752882.000 7  90472697.576 7      3215.525          43.000  
R09  19434868.453 6 103780718.991 6       652.340          41.000    19434869.836 6  80718334.279 6       507.372          40.000  
E02                                                                  24947240.828 6 100452214.691 6     -1282.841          38.000  
E07  26497261.938 7 139244042.937 7     -2225.203          46.000    26497266.922 8 106693478.633 8     -1705.051          48.000  
E30  22258877.688 7 116971182.394 7       386.512          47.000    22258879.500 7  89627285.058 7       296.206          46.000  
E36  25154645.062 5 132188551.049 5      -691.449          30.000    25154644.281 5 101287329.272 5      -530.402          33.000  
C26  23140700.320 7 120499693.551 7     -2241.078          47.000                                                                  
C24  21809570.992 8 113568148.540 8       231.086          50.000                                                                  
C12  22741801.422 7 118422556.870 7      2439.562          47.000    22741801.469 8  91571859.400 8      1886.422          51.000  
> 2020 05 19 09 13 30.0000000  0 16      -0.000000000000
G24  22379632.672 8 117605773.582 8     -3071.816          48.000    22379637.039 8  91640845.376 8     -2393.624          48.000  
G02  22950135.516 5 120603773.703 5       435.883          32.000                                                                  
G32  22204022.875 5 116682928.28925      -666.812          32.000    22204016.625 4  90921735.94724      -519.594          29.000  
G12  20517603.500 8 107820730.961 8     -1338.004          51.000    20517602.195 8  84016152.320 8     -1042.601          51.000  
G25  20220828.531 6 106261182.554 6       540.148          37.000    20220831.719 6  82800916.078 6       420.892          38.000  
G29  21840493.680 8 114772546.127 8      2895.059          51.000    21840491.859 8  89433179.326 8      2255.894          51.000  
R19  19729432.383 6 105538779.470 6        68.180          40.000    19729434.234 7  82085725.154 7        53.029          44.000  
R20  21729591.711 6 116197506.845 6      4141.301          40.000    21729595.023 6  90375849.934 6      3221.015          40.000  
R09  19431116.266 6 103760681.320 6       658.062          40.000    19431117.672 6  80702749.438 6       511.826          41.000  
E02  24956688.281 6 131148297.025 6     -1659.695          36.000    24956686.000 6 100490248.510 6     -1271.682          40.000  
E07  26509862.930 7 139310262.226 7     -2214.230          45.000    26509867.609 8 106744218.044 8     -1696.610          48.000  
E30  22256561.242 7 116959009.212 7       400.031          47.000    22256563.234 7  89617957.555 7       306.524          47.000  
E36                                                                  25158510.906 5 101302898.402 5      -526.984          32.000  
C26  23153508.539 8 120566391.056 8     -2230.355          48.000                                                                  
C24  21808145.203 8 113560724.628 8       239.031          50.000                                                                  
C12  22727656.156 8 118348896.420 8      2446.176          49.000    22727656.688 8  91514900.464 8      1891.705          51.000  
> 2020 05 19 09 14  0.0000000  0 14      -0.000000000000
G24  22397192.422 8 117698048.825 8     -3083.238          49.000    22397196.820 8  91712748.089 8     -2402.527          49.000  
G12  20525267.680 8 107861006.685 8     -1350.438          51.000    20525266.375 8  84047535.973 8     -1052.292          51.000  
