     3.02           OBSERVATION DATA    M (MIXED)           RINEX VERSION / TYPE
SAVERINEX           SC600               20200507 125931 LCL PGM / RUN BY / DATE
       G = GPS       R = GLONASS       C = COMPASS          COMMENT
       S = SBAS      J = QZSS          E = GALILEO          COMMENT
BEAN                                                        MARKER NAME
1                                                           MARKER NUMBER
GEODETIC                                                    MARKER TYPE
Unige DICCA         GTER                                    OBSERVER / AGENCY
SC60291900056       SC600               2.12(191226)        REC # / TYPE / VERS
                    HEMA45          NONE                    ANT # / TYPE
  4509407.8091   693652.4678  4442337.6214                  APPROX POSITION XYZ
        0.0000        0.0000        0.0000                  ANTENNA: DELTA H/E/N
G    8 C1C L1C D1C S1C C2Y L2Y D2Y S2Y                      SYS / # / OBS TYPES
R    8 C1C L1C D1C S1C C2P L2P D2P S2P                      SYS / # / OBS TYPES
C    4 C1I L1I D1I S1I                                      SYS / # / OBS TYPES
E    8 C1C L1C D1C S1C C7Q L7Q D7Q S7Q                      SYS / # / OBS TYPES
DBHZ                                                        COMMENT
     30.000                                                 INTERVAL
  2020    05    07    10    00    0.0000000     GPS         TIME OF FIRST OBS
  2020    05    07    10    59   30.0000000     GPS         TIME OF LAST OBS
     0                                                      RCV CLOCK OFFS APPL
G L1C  0.00000                                              SYS / PHASE SHIFT
G L2Y  0.00000                                              SYS / PHASE SHIFT
R L1C  0.00000                                              SYS / PHASE SHIFT
R L2P  0.25000                                              SYS / PHASE SHIFT
C L1I  0.00000                                              SYS / PHASE SHIFT
E L1C  0.50000                                              SYS / PHASE SHIFT
E L7Q -0.25000                                              SYS / PHASE SHIFT
 11 R01  1 R02 -4 R03  5 R08  6 R10 -5 R11  0 R12 -1 R13 -2 GLONASS SLOT / FRQ #
    R21  4 R22 -3 R23  3                                    GLONASS SLOT / FRQ #
 C1C   71.950 C2C   71.950 C2P   71.950                     GLONASS COD/PHS/BIS
    18                                                      LEAP SECONDS
*** Above antenna height is from mark to ANTENNA BOTTOM.    COMMENT
    17     4        0.0000        ANT MEASURE TYPE/HEIGT    COMMENT
    0.0000    0.0000    0.0458    0.0405    0.0000          COMMENT
                    BASE STATION                            COMMENT
                                                            END OF HEADER
> 2020 05 07 10 00  0.0000000  0 15        .000000000000
G02  22966820.398 5 120691454.593 5       507.082          34.000
G06  23555797.195 6 123786518.232 6      -837.938          37.000
G12  20483924.086 8 107643729.764 8     -1304.492          51.000    20483922.281 8  83878232.400 8     -1016.487          51.000
G24  22279126.016 8 117077576.113 8     -3027.258          51.000    22279128.406 8  91229285.491 8     -2358.902          51.000
G29  21955388.867 8 115376335.256 8      2968.414          51.000    21955389.781 8  89903655.331 8      2313.050          51.000
R13  19487827.875 6 104063927.536 6       -82.777          41.000    19487829.898 7  80938612.871 7       -64.382          42.000
R23  19693717.039 8 105348086.748 8      1891.086          51.000    19693722.078 7  81937391.660 7      1470.848          43.000
R24  21887718.672 8 117043460.535 8      4191.887          48.000    21887722.930 7  91033876.516 7      3260.356          44.000
C29  22307021.406 8 116158494.426 8      1923.719          51.000
C30  22676366.289 7 118081783.507 7     -1370.246          43.000
E05  26337191.844 6 138402871.801 6     -1829.156          40.000    26337190.984 5 106048951.354 5     -1401.615          34.000
E12  23486573.898 7 123422775.433 7      2506.840          47.000    23486574.195 8  94570754.361 8      1920.882          50.000
E24                                                                  22043250.219 6  88759028.561 6       665.360          36.000
E31  24444031.352 6 128454239.305 6     -1294.965          41.000    24444035.055 6  98426004.111 6      -992.081          40.000
E33  25077054.211 5 131780809.236 5       -81.410          35.000    25077056.820 6 100974909.005 6       -62.224          40.000
> 2020 05 07 10 00 30.0000000  0 17        .000000000000
G02  22963922.359 5 120676222.645 5       509.316          32.000
G06  23560585.797 6 123811678.318 6      -839.023          38.000    23560593.148 6  96476706.436 6      -653.778          37.000
G12  20491349.422 8 107682750.447 8     -1296.566          51.000    20491347.773 8  83908638.120 8     -1010.311          51.000
G24  22296385.148 8 117168273.574 8     -3018.672          50.000    22296387.523 8  91299958.808 8     -2352.215          50.000
G25  20249579.297 5 106412252.156 5       641.039          34.000
G29  21938426.969 8 115287197.838 8      2974.477          51.000    21938427.328 8  89834197.647 8      2317.777          51.000
R13  19488282.445 6 104066354.465 6       -78.766          41.000    19488284.523 7  80940500.493 7       -61.259          42.000
R22  21475804.711 5 114639303.296 5     -3062.957          32.000
R23  19683133.812 8 105291474.030 8      1883.496          51.000    19683139.188 7  81893359.572 7      1464.941          43.000
R24  21864181.344 8 116917594.049 8      4199.590          49.000    21864185.438 7  90935980.382 7      3266.348          44.000
C29  22295928.664 8 116100733.091 8      1927.449          51.000
C30  22684253.805 7 118122854.150 7     -1367.465          45.000
E05  26347615.797 6 138457647.673 6     -1821.676          40.000    26347614.352 5 106090922.414 5     -1396.171          34.000
E12  23472239.023 7 123347446.932 7      2515.598          47.000    23472240.422 8  94513035.112 8      1927.533          51.000
E24                                                                  22038257.547 6  88738925.325 6       675.387          36.000
E31  24451388.812 6 128492900.160 6     -1282.133          39.000    24451392.852 6  98455627.405 6      -982.461          39.000
E33  25077521.594 5 131783225.806 5       -79.129          34.000    25077516.156 6 100976760.550 6       -60.628          38.000
> 2020 05 07 10 01  0.0000000  0 18        .000000000000
G02  22961098.008 6 120661382.147 6       486.098          37.000
G06  23565462.273 5 123837305.404 5      -863.262          31.000    23565474.195 5  96496675.517 5      -672.678          31.000
G12  20498811.180 8 107721962.493 8     -1312.219          51.000    20498809.789 8  83939192.936 8     -1022.508          51.000
G24  22313675.688 8 117259138.974 8     -3033.469          49.000    22313678.242 8  91370762.985 8     -2363.742          49.000
G29  21921511.352 8 115198305.408 8      2956.914          51.000    21921511.414 8  89764930.864 8      2304.092          51.000
G32  22191166.102 5 116615364.321 5      -615.574          30.000
R12  22150703.430 6 118325014.339 6     -2875.832          36.000
R13  19488796.117 6 104069096.800 6       -98.660          41.000    19488798.125 7  80942633.424 7       -76.736          43.000
R22  21493099.469 5 114731615.433 5     -3087.648          33.000
R23  19672674.305 8 105235524.210 8      1851.832          50.000    19672680.062 7  81849843.058 7      1440.314          43.000
R24  21840681.703 8 116791930.466 8      4183.344          49.000    21840685.719 7  90838242.078 7      3253.712          43.000
C29  22284895.023 8 116043280.503 8      1907.980          51.000
C30  22692205.180 7 118164257.790 7     -1387.625          44.000
E05  26358077.117 6 138512616.740 6     -1837.242          39.000    26358075.367 5 106133041.499 5     -1407.700          35.000
E12  23457934.516 7 123272278.381 7      2501.062          47.000    23457937.383 8  94455438.442 8      1916.309          50.000
E24                                                                  22033273.406 6  88718852.450 6       667.087          36.000
E31  24458752.227 6 128531600.173 6     -1292.531          40.000    24458755.852 6  98485280.678 6      -990.636          39.000
E33                                                                  25078040.438 5 100978877.730 5       -76.462          34.000
> 2020 05 07 10 01 30.0000000  0 15        .000000000000
G02  22958369.055 4 120647028.333 4       470.602          28.000
G12  20506327.133 8 107761459.437 8     -1320.648          51.000    20506325.945 8  83969969.754 8     -1029.077          51.000
G24  22331015.672 7 117350266.570 7     -3041.363          47.000    22331018.680 7  91441771.535 7     -2369.893          47.000
G29  21904660.352 8 115109754.537 8      2946.664          51.000    21904660.750 8  89695930.215 8      2296.102          51.000
R12  22166870.570 5 118411388.673 5     -2882.141          32.000
R13  19489387.055 6 104072252.832 6      -111.629          40.000    19489389.312 7  80945088.104 7       -86.822          43.000
R23  19662356.875 8 105180336.018 8      1827.445          48.000    19662363.000 6  81806918.899 6      1421.346          41.000
R24  21817238.406 8 116666570.285 8      4174.211          48.000    21817241.828 6  90740739.734 6      3246.612          39.000
C29  22273939.188 8 115986231.704 8      1895.547          50.000
C30  22700238.289 7 118206086.671 7     -1400.750          44.000
E05  26368592.891 6 138567872.009 6     -1846.090          38.000    26368592.086 5 106175391.913 5     -1414.500          32.000
E12  23443678.727 7 123197366.224 7      2493.309          47.000    23443682.711 8  94398038.213 8      1910.475          50.000
E24                                                                  22028315.469 5  88698882.744 5       664.414          35.000
E31  24466141.953 7 128570433.967 7     -1296.230          43.000    24466145.391 6  98515036.449 6      -992.961          41.000
E33  25078653.977 5 131789204.040 5      -113.551          34.000
> 2020 05 07 10 02  0.0000000  0 16        .000000000000
G02  22955736.633 6 120633188.944 6       458.070          36.000
G12  20513904.047 8 107801276.761 8     -1327.277          51.000    20513902.938 8  84000996.216 8     -1034.245          51.000
G24  22348412.203 8 117441690.085 8     -3047.047          48.000    22348416.461 8  91513010.647 8     -2374.322          48.000
G25  20238989.516 5 106356607.760 5       605.734          35.000
G29  21887881.367 8 115021583.479 8      2938.004          50.000    21887882.430 8  89627225.505 8      2289.354          50.000
G32  22198424.508 5 116653488.559 5      -648.492          33.000
R12  22183089.961 5 118498032.050 5     -2887.504          33.000
R13  19490062.352 6 104075860.056 6      -122.523          40.000    19490065.109 7  80947893.718 7       -95.296          43.000
R23  19652189.242 8 105125948.249 8      1804.887          49.000    19652195.336 6  81764617.306 6      1403.801          39.000
R24  21793859.000 7 116541554.261 7      4166.730          47.000    21793859.992 5  90643505.093 5      3240.790          33.000
C29  22263068.125 8 115929623.882 8      1884.863          50.000
C30  22708359.383 7 118248375.322 7     -1412.066          42.000
E05  26379169.477 6 138623448.094 6     -1852.637          37.000    26379171.633 5 106217976.257 5     -1420.083          32.000
E12  23429479.555 7 123122748.569 7      2487.656          47.000    23429483.711 8  94340863.676 8      1906.108          50.000
E24                                                                  22023388.898 5  88679044.301 5       662.996          32.000
E31  24473564.414 7 128609437.971 7     -1297.941          43.000    24473568.008 7  98544922.678 7      -994.365          43.000
> 2020 05 07 10 02 30.0000000  0 17        .000000000000
G02  22953194.469 5 120619820.431 5       438.215          32.000
G12  20521529.898 8 107841351.159 8     -1339.969          51.000    20521528.766 8  84032223.010 8     -1044.135          51.000
G24  22365853.742 8 117533345.624 8     -3058.969          49.000    22365858.336 8  91584430.562 8     -2383.612          49.000
G25  20235582.016 5 106338708.745 5       591.711          33.000    20235586.711 5  82861343.418 5       461.073          34.000
G29  21871163.375 8 114933731.148 8      2923.207          51.000    21871164.867 8  89558769.139 8      2277.824          51.000
G32  22202198.016 5 116673339.772 5      -669.852          33.000
R12  22199360.484 5 118584940.347 5     -2898.762          32.000
R13  19490810.414 6 104079855.487 6      -139.492          40.000    19490813.148 7  80951001.263 7      -108.494          43.000
R23  19642160.117 8 105072299.775 8      1776.125          50.000    19642165.773 6  81722890.789 6      1381.434          37.000
R24  21770532.664 7 116416822.755 7      4153.117          47.000    21770530.664 5  90546491.840 5      3230.205          33.000
C29  22252270.094 8 115873396.203 8      1868.031          50.000
C30  22716556.023 6 118291060.033 6     -1429.316          41.000
E05  26389795.523 5 138679280.639 5     -1865.543          34.000    26389801.562 5 106260779.003 5     -1429.218          35.000
E12  23415324.992 8 123048364.512 8      2475.574          48.000    23415328.422 8  94283868.149 8      1896.848          48.000
E24  22018481.820 5 115707889.518 5       857.449          34.000    22018481.930 5  88659304.380 5       657.252          32.000
E31  24481006.883 7 128648549.666 7     -1305.418          42.000    24481011.016 7  98574891.373 7     -1000.285          44.000
E33  25080132.836 5 131797018.347 5      -143.355          34.000
> 2020 05 07 10 03  0.0000000  0 16        .000000000000
G02  22950733.977 5 120606900.318 5       419.066          35.000
G06  23586038.656 6 123945472.347 6      -940.547          36.000    23586032.781 6  96580872.246 6      -732.894          36.000
G12  20529201.867 8 107881667.691 8     -1351.715          51.000    20529200.695 8  84063638.471 8     -1053.284          51.000
G24  22383336.789 8 117625217.857 8     -3069.691          48.000    22383341.453 8  91656019.283 8     -2391.970          48.000
G25  20232231.578 5 106321097.438 5       578.586          35.000
G29  21854504.242 8 114846185.437 8      2909.258          51.000    21854505.523 8  89490551.703 8      2266.954          51.000
R13  19491629.070 6 104084226.617 6      -155.609          40.000    19491631.484 7  80954401.029 7      -121.030          43.000
R23  19632267.039 8 105019377.911 8      1748.117          51.000    19632271.805 6  81681729.420 6      1359.650          38.000
R24  21747258.289 8 116292365.385 8      4140.148          49.000    21747256.852 5  90449691.742 5      3220.118          35.000
C29  22241542.578 8 115817535.855 8      1852.137          50.000
C30  22724826.633 6 118334125.227 6     -1445.391          40.000
E05                                                                  26400475.000 5 106303744.048 5     -1438.221          35.000
E12  23401212.891 8 122974201.657 8      2464.512          50.000    23401214.953 7  94227042.104 7      1888.437          47.000
E24  22013598.484 6 115682202.871 6       850.840          36.000    22013592.453 5  88639616.506 5       651.963          31.000
E31  24488467.078 7 128687755.040 7     -1312.191          43.000    24488471.383 7  98604931.802 7     -1005.442          44.000
E33                                                                  25080993.227 5 100990765.386 5      -122.903          35.000
> 2020 05 07 10 03 30.0000000  0 16        .000000000000
G06  23591464.500 5 123973973.396 5      -957.656          32.000    23591460.797 5  96603080.867 5      -746.217          30.000
G12  20536948.000 8 107922373.750 8     -1360.453          51.000    20536946.875 8  84095357.468 8     -1060.093          51.000
G24  22400888.922 8 117717452.946 8     -3077.625          49.000    22400893.008 8  91727890.697 8     -2398.152          49.000
G25  20228961.781 5 106303922.060 5       568.520          31.000
G29  21837932.141 8 114759096.328 8      2898.254          51.000    21837932.711 8  89422690.090 8      2258.380          51.000
R13  19492546.570 6 104089124.563 6      -169.211          41.000    19492548.656 7  80958210.533 7      -131.605          44.000
R22  21581196.328 5 115201826.281 5     -3179.770          35.000    21581190.680 5  89601435.242 5     -2473.160          34.000
R23  19622538.578 8 104967335.693 8      1723.043          51.000    19622543.352 6  81641252.176 6      1340.145          41.000
R24  21724064.289 8 116168336.683 8      4130.117          50.000    21724063.031 6  90353225.079 6      3212.316          36.000
C29  22230913.594 8 115762190.952 8      1839.133          48.000
C30  22733197.664 6 118377716.235 6     -1458.906          38.000
E05                                                                  26411219.656 6 106347005.718 6     -1444.934          36.000
E12  23387171.242 8 122900410.082 8      2456.434          50.000    23387171.594 7  94170500.561 7      1882.092          47.000
E24  22008759.227 5 115656760.104 5       846.824          34.000    22008749.406 5  88620121.500 5       648.826          32.000
E31  24495974.227 7 128727202.354 7     -1315.941          45.000    24495977.102 7  98635157.683 7     -1008.444          45.000
E33                                                                  25081954.375 6 100994630.224 6      -133.750          38.000
> 2020 05 07 10 04  0.0000000  0 17        .000000000000
G02  22946160.188 5 120582878.568 5       385.801          34.000
G12  20544765.922 8 107963456.988 8     -1371.332          51.000    20544765.000 8  84127370.385 8     -1068.570          51.000
G24  22418507.570 8 117810037.508 8     -3087.500          48.000    22418510.086 8  91800034.442 8     -2405.847          48.000
G25  20225774.062 6 106287171.622 6       555.676          37.000    20225779.227 5  82821178.699 5       432.991          33.000
G29  21821444.984 8 114672453.915 8      2885.078          51.000    21821444.625 8  89355176.528 8      2248.116          51.000
G32  22214207.320 5 116736473.039 5      -729.367          34.000    22214215.312 5  90963498.117 5      -568.338          31.000
R13  19493560.891 6 104094539.355 6      -184.801          41.000    19493562.898 7  80962422.042 7      -143.734          45.000
R22  21599136.719 5 115297601.906 5     -3198.156          34.000    21599132.977 5  89675927.313 5     -2487.455          31.000
R23  19612972.945 8 104916163.667 8      1695.703          51.000    19612977.820 7  81601451.726 7      1318.880          43.000
R24  21700949.180 8 116044729.343 8      4117.711          49.000    21700946.672 6  90257086.149 6      3202.667          37.000
C29  22220381.039 7 115707351.387 7      1823.984          47.000
C30  22741667.672 6 118421820.222 6     -1474.094          39.000
E05                                                                  26422034.000 6 106390553.939 6     -1453.004          37.000
E12  23373198.125 8 122826980.185 8      2445.938          50.000    23373197.023 7  94114236.119 7      1874.178          47.000
E24                                                                  22003951.664 5  88600794.920 5       644.118          34.000
E31  24503525.039 7 128766880.417 7     -1321.973          44.000    24503526.906 7  98665560.347 7     -1012.934          46.000
E33                                                                  25083013.984 6 100998906.045 6      -146.027          39.000
> 2020 05 07 10 04 30.0000000  0 15        .000000000000
G12  20552633.664 8 108004802.242 8     -1387.820          51.000    20552632.898 8  84159587.452 8     -1081.418          51.000
G24  22436170.453 7 117902856.202 7     -3102.969          47.000    22436171.906 7  91872360.638 7     -2417.901          47.000
G25  20222645.945 6 106270731.410 6       537.574          36.000    20222650.492 5  82808368.082 5       418.883          35.000
G29  21805021.062 8 114586145.459 8      2866.086          51.000    21805019.891 8  89287923.223 8      2233.317          51.000
R12  22264878.852 5 118935022.246 5     -2939.562          34.000    22264886.961 4  92505025.735 4     -2286.320          27.000
R13  19494650.047 6 104100355.193 6      -205.930          40.000    19494652.500 7  80966945.455 7      -160.171          45.000
R23  19603548.781 8 104865747.142 8      1662.539          51.000    19603553.531 7  81562238.855 7      1293.086          44.000
R24  21677891.328 8 115921430.460 8      4099.461          49.000    21677890.383 6  90161187.093 6      3188.470          41.000
C29  22209924.570 8 115652904.635 8      1803.102          49.000
C30  22750213.953 6 118466322.057 6     -1495.293          38.000
E05  26432871.859 6 138905676.111 6     -1912.406          36.000    26432896.070 6 106434299.503 6     -1465.536          38.000
E12  23359272.039 8 122753798.959 8      2429.934          50.000    23359270.016 7  94058162.220 7      1861.828          47.000
E24                                                                  21999177.273 5  88581569.228 5       635.022          33.000
E31  24511097.641 7 128806674.607 7     -1333.531          44.000    24511099.750 7  98696051.995 7     -1021.833          46.000
E33  25084154.297 6 131818120.344 6      -212.645          37.000    25084154.211 6 101003504.781 6      -162.648          41.000
> 2020 05 07 10 05  0.0000000  0 16        .000000000000
G06  23608395.570 5 124062962.288 5     -1015.977          31.000    23608397.281 5  96672434.183 5      -791.667          31.000
G12  20560538.055 8 108046340.236 8     -1391.293          51.000    20560537.453 8  84191954.717 8     -1084.124          51.000
G24  22453863.953 7 117995838.081 7     -3105.652          45.000    22453865.180 7  91944814.051 7     -2419.986          45.000
G25  20219563.805 6 106254533.030 6       532.629          36.000    20219566.250 5  82795746.046 5       415.039          35.000
G29  21788647.688 8 114500104.463 8      2860.113          49.000    21788645.852 8  89220878.349 8      2228.663          49.000
R13  19495801.109 6 104106503.086 6      -213.785          41.000    19495803.422 7  80971727.129 7      -166.277          44.000
R22  21635291.648 5 115490600.497 5     -3235.109          33.000
R23  19594252.984 8 104816018.520 8      1642.555          51.000    19594257.477 7  81523561.029 7      1277.543          44.000
R24  21654878.836 8 115798374.660 8      4094.316          48.000    21654880.102 7  90065477.034 7      3184.468          45.000
C29  22199531.992 8 115598784.258 8      1795.125          51.000
C30  22758822.703 5 118511152.238 5     -1503.336          35.000
E05  26443773.227 6 138962955.390 6     -1916.051          37.000    26443794.109 6 106478188.761 6     -1468.011          38.000
E12  23345380.391 8 122680799.876 8      2426.805          49.000    23345378.086 7  94002227.889 7      1859.470          47.000
E24                                                                  21994412.555 5  88562382.374 5       635.956          32.000
E31  24518679.297 7 128846516.775 7     -1332.441          42.000    24518681.703 7  98726580.384 7     -1020.953          46.000
E33  25085361.523 6 131824475.024 6      -221.070          38.000    25085362.859 7 101008373.940 7      -169.377          42.000
> 2020 05 07 10 05 30.0000000  0 17        .000000000000
G06  23614257.688 5 124093769.191 5     -1036.086          35.000    23614259.594 5  96696439.517 5      -807.343          35.000
G12  20568512.828 8 108088247.918 8     -1401.434          51.000    20568512.367 8  84224610.053 8     -1092.026          51.000
G24  22471622.016 7 118089160.349 7     -3114.758          45.000    22471623.750 7  92017532.731 7     -2427.081          45.000
G25  20216561.062 6 106238754.766 6       520.578          36.000    20216564.078 6  82783451.334 6       405.645          36.000
G29  21772359.219 8 114414510.917 8      2847.223          49.000    21772357.453 8  89154182.156 8      2218.615          49.000
G32  22227192.797 6 116804691.957 6      -786.719          37.000
R13  19497048.945 6 104113165.746 6      -228.930          41.000    19497050.648 7  80976909.202 7      -178.056          44.000
R22  21653525.359 5 115587934.533 5     -3252.766          31.000    21653515.094 4  89901730.234 4     -2529.929          25.000
R23  19585120.273 8 104767161.015 8      1615.656          51.000    19585124.336 7  81485560.754 7      1256.625          43.000
R24  21631946.281 8 115675746.866 8      4081.984          49.000    21631949.422 7  89970099.870 7      3174.877          46.000
C29  22189236.258 8 115545167.830 8      1780.480          51.000
C30  22767529.625 6 118556485.777 6     -1517.809          39.000
E05  26454743.359 6 139020598.446 6     -1925.848          36.000    26454760.398 6 106522356.827 6     -1475.401          38.000
E12  23331557.586 8 122608162.774 8      2416.809          48.000    23331556.172 8  93946570.930 8      1851.843          48.000
E24                                                                  21989690.203 5  88543370.109 5       632.074          30.000
E31  24526304.484 7 128886585.045 7     -1337.801          43.000    24526306.578 7  98757282.024 7     -1025.104          45.000
E33  25086670.219 6 131831360.350 6      -236.754          39.000    25086672.391 7 101013649.707 7      -181.478          42.000
> 2020 05 07 10 06  0.0000000  0 15        .000000000000
G02  22938157.711 5 120540832.265 5       308.172          32.000
G12  20576544.195 8 108130452.760 8     -1420.770          51.000    20576543.812 8  84257496.945 8     -1107.093          51.000
G24  22489431.312 8 118182749.031 8     -3132.906          48.000    22489433.250 7  92090459.001 7     -2441.226          47.000
G25  20213625.188 6 106223324.627 6       499.613          40.000    20213629.438 6  82771427.857 6       389.309          37.000
G29  21756142.742 8 114329294.192 8      2825.438          50.000    21756141.977 8  89087779.551 8      2201.640          50.000
G32  22231743.219 6 116828596.849 6      -815.496          39.000    22231747.555 4  91035294.949 4      -635.464          27.000
R13  19498379.547 6 104120271.138 6      -253.070          41.000    19498381.062 7  80982435.639 7      -196.829          45.000
R23  19576136.656 8 104719103.159 8      1579.477          51.000    19576140.242 7  81448182.462 7      1228.485          43.000
R24  21609080.938 8 115553477.942 8      4060.465          49.000    21609085.070 7  89875001.824 7      3158.139          47.000
C29  22179023.086 8 115491985.035 8      1756.648          51.000
C30  22776318.406 6 118602249.633 6     -1541.504          40.000
E05  26465767.648 6 139078531.528 6     -1944.945          36.000    26465781.719 6 106566747.149 6     -1490.361          38.000
E12  23317790.484 8 122535817.312 8      2397.734          49.000    23317790.328 8  93891137.435 8      1837.177          49.000
E31  24533958.617 6 128926807.394 6     -1352.121          39.000    24533961.344 7  98788101.795 7     -1036.238          45.000
E33  25088067.953 6 131838703.949 6      -261.383          37.000    25088069.211 7 101019276.591 7      -200.265          43.000
> 2020 05 07 10 06 30.0000000  0 14        .000000000000
G12  20584646.789 8 108173031.593 8     -1427.891          51.000    20584646.273 8  84290675.260 8     -1112.642          51.000
G24  22507306.289 8 118276680.552 8     -3139.004          49.000    22507308.234 8  92163652.372 8     -2445.980          49.000
G25  20210770.273 6 106208320.497 6       490.895          40.000    20210774.414 5  82759736.302 5       382.515          33.000
G29  21740013.602 8 114244534.137 8      2815.297          51.000    21740013.836 8  89021732.775 8      2193.738          51.000
R12  22331154.328 6 119289067.501 6     -2972.934          37.000    22331157.156 4  92780348.636 4     -2312.285          28.000
R13  19499807.828 6 104127898.652 6      -265.617          41.000    19499809.695 7  80988368.135 7      -206.591          45.000
R23  19567317.422 8 104671925.873 8      1555.465          51.000    19567320.547 7  81411489.050 7      1209.809          42.000
R24  21586298.367 8 115431650.966 8      4051.000          49.000    21586303.109 7  89780247.507 7      3150.778          47.000
C29  22168908.406 8 115439314.165 8      1744.734          51.000
C30  22785204.039 6 118648519.340 6     -1552.730          40.000
E05  26476859.719 5 139136836.718 5     -1952.457          32.000    26476872.367 6 106611417.968 6     -1495.736          38.000
E12  23304094.648 8 122463843.094 8      2390.648          49.000    23304095.391 8  93835988.386 8      1831.802          49.000
E31                                                                  24541659.836 7  98819099.420 7     -1038.142          44.000
E33  25089566.844 6 131846583.323 6      -273.988          41.000    25089569.117 7 101025314.096 7      -209.939          43.000
> 2020 05 07 10 07  0.0000000  0 15        .000000000000
G02  22934720.039 5 120522814.932 5       282.266          35.000
G12  20592786.977 8 108215807.781 8     -1432.035          51.000    20592786.180 8  84324007.349 8     -1115.872          51.000
G24  22525212.773 8 118370777.271 8     -3142.168          50.000    22525214.594 8  92236974.417 8     -2448.446          50.000
G25  20207962.539 5 106193566.575 5       485.016          35.000    20207965.039 5  82748239.747 5       377.946          34.000
G29  21723938.344 8 114160056.386 8      2808.352          51.000    21723939.234 8  88955905.970 8      2188.326          51.000
R12  22347834.195 5 119378166.305 5     -2975.312          34.000    22347838.852 4  92849665.655 4     -2314.135          26.000
R13  19501300.562 6 104135871.874 6      -274.363          40.000    19501302.867 7  80994569.528 7      -213.394          44.000
R23  19558629.484 8 104625452.193 8      1534.492          51.000    19558632.688 7  81375342.870 7      1193.494          43.000
R24  21563565.773 8 115310090.814 8      4044.688          48.000    21563571.086 7  89685700.726 7      3145.868          46.000
C29  22158859.320 8 115386982.129 8      1735.910          51.000
C30  22794152.539 6 118695119.007 6     -1561.754          37.000
E05  26487987.469 5 139195316.316 5     -1955.547          33.000    26487998.734 6 106656233.272 6     -1498.436          38.000
E12  23290436.211 8 122392066.060 8      2386.535          48.000    23290437.367 8  93780990.413 8      1828.608          49.000
E31  24549373.523 5 129007819.203 5     -1354.141          35.000    24549368.195 7  98850140.312 7     -1037.495          43.000
E33  25091134.508 7 131854822.518 7      -283.441          42.000    25091137.172 7 101031627.197 7      -216.994          43.000
> 2020 05 07 10 07 30.0000000  0 16        .000000000000
G02  22933163.516 6 120514638.107 6       266.496          36.000
G06  23638817.039 5 124222818.365 5     -1111.316          32.000    23638817.914 4  96797007.554 4      -865.961          27.000
G12  20600995.453 8 108258943.029 8     -1440.004          51.000    20600994.375 8  84357619.223 8     -1122.081          51.000
G24  22543181.258 8 118465199.890 8     -3148.969          50.000    22543182.930 8  92310550.391 8     -2453.745          50.000
G25  20205233.109 6 106179225.021 6       474.793          38.000    20205234.539 5  82737064.492 5       369.972          34.000
G29  21707947.938 8 114076024.871 8      2797.352          51.000    21707949.047 8  88890426.863 8      2179.754          51.000
R12  22364570.023 5 119467506.213 5     -2981.816          32.000
R13  19502889.094 7 104144355.085 7      -287.555          42.000    19502891.562 7  81001167.568 7      -223.654          44.000
R23  19550104.070 8 104579849.040 8      1509.418          51.000    19550107.711 7  81339873.737 7      1173.992          43.000
R24  21540914.820 8 115188966.618 8      4034.008          50.000    21540920.305 7  89591493.018 7      3137.562          45.000
C29  22148906.500 8 115335150.585 8      1723.172          51.000
C30  22803194.727 6 118742207.485 6     -1574.031          39.000
E05  26499182.891 5 139254146.879 5     -1963.215          34.000    26499192.344 6 106701315.814 6     -1504.338          38.000
E12  23276846.305 7 122320649.943 7      2378.227          47.000    23276847.930 8  93726268.977 8      1822.331          49.000
E31  24557121.117 5 129048548.943 5     -1357.586          33.000    24557118.164 7  98881348.753 7     -1040.174          43.000
E33  25092801.641 6 131863583.062 6      -296.836          39.000    25092803.797 7 101038339.833 7      -227.613          43.000
> 2020 05 07 10 08  0.0000000  0 16        .000000000000
G02  22931691.523 5 120506907.195 5       248.324          34.000
G12  20609246.594 8 108302302.940 8     -1451.215          51.000    20609245.367 8  84391406.152 8     -1130.817          51.000
G24  22561186.164 8 118559813.714 8     -3159.043          51.000    22561187.633 8  92384275.407 8     -2461.592          51.000
G25  20202557.867 6 106165162.810 6       462.082          40.000    20202558.406 5  82726106.903 5       360.061          34.000
G29  21692017.141 8 113992308.146 8      2783.195          50.000    21692018.438 8  88825193.047 8      2168.724          50.000
G32  22251023.930 5 116929919.878 5      -882.480          30.000
R12  22381345.727 4 119557135.735 4     -2990.699          29.000
R13  19504548.297 7 104153214.834 7      -303.664          42.000    19504550.477 7  81008058.481 7      -236.183          44.000
R23  19541716.539 8 104534982.286 8      1481.109          51.000    19541720.289 7  81304977.353 7      1151.974          43.000
R24  21518321.445 8 115068146.858 8      4020.102          51.000    21518326.164 7  89497522.108 7      3126.749          44.000
C29  22139024.562 8 115283688.761 8      1707.098          51.000
C30  22812306.711 6 118789651.501 6     -1589.734          39.000
E05  26510419.305 5 139313194.456 5     -1973.750          35.000    26510426.961 6 106746562.338 6     -1512.423          36.000
E12  23263299.938 7 122249463.383 7      2366.965          47.000    23263301.422 8  93671723.439 8      1813.651          49.000
E31  24564884.969 6 129089354.327 6     -1364.156          37.000    24564885.484 7  98912622.815 7     -1045.161          43.000
E33  25094542.758 6 131872731.479 6      -313.398          40.000    25094544.344 7 101045349.716 7      -240.214          43.000
> 2020 05 07 10 08 30.0000000  0 14        .000000000000
G12  20617554.852 8 108345963.694 8     -1459.961          51.000    20617553.688 8  84425427.505 8     -1137.632          51.000
G24  22579241.570 8 118654693.536 8     -3166.664          50.000    22579243.227 8  92458207.702 8     -2467.530          50.000
G25  20199950.102 6 106151456.749 6       451.430          40.000    20199951.062 6  82715426.840 6       351.760          36.000
G29  21676161.117 8 113908985.029 8      2771.246          49.000    21676162.062 8  88760265.940 8      2159.413          49.000
R12  22398167.391 5 119646965.411 5     -2998.844          30.000
R13  19506292.797 7 104162529.478 7      -317.504          42.000    19506294.922 7  81015303.193 7      -246.947          44.000
R23  19533481.656 8 104490931.989 8      1455.133          51.000    19533485.578 7  81270716.000 7      1131.767          42.000
R24  21495800.438 8 114947713.328 8      4008.363          51.000    21495803.945 7  89403851.640 7      3117.619          43.000
C29  22129227.977 8 115232673.781 8      1693.465          51.000
C30  22821500.734 6 118837525.203 6     -1602.652          36.000
E05  26521711.648 5 139372533.953 5     -1982.453          34.000    26521717.336 6 106792030.226 6     -1518.948          36.000
E12  23249812.102 7 122178584.837 7      2357.969          47.000    23249813.164 8  93617413.910 8      1806.725          49.000
E31  24572680.211 6 129130332.054 6     -1368.137          39.000    24572683.688 7  98944021.351 7     -1048.390          42.000
E33  25096372.336 7 131882344.358 7      -327.742          43.000    25096373.406 7 101052715.414 7      -251.208          42.000
> 2020 05 07 10 09  0.0000000  0 14        .000000000000
G02  22929053.875 5 120492991.176 5       216.297          33.000
G12  20625915.641 8 108389900.199 8     -1468.016          51.000    20625914.477 8  84459663.734 8     -1143.908          51.000
G24  22597342.180 8 118749813.032 8     -3173.434          49.000    22597343.883 8  92532326.779 8     -2472.802          49.000
G25  20197404.352 6 106138082.496 6       441.203          37.000    20197406.031 5  82705005.364 5       343.795          33.000
G29  21660375.211 8 113826032.552 8      2760.125          48.000    21660375.117 8  88695627.650 8      2150.747          48.000
R13  19508117.883 7 104172275.697 7      -330.820          42.000    19508120.117 7  81022883.576 7      -257.305          43.000
R23  19525395.234 8 104447674.583 8      1429.805          51.000    19525399.031 6  81237071.353 6      1112.070          41.000
R24  21473347.508 8 114827645.405 8      3997.309          51.000    21473349.391 6  89310465.558 6      3109.021          41.000
C29  22119512.016 8 115182082.506 8      1680.418          51.000
C30  22830770.227 4 118885802.771 4     -1615.422          29.000
E05  26533054.008 5 139432136.244 5     -1989.957          35.000    26533058.273 5 106837631.464 5     -1524.632          34.000
E12  23236378.438 8 122107991.629 8      2349.473          48.000    23236378.664 8  93563323.010 8      1800.230          48.000
E31  24580503.156 7 129171448.134 7     -1371.742          42.000    24580507.578 6  98975525.807 6     -1051.027          41.000
E33  25098284.734 6 131892396.784 6      -341.172          39.000    25098286.797 7 101060417.927 7      -261.543          42.000
> 2020 05 07 10 09 30.0000000  0 14        .000000000000
G02  22927858.188 5 120486705.684 5       194.445          31.000
G12  20634325.742 8 108434095.897 8     -1481.980          50.000    20634324.609 8  84494101.940 8     -1154.790          50.000
G24  22615484.781 7 118845156.033 7     -3186.266          46.000    22615486.859 7  92606620.029 7     -2482.804          46.000
G25  20194919.156 6 106125024.618 6       425.395          39.000    20194921.195 5  82694830.406 5       331.476          35.000
G29  21644657.344 8 113743436.784 8      2742.727          49.000    21644655.297 8  88631267.367 8      2137.193          49.000
R13  19510021.227 6 104182438.951 6      -350.238          41.000    19510023.555 7  81030788.323 7      -272.408          44.000
R23  19517454.375 8 104405196.758 8      1398.391          51.000    19517458.047 6  81204033.071 6      1087.637          39.000
R24  21450960.422 8 114707931.013 8      3979.949          51.000    21450960.750 6  89217354.474 6      3095.519          41.000
C29  22109874.117 8 115131900.697 8      1661.414          51.000
C30  22840115.922 6 118934467.295 6     -1632.973          36.000
E05  26544444.227 5 139491984.070 5     -2003.457          34.000    26544447.672 6 106883488.826 6     -1535.431          36.000
E12  23222996.625 8 122037670.007 8      2334.930          48.000    23222995.844 8  93509440.192 8      1789.123          48.000
E31  24588349.828 7 129212687.046 7     -1381.254          43.000    24588354.930 6  99007124.473 6     -1058.387          40.000
E33  25100278.812 6 131902872.889 6      -360.758          41.000    25100280.352 7 101068445.094 7      -276.434          42.000
> 2020 05 07 10 10  0.0000000  0 14        .000000000000
G02  22926762.031 5 120480946.561 5       182.973          31.000
G12  20642782.203 8 108478535.117 8     -1486.887          50.000    20642781.164 8  84528729.898 8     -1158.613          50.000
G24  22633665.805 7 118940704.730 7     -3189.863          44.000    22633669.102 7  92681073.522 7     -2485.608          43.000
G25  20192491.969 7 106112268.122 7       418.875          42.000    20192494.070 6  82684890.254 6       326.399          37.000
G29  21629005.492 8 113661184.176 8      2734.539          51.000    21629002.953 8  88567174.479 8      2130.813          51.000
R13  19511999.859 6 104193004.334 6      -360.434          41.000    19512002.234 7  81039005.816 7      -280.337          44.000
R23  19509656.344 8 104363483.949 8      1376.090          51.000    19509659.422 6  81171589.826 6      1070.295          38.000
R24  21428637.086 8 114588559.007 8      3971.758          50.000    21428637.664 7  89124509.670 7      3089.145          44.000
C29  22100312.359 8 115082114.359 8      1651.523          50.000
C30  22849531.375 5 118983502.178 5     -1642.254          35.000
E05  26555877.203 5 139552060.485 5     -2007.859          34.000    26555881.344 5 106929521.338 5     -1538.579          35.000
E12  23209663.844 8 121967606.510 8      2329.500          48.000    23209662.445 7  93455755.191 7      1784.968          47.000
E31  24596217.602 7 129254033.906 7     -1381.594          43.000    24596223.391 6  99038805.781 6     -1058.450          40.000
E33  25102350.023 6 131913757.215 6      -371.129          39.000    25102351.109 6 101076784.985 6      -284.300          41.000
> 2020 05 07 10 10 30.0000000  0 15        .000000000000
G02  22925792.352 6 120475845.658 6       165.141          36.000
G12  20651319.680 8 108523399.957 8     -1496.680          49.000    20651318.750 8  84563689.502 8     -1166.244          49.000
G24  22651921.062 7 119036640.860 7     -3198.426          44.000    22651925.008 7  92755828.906 7     -2492.280          45.000
G25  20190156.867 7 106099995.839 7       406.906          43.000    20190159.219 5  82675327.375 5       317.067          35.000
G29  21613454.367 8 113579459.504 8      2721.184          51.000    21613452.797 8  88503492.963 8      2120.403          51.000
R13  19514089.008 6 104204159.062 6      -375.867          40.000    19514090.977 7  81047681.708 7      -292.344          43.000
R23  19502036.508 8 104322724.359 8      1348.727          51.000    19502038.633 6  81139887.978 6      1049.013          37.000
R24  21406412.664 8 114469719.224 8      3958.297          48.000    21406415.375 7  89032078.742 7      3078.675          46.000
C29  22090861.766 8 115032905.716 8      1636.406          50.000
C30  22859053.516 6 119033086.809 6     -1656.086          36.000
E05                                                                  26567392.727 6 106975867.777 6     -1545.440          36.000
E12  23196415.367 8 121897985.624 8      2319.148          48.000    23196412.742 7  93402409.341 7      1777.046          47.000
E24  21944099.445 5 115317022.161 5       773.820          31.000
E31  24604141.305 7 129295671.599 7     -1386.988          43.000    24604147.117 6  99070709.981 6     -1062.626          38.000
E33  25104533.484 6 131925232.021 6      -386.484          37.000    25104535.508 6 101085577.426 6      -296.200          41.000
> 2020 05 07 10 11  0.0000000  0 15        .000000000000
G12  20659886.875 8 108568420.625 8     -1507.824          50.000    20659886.047 8  84598770.546 8     -1174.928          49.000
G24  22670199.266 7 119132694.511 7     -3208.156          45.000    22670202.594 7  92830675.826 7     -2499.865          45.000
G25  20187862.312 6 106087939.138 6       393.793          41.000    20187865.227 6  82665932.561 6       306.852          38.000
G29  21597952.727 8 113497995.662 8      2706.648          51.000    21597952.469 8  88440014.656 8      2109.077          51.000
G32  22283097.758 5 117098439.207 5      -992.328          34.000
R13  19516237.297 6 104215631.103 6      -392.227          40.000    19516239.203 7  81056604.403 7      -305.065          42.000
R23  19494543.773 8 104282645.393 8      1320.031          51.000    19494545.961 6  81108715.522 6      1026.694          38.000
R24  21384237.203 8 114351142.118 8      3943.570          48.000    21384242.055 7  88939852.098 7      3067.221          47.000
C29  22081471.781 8 114984009.563 8      1620.250          51.000
C30  22868629.844 5 119082953.125 5     -1670.723          30.000
E05  26578930.891 5 139673226.651 5     -2027.438          35.000    26578929.578 6 107022320.858 6     -1553.455          36.000
E12  23183200.688 8 121828540.453 8      2307.398          48.000    23183197.070 7  93349198.128 7      1768.105          47.000
E24  21939694.016 5 115293867.302 5       767.750          34.000
E31  24612069.469 7 129337331.619 7     -1393.449          45.000    24612074.414 6  99102631.291 6     -1067.786          37.000
E33  25106777.812 5 131937028.388 5      -403.000          34.000    25106781.086 6 101094616.222 6      -308.768          40.000
> 2020 05 07 10 11 30.0000000  0 18        .000000000000
G02  22924112.156 6 120467001.475 6       127.121          38.000
G12  20668523.766 8 108613807.351 8     -1519.168          50.000    20668522.984 8  84634136.822 8     -1183.764          50.000
G24  22688540.203 7 119229074.122 7     -3218.203          46.000    22688543.188 7  92905776.733 7     -2507.694          46.000
G25  20185648.812 6 106076308.764 6       380.426          41.000    20185651.633 6  82656869.982 6       296.439          36.000
G29  21582540.391 8 113417005.199 8      2691.527          50.000    21582541.727 8  88376905.191 8      2097.294          50.000
G32  22288821.539 5 117128547.643 5     -1012.719          34.000
R12  22499969.727 4 120190802.466 4     -3048.270          29.000    22499974.430 4  93481752.621 4     -2370.876          24.000
R13  19518485.203 6 104227635.050 6      -409.223          40.000    19518487.070 7  81065940.798 7      -318.284          43.000
R22  21879846.484 4 116796105.279 4     -3458.457          29.000
R23  19487219.250 8 104243463.314 8      1290.871          51.000    19487221.516 6  81078240.580 6      1004.011          40.000
R24  21362152.641 8 114233045.910 8      3928.156          50.000    21362158.164 8  88847999.497 8      3055.233          48.000
C29  22072182.703 8 114935635.600 8      1603.441          51.000
C30  22878301.516 5 119133308.426 5     -1686.422          35.000
E05  26590543.734 5 139734199.850 5     -2038.531          34.000    26590530.078 6 107069040.623 6     -1561.968          36.000
E12  23170059.594 8 121759483.204 8      2295.137          48.000    23170056.367 8  93296284.185 8      1758.665          48.000
E24  21935332.508 5 115270941.378 5       759.328          33.000    21935345.469 5  88324538.965 5       582.341          35.000
E31  24620041.312 6 129379224.716 6     -1400.383          41.000    24620046.125 6  99134731.175 6     -1073.332          37.000
E33  25109123.742 5 131949356.413 5      -420.375          35.000    25109125.930 6 101104062.407 6      -321.965          38.000
> 2020 05 07 10 12  0.0000000  0 15        .000000000000
G06  23700264.289 6 124545709.249 6     -1280.930          36.000    23700270.883 6  97048634.121 6      -998.127          36.000
G12  20677217.312 8 108659491.696 8     -1527.391          50.000    20677216.562 8  84669735.029 8     -1190.175          50.000
G24  22706929.898 7 119325710.652 7     -3225.082          45.000    22706933.148 7  92981077.882 7     -2513.051          45.000
G25  20183503.695 7 106065037.265 7       370.168          42.000    20183506.406 5  82648086.994 5       288.443          34.000
G29  21567204.836 8 113336422.078 8      2679.711          48.000    21567207.500 8  88314113.111 8      2088.083          48.000
R13  19520820.102 6 104240103.348 6      -422.855          39.000    19520822.273 7  81075638.345 7      -328.888          43.000
R23  19480049.742 8 104205110.676 8      1264.914          51.000    19480052.281 7  81048410.762 7       983.822          42.000
R24  21340146.352 8 114115366.053 8      3916.055          51.000    21340151.859 8  88756470.740 8      3045.823          48.000
C29  22062981.344 8 114887717.876 8      1590.016          51.000
C30  22888053.750 6 119184084.154 6     -1699.051          36.000
E05  26602199.812 6 139795451.840 6     -2045.559          36.000    26602184.062 6 107115973.860 6     -1567.630          37.000
E12  23156979.414 8 121690748.107 8      2286.105          48.000    23156978.070 8  93243617.068 8      1751.682          50.000
E24  21931002.656 5 115248188.175 5       755.961          34.000    21931016.688 6  88307104.764 6       578.976          36.000
E31  24628045.055 7 129421283.641 7     -1404.387          44.000    24628049.672 5  99166957.988 5     -1076.262          35.000
E33  25111559.398 5 131962135.189 5      -433.797          30.000    25111560.133 6 101113863.889 6      -332.135          37.000
> 2020 05 07 10 12 30.0000000  0 17        .000000000000
G02  22922817.508 6 120460218.230 6       115.797          38.000    22922815.281 5  93865108.901 5        90.231          33.000
G06  23707604.461 6 124584282.257 6     -1277.648          36.000    23707611.367 6  97078690.986 6      -995.570          36.000
G12  20685938.727 8 108705322.274 8     -1515.156          51.000    20685937.844 8  84705447.174 8     -1180.638          51.000
G24  22725338.664 7 119422451.139 7     -3211.348          43.000    22725342.898 7  93056460.068 7     -2502.349          43.000
G25  20181398.617 7 106053974.206 7       380.344          44.000    20181401.266 7  82639466.421 7       296.372          44.000
G29  21551919.328 8 113256097.144 8      2688.207          50.000    21551921.258 8  88251522.267 8      2094.710          49.000
G32  22300561.516 5 117190232.814 5     -1026.398          34.000
R13  19523213.586 6 104252884.095 6      -415.918          40.000    19523215.406 7  81085578.938 7      -323.492          43.000
R22  21918891.758 5 117004528.686 5     -3466.816          35.000    21918890.234 5  91003496.559 5     -2696.413          32.000
R23  19473006.969 8 104167435.655 8      1259.758          51.000    19473009.992 7  81019107.978 7       979.812          43.000
R24  21318189.938 8 113997953.049 8      3924.469          50.000    21318195.164 7  88665149.541 7      3052.365          46.000
C29  22053839.094 8 114840108.254 8      1596.707          51.000
E05  26613873.438 5 139856853.242 5     -2033.145          33.000    26613863.219 6 107163003.973 6     -1557.933          38.000
E12  23143932.047 7 121622186.344 7      2297.551          46.000    23143932.672 8  93191082.752 8      1760.347          51.000
E24  21926676.875 5 115225463.934 5       772.016          30.000    21926690.469 6  88289687.999 6       591.727          37.000
E31  24636052.352 7 129463357.787 7     -1387.719          44.000    24636055.562 5  99199196.571 5     -1063.269          34.000
E33                                                                  25114054.719 6 101123905.090 6      -327.194          36.000
> 2020 05 07 10 13  0.0000000  0 17        .000000000000
G02  22922292.359 5 120457472.158 5        74.988          32.000    22922290.641 5  93862968.985 5        58.423          32.000
G12  20694704.594 8 108751386.419 8     -1547.617          50.000    20694703.391 8  84741341.305 8     -1205.935          50.000
G24  22743783.547 6 119519382.870 6     -3242.180          41.000    22743788.555 6  93131991.295 6     -2526.374          41.000
G25  20179350.023 7 106043207.147 7       345.539          43.000    20179352.617 7  82631076.502 7       269.251          43.000
G29  21536700.734 8 113176119.756 8      2651.875          51.000    21536700.781 8  88189202.298 8      2066.399          51.000
G32  22306560.797 5 117221770.992 5     -1067.855          35.000
R13  19525682.719 6 104266067.265 6      -454.586          40.000    19525684.180 7  81095832.502 7      -353.570          42.000
R22  21938504.156 6 117109236.653 6     -3505.730          36.000    21938505.742 5  91084936.030 5     -2726.679          32.000
R23  19466107.617 8 104130528.946 8      1209.039          51.000    19466111.297 7  80990402.770 7       940.364          43.000
R24  21296300.547 8 113880899.930 8      3887.309          49.000    21296305.430 7  88574108.253 7      3023.462          44.000
C29  22044772.789 8 114792894.459 8      1559.012          51.000
C30  22907750.086 5 119286706.301 5     -1727.719          35.000
E05  26625586.625 5 139918402.663 5     -2065.277          31.000    26625584.297 6 107210196.587 6     -1582.165          40.000
E12  23130934.086 7 121553887.108 7      2264.051          42.000    23130937.172 8  93138749.575 8      1734.816          51.000
E24                                                                  21922384.875 6  88272356.114 6       570.042          37.000
E31  24644078.594 6 129505535.043 6     -1415.887          40.000    24644080.312 5  99231514.140 5     -1084.703          33.000
E33                                                                  25116622.773 5 101134252.584 5      -356.233          35.000
> 2020 05 07 10 13 30.0000000  0 18        .000000000000
G02  22921923.055 5 120455520.274 5        58.863          33.000    22921923.695 5  93861460.643 5        45.880          32.000
G12  20703579.812 8 108798026.016 8     -1556.133          50.000    20703578.445 8  84777683.832 8     -1212.571          50.000
G24  22762330.016 7 119616846.727 7     -3249.441          42.000    22762335.344 7  93207937.153 7     -2532.032          42.000
G25  20177422.898 7 106033079.505 7       335.438          43.000    20177425.250 7  82623184.842 7       261.380          43.000
G29  21521614.055 8 113096834.750 8      2639.426          51.000    21521613.266 8  88127421.844 8      2056.698          51.000
G32  22312723.883 5 117254154.940 5     -1084.766          32.000
R12  22568733.438 6 120558201.839 6     -3078.781          36.000    22568734.250 4  93767439.708 4     -2394.617          28.000
R13  19528292.734 6 104280003.291 6      -468.746          40.000    19528294.008 7  81106671.632 7      -364.580          43.000
R22  21958260.445 6 117214712.436 6     -3520.246          37.000    21958264.008 5  91166972.716 5     -2737.972          32.000
R23  19459417.352 8 104094741.121 8      1182.566          51.000    19459421.320 7  80962567.777 7       919.774          44.000
R24  21274543.898 8 113764560.116 8      3874.336          48.000    21274548.188 6  88483621.759 6      3013.375          41.000
C29  22035847.555 8 114746417.658 8      1545.066          51.000
C30  22917753.656 5 119338798.834 5     -1740.074          35.000
E05                                                                  26637412.211 7 107257813.390 7     -1588.061          42.000
E12  23118050.883 6 121486195.425 6      2254.562          38.000    23118056.852 8  93086881.918 8      1727.396          51.000
E24                                                                  21918166.125 6  88255372.574 6       566.372          36.000
E31  24652189.320 7 129548158.903 7     -1419.996          42.000    24652190.688 5  99264173.888 5     -1088.142          34.000
E33                                                                  25119335.008 6 101145169.208 6      -367.289          36.000
> 2020 05 07 10 14  0.0000000  0 17        .000000000000
G02  22921628.406 4 120453978.576 4        42.238          29.000
G12  20712485.086 8 108844823.875 8     -1564.684          50.000    20712483.578 8  84814149.698 8     -1219.234          50.000
G24  22780898.719 7 119714423.683 7     -3256.613          45.000    22780903.547 7  93283971.131 7     -2537.621          45.000
G25  20175537.961 7 106023174.628 7       324.293          44.000    20175540.094 7  82615466.736 7       252.693          44.000
G29  21506579.781 8 113017827.024 8      2626.828          51.000    21506579.156 8  88065857.410 8      2046.879          51.000
R12  22586040.898 5 120650652.419 5     -3085.461          34.000    22586040.977 4  93839340.636 4     -2399.803          24.000
R13  19530964.164 6 104294269.049 6      -483.035          41.000    19530965.766 7  81117767.194 7      -375.694          43.000
R22  21978081.609 6 117320528.401 6     -3535.070          36.000    21978086.086 5  91249273.983 5     -2749.499          31.000
R23  19452857.219 8 104059648.985 8      1155.910          51.000    19452861.383 7  80935273.884 7       899.041          43.000
R24  21252842.094 8 113648513.338 8      3861.164          49.000    21252845.016 6  88393363.248 6      3003.131          41.000
C29  22026984.453 8 114700265.783 8      1530.863          51.000
C30  22927816.203 5 119391169.610 5     -1752.395          33.000
E05                                                                  26649265.992 7 107305533.651 7     -1594.086          42.000
E12  23105204.945 6 121418696.137 6      2244.770          41.000    23105212.367 8  93035161.649 8      1719.958          51.000
E24  21913940.398 5 115158535.643 5       734.754          33.000    21913954.812 6  88238418.354 6       563.134          37.000
E31  24660306.688 7 129590812.466 7     -1424.332          43.000    24660308.734 5  99296856.468 5     -1091.515          34.000
E33                                                                  25122112.031 6 101156335.107 6      -377.909          37.000
> 2020 05 07 10 14 30.0000000  0 17        .000000000000
G06  23738066.680 6 124744366.641 6     -1371.398          36.000    23738069.211 6  97203413.846 6     -1068.628          36.000
G12  20721408.781 8 108891719.052 8     -1573.074          49.000    20721407.023 8  84850691.384 8     -1225.772          49.000
G24  22799477.633 7 119812052.920 7     -3263.426          47.000    22799482.039 7  93360045.825 7     -2542.929          47.000
G25  20173684.000 7 106013432.090 7       313.797          42.000    20173685.992 7  82607875.117 7       244.517          42.000
G29  21491586.148 8 112939037.753 8      2614.340          50.000    21491586.406 8  88004463.141 8      2037.145          50.000
R12  22603356.617 6 120743150.363 6     -3092.395          36.000    22603359.445 4  93911285.157 4     -2405.208          26.000
R13  19533685.906 6 104308803.201 6      -497.195          41.000    19533687.562 7  81129071.519 7      -386.707          43.000
R22  21997955.797 6 117426619.070 6     -3549.156          36.000    21997960.352 4  91331788.900 4     -2760.458          29.000
R23  19446416.219 8 104025192.707 8      1129.539          51.000    19446419.984 6  80908474.527 6       878.530          41.000
R24  21231185.086 8 113532701.794 8      3848.062          51.000    21231186.781 6  88303287.693 6      2992.938          41.000
C29  22018172.141 8 114654379.875 8      1516.926          51.000
C30  22937919.914 5 119443760.247 5     -1765.387          30.000
E05                                                                  26661133.258 7 107353309.676 7     -1599.818          43.000
E12  23092386.516 7 121351330.436 7      2235.156          46.000    23092392.922 8  92983543.753 8      1712.556          51.000
E24  21909726.367 5 115136385.279 5       730.621          32.000    21909739.766 6  88221447.542 6       559.731          36.000
E31  24668417.773 6 129633435.727 6     -1428.336          37.000    24668422.328 5  99329513.666 5     -1094.314          31.000
E33  25124932.625 6 132032442.068 6      -507.078          36.000    25124936.727 5 101167703.658 5      -388.732          34.000
> 2020 05 07 10 15  0.0000000  0 18        .000000000000
G06  23745949.508 6 124785777.793 6     -1390.578          39.000    23745952.266 6  97235682.230 6     -1083.570          38.000
G12  20730412.016 7 108939032.582 7     -1582.957          47.000    20730410.336 7  84887559.054 7     -1233.473          47.000
G24  22818127.383 7 119910054.118 7     -3271.840          47.000    22818131.430 7  93436410.381 7     -2549.486          46.000
