     3.04           OBSERVATION DATA    M (MIXED)           RINEX VERSION / TYPE
Convert 2.6.2       NovAtel             20200515 152811 UTC PGM / RUN BY / DATE 
Rinex Version 3.04 Observation File                         COMMENT             
                                                            MARKER NAME         
                                                            MARKER NUMBER       
                                                            MARKER TYPE         
                                                            OBSERVER / AGENCY   
                    NovAtel GPSCard                         REC # / TYPE / VERS 
                                                            ANT # / TYPE        
        0.0000        0.0000        0.0000                  APPROX POSITION XYZ 
        0.0000        0.0000        0.0000                  ANTENNA: DELTA H/E/N
G    8 C1C L1C D1C S1C C2W L2W D2W S2W                      SYS / # / OBS TYPES 
R    8 C1C L1C D1C S1C C2P L2P D2P S2P                      SYS / # / OBS TYPES 
E    8 C1C L1C D1C S1C C7Q L7Q D7Q S7Q                      SYS / # / OBS TYPES 
C    8 C2I L2I D2I S2I C7I L7I D7I S7I                      SYS / # / OBS TYPES 
DBHZ                                                        SIGNAL STRENGTH UNIT
    30.000                                                  INTERVAL            
  2020    05    08    02    00    0.0000000     GPS         TIME OF FIRST OBS   
  2020    05    08    02    59   30.0000000     GPS         TIME OF LAST OBS    
G L1C  0.00000  08 G09 G30 G02 G07 G06 G05 G28 G13          SYS / PHASE SHIFT   
G L2W  0.00000  08 G09 G30 G02 G07 G06 G28 G05 G13          SYS / PHASE SHIFT   
R L1C  0.00000  07 R11 R07 R08 R10 R24 R09 R01              SYS / PHASE SHIFT   
R L2P  0.25000  05 R11 R08 R09 R07 R01                      SYS / PHASE SHIFT   
E L1C  0.50000  07 E02 E08 E25 E30 E03 E07 E26              SYS / PHASE SHIFT   
E L7Q -0.25000  07 E02 E08 E13 E30 E07 E25 E26              SYS / PHASE SHIFT   
C L2I  0.00000  04 C23 C24 C05 C25                          SYS / PHASE SHIFT   
C L7I  0.00000  01 C05                                      SYS / PHASE SHIFT   
  7 R11  0 R07  5 R08  6 R10 -7 R24  2 R09 -2 R01  1        GLONASS SLOT / FRQ #
 C1C  -71.950 C2C  -71.950 C2P  -71.950                     GLONASS COD/PHS/BIS 
     0     0     0     0GPS                                 LEAP SECONDS        
                                                            END OF HEADER       
> 2020 05 08 02 00  0.0000000  0 18      -0.000000000000
G09  21895161.891 5 115059847.437 5     -2236.707          33.000    21895162.109 5  89657074.941 5     -1742.886          34.000  
G30  20997706.727 8 110343709.669 8      1878.285          51.000    20997707.586 8  85982153.281 8      1463.599          51.000  
G02  22804273.594 7 119837270.193 7     -1536.996          45.000    22804270.398 7  93379673.605 7     -1197.660          42.000  
G07  20799074.977 8 109299879.758 8      -319.648          51.000    20799073.398 8  85168730.002 8      -249.080          51.000  
R11  22025267.031 6 117695929.274 6      4213.680          37.000    22025273.289 5  91541319.392 5      3277.310          34.000  
R07  22024587.422 5 117898931.948 5     -2816.992          32.000                                                                  
R08  19573233.391 8 104813392.304 8      -176.340          50.000    19573234.383 8  81521531.068 8      -137.153          48.000  
R10  19593628.219 8 104444699.097 8       637.262          50.000                                                                  
E02  24634056.609 6 129452859.453 6       725.961          41.000    24634059.250 6  99191159.962 6       556.310          41.000  
E08  21837509.711 8 114756884.979 8      -782.832          51.000    21837509.555 8  87930688.733 8      -599.806          51.000  
E13                                                                  27250815.508 6 109727752.606 6     -2282.223          36.000  
E25  27071611.617 6 142262282.545 6     -1887.148          36.000                                                                  
E30  24734413.266 8 129980216.827 8      2925.324          51.000    24734415.469 8  99595234.620 8      2241.531          51.000  
E07                                                                  24378680.461 5  98162825.522 5      1079.555          34.000  
C23  23701020.234 8 123417438.085 8      2833.684          51.000                                                                  
C24  25268324.141 5 131578758.226 5     -2731.273          30.000                                                                  
C05  39787936.688 5 207186226.631 5        -7.934          35.000    39787934.523 6 160209519.782 6        -6.277          39.000  
C25  22213618.117 8 115672145.445 8        25.332          51.000                                                                  
> 2020 05 08 02 00 30.0000000  0 20      -0.000000000000
G09  21907955.477 6 115127081.826 6     -2241.406          36.000    21907957.250 5  89709465.405 5     -1746.551          35.000  
G30  20987035.609 8 110287632.911 8      1864.066          51.000    20987036.523 8  85938457.114 8      1452.520          51.000  
G02  22813099.383 7 119883656.61227     -1550.875          45.000                                                                  
G07  20800953.352 8 109309752.667 8      -334.512          49.000    20800952.062 8  85176423.163 8      -260.659          50.000  
R11  22001649.094 6 117569711.578 6      4204.805          41.000    22001654.016 6  91443150.096 6      3270.407          37.000  
R24  22637540.945 4 121052718.79524     -2171.387          27.000                                                                  
R08  19574269.195 8 104818938.374 8      -189.340          50.000    19574270.094 7  81525844.673 7      -147.264          47.000  
R10  19590128.367 8 104426045.222 8       610.336          48.000                                                                  
R09  20980261.820 4 112033043.42324     -2475.840          29.000                                                                  
E02  24629963.898 6 129431351.951 6       711.984          41.000    24629967.211 6  99174680.209 6       545.478          41.000  
E08  21842004.680 8 114780506.156 8      -787.844          51.000    21842004.555 8  87948788.085 8      -603.694          51.000  
E03  27346527.711 5 143706971.462 5     -2244.172          34.000                                                                  
E13                                                                  27267835.062 5 109796273.324 5     -2282.516          34.000  
E25  27082427.977 6 142319116.403 6     -1897.801          37.000                                                                  
E30  24717739.445 8 129892592.115 8      2920.367          51.000    24717741.375 8  99528093.629 8      2237.667          51.000  
E07                                                                  24370659.203 5  98130523.482 5      1076.942          31.000  
C23  23684731.500 8 123332616.604 8      2825.145          51.000                                                                  
C24  25284090.914 5 131660869.791 5     -2738.941          31.000                                                                  
C05  39787992.891 5 207186518.647 5        -7.309          35.000    39787990.750 6 160209746.358 6        -5.730          39.000  
C25  22213529.391 8 115671682.438 8         9.543          51.000                                                                  
> 2020 05 08 02 01  0.0000000  0 19      -0.000000000000
G09  21920792.867 6 115194544.617 6     -2249.898          36.000    21920794.969 6  89762033.758 6     -1753.171          36.000  
G30  20976455.977 8 110232036.384 8      1847.559          51.000    20976456.945 8  85895135.150 8      1439.656          51.000  
G02  22822011.578 7 119930489.47327     -1566.703          44.000                                                                  
G07  20802926.445 8 109320122.671 8      -351.336          50.000    20802925.656 8  85184503.696 8      -273.768          50.000  
R11  21978090.703 7 117443818.224 7      4193.367          42.000    21978094.367 6  91345233.053 6      3261.509          39.000  
R24  22649804.336 5 121118296.77925     -2192.715          35.000                                                                  
R08  19575389.031 8 104824934.901 8      -204.781          50.000    19575389.445 7  81530508.643 7      -159.274          47.000  
R10  19586790.383 7 104408255.890 7       581.160          46.000                                                                  
R09  20994252.961 5 112107709.818 5     -2498.441          33.000    20994260.633 4  87194906.614 4     -1943.229          29.000  
E02  24625961.406 6 129410318.974 6       695.719          40.000    24625965.094 6  99158563.989 6       533.018          38.000  
E08  21846538.656 8 114804332.438 8      -795.059          51.000    21846538.625 8  87967044.581 8      -609.207          51.000  
E13                                                                  27284868.375 5 109864848.513 5     -2285.132          32.000  
E25  27093314.547 6 142376322.254 6     -1910.715          38.000                                                                  
E30  24701104.461 8 129805171.914 8      2913.055          50.000    24701105.992 8  99461109.336 8      2232.094          51.000  
E07                                                                  24362666.445 4  98098361.821 4      1072.905          29.000  
C23  23668502.859 8 123248107.472 8      2814.281          51.000                                                                  
C24  25299912.625 5 131743260.996 5     -2748.090          31.000                                                                  
C05  39788055.086 5 207186843.59525        -8.723          35.000    39788052.852 6 160209996.447 6        -6.757          39.000  
C25  22213542.180 8 115671748.434 8        -8.477          51.000                                                                  
> 2020 05 08 02 01 30.0000000  0 18      -0.000000000000
G09  21933655.016 6 115262135.083 6     -2258.309          39.000    21933656.812 6  89814701.712 6     -1759.719          39.000  
G30  20965948.789 8 110176821.269 8      1830.992          51.000    20965949.922 8  85852110.395 8      1426.748          51.000  
G06  23468004.383 5 123325172.677 5     -3326.492          34.000    23468005.469 5  96097548.109 5     -2592.079          34.000  
G02  22830994.711 7 119977693.65227     -1582.797          44.000                                                                  
G07  20804975.039 8 109330889.138 8      -368.656          50.000    20804974.555 8  85192893.131 8      -287.265          50.000  
R11  21954574.211 6 117318151.563 6      4181.934          41.000    21954577.109 6  91247492.285 6      3252.616          40.000  
R08  19576574.227 8 104831281.390 8      -220.625          51.000    19576574.297 7  81535444.795 7      -171.597          47.000  
R10  19583595.688 7 104391230.409 7       551.539          47.000                                                                  
E02  24622030.289 5 129389661.201 5       679.320          33.000    24622034.078 6  99142735.259 6       520.357          37.000  
E08  21851092.742 8 114828264.183 8      -802.609          51.000    21851092.906 8  87985381.886 8      -614.957          51.000  
E13                                                                  27301896.203 5 109933421.030 5     -2287.218          31.000  
E25  27104251.617 6 142433795.713 6     -1923.418          39.000    27104249.484 5 109137577.853 5     -1473.630          34.000  
E30  24684489.523 8 129717858.311 8      2905.492          48.000    24684491.000 8  99394206.732 8      2226.350          51.000  
E07  24354691.625 5 127984769.707 5      1394.375          35.000                                                                  
C23  23652315.500 8 123163813.597 8      2803.004          50.000                                                                  
C24  25315769.289 5 131825831.028 5     -2758.660          31.000                                                                  
C05  39788104.078 5 207187098.077 5        -9.699          35.000    39788101.703 6 160210193.630 6        -8.210          39.000  
C25  22213637.578 8 115672244.212 8       -26.836          51.000                                                                  
> 2020 05 08 02 02  0.0000000  0 19      -0.000000000000
G09  21946571.414 5 115330011.328 5     -2267.527          34.000    21946573.852 5  89867592.272 5     -1766.908          34.000  
G30  20955544.398 8 110122147.164 8      1813.504          51.000    20955545.906 8  85809507.201 8      1413.120          51.000  
G06  23487019.500 5 123425119.88525     -3335.719          33.000    23487018.609 5  96175414.95125     -2599.262          32.000  
G02  22840076.977 7 120025415.294 7     -1599.734          42.000    22840074.523 7  93526288.610 7     -1246.547          42.000  
G07  20807129.195 8 109342209.713 8      -386.598          50.000    20807128.617 8  85201714.333 8      -301.245          50.000  
R11  21931129.594 7 117192876.720 7      4169.027          42.000    21931132.922 6  91150056.246 6      3242.577          39.000  
R07  22088169.531 4 118239291.163 4     -2857.074          29.000                                                                  
R08  19577855.250 8 104838140.193 8      -237.305          51.000    19577855.438 8  81540779.423 8      -184.570          48.000  
R10  19580575.023 8 104375129.892 8       521.230          48.000                                                                  
R09  21022559.719 6 112258925.626 6     -2544.410          36.000                                                                  
E02                                                                  24618205.016 5  99127316.000 5       507.292          34.000  
E08  21855697.195 8 114852460.129 8      -811.004          51.000    21855697.492 8  88003921.635 8      -621.404          51.000  
E25  27115269.438 6 142491693.915 6     -1937.008          39.000    27115269.492 6 109181941.403 6     -1484.187          36.000  
E30  24667925.484 7 129630811.890 7      2896.973          46.000    24667926.953 8  99327508.822 8      2219.834          51.000  
E07  24346746.539 5 127943015.537 5      1387.688          30.000                                                                  
C23  23636199.664 8 123079893.912 8      2790.941          49.000                                                                  
C24  25331691.477 5 131908734.772 5     -2769.012          31.000                                                                  
C05  39788170.102 5 207187441.804 5       -13.012          35.000    39788167.758 6 160210459.408 6        -9.941          39.000  
C25  22213845.539 8 115673326.486 8       -45.875          51.000                                                                  
> 2020 05 08 02 02 30.0000000  0 16      -0.000000000000
G09  21959518.070 6 115398045.260 6     -2271.598          39.000    21959520.211 6  89920605.689 6     -1770.077          39.000  
G30  20945219.070 8 110067887.714 8      1800.383          51.000    20945220.742 8  85767227.106 8      1402.896          51.000  
G06  23506054.102 5 123525151.309 5     -3339.719          32.000    23506057.484 5  96253371.177 5     -2602.382          32.000  
G02  22849232.789 6 120073529.18026     -1611.664          41.000                                                                  
G07  20809364.633 8 109353956.178 8      -400.027          51.000    20809363.789 8  85210867.412 8      -311.710          51.000  
R11  21907735.188 7 117067867.863 7      4161.027          43.000    21907738.148 6  91052827.093 6      3236.355          39.000  
R24  22687216.156 5 121318413.840 5     -2253.781          34.000                                                                  
R08  19579207.852 8 104845382.858 8      -249.250          51.000    19579208.266 8  81546412.595 8      -193.861          48.000  
R10  19577704.016 8 104359825.258 8       495.465          49.000                                                                  
E08  21860327.664 8 114876793.119 8      -814.762          51.000    21860328.000 8  88022566.390 8      -624.280          51.000  
E25  27126343.977 6 142549896.943 6     -1946.086          41.000    27126344.688 6 109226545.632 6     -1491.197          37.000  
E30  24651386.875 6 129543907.223 6      2892.961          41.000    24651390.008 8  99260919.471 8      2216.763          51.000  
C23  23620131.133 8 122996224.027 8      2783.426          48.000                                                                  
C24  25347654.164 4 131991844.041 4     -2775.211          29.000                                                                  
C05  39788228.961 5 207187748.062 5       -10.664          34.000    39788226.609 6 160210696.237 6        -8.506          39.000  
C25  22214141.648 8 115674868.678 8       -60.426          51.000                                                                  
> 2020 05 08 02 03  0.0000000  0 17      -0.000000000000
G09  21972501.516 6 115466272.050 6     -2276.820          36.000    21972503.039 6  89973769.446 6     -1774.143          37.000  
G30  20934980.070 8 110014079.764 8      1786.492          51.000    20934981.438 8  85725298.815 8      1392.072          51.000  
G06  23525126.695 5 123625388.060 5     -3343.359          31.000    23525132.461 5  96331477.692 5     -2605.216          31.000  
G02  22858471.367 7 120122075.64727     -1624.773          42.000                                                                  
G07  20811687.695 8 109366163.350 8      -414.219          50.000    20811686.656 8  85220379.514 8      -322.768          50.000  
R11  21884399.047 7 116943165.434 7      4152.051          46.000    21884401.812 6  90955836.309 6      3229.370          40.000  
R07  22120257.789 5 118411064.100 5     -2871.273          35.000    22120258.891 4  92097509.033 4     -2233.219          27.000  
R08  19580638.742 8 104853047.137 8      -262.133          51.000    19580639.242 8  81552373.703 8      -203.881          48.000  
R10  19574989.508 8 104345353.415 8       468.875          50.000                                                                  
E02  24610786.445 6 129330558.020 6       635.473          36.000                                                                  
E08  21864991.070 8 114901299.194 8      -819.285          51.000    21864991.398 8  88041343.778 8      -627.761          51.000  
E25  27137480.492 6 142608421.139 6     -1956.000          40.000    27137482.789 6 109271388.843 6     -1498.700          36.000  
E30  24634879.859 6 129457182.177 6      2888.109          41.000    24634887.258 8  99194467.637 8      2213.148          51.000  
C23  23604117.828 8 122912841.214 8      2775.012          49.000                                                                  
C24  25363662.969 4 132075236.353 4     -2782.578          29.000                                                                  
C05                                                                  39788285.102 6 160210931.572 6        -7.376          39.000  
C25  22214532.766 8 115676905.907 8       -75.656          51.000                                                                  
> 2020 05 08 02 03 30.0000000  0 17      -0.000000000000
G09  21985527.977 5 115534727.978 5     -2278.508          31.000    21985530.898 5  90027111.721 5     -1775.458          31.000  
G30  20924834.180 8 109960761.186 8      1775.859          51.000    20924835.156 8  85683751.877 8      1383.787          51.000  
G06  23544238.031 5 123725835.625 5     -3345.754          30.000    23544245.812 5  96409748.584 5     -2607.082          31.000  
G02  22867796.930 7 120171081.51127     -1634.457          42.000                                                                  
G07  20814105.312 8 109378867.350 8      -425.035          51.000    20814103.836 8  85230278.747 8      -331.199          51.000  
R11  21861128.414 7 116818810.760 7      4146.168          46.000    21861131.023 6  90859116.001 6      3224.798          39.000  
R07  22136372.781 5 118497375.337 5     -2875.027          31.000    22136385.188 4  92164639.891 4     -2236.139          29.000  
R08  19582155.688 8 104861170.992 8      -271.617          51.000    19582156.289 8  81558692.249 8      -211.255          48.000  
R10  19572438.414 8 104331752.146 8       445.711          51.000                                                                  
E02  24607208.195 6 129311767.224 6       625.109          38.000    24607210.992 6  99083041.263 6       478.959          37.000  
E08  21869694.492 8 114926015.522 8      -820.648          51.000    21869694.906 8  88060282.261 8      -628.851          51.000  
E25  27148686.328 6 142667309.929 6     -1962.383          38.000    27148688.320 6 109316519.190 6     -1503.471          36.000  
E30  24618418.562 7 129370675.358 7      2886.656          47.000    24618426.047 8  99128183.127 8      2211.804          51.000  
C23  23588167.688 8 122829783.881 8      2769.887          50.000                                                                  
C24  25379724.984 4 132158885.048 4     -2784.582          28.000                                                                  
C05                                                                  39788350.258 6 160211193.784 6        -3.948          39.000  
C25  22215025.688 8 115679474.392 8       -87.777          51.000                                                                  
> 2020 05 08 02 04  0.0000000  0 16      -0.000000000000
G30  20914780.406 8 109907927.686 8      1756.539          51.000    20914781.172 8  85642582.920 8      1368.729          51.000  
G06  23563388.164 5 123826485.496 5     -3354.625          34.000    23563398.422 5  96488177.115 5     -2613.994          35.000  
G02  22877208.906 7 120220538.887 7     -1652.703          43.000    22877204.562 7  93678331.389 7     -1287.821          42.000  
G07  20816616.266 8 109392061.594 8      -444.465          51.000    20816614.555 8  85240559.974 8      -346.336          51.000  
R11  21837922.125 7 116694802.328 7      4131.430          45.000    21837924.969 6  90762665.012 6      3213.335          39.000  
R07  22152550.680 5 118583980.001 5     -2887.582          32.000    22152566.508 3  92231998.963 3     -2245.897          23.000  
R08  19583757.789 8 104869750.704 8      -289.930          51.000    19583758.211 8  81565365.362 8      -225.504          48.000  
R10  19570049.445 8 104319016.136 8       413.746          51.000                                                                  
E02  24603722.938 6 129293452.759 6       606.074          39.000    24603725.297 6  99069008.161 6       464.341          40.000  
E08  21874436.867 8 114950936.922 8      -830.664          51.000    21874437.297 8  88079377.872 8      -636.471          51.000  
E25  27159960.594 6 142726556.461 6     -1977.645          38.000    27159961.586 5 109361913.446 5     -1515.153          35.000  
E30  24601999.320 8 129284383.427 8      2876.293          50.000    24602005.758 8  99062063.292 8      2203.902          51.000  
E07  24315213.727 5 127777311.406 5      1373.777          33.000    24315211.383 5  97907278.421 5      1052.435          32.000  
C23  23572279.656 8 122747048.500 8      2755.930          51.000                                                                  
C05  39788423.320 5 207188761.067 5        -9.109          35.000    39788421.055 6 160211478.759 6        -7.246          39.000  
C25  22215619.617 8 115682568.388 8      -108.426          51.000                                                                  
> 2020 05 08 02 04 30.0000000  0 16      -0.000000000000
G30  20904798.938 8 109855474.539 8      1740.742          51.000    20904799.750 8  85601710.320 8      1356.420          51.000  
G06  23582557.625 5 123927229.153 5     -3361.062          35.000    23582568.664 5  96566678.713 5     -2619.008          35.000  
G02  22886686.320 7 120270343.296 7     -1667.395          45.000    22886682.500 6  93717139.993 6     -1299.269          41.000  
G07  20819200.211 8 109405639.954 8      -460.332          51.000    20819198.742 8  85251140.540 8      -358.700          51.000  
R11  21814760.914 7 116571036.627 7      4120.191          44.000    21814764.383 6  90666402.845 6      3204.594          38.000  
R07  22168773.188 5 118670792.90325     -2898.332          30.000                                                                  
R08  19585425.234 8 104878679.485 8      -304.801          50.000    19585425.680 8  81572309.967 8      -237.067          48.000  
R10  19567802.836 8 104307038.278 8       385.289          51.000                                                                  
E02  24600309.094 7 129275509.679 7       590.543          42.000    24600311.656 7  99055259.558 7       452.434          42.000  
E08  21879198.219 8 114975958.014 8      -837.098          51.000    21879198.602 8  88098549.875 8      -641.422          51.000  
E25  27171283.219 6 142786056.569 6     -1989.004          38.000    27171283.141 5 109407504.495 5     -1523.854          33.000  
E30  24585601.375 8 129198202.757 8      2869.406          51.000    24585606.664 8  98996028.731 8      2198.634          49.000  
E07                                                                  24307379.453 4  97875745.344 4      1049.459          29.000  
C23  23556433.602 8 122664532.227 8      2745.527          51.000                                                                  
C05  39788479.742 5 207189054.454 5        -9.988          35.000    39788477.430 6 160211705.581 6        -7.437          39.000  
C25  22216294.523 8 115686082.805 8      -125.551          51.000                                                                  
> 2020 05 08 02 05  0.0000000  0 15      -0.000000000000
G30  20894908.844 8 109803502.369 8      1725.398          51.000    20894909.938 8  85561212.505 8      1344.464          51.000  
G06  23601764.445 6 124028163.184 6     -3366.773          37.000    23601774.930 6  96645328.639 6     -2623.461          37.000  
G02  22896248.180 7 120320590.716 7     -1681.262          46.000    22896245.438 7  93756293.803 7     -1310.074          42.000  
G07  20821876.070 8 109419701.105 8      -475.742          51.000    20821874.445 8  85262097.287 8      -370.708          51.000  
R11  21791662.617 6 116447618.804 6      4109.211          41.000    21791667.500 6  90570411.191 6      3196.053          37.000  
R07  22185049.195 5 118757868.35925     -2905.824          31.000                                                                  
R08  19587177.031 8 104888059.963 8      -319.184          50.000    19587177.703 8  81579605.889 8      -248.254          48.000  
R10  19565717.281 8 104295919.924 8       357.195          51.000                                                                  
E02  24596984.414 7 129258038.002 7       575.523          42.000    24596988.023 7  99041872.189 7       440.827          43.000  
E08  21883997.609 8 115001178.672 8      -842.992          51.000    21883997.914 8  88117874.793 8      -645.953          51.000  
E25  27182672.648 6 142845906.443 6     -1999.969          37.000    27182670.633 5 109453352.544 5     -1532.564          31.000  
E30  24569243.352 8 129112234.898 8      2863.000          51.000    24569247.727 7  98930157.253 7      2193.767          46.000  
C23  23540648.844 8 122582335.620 8      2735.586          51.000                                                                  
C05  39788540.562 5 207189371.448 5        -9.820          35.000    39788538.359 6 160211950.725 6        -7.835          40.000  
C25  22217068.883 8 115690115.934 8      -142.152          51.000                                                                  
> 2020 05 08 02 05 30.0000000  0 16      -0.000000000000
G09  22037982.195 5 115810377.97725     -2307.168          31.000                                                                  
G30  20885095.016 8 109751931.760 8      1712.113          51.000    20885096.281 8  85521027.615 8      1334.115          51.000  
G06  23620992.602 5 124129204.116 5     -3370.367          35.000    23621001.820 6  96724061.834 6     -2626.261          36.000  
G02  22905878.852 7 120371198.830 7     -1693.348          46.000    22905877.195 7  93795728.709 7     -1319.489          43.000  
G07  20824628.211 8 109434163.486 8      -488.922          51.000    20824626.477 8  85273366.677 8      -380.978          51.000  
R11  21768614.875 7 116324471.096 7      4100.188          44.000    21768621.039 6  90474629.589 6      3189.035          38.000  
R08  19588997.797 8 104897811.202 8      -331.582          49.000    19588998.656 7  81587190.198 7      -257.897          47.000  
R10  19563777.688 8 104285580.168 8       331.410          50.000                                                                  
E02  24593734.500 6 129240957.864 6       562.777          39.000    24593737.148 7  99028784.763 7       431.195          42.000  
E08  21888819.617 8 115026518.745 8      -846.855          51.000    21888819.836 8  88137291.205 8      -648.878          51.000  
E25  27194112.641 6 142906024.074 6     -2008.680          36.000                                                                  
E30  24552910.445 8 129026401.489 8      2858.664          51.000    24552912.531 6  98864388.847 6      2190.508          38.000  
C23  23524910.344 8 122500380.815 8      2727.457          51.000                                                                  
C24  25444382.359 4 132495575.273 4     -2818.418          29.000                                                                  
C05  39788590.719 5 207189631.514 5        -8.145          35.000    39788588.500 6 160212152.577 6        -6.183          39.000  
C25  22217927.461 8 115694587.668 8      -156.660          51.000                                                                  
> 2020 05 08 02 06  0.0000000  0 17      -0.000000000000
G09  22051169.078 6 115879674.14826     -2313.449          36.000    22051172.617 6  90295869.73026     -1802.688          36.000  
G30  20875360.422 8 109700776.720 8      1696.824          51.000    20875361.492 8  85481166.551 8      1322.201          51.000  
G06  23640253.453 5 124230365.071 5     -3375.496          32.000    23640247.445 5  96802870.153 5     -2630.264          32.000  
G02  22915579.961 7 120422183.11227     -1706.887          46.000                                                                  
G07  20827459.016 8 109449039.414 8      -504.207          51.000    20827457.570 8  85284958.323 8      -392.889          51.000  
G05  21473480.906 5 112843915.302 5      2242.410          34.000                                                                  
R11  21745623.078 7 116201610.335 7      4089.027          46.000    21745629.055 6  90379071.244 6      3180.358          40.000  
R08  19590890.594 8 104907947.878 8      -345.746          48.000    19590891.289 7  81595074.279 7      -268.914          47.000  
R10  19561986.602 8 104276031.654 8       303.645          50.000                                                                  
E02  24590561.414 6 129224282.713 6       547.641          36.000    24590563.703 6  99016007.762 6       419.714          41.000  
E08  21893666.883 8 115051991.555 8      -852.770          51.000    21893666.914 8  88156809.326 8      -653.421          51.000  
E25  27205606.117 5 142966424.102 5     -2018.957          33.000                                                                  
E30  24536605.273 8 128940717.532 8      2852.164          51.000    24536600.953 6  98798735.129 6      2185.444          40.000  
C23  23509220.938 8 122418682.529 8      2717.520          51.000                                                                  
C24  25460641.875 5 132580241.068 5     -2826.379          31.000                                                                  
C05                                                                  39788630.414 6 160212321.224 6        -6.147          39.000  
C25  22218872.828 8 115699510.506 8      -172.973          51.000                                                                  
> 2020 05 08 02 06 30.0000000  0 15      -0.000000000000
G09  22064412.836 5 115949268.782 5     -2322.766          32.000    22064412.297 5  90350099.303 5     -1809.954          32.000  
G30  20865734.234 8 109650191.225 8      1678.688          51.000    20865735.273 8  85441749.316 8      1308.072          51.000  
G06  23659550.812 5 124331793.106 5     -3383.242          32.000    23659547.922 5  96881902.548 5     -2636.296          30.000  
G02  22925380.734 7 120473686.003 7     -1723.480          46.000    22925377.805 7  93875591.933 7     -1342.975          44.000  
G07  20830397.602 8 109464481.012 8      -522.113          51.000    20830396.031 8  85296990.748 8      -406.842          51.000  
R11  21722715.367 8 116079196.281 8      4075.008          48.000    21722720.398 6  90283860.352 6      3169.451          40.000  
R08  19592885.016 8 104918626.536 8      -362.914          48.000    19592885.406 7  81603379.906 7      -282.267          46.000  
R10  19560372.961 8 104267430.174 8       273.047          48.000                                                                  
E02  24587495.141 5 129208158.157 5       529.922          32.000    24587496.695 6  99003658.773 6       405.910          38.000  
E08  21898568.609 8 115077750.348 8      -861.348          51.000    21898568.594 8  88176546.577 8      -660.009          51.000  
E30  24520357.766 8 128855338.065 8      2842.898          50.000    24520354.242 7  98733314.546 7      2178.299          46.000  
C23  23493610.219 8 122337394.242 8      2704.836          51.000                                                                  
C24  25476965.719 5 132665240.039 5     -2837.152          31.000                                                                  
C05  39788695.312 5 207190176.553 5       -10.223          35.000    39788693.281 6 160212574.040 6        -8.228          40.000  
C25  22219933.758 8 115705035.646 8      -192.234          51.000                                                                  
> 2020 05 08 02 07  0.0000000  0 16      -0.000000000000
G09  22077714.312 6 116019171.428 6     -2333.055          36.000    22077710.672 5  90404538.820 5     -1817.971          35.000  
G30  20856218.305 8 109600184.813 8      1659.082          51.000    20856219.352 8  85402783.307 8      1292.792          51.000  
G06  23678899.461 5 124433454.65625     -3391.887          34.000    23678897.148 4  96961137.28924     -2643.023          28.000  
G02  22935282.000 7 120525717.623 7     -1741.113          47.000    22935278.484 7  93916136.025 7     -1356.712          44.000  
G07  20833445.141 8 109480495.715 8      -541.414          51.000    20833443.461 8  85309469.735 8      -421.881          51.000  
R11  21699893.320 7 115957241.614 7      4059.453          47.000    21699897.055 6  90189006.735 6      3157.353          41.000  
R08  19594982.273 8 104929857.209 8      -381.578          48.000    19594982.539 7  81612114.878 7      -296.780          47.000  
R10  19558938.328 7 104259784.437 7       240.949          47.000                                                                  
R09  21171091.023 5 113052059.61025     -2747.352          31.000                                                                  
E02                                                                  24584535.031 5  98991744.680 5       391.662          34.000  
E08  21903526.422 8 115103804.011 8      -871.418          51.000    21903526.516 8  88196509.761 8      -667.716          51.000  
E30  24504169.875 8 128770273.608 8      2832.145          48.000    24504169.336 8  98668135.282 8      2170.107          50.000  
C23  23478080.445 8 122256526.270 8      2690.559          51.000                                                                  
C24  25493354.617 5 132750580.670 5     -2848.324          31.000                                                                  
C05  39788780.781 5 207190621.931 5       -14.906          35.000    39788778.586 6 160212917.626 6       -11.596          40.000  
C25  22221111.875 8 115711171.110 8      -212.734          51.000                                                                  
> 2020 05 08 02 07 30.0000000  0 15      -0.000000000000
G09  22091023.602 6 116089111.814 6     -2334.902          36.000    22091020.719 6  90459037.848 6     -1819.405          36.000  
G30  20846761.422 8 109550488.646 8      1648.629          51.000    20846762.484 8  85364059.023 8      1284.646          51.000  
G06  23698249.773 5 124535154.085 5     -3392.508          35.000    23698247.633 5  97040366.946 5     -2643.513          32.000  
G02  22945232.219 7 120578006.614 7     -1750.055          47.000    22945228.680 7  93956880.663 7     -1363.679          44.000  
G07  20836550.383 8 109496812.972 8      -551.633          51.000    20836548.773 8  85322184.492 8      -429.844          51.000  
R11  21677106.352 8 115835475.648 8      4052.875          48.000    21677109.398 7  90094299.859 7      3152.237          44.000  
R08  19597131.398 7 104941365.919 7      -391.012          47.000    19597131.828 7  81621066.101 7      -304.120          47.000  
R10  19557631.906 8 104252820.544 8       217.875          48.000                                                                  
E02  24581634.477 5 129177359.190 5       500.320          33.000    24581630.297 5  98980041.289 5       383.479          33.000  
E08  21908488.898 8 115129883.053 8      -872.512          51.000    21908489.180 8  88216492.384 8      -668.554          51.000  
E30  24487990.469 7 128685256.353 7      2830.375          46.000    24487992.844 8  98602992.173 8      2168.745          51.000  
C23  23462580.523 8 122175813.041 8      2685.113          51.000                                                                  
C24  25509757.594 5 132835993.672 5     -2850.535          33.000                                                                  
C05  39788837.234 5 207190916.424 5        -9.875          35.000    39788835.070 6 160213145.372 6        -7.826          39.000  
C25  22222356.078 8 115717649.128 8      -224.328          51.000                                                                  
> 2020 05 08 02 08  0.0000000  0 18      -0.000000000000
G09  22104336.211 5 116159070.636 5     -2341.672          35.000    22104334.773 5  90513550.398 5     -1824.680          35.000  
G30  20837359.938 8 109501083.989 8      1632.031          51.000    20837361.133 8  85325561.902 8      1271.713          51.000  
G06  23717597.328 6 124636828.583 6     -3398.809          37.000    23717603.797 5  97119604.500 5     -2648.438          32.000  
G02  22955226.734 7 120630531.127 7     -1764.465          45.000    22955224.172 7  93997808.869 7     -1374.911          45.000  
G07  20839709.234 8 109513412.136 8      -567.883          51.000    20839707.664 8  85335118.918 8      -442.503          51.000  
R11  21654352.219 8 115713882.363 8      4040.133          50.000    21654355.195 7  89999727.268 7      3142.323          46.000  
R24  22832744.500 5 122096559.75225     -2462.949          30.000                                                                  
R07  22283604.766 5 119285576.02825     -2959.051          32.000                                                                  
R08  19599329.125 8 104953133.767 8      -406.691          48.000    19599329.562 7  81630218.855 7      -316.319          46.000  
R10  19556449.281 7 104246518.723 7       188.965          47.000                                                                  
R09  21202107.461 5 113217661.822 5     -2782.820          35.000    21202074.672 4  88058096.564 4     -2164.425          25.000  
E02  24578784.797 6 129162389.575 6       484.766          38.000    24578783.000 6  98968569.686 6       371.109          39.000  
E08  21913452.516 8 115155968.097 8      -879.516          51.000    21913452.844 8  88236479.610 8      -673.894          51.000  
E30  24471816.359 7 128600268.705 7      2822.508          45.000    24471820.984 8  98537871.714 8      2162.711          51.000  
C23  23447106.648 8 122095236.923 8      2673.762          51.000                                                                  
C24  25526170.484 5 132921457.612 5     -2858.742          33.000                                                                  
C05  39788861.297 5 207191040.763 5       -11.195          35.000    39788859.141 6 160213242.268 6        -8.636          40.000  
C25  22223662.047 8 115724449.741 8      -241.793          51.000                                                                  
> 2020 05 08 02 08 30.0000000  0 16      -0.000000000000
G09  22117750.219 5 116229561.923 5     -2352.738          34.000    22117747.008 5  90568478.627 5     -1833.303          34.000  
G30  20828112.438 8 109452488.193 8      1612.281          51.000    20828113.688 8  85287695.067 8      1256.323          51.000  
G06  23737038.906 6 124738980.755 6     -3407.426          37.000    23737054.148 6  97199213.693 6     -2655.135          36.000  
G02  22965363.984 7 120683805.692 7     -1782.426          45.000    22965362.336 7  94039321.520 7     -1388.904          45.000  
G07  20843019.641 8 109530808.854 8      -587.273          51.000    20843018.055 8  85348674.810 8      -457.616          51.000  
R11  21631729.539 8 115592990.992 8      4023.984          50.000    21631732.469 7  89905700.617 7      3129.766          47.000  
R07  22300246.320 5 119374622.893 5     -2971.875          35.000                                                                  
R08  19601673.703 8 104965688.295 8      -425.562          48.000    19601673.594 7  81639983.503 7      -330.993          47.000  
R10  19555489.133 7 104241402.716 7       156.617          47.000                                                                  
E02  24576086.258 6 129148213.960 6       465.227          41.000    24576087.609 7  98957707.887 7       356.347          42.000  
E08  21918515.766 8 115182575.902 8      -889.684          51.000    21918516.070 8  88256867.393 8      -681.712          51.000  
E30  24455746.500 7 128515829.063 7      2811.504          45.000    24455752.633 8  98473171.142 8      2154.160          51.000  
C23  23431756.859 8 122015311.473 8      2659.324          48.000                                                                  
C24  25542690.445 5 133007482.348 5     -2870.547          31.000                                                                  
C05  39788951.133 5 207191509.27425       -15.410          35.000    39788949.023 6 160213604.175 6       -11.804          40.000  
C25  22225128.219 8 115732084.178 8      -262.453          51.000                                                                  
> 2020 05 08 02 09  0.0000000  0 18      -0.000000000000
G09  22131149.430 5 116299972.557 5     -2346.727          32.000    22131145.305 4  90623344.039 4     -1828.619          29.000  
G30  20818902.422 8 109404088.749 8      1609.270          51.000    20818903.594 8  85249981.231 8      1253.977          51.000  
G06  23756455.883 6 124841018.14326     -3399.418          36.000    23756472.688 5  97278724.89825     -2648.901          34.000  
G02  22975527.266 7 120737214.749 7     -1783.230          47.000    22975525.617 7  94080938.948 7     -1389.531          45.000  
G07  20846364.875 8 109548388.405 8      -589.938          51.000    20846363.312 8  85362373.153 8      -459.692          51.000  
R11  21609122.430 8 115472181.574 8      4024.688          51.000    21609124.859 8  89811737.700 8      3130.313          48.000  
R24  22860581.625 4 122245382.582 4     -2490.176          29.000                                                                  
R07  22316882.609 5 119463654.842 5     -2968.121          31.000                                                                  
R08  19604048.609 8 104978405.445 8      -427.434          48.000    19604048.453 7  81649874.615 7      -332.448          47.000  
R10  19554634.594 7 104236850.079 7       141.574          46.000                                                                  
R09  21233578.867 5 113385720.765 5     -2812.805          32.000    21233575.344 4  88188883.070 4     -2187.734          27.000  
E02  24573423.344 6 129134221.338 6       462.582          41.000    24573426.062 7  98946986.257 7       354.398          44.000  
E08  21923561.984 8 115209093.314 8      -883.305          51.000    21923562.320 8  88277185.917 8      -676.767          51.000  
E30  24439665.828 7 128431325.914 7      2817.008          47.000    24439671.469 8  98408421.961 8      2158.488          50.000  
C23  23416415.242 8 121935430.674 8      2661.109          48.000                                                                  
C24  25559200.391 5 133093457.950 5     -2865.836          30.000                                                                  
C05  39788990.141 5 207191711.726 5        -3.211          35.000    39788988.047 6 160213761.096 6        -2.383          40.000  
C25  22226637.836 8 115739944.128 8      -266.566          51.000                                                                  
> 2020 05 08 02 09 30.0000000  0 16      -0.000000000000
G30  20809788.953 8 109356197.229 8      1585.570          51.000    20809789.836 8  85212663.180 8      1235.510          51.000  
G02  22985775.523 8 120791067.136 8     -1804.828          49.000    22985773.102 7  94122901.823 7     -1406.360          43.000  
G07  20849803.781 8 109566460.657 8      -612.980          51.000    20849802.562 8  85376455.435 8      -477.647          51.000  
R11  21586590.398 8 115351773.687 8      4004.445          51.000    21586592.180 7  89718087.113 7      3114.569          47.000  
R24  22874629.812 5 122320539.64125     -2516.297          30.000                                                                  
R08  19606512.852 8 104991602.348 8      -450.324          49.000    19606513.039 7  81660138.855 7      -350.252          47.000  
R10  19553945.180 8 104233175.939 8       105.414          48.000                                                                  
R09  21249473.945 5 113470547.625 5     -2840.293          33.000    21249461.602 4  88254859.555 4     -2209.117          25.000  
E02  24570854.469 7 129120722.768 7       439.289          42.000    24570857.984 7  98936643.186 7       336.604          46.000  
E08  21928650.156 8 115235831.304 8      -897.301          51.000    21928650.578 8  88297673.460 8      -687.576          51.000  
E30  24423633.531 8 128347071.928 8      2801.883          49.000    24423637.422 8  98343863.733 8      2146.907          50.000  
E07  24230440.602 5 127331826.017 5      1324.133          33.000                                                                  
C23  23401142.648 8 121855904.104 8      2642.559          50.000                                                                  
C24  25575759.859 5 133179692.94925     -2881.246          30.000                                                                  
C05  39789037.359 5 207191958.13625       -11.254          35.000    39789035.266 6 160213951.250 6        -8.760          39.000  
C25  22228249.641 8 115748336.875 8      -291.066          51.000                                                                  
> 2020 05 08 02 10  0.0000000  0 16      -0.000000000000
G30  20800756.594 8 109308733.262 8      1570.516          51.000    20800757.352 8  85175678.278 8      1223.779          51.000  
G02  22996092.156 8 120845279.399 8     -1817.738          48.000    22996088.883 7  94165145.106 7     -1416.420          44.000  
G07  20853320.859 8 109584943.609 8      -627.512          51.000    20853319.805 8  85390857.742 8      -488.967          51.000  
R11  21564118.469 8 115231689.003 8      3992.629          51.000    21564119.602 7  89624687.898 7      3105.379          46.000  
R07  22350305.875 5 119642534.72525     -2993.895          30.000                                                                  
R08  19609051.969 8 105005197.768 8      -464.664          50.000    19609052.109 7  81670713.078 7      -361.405          47.000  
R10  19553405.320 8 104230297.441 8        77.938          48.000                                                                  
R09  21265463.289 5 113555904.654 5     -2858.789          32.000    21265472.242 4  88321362.89724     -2223.503          26.000  
E02  24568364.211 6 129107637.365 6       424.652          41.000    24568367.812 7  98926616.738 7       325.401          46.000  
E08  21933764.820 8 115262708.939 8      -902.934          51.000    21933765.297 8  88318267.995 8      -691.835          51.000  
E30  24407633.875 8 128262987.860 8      2795.234          51.000    24407635.578 8  98279435.707 8      2141.921          49.000  
E07                                                                  24222878.805 5  97535488.017 5      1011.211          34.000  
C23  23385923.750 8 121776652.995 8      2632.371          51.000                                                                  
C24  25592353.156 4 133266098.77324     -2887.227          29.000                                                                  
C05  39789077.336 5 207192166.019 5       -10.352          35.000    39789075.312 6 160214112.394 6        -8.249          39.000  
C25  22229948.383 8 115757181.418 8      -306.969          51.000                                                                  
> 2020 05 08 02 10 30.0000000  0 15      -0.000000000000
G30  20791842.617 8 109261892.888 8      1552.086          50.000    20791843.664 8  85139179.303 8      1209.418          50.000  
G06  23814900.578 5 125148149.045 5     -3424.852          31.000                                                                  
G02  23006513.828 7 120900044.569 7     -1833.703          47.000    23006510.156 7  94207819.275 7     -1428.860          44.000  
G07  20856953.047 8 109604031.320 8      -645.371          51.000    20856951.922 8  85405731.265 8      -502.890          51.000  
R11  21541744.062 8 115112129.368 8      3977.496          50.000    21541745.312 7  89531697.038 7      3093.609          45.000  
R08  19611702.555 8 105019391.344 8      -482.094          50.000    19611703.086 7  81681752.512 7      -374.959          47.000  
R10  19553051.938 8 104228412.204 8        47.324          49.000                                                                  
E02  24565989.789 7 129095160.792 7       406.941          42.000    24565993.266 7  98917056.786 7       311.753          46.000  
E08  21938943.305 8 115289921.712 8      -911.590          51.000    21938943.773 8  88339119.342 8      -698.506          51.000  
E25  27311897.680 6 143524980.044 6     -2119.039          37.000    27311898.062 6 109973690.646 6     -1623.991          36.000  
E30  24391704.180 8 128179270.893 8      2785.539          51.000    24391703.938 8  98215288.956 8      2134.468          49.000  
E07                                                                  24215360.266 5  97505220.336 5      1005.880          32.000  
C23  23370795.328 8 121697872.642 8      2619.125          51.000                                                                  
C05  39789147.383 5 207192531.05425       -13.734          35.000    39789145.250 6 160214394.275 6       -10.666          40.000  
C25  22231770.586 8 115766670.583 8      -326.012          51.000                                                                  
> 2020 05 08 02 11  0.0000000  0 15      -0.000000000000
G30  20783001.289 8 109215432.365 8      1541.980          51.000    20783002.570 8  85102976.302 8      1201.544          51.000  
G02  23016993.594 8 120955116.078 8     -1841.145          49.000    23016990.125 7  94250732.117 7     -1434.659          44.000  
G07  20860653.641 8 109623478.099 8      -654.578          51.000    20860652.578 8  85420884.602 8      -510.061          51.000  
R11  21519422.164 8 114992850.402 8      3970.820          51.000    21519423.883 7  89438924.504 7      3088.417          45.000  
R08  19614418.555 8 105033935.168 8      -491.047          50.000    19614418.852 7  81693064.369 7      -381.925          47.000  
R10  19552838.320 8 104227272.076 8        25.188          49.000                                                                  
E02  24563684.977 6 129083048.795 6       397.160          41.000    24563688.031 7  98907776.157 7       304.249          46.000  
E08  21944139.039 8 115317225.306 8      -912.109          51.000    21944139.602 8  88360040.264 8      -698.859          51.000  
E25  27323999.945 6 143588576.953 6     -2123.941          37.000    27324000.539 5 110022420.725 5     -1627.464          35.000  
E30  24375797.992 8 128095678.382 8      2783.848          51.000    24375797.008 8  98151237.583 8      2133.043          50.000  
E07                                                                  24207845.359 5  97474961.443 5      1006.601          30.000  
C23  23355710.922 8 121619322.375 8      2614.199          51.000                                                                  
C24  25625703.289 4 133439760.72524     -2899.469          28.000                                                                  
C05  39789200.992 5 207192809.866 5        -8.457          35.000    39789198.695 6 160214609.477 6        -6.452          40.000  
C25  22233670.000 8 115776561.435 8      -336.781          51.000                                                                  
> 2020 05 08 02 11 30.0000000  0 15      -0.000000000000
G30  20774246.523 8 109169423.967 8      1526.145          51.000    20774247.703 8  85067125.613 8      1189.204          51.000  
G02  23027544.922 8 121010562.917 8     -1854.410          49.000    23027541.477 7  94293937.402 7     -1444.998          44.000  
G07  20864436.047 8 109643354.306 8      -669.582          51.000    20864434.844 8  85436372.569 8      -521.752          51.000  
R11  21497167.297 8 114873928.311 8      3958.137          51.000    21497169.023 7  89346429.570 7      3078.552          44.000  
R08  19617213.336 8 105048902.690 8      -505.898          50.000    19617213.633 7  81704705.759 7      -393.477          47.000  
R10  19552778.055 8 104226949.340 8        -2.652          50.000                                                                  
E02  24561463.656 6 129071373.115 6       381.961          38.000    24561466.273 7  98898829.882 7       292.645          46.000  
E08  21949365.664 8 115344691.457 8      -918.250          51.000    21949366.297 8  88381085.752 8      -703.610          51.000  
E25  27336156.383 6 143652463.510 6     -2134.965          36.000    27336156.914 5 110071372.727 5     -1635.623          34.000  
E30  24359929.352 8 128012283.764 8      2776.465          51.000    24359928.141 8  98087337.814 8      2127.431          50.000  
E07                                                                  24200357.617 5  97444814.731 5      1002.776          32.000  
C23  23340684.727 8 121541074.765 8      2603.289          51.000                                                                  
C24  25642427.461 4 133526847.785 4     -2906.754          28.000                                                                  
C05  39789251.570 5 207193072.925 5        -9.184          35.000    39789249.203 6 160214812.868 6        -6.630          39.000  
C25  22235660.078 8 115786924.220 8      -353.215          51.000                                                                  
> 2020 05 08 02 12  0.0000000  0 16      -0.000000000000
G09  22212363.555 6 116726775.920 6     -2391.910          36.000    22212366.914 6  90955914.105 6     -1863.830          36.000  
G30  20765586.805 8 109123915.578 8      1507.320          51.000    20765587.875 8  85031664.537 8      1174.536          51.000  
G02  23038176.688 8 121066438.32628     -1870.516          51.000                                                                  
G07  20868308.969 8 109663705.881 8      -687.492          51.000    20868307.367 8  85452230.931 8      -535.708          51.000  
R11  21474988.852 8 114755415.088 8      3942.242          51.000    21474990.180 7  89254252.666 7      3066.189          43.000  
R07  22417753.961 5 120003622.934 5     -3028.285          33.000                                                                  
R08  19620096.594 8 105064343.191 8      -523.863          50.000    19620097.203 8  81716715.024 8      -407.449          48.000  
R10  19552879.797 8 104227491.425 8       -33.871          49.000                                                                  
E02  24559333.266 5 129060167.172 5       363.891          35.000    24559336.555 7  98890254.338 7       278.715          44.000  
E08  21954632.242 8 115372367.558 8      -927.324          51.000    21954632.820 8  88402292.117 8      -710.533          51.000  
E25  27348376.766 5 143716685.144 5     -2147.453          35.000    27348377.266 5 110120581.492 5     -1645.512          33.000  
E30  24344107.570 8 127929136.055 8      2766.230          51.000    24344106.234 8  98023627.234 8      2119.604          50.000  
E07                                                                  24192903.062 5  97414795.753 5       996.931          30.000  
C23  23325726.117 8 121463178.208 8      2589.379          51.000                                                                  
C05  39789308.188 5 207193368.460 5       -11.793          35.000    39789305.742 6 160215040.632 6        -9.098          39.000  
C25  22237749.453 8 115797804.963 8      -372.555          51.000                                                                  
> 2020 05 08 02 12 30.0000000  0 15      -0.000000000000
G09  22226018.406 5 116798539.793 5     -2397.723          32.000    22226027.523 5  91011833.936 5     -1868.362          31.000  
G30  20757010.797 8 109078846.152 8      1492.211          51.000    20757011.641 8  84996545.511 8      1162.762          51.000  
G02  23048875.352 8 121122660.48528     -1882.746          50.000                                                                  
G07  20872260.297 8 109684470.243 8      -701.758          51.000    20872258.797 8  85468410.957 8      -546.824          51.000  
R11  21452875.891 8 114637251.434 8      3930.117          51.000    21452876.859 7  89162347.652 7      3056.758          44.000  
