     3.02           OBSERVATION DATA    M (MIXED)           RINEX VERSION / TYPE
SAVERINEX           SC600               20200504 005930 LCL PGM / RUN BY / DATE
       G = GPS       R = GLONASS       C = COMPASS          COMMENT
       S = SBAS      J = QZSS          E = GALILEO          COMMENT
BEAN                                                        MARKER NAME
1                                                           MARKER NUMBER
GEODETIC                                                    MARKER TYPE
Unige DICCA         GTER                                    OBSERVER / AGENCY
SC60291900056       SC600               2.12(191226)        REC # / TYPE / VERS
                    HEMA45          NONE                    ANT # / TYPE
  4509407.8091   693652.4678  4442337.6214                  APPROX POSITION XYZ
        0.0000        0.0000        0.0000                  ANTENNA: DELTA H/E/N
G    8 C1C L1C D1C S1C C2Y L2Y D2Y S2Y                      SYS / # / OBS TYPES
R    8 C1C L1C D1C S1C C2P L2P D2P S2P                      SYS / # / OBS TYPES
C    4 C1I L1I D1I S1I                                      SYS / # / OBS TYPES
E    8 C1C L1C D1C S1C C7Q L7Q D7Q S7Q                      SYS / # / OBS TYPES
DBHZ                                                        COMMENT
     30.000                                                 INTERVAL
  2020    05    03    22    00    0.0000000     GPS         TIME OF FIRST OBS
  2020    05    03    22    59   30.0000000     GPS         TIME OF LAST OBS
     0                                                      RCV CLOCK OFFS APPL
G L1C  0.00000                                              SYS / PHASE SHIFT
G L2Y  0.00000                                              SYS / PHASE SHIFT
R L1C  0.00000                                              SYS / PHASE SHIFT
R L2P  0.25000                                              SYS / PHASE SHIFT
C L1I  0.00000                                              SYS / PHASE SHIFT
E L1C  0.50000                                              SYS / PHASE SHIFT
E L7Q -0.25000                                              SYS / PHASE SHIFT
 14 R01  1 R02 -4 R03  5 R04  6 R08  6 R10 -5 R11  0 R12 -1 GLONASS SLOT / FRQ #
    R13 -2 R14 -7 R17  4 R18 -3 R22 -3 R23  3               GLONASS SLOT / FRQ #
 C1C   71.950 C2C   71.950 C2P   71.950                     GLONASS COD/PHS/BIS
    18                                                      LEAP SECONDS
*** Above antenna height is from mark to ANTENNA BOTTOM.    COMMENT
    17     4        0.0000        ANT MEASURE TYPE/HEIGT    COMMENT
    0.0000    0.0000    0.0458    0.0405    0.0000          COMMENT
                    BASE STATION                            COMMENT
                                                            END OF HEADER
> 2020 05 03 22 00  0.0000000  0 17        .000000000000
G01  21575652.586 8 113380807.680 8     -2481.344          50.000    21575653.719 8  88348689.181 8     -1933.515          50.000
G03  20384789.906 8 107122808.474 8      -517.793          51.000    20384791.281 8  83472380.764 8      -403.475          51.000
G04  20984770.914 8 110275710.442 8      2069.992          50.000    20984771.055 8  85929156.217 8      1612.981          49.000
G09  23344157.852 6 122674435.918 6      3494.430          37.000    23344163.430 6  95590438.491 6      2722.932          36.000
G11  24084070.328 6 126562655.728 6     -4009.250          36.000
G22  21603013.938 7 113524595.435 7     -1722.883          45.000    21603009.172 6  88460769.113 6     -1342.506          38.000
R02  19277779.891 7 102869930.190 7      -645.555          42.000    19277784.648 6  80010015.330 6      -502.101          40.000
R03  21209828.375 6 113537918.765 6      2636.402          40.000    21209832.688 6  88307287.638 6      2050.535          37.000
R17  19318909.117 8 103379391.945 8     -1386.848          51.000    19318909.719 7  80406170.077 7     -1078.662          45.000
R24  22387213.945 7 119714480.985 7     -4271.434          43.000    22387224.844 4  93111282.102 4     -3322.223          25.000
C19  21538691.148 8 112157601.466 8      -439.020          51.000
C22  23673555.164 6 123274364.739 6      2101.117          37.000
C29  25015583.547 6 130262684.158 6     -3435.805          37.000
E07  23935252.414 8 125780616.440 8      1356.305          51.000    23935254.805 8  96377447.377 8      1039.294          51.000
E08  22010598.141 8 115666524.496 8     -1303.223          51.000    22010598.641 8  88627608.942 8      -998.549          51.000
E13  23822249.133 8 125186768.442 8     -1681.219          51.000    23822250.242 8  95922324.749 8     -1288.165          51.000
E15  27554773.125 6 144801312.859 6     -3057.195          36.000    27554775.547 6 110951660.378 6     -2342.799          38.000
> 2020 05 03 22 00 30.0000000  0 16        .000000000000
G01  21589851.219 8 113455422.885 8     -2493.055          49.000    21589852.656 8  88406830.917 8     -1942.640          49.000
G03  20387774.594 8 107138493.136 8      -528.039          51.000    20387775.797 8  83484602.588 8      -411.456          51.000
G04  20972997.125 8 110213839.733 8      2054.633          50.000    20972997.688 8  85880945.295 8      1601.016          49.000
G09  23324229.633 6 122569707.710 6      3487.676          36.000    23324235.336 6  95508832.058 6      2717.669          37.000
G11  24106967.320 6 126682989.975 6     -4012.199          37.000    24106965.727 4  98714000.967 4     -3126.389          28.000
G22  21612869.398 7 113576386.455 7     -1730.027          46.000    21612864.812 5  88501125.750 5     -1348.073          35.000
R02  19281450.945 6 102889519.878 6      -660.902          41.000    19281455.633 6  80025251.699 6      -514.035          39.000
R03  21195086.039 6 113459000.713 6      2624.617          40.000    21195088.062 6  88245906.927 6      2041.369          37.000
R17  19326755.945 8 103421380.763 8     -1412.629          51.000    19326756.164 7  80438828.016 7     -1098.711          46.000
R24  22411201.867 7 119842753.875 7     -4280.086          42.000    22411197.469 5  93211018.408 5     -3328.959          30.000
C19  21541246.008 8 112170904.867 8      -447.965          51.000
C22  23661469.656 6 123211430.732 6      2094.293          36.000
C29  25035385.320 6 130365801.394 6     -3438.770          37.000
E07  23927537.086 8 125740069.782 8      1346.754          51.000    23927538.906 8  96346379.181 8      1031.976          51.000
E08  22018061.094 8 115705742.574 8     -1311.305          51.000    22018061.672 8  88657659.158 8     -1004.772          51.000
E13  23831877.680 8 125237367.834 8     -1692.070          51.000    23831878.664 8  95961095.729 8     -1296.509          51.000
> 2020 05 03 22 01  0.0000000  0 16        .000000000000
G01  21604117.938 8 113530397.084 8     -2505.359          49.000    21604119.953 8  88465252.429 8     -1952.225          49.000
G03  20390818.484 8 107154488.869 8      -538.520          51.000    20390819.680 8  83497066.809 8      -419.626          51.000
G04  20961312.000 8 110152434.133 8      2038.844          51.000    20961312.711 8  85833096.799 8      1588.709          49.000
G09  23304340.234 6 122465183.153 6      3480.684          36.000    23304346.531 6  95427384.265 6      2712.218          37.000
G11  24129882.258 6 126803409.343 6     -4015.379          38.000
G22  21622764.672 7 113628386.560 7     -1737.074          47.000    21622760.477 6  88541645.348 6     -1353.561          36.000
R02  19285208.859 6 102909575.944 6      -676.199          40.000    19285213.820 6  80040850.847 6      -525.933          38.000
R03  21180413.500 6 113380447.449 6      2612.027          39.000    21180412.883 6  88184809.948 6      2031.577          38.000
R17  19334747.727 8 103464144.752 8     -1438.621          51.000    19334748.039 7  80472088.885 7     -1118.928          45.000
R24  22435238.125 6 119971282.819 6     -4288.637          41.000    22435235.844 5  93310985.346 5     -3335.606          34.000
C19  21543852.867 8 112184479.865 8      -457.234          51.000
C22  23649423.406 5 123148704.097 5      2087.438          30.000
C29  25055206.172 5 130469015.107 5     -3442.492          35.000
E07  23919876.703 8 125699812.418 8      1336.887          51.000    23919878.328 8  96315532.637 8      1024.422          51.000
E08  22025571.039 8 115745207.449 8     -1319.789          51.000    22025571.758 8  88687898.482 8     -1011.234          51.000
E13  23841569.391 8 125288299.610 8     -1703.469          51.000    23841570.688 8  96000121.403 8     -1305.154          51.000
> 2020 05 03 22 01 30.0000000  0 15        .000000000000
G01  21618454.086 8 113605735.410 8     -2517.527          49.000    21618456.438 8  88523957.628 8     -1961.713          49.000
G03  20393922.703 8 107170801.397 8      -549.230          51.000    20393923.961 8  83509777.874 8      -427.969          51.000
G04  20949716.875 8 110091501.106 8      2022.945          51.000    20949717.578 8  85785616.537 8      1576.321          48.000
G09  23284491.969 6 122360870.248 6      3473.453          38.000    23284495.195 6  95346101.441 6      2706.584          37.000
G11  24152813.445 6 126923917.812 6     -4018.438          40.000    24152812.906 4  98901730.792 4     -3131.250          29.000
G22  21632700.742 7 113680601.619 7     -1744.363          44.000    21632697.125 6  88582332.389 6     -1359.247          37.000
R02  19289055.594 7 102930102.421 7      -692.047          43.000    19289060.016 6  80056815.907 6      -538.259          38.000
R03  21165809.617 6 113302265.487 6      2599.625          39.000    21165809.156 6  88124001.808 6      2021.931          40.000
R17  19342884.523 8 103507689.354 8     -1464.680          50.000    19342885.812 7  80505956.919 7     -1139.195          46.000
R24  22459323.859 6 120100070.681 6     -4297.180          39.000    22459321.117 6  93411153.705 6     -3342.251          37.000
C19  21546512.836 8 112198331.824 8      -466.559          51.000
C29  25075046.680 5 130572329.350 5     -3445.016          34.000
E07  23912272.516 8 125659850.632 8      1326.914          51.000    23912274.469 8  96284912.573 8      1016.702          51.000
E08  22033128.953 8 115784924.099 8     -1328.336          51.000    22033129.516 8  88718330.720 8     -1017.789          51.000
E13  23851325.352 8 125339569.452 8     -1714.898          50.000    23851327.195 8  96039406.125 8     -1314.001          51.000
> 2020 05 03 22 02  0.0000000  0 17        .000000000000
G01  21632852.531 8 113681398.999 8     -2526.914          51.000    21632854.945 8  88582916.232 8     -1969.027          51.000
G03  20397079.914 8 107187392.511 8      -557.109          51.000    20397081.234 8  83522706.017 8      -434.111          51.000
G04  20938204.805 8 110031004.222 8      2009.773          51.000    20938205.492 8  85738476.121 8      1566.057          48.000
G09  23264677.320 6 122256733.263 6      3468.844          38.000    23264673.438 6  95264955.681 6      2702.992          38.000
G11  24175753.914 6 127044475.266 6     -4018.727          40.000    24175750.391 5  98995662.646 5     -3131.469          31.000
G22  21642670.555 7 113732993.514 7     -1748.797          45.000    21642667.312 6  88623157.238 6     -1362.702          37.000
R01  22932104.539 4 122585193.096 4     -3591.574          29.000
R02  19292982.797 6 102951059.357 6      -705.059          41.000    19292986.805 6  80073115.726 6      -548.379          37.000
R03  21151267.375 6 113224417.564 6      2589.816          40.000    21151267.961 6  88063453.519 6      2014.305          39.000
R17  19351159.750 8 103551974.794 8     -1487.996          50.000    19351162.219 7  80540401.139 7     -1157.330          47.000
R24  22483448.875 4 120229075.884 4     -4303.746          28.000    22483446.625 6  93511491.149 6     -3347.355          38.000
C19  21549218.703 8 112212422.559 8      -473.117          51.000
C22  23625454.742 5 123023952.132 5      2075.543          30.000
C29  25094898.750 5 130675704.714 5     -3446.656          32.000
E07  23904717.133 8 125620146.709 8      1319.758          51.000    23904719.734 8  96254490.102 8      1011.225          51.000
E08  22040727.250 8 115824853.618 8     -1333.980          51.000    22040727.562 8  88748926.056 8     -1022.126          51.000
E13  23861138.281 8 125391139.143 8     -1723.480          50.000    23861140.484 8  96078920.555 8     -1320.529          51.000
> 2020 05 03 22 02 30.0000000  0 16        .000000000000
G01  21647318.219 8 113757415.499 8     -2541.293          51.000    21647320.570 8  88642149.827 8     -1980.231          51.000
G03  20400295.508 8 107204290.599 8      -569.996          51.000    20400296.844 8  83535873.358 8      -444.153          51.000
G04  20926781.289 8 109970973.534 8      1991.664          50.000    20926782.141 8  85691698.994 8      1551.949          48.000
G09  23244901.695 6 122152802.846 6      3460.164          36.000    23244889.812 6  95183970.882 6      2696.232          36.000
G11  24198708.695 6 127165108.028 6     -4024.207          39.000    24198704.164 4  99089662.163 4     -3135.737          27.000
G17  22036958.320 5 115805005.845 5       -79.371          32.000
G22  21652679.281 7 113785590.261 7     -1758.172          45.000    21652676.148 5  88664141.778 5     -1370.004          34.000
R02  19296996.336 7 102972474.007 7      -722.852          43.000    19296999.375 6  80089771.589 6      -562.218          38.000
R03  21136792.984 6 113146933.471 6      2575.133          40.000    21136792.820 6  88003188.166 6      2002.881          38.000
R17  19359579.156 8 103597029.027 8     -1516.172          51.000    19359581.516 7  80575443.305 7     -1179.248          47.000
C19  21551975.820 8 112226779.892 8      -484.535          51.000
C20  24614341.852 5 128173276.098 5     -2544.582          35.000
C29  25114766.766 5 130779167.496 5     -3451.590          31.000
E07  23897215.914 8 125580729.566 8      1307.668          51.000    23897219.094 8  96224287.370 8      1002.021          51.000
E08  22048371.234 8 115865023.587 8     -1344.430          51.000    22048371.539 8  88779705.631 8     -1030.117          51.000
E13  23871014.000 8 125443036.882 8     -1736.828          51.000    23871015.984 8  96118686.346 8     -1330.795          51.000
> 2020 05 03 22 03  0.0000000  0 17        .000000000000
G01  21661858.172 8 113833823.396 8     -2552.559          51.000    21661860.945 8  88701688.398 8     -1989.007          51.000
G03  20403576.938 8 107221534.810 8      -579.703          51.000    20403578.383 8  83549310.400 8      -451.717          51.000
G04  20915454.211 8 109911449.958 8      1976.590          49.000    20915455.047 7  85645317.019 7      1540.200          47.000
G09  23225172.953 5 122049120.613 5      3453.863          33.000    23225156.305 5  95103179.609 5      2691.322          34.000
G11  24221685.148 6 127285853.353 6     -4026.117          38.000    24221680.820 5  99183749.415 5     -3137.234          31.000
G22  21662734.469 7 113838431.200 7     -1764.754          44.000    21662731.234 5  88705316.520 5     -1375.130          35.000
R01  22972436.516 5 122800819.420 5     -3594.691          30.000
R02  19301102.477 7 102994385.278 7      -737.691          42.000    19301105.922 6  80106813.729 6      -573.760          38.000
R03  21122393.422 6 113069854.397 6      2563.562          38.000    21122393.680 6  87943237.814 6      1993.885          39.000
R17  19368149.852 8 103642891.355 8     -1541.332          51.000    19368151.508 7  80611113.990 7     -1198.814          46.000
R24  22531837.195 6 120487848.118 6     -4321.246          37.000    22531839.750 6  93712775.844 6     -3360.972          39.000
C19  21554791.453 8 112241442.266 8      -492.934          51.000
C20  24629007.859 6 128249633.070 6     -2546.109          37.000
C29  25134660.406 5 130882754.998 5     -3455.492          30.000
E07  23889776.680 8 125541638.904 8      1298.543          51.000    23889780.219 8  96194334.810 8       995.023          51.000
E08  22056068.406 8 115905472.457 8     -1351.984          51.000    22056068.852 8  88810698.921 8     -1035.924          51.000
E13  23880960.078 8 125495301.774 8     -1747.312          51.000    23880960.961 8  96158733.468 8     -1338.847          51.000
> 2020 05 03 22 03 30.0000000  0 18        .000000000000
G01  21676481.133 8 113910668.016 8     -2565.242          51.000    21676484.562 8  88761567.289 8     -1998.890          51.000
G03  20406933.016 8 107239171.217 8      -590.977          51.000    20406934.695 8  83563053.045 8      -460.501          51.000
G04  20904232.633 8 109852481.240 8      1959.965          48.000    20904233.383 7  85599367.402 7      1527.245          46.000
G09  23205498.570 6 121945721.037 6      3444.949          36.000    23205481.461 6  95022619.555 6      2684.379          36.000
G11  24244691.797 6 127406755.256 6     -4028.926          37.000
G22  21672845.141 7 113891562.467 7     -1772.391          45.000    21672841.352 5  88746717.528 5     -1381.081          34.000
R01  22992627.930 5 122908749.350 5     -3595.734          32.000
R02  19305310.578 7 103016838.377 7      -753.785          44.000    19305312.438 6  80124277.235 6      -586.277          36.000
R03  21108078.812 6 112993228.322 6      2550.180          38.000    21108080.438 6  87883639.776 6      1983.473          40.000
R17  19376879.805 8 103689607.633 8     -1567.910          51.000    19376881.055 7  80647448.879 7     -1219.486          46.000
R24  22556123.242 6 120617700.456 6     -4330.391          38.000    22556122.797 6  93813772.091 6     -3368.082          38.000
C19  21557674.406 8 112256455.033 8      -502.754          51.000
C20  24643702.016 5 128326140.893 5     -2548.637          31.000
C22  23589799.109 5 122838264.111 5      2052.176          33.000
C29  25154589.430 4 130986528.049 4     -3457.430          28.000
E07  23882408.328 8 125502921.273 8      1287.988          51.000    23882412.281 8  96164668.074 8       986.885          51.000
E08  22063827.312 8 115946245.546 8     -1360.922          51.000    22063827.852 8  88841940.633 8     -1042.772          51.000
E13  23890984.758 8 125547979.766 8     -1759.227          51.000    23890984.586 8  96199097.117 8     -1347.985          51.000
> 2020 05 03 22 04  0.0000000  0 17        .000000000000
G01  21691155.070 8 113987780.614 8     -2577.801          51.000    21691158.773 8  88821655.030 8     -2008.676          51.000
G03  20410331.828 8 107257031.743 8      -601.891          51.000    20410333.562 8  83576970.338 8      -469.006          51.000
G04  20893084.914 7 109793901.042 7      1943.406          46.000    20893085.492 7  85553720.521 7      1514.343          45.000
G09  23185847.797 6 121842466.521 6      3436.703          40.000    23185832.594 6  94942161.572 6      2677.954          39.000
G11  24267695.859 5 127527644.101 5     -4032.793          34.000
G19  22324722.359 6 117317202.721 6      1131.570          36.000
G22  21682979.039 7 113944815.583 7     -1780.055          47.000    21682974.164 5  88788213.470 5     -1387.053          34.000
R01  23012806.281 5 123016605.412 5     -3597.051          31.000
R02  19309587.383 7 103039661.149 7      -769.848          44.000    19309588.836 6  80142028.284 6      -598.767          38.000
R03  21093815.719 5 112916885.176 5      2536.828          32.000    21093819.391 6  87824261.695 6      1973.082          37.000
R17  19385736.883 8 103737005.847 8     -1594.246          51.000    19385738.078 7  80684314.157 7     -1239.969          45.000
R24  22580433.891 6 120747703.001 6     -4338.637          37.000    22580434.055 6  93914885.163 6     -3374.498          38.000
C19  21560592.805 8 112271651.347 8      -512.441          51.000
C22  23577994.727 5 122776793.825 5      2044.090          34.000
E07  23875079.055 8 125464409.155 8      1277.441          51.000    23875083.508 8  96135158.816 8       978.786          51.000
E08  22071615.641 8 115987174.054 8     -1369.801          51.000    22071616.328 8  88873301.439 8     -1049.588          51.000
E13  23901055.758 8 125600902.720 8     -1771.059          51.000    23901055.148 8  96239648.448 8     -1357.063          51.000
> 2020 05 03 22 04 30.0000000  0 17        .000000000000
G01  21705900.039 8 114065266.459 8     -2587.980          50.000    21705903.656 8  88882033.636 8     -2016.608          50.000
G03  20413793.523 8 107275222.387 8      -610.840          51.000    20413795.070 8  83591144.858 8      -475.979          51.000
G04  20882031.336 7 109735816.938 7      1928.945          45.000    20882031.570 7  85508460.228 7      1503.077          44.000
G09  23166242.945 6 121739451.296 6      3431.098          41.000    23166229.984 6  94861890.086 6      2673.586          40.000
G11  24290718.484 5 127648623.862 5     -4033.180          35.000
G17  22039637.242 6 115819067.180 6      -154.383          37.000    22039635.883 5  90248610.061 5      -120.295          33.000
G19  22318317.055 5 117283548.186 5      1111.664          35.000
G22  21693156.156 7 113998296.233 7     -1785.363          46.000    21693151.359 5  88829886.717 5     -1391.192          35.000
R01  23032990.883 5 123124493.918 5     -3596.184          31.000
R02  19313953.734 7 103062959.811 7      -783.480          45.000    19313955.953 6  80160149.495 6      -609.374          38.000
R03  21079626.242 6 112840934.063 6      2526.219          36.000    21079628.812 5  87765188.498 5      1964.837          35.000
R17  19394741.391 8 103785193.147 8     -1618.254          50.000    19394742.805 7  80721793.168 7     -1258.645          46.000
R24  22604793.617 6 120877960.748 6     -4344.914          38.000    22604792.883 6  94016196.709 6     -3379.378          38.000
C19  21563566.570 8 112287135.882 8      -519.812          51.000
E07  23867809.641 8 125426209.004 8      1269.273          51.000    23867813.945 8  96105888.580 8       972.647          51.000
E08  22079453.562 8 116028363.186 8     -1376.164          51.000    22079454.438 8  88904861.949 8     -1054.433          51.000
E13  23911193.477 8 125654176.446 8     -1780.402          51.000    23911193.266 8  96280468.551 8     -1364.234          51.000
> 2020 05 03 22 05  0.0000000  0 17        .000000000000
G01  21720707.039 8 114143078.231 8     -2600.133          49.000    21720710.906 8  88942666.161 8     -2026.081          49.000
G03  20417309.203 8 107293696.485 8      -621.449          51.000    20417310.516 8  83605540.257 8      -484.246          51.000
G04  20871063.703 7 109678183.968 7      1912.633          45.000    20871063.445 7  85463551.422 7      1490.360          44.000
G09  23146674.906 6 121636631.161 6      3423.191          41.000    23146665.391 6  94781770.599 6      2667.425          41.000
G11  24313749.305 5 127769645.661 5     -4035.621          35.000    24313745.336 5  99560721.843 5     -3144.640          31.000
G22  21703367.648 7 114051958.063 7     -1792.496          45.000    21703363.125 6  88871701.103 6     -1396.753          37.000
R01  23053172.188 5 123232365.945 5     -3596.070          30.000
R02  19318399.750 7 103086685.762 7      -798.773          43.000    19318401.039 6  80178602.986 6      -621.268          38.000
R03  21065505.242 6 112765328.123 6      2513.633          37.000    21065503.773 6  87706383.960 6      1955.048          36.000
R17  19403884.570 8 103834120.577 8     -1644.176          51.000    19403886.266 7  80759847.839 7     -1278.803          46.000
R24  22629191.438 5 121008423.046 5     -4353.402          35.000    22629190.891 6  94117667.419 6     -3385.977          37.000
C19  21566586.789 8 112302862.107 8      -529.168          51.000
C20  24687815.812 5 128555951.792 5     -2555.746          33.000
C29  25214413.930 5 131298050.062 5     -3465.531          32.000
E07  23860591.344 8 125388274.691 8      1259.172          51.000    23860595.062 8  96076822.031 8       964.856          51.000
E08  22087332.219 8 116069765.570 8     -1384.527          51.000    22087333.156 8  88936585.866 8     -1060.890          51.000
E13  23921388.977 8 125707754.198 8     -1791.914          51.000    23921389.664 8  96321521.591 8     -1372.950          51.000
> 2020 05 03 22 05 30.0000000  0 16        .000000000000
G01  21735585.867 8 114221266.556 8     -2612.531          49.000    21735589.797 8  89003592.103 8     -2035.742          49.000
G03  20420888.547 8 107312505.496 8      -632.621          51.000    20420889.734 8  83620196.617 8      -492.952          51.000
G04  20860192.328 7 109621055.246 7      1895.809          46.000    20860191.805 7  85419035.493 7      1477.250          44.000
G09  23127154.297 6 121534059.877 6      3414.898          41.000    23127148.328 6  94701845.025 6      2660.963          40.000
G11  24336797.141 5 127890759.672 5     -4038.434          35.000    24336795.922 5  99655113.356 5     -3146.834          30.000
G17  22041616.555 5 115829466.264 5      -193.668          32.000
G22  21713623.312 7 114105852.411 7     -1800.582          43.000    21713618.828 6  88913696.659 6     -1403.054          37.000
R02  19322935.531 7 103110890.224 7      -814.910          43.000    19322937.969 6  80197428.697 6      -633.819          40.000
R03  21051456.000 5 112690121.108 5      2500.270          33.000    21051455.523 6  87647889.729 6      1944.660          37.000
R17  19413176.047 8 103883840.019 8     -1670.586          51.000    19413178.195 7  80798518.510 7     -1299.345          46.000
C19  21569663.031 8 112318880.656 8      -538.883          51.000
C20  24702544.055 5 128632667.102 5     -2558.605          35.000
C29  25234390.727 5 131402071.945 5     -3468.949          32.000
E07  23853433.633 8 125350658.093 8      1248.516          51.000    23853436.789 8  96047998.939 8       956.715          51.000
E08  22095261.109 8 116111431.936 8     -1393.359          51.000    22095262.008 8  88968512.040 8     -1067.639          51.000
E13  23931651.906 8 125761687.243 8     -1803.762          51.000    23931653.445 8  96362846.876 8     -1382.112          51.000
> 2020 05 03 22 06  0.0000000  0 16        .000000000000
G01  21750541.859 8 114299860.259 8     -2624.676          48.000    21750545.430 8  89064833.935 8     -2045.205          49.000
G03  20424537.109 8 107331678.901 8      -643.176          51.000    20424538.336 8  83635136.943 8      -501.176          51.000
G04  20849423.055 7 109564461.808 7      1879.590          47.000    20849422.930 7  85374936.696 7      1464.615          46.000
G09  23107687.133 5 121431769.285 5      3406.938          35.000    23107684.461 5  94622138.126 5      2654.760          34.000
G11  24359866.641 5 128011993.081 5     -4041.109          34.000    24359863.906 5  99749577.916 5     -3148.932          32.000
G22  21723928.945 7 114160008.580 7     -1807.398          43.000    21723924.523 6  88955896.246 6     -1408.362          38.000
R02  19327566.086 7 103135601.252 7      -830.133          43.000    19327569.656 6  80216648.398 6      -645.662          39.000
R03  21037484.406 5 112615343.942 5      2487.434          35.000    21037486.969 6  87589729.790 6      1934.677          36.000
R17  19422620.938 8 103934380.159 8     -1696.344          51.000    19422623.367 7  80837827.474 7     -1319.378          47.000
C19  21572800.781 8 112335220.440 8      -548.027          51.000
C20  24717293.438 5 128709504.045 5     -2561.039          30.000
C22  23531194.516 6 122533093.250 6      2016.043          36.000
C29  25254392.109 5 131506226.731 5     -3471.824          34.000
E07  23846341.945 8 125313389.194 8      1238.523          51.000    23846344.750 8  96019442.282 8       948.933          51.000
E08  22103245.516 8 116153390.969 8     -1401.488          51.000    22103246.422 8  89000662.484 8     -1073.907          51.000
E13  23941988.227 8 125816004.934 8     -1815.016          51.000    23941990.062 8  96404466.903 8     -1390.753          51.000
> 2020 05 03 22 06 30.0000000  0 15        .000000000000
G01  21765562.102 8 114378793.021 8     -2635.047          48.000    21765565.578 8  89126339.978 8     -2053.283          48.000
G03  20428242.539 8 107351151.256 8      -652.395          51.000    20428243.914 8  83650310.212 8      -508.359          51.000
G04  20838743.742 8 109508339.733 8      1864.566          48.000    20838744.289 8  85331205.233 8      1452.909          48.000
G11  24382945.938 5 128133245.276 5     -4043.164          31.000
G22  21734271.953 7 114214361.127 7     -1813.473          45.000    21734267.594 6  88998248.856 6     -1413.096          37.000
R02  19332279.188 7 103160750.681 7      -843.805          45.000    19332282.570 6  80236209.037 6      -656.293          40.000
R03  21023583.883 6 112540931.331 6      2475.891          38.000    21023584.352 5  87531853.356 5      1925.696          34.000
R17  19432206.617 8 103985673.314 8     -1720.586          51.000    19432209.086 8  80877722.140 8     -1338.237          48.000
R24  22702672.516 4 121401414.625 4     -4375.652          29.000    22702671.266 5  94423300.256 5     -3403.285          34.000
C19  21575987.844 8 112351816.326 8      -555.820          51.000
C22  23519608.438 6 122472745.693 6      2009.551          38.000
C29  25274406.094 5 131610447.907 5     -3472.957          35.000
E07  23839304.016 8 125276403.041 8      1229.828          51.000    23839306.492 8  95991102.242 8       942.279          51.000
E08  22111273.164 8 116195576.482 8     -1408.340          51.000    22111273.906 8  89032986.462 8     -1079.085          51.000
E13  23952385.148 8 125870641.641 8     -1824.895          51.000    23952386.859 8  96446331.393 8     -1398.308          51.000
> 2020 05 03 22 07  0.0000000  0 17        .000000000000
G01  21780631.906 8 114457986.211 8     -2644.203          50.000    21780635.555 8  89188048.975 8     -2060.415          50.000
G03  20431989.969 8 107370844.570 8      -660.297          51.000    20431991.484 8  83665655.656 8      -514.517          51.000
G04  20828139.633 8 109452612.728 8      1850.812          50.000    20828140.500 7  85287781.632 7      1442.195          47.000
G09  23068878.633 5 121227773.804 5      3395.391          33.000    23068871.391 5  94463171.127 5      2645.759          34.000
G11  24406022.625 5 128254523.673 5     -4041.988          32.000
G17  22045426.336 5 115849501.785 5      -247.871          35.000
G22  21744637.359 7 114268832.184 7     -1817.836          43.000    21744633.031 6  89040693.842 6     -1416.496          39.000
R02  19337059.547 7 103186258.759 7      -856.422          45.000    19337063.492 6  80256048.681 6      -666.103          41.000
R03  21009738.555 6 112466804.480 6      2465.773          38.000    21009736.977 5  87474199.167 5      1917.821          35.000
R17  19441917.180 8 104037639.135 8     -1743.520          50.000    19441920.508 8  80918139.943 8     -1356.071          48.000
C19  21579209.219 8 112368590.701 8      -562.332          51.000
C20  24746800.445 4 128863084.350 4     -2562.824          26.000
C22  23508045.570 6 122412524.110 6      2005.293          36.000
C29  25294417.523 5 131714656.608 5     -3473.613          32.000
E07  23832304.992 8 125239622.134 8      1222.453          51.000    23832307.156 8  95962919.448 8       936.709          51.000
E08  22119329.102 8 116237909.816 8     -1413.711          51.000    22119329.688 8  89065423.688 8     -1083.191          51.000
E13  23962827.602 8 125925519.255 8     -1833.352          51.000    23962829.312 8  96488380.486 8     -1404.773          51.000
> 2020 05 03 22 07 30.0000000  0 17        .000000000000
G01  21795778.359 8 114537580.412 8     -2659.234          50.000    21795781.938 8  89250070.439 8     -2072.131          50.000
G03  20435806.406 8 107390900.259 8      -673.992          51.000    20435807.938 8  83681283.455 8      -525.189          51.000
G04  20817637.844 8 109397423.724 8      1831.113          50.000    20817638.930 8  85244777.236 8      1426.842          48.000
G09  23049535.562 6 121126128.488 6      3383.984          38.000    23049530.047 6  94383967.093 6      2636.874          39.000
G11  24429117.266 5 128375880.055 5     -4046.922          31.000
G17  22046914.133 5 115857317.301 5      -270.289          34.000
G22  21755052.156 7 114323562.855 7     -1828.051          43.000    21755048.094 6  89083341.108 6     -1424.455          39.000
R02  19341933.703 7 103212267.351 7      -874.824          45.000    19341937.234 6  80276277.570 6      -680.422          40.000
R03  20995970.234 5 112393108.735 5      2450.027          31.000    20995971.188 6  87416880.219 6      1905.577          36.000
R17  19451780.570 8 104090420.232 8     -1772.289          50.000    19451783.727 8  80959191.910 8     -1378.444          48.000
C19  21582491.648 8 112385683.336 8      -574.441          51.000
C20  24761583.711 5 128940058.574 5     -2566.457          31.000
C22  23496535.875 5 122352569.364 5      1994.551          35.000
C29  25314453.766 4 131818991.210 4     -3479.297          28.000
E07  23825371.734 8 125203188.275 8      1209.254          51.000    23825373.789 8  95935002.585 8       926.559          51.000
E08  22127439.859 8 116280531.579 8     -1424.895          51.000    22127440.570 8  89098081.914 8     -1091.802          51.000
E13  23973342.977 8 125980778.971 8     -1847.770          51.000    23973344.695 8  96530722.353 8     -1415.850          51.000
> 2020 05 03 22 08  0.0000000  0 15        .000000000000
G01  21810981.383 8 114617471.251 8     -2668.141          49.000    21810984.891 8  89312323.017 8     -2079.071          49.000
G03  20439672.188 8 107411214.666 8      -681.680          51.000    20439673.578 8  83697112.865 8      -531.176          51.000
G04  20807218.938 8 109342670.640 8      1817.586          50.000    20807220.211 8  85202112.511 8      1416.301          48.000
G09  23030225.984 6 121024667.517 6      3379.062          40.000    23030221.438 6  94304906.680 6      2633.039          40.000
G22  21765496.734 6 114378449.478 6     -1832.477          41.000    21765493.180 6  89126109.884 6     -1427.904          40.000
R02  19346881.688 7 103238669.488 7      -886.855          45.000    19346884.453 6  80296812.588 6      -689.773          40.000
R03  20982265.047 6 112319739.444 6      2439.637          40.000    20982265.359 5  87359815.125 5      1897.495          35.000
R17  19461775.586 7 104143909.852 7     -1794.992          46.000    19461778.906 8  81000794.968 8     -1396.105          48.000
R24  22776475.375 5 121796071.219 5     -4394.828          32.000    22776485.266 5  94730298.985 5     -3418.191          30.000
C19  21585815.406 8 112402991.203 8      -580.727          51.000
C20  24776375.438 5 129017064.323 5     -2566.875          32.000
C22  23485058.664 5 122292779.325 5      1990.359          30.000
E07  23818484.688 8 125166998.268 8      1202.109          51.000    23818487.062 8  95907272.597 8       921.058          51.000
E08  22135585.414 8 116323337.364 8     -1430.145          51.000    22135586.375 8  89130881.169 8     -1095.822          51.000
E13  23983911.641 8 126036316.946 8     -1856.086          51.000    23983913.367 8  96573277.432 8     -1422.235          51.000
> 2020 05 03 22 08 30.0000000  0 16        .000000000000
G01  21826255.859 7 114697740.612 7     -2682.941          47.000    21826259.820 7  89374870.524 7     -2090.607          47.000
G03  20443602.906 8 107431870.489 8      -695.309          51.000    20443604.141 8  83713208.316 8      -541.799          51.000
G04  20796898.719 8 109288437.673 8      1797.961          49.000    20796900.156 8  85159853.089 8      1401.012          49.000
G09  23010967.461 7 120923475.943 7      3367.605          42.000    23010962.484 6  94226056.191 6      2624.111          41.000
G11  24475325.547 4 128618712.565 4     -4050.812          28.000
G19  22271432.805 5 117037158.812 5       940.406          35.000
G22  21775986.633 7 114433574.616 7     -1842.441          43.000    21775983.617 6  89169064.554 6     -1435.666          39.000
R02  19351919.094 7 103265547.505 7      -904.930          45.000    19351921.734 6  80317717.736 6      -703.831          40.000
R03  20968637.648 6 112246781.702 6      2424.082          41.000    20968636.336 6  87303070.307 6      1885.400          36.000
R17  19471919.078 8 104198190.937 8     -1823.668          49.000    19471922.297 8  81043013.598 8     -1418.405          48.000
R24  22801157.648 5 121928068.835 5     -4405.930          30.000    22801174.477 5  94832969.378 5     -3426.834          32.000
C19  21589196.320 8 112420595.918 8      -592.867          51.000
C20  24791182.047 4 129094190.470 4     -2572.000          29.000
E07  23811659.914 8 125131135.260 8      1188.949          51.000    23811662.672 8  95879793.171 8       911.043          51.000
E08  22143781.609 8 116366409.089 8     -1441.172          51.000    22143782.375 8  89163884.180 8     -1104.263          51.000
E13  23994549.039 8 126092215.670 8     -1870.309          51.000    23994551.125 8  96616108.919 8     -1433.082          51.000
> 2020 05 03 22 09  0.0000000  0 16        .000000000000
G01  21841605.625 7 114778406.864 7     -2695.762          46.000    21841610.234 7  89437727.338 7     -2100.594          46.000
G03  20447602.203 8 107452886.941 8      -706.594          51.000    20447603.289 8  83729584.776 8      -550.593          51.000
G04  20786681.602 8 109234745.608 8      1780.582          50.000    20786682.617 8  85118015.154 8      1387.467          49.000
G09  22991764.133 7 120822575.367 7      3358.508          42.000    22991758.930 7  94147432.463 7      2617.022          42.000
G17  22052018.500 6 115884155.631 6      -329.367          36.000
G22  21786525.211 6 114488957.455 6     -1850.539          41.000    21786523.312 6  89212220.023 6     -1441.978          40.000
R02  19357048.781 7 103292920.214 7      -920.871          45.000    19357050.742 6  80339007.607 6      -716.236          39.000
R03  20955088.977 5 112174256.083 5      2410.336          34.000    20955088.398 6  87246661.628 6      1874.712          37.000
R17  19482214.656 8 104253281.808 8     -1849.992          50.000    19482217.398 7  81085862.108 7     -1438.880          47.000
R24  22825897.820 5 122060342.296 5     -4413.527          34.000    22825911.352 5  94935848.814 5     -3432.743          33.000
C19  21592637.914 8 112438516.238 8      -602.742          51.000
C20  24806012.258 5 129171412.318 5     -2576.516          30.000
C22  23462226.375 5 122173964.529 5      1971.457          33.000
E07  23804901.211 8 125095618.941 8      1177.875          51.000    23804904.258 8  95852579.386 8       902.519          51.000
E08  22152032.094 8 116409765.308 8     -1450.148          51.000    22152032.414 8  89197105.167 8     -1111.156          51.000
E13  24005258.805 8 126148494.185 8     -1882.480          51.000    24005261.398 8  96659231.421 8     -1442.435          51.000
> 2020 05 03 22 09 30.0000000  0 16        .000000000000
G01  21857009.727 7 114859357.824 7     -2703.016          47.000    21857014.711 7  89500806.003 7     -2106.246          47.000
G03  20451648.906 8 107474152.594 8      -712.898          51.000    20451649.938 8  83746155.411 8      -555.502          51.000
G04  20776546.633 8 109181484.479 8      1768.281          50.000    20776547.234 8  85076512.975 8      1377.878          50.000
G09  22972595.305 7 120721856.569 7      3354.234          42.000    22972591.633 6  94068950.357 6      2613.689          41.000
G17  22053941.531 6 115894233.471 6      -344.023          36.000    22053949.125 5  90307185.927 5      -268.067          35.000
G22  21797092.055 6 114544486.971 6     -1853.074          40.000    21797090.602 6  89255489.736 6     -1443.957          39.000
R02  19362249.703 7 103320672.722 7      -931.250          44.000    19362251.625 6  80360592.887 6      -724.306          41.000
R03  20941595.125 4 112101951.471 4      2401.816          28.000    20941597.789 5  87190454.535 5      1868.070          35.000
R17  19492639.992 8 104309067.798 8     -1871.039          51.000    19492642.312 7  81129251.214 7     -1455.253          46.000
R24  22850666.406 6 122192759.225 6     -4416.340          39.000    22850674.117 5  95038839.767 5     -3434.931          33.000
C19  21596118.734 8 112456641.381 8      -607.543          51.000
C20  24820843.266 5 129248638.511 5     -2574.262          32.000
C22  23450876.648 5 122114846.199 5      1967.777          34.000
E07  23798187.344 8 125060338.265 8      1172.203          51.000    23798190.609 8  95825546.156 8       898.155          51.000
E08  22160315.234 8 116453293.778 8     -1453.727          51.000    22160315.625 8  89230458.154 8     -1113.888          51.000
E13  24016019.578 8 126205040.863 8     -1889.320          51.000    24016022.500 8  96702559.372 8     -1447.637          51.000
> 2020 05 03 22 10  0.0000000  0 15        .000000000000
G01  21872477.633 8 114940640.596 8     -2715.066          49.000    21872482.250 8  89564143.265 8     -2115.636          49.000
G03  20455752.125 8 107495715.434 8      -723.812          51.000    20455753.180 8  83762957.621 8      -564.010          51.000
G04  20766502.859 8 109128703.750 8      1751.191          49.000    20766503.422 8  85035385.140 8      1364.565          49.000
G09  22953470.734 7 120621369.853 7      3345.660          42.000    22953469.703 7  93990649.082 7      2607.011          43.000
G22  21807696.305 6 114600210.936 6     -1860.539          39.000    21807694.016 6  89298911.049 6     -1449.768          38.000
R02  19367530.492 7 103348852.270 7      -946.602          44.000    19367532.367 6  80382510.317 6      -736.246          40.000
R03  20928179.797 5 112030115.215 5      2388.758          33.000    20928180.281 5  87134581.957 5      1857.920          34.000
R17  19503204.250 8 104365596.235 8     -1896.668          51.000    19503205.977 7  81173217.769 7     -1475.186          45.000
R24  22875469.117 6 122325365.243 6     -4423.305          41.000    22875472.078 5  95141977.820 5     -3440.348          34.000
C19  21599647.891 8 112475018.566 8      -616.801          51.000
C20  24835683.531 5 129325913.858 5     -2576.746          32.000
C22  23439562.820 5 122055933.226 5      1960.113          34.000
E07  23791527.383 8 125025341.625 8      1161.832          51.000    23791531.008 8  95798730.563 8       890.214          51.000
E08  22168640.039 8 116497041.725 8     -1461.914          51.000    22168640.812 8  89263979.334 8     -1120.201          51.000
E13  24026840.336 8 126261903.405 8     -1900.645          51.000    24026843.258 8  96746129.362 8     -1456.350          51.000
> 2020 05 03 22 10 30.0000000  0 16        .000000000000
G01  21888019.969 8 115022313.736 8     -2726.328          49.000    21888023.969 8  89627784.689 8     -2124.412          49.000
G03  20459923.125 8 107517634.754 8      -733.836          51.000    20459924.234 8  83780037.601 8      -571.820          51.000
G04  20756561.805 8 109076464.148 8      1734.926          49.000    20756562.391 8  84994678.961 8      1351.890          49.000
G09  22934402.523 7 120521176.895 7      3337.625          42.000    22934404.016 7  93912576.687 7      2600.747          42.000
G17  22058102.203 5 115916108.882 5      -382.891          33.000
G22  21818348.898 6 114656188.269 6     -1867.332          37.000    21818346.258 6  89342529.691 6     -1455.064          37.000
R02  19372902.336 7 103377517.718 7      -960.941          44.000    19372904.008 6  80404805.661 6      -747.402          40.000
R03  20914845.102 5 111958709.827 5      2375.824          31.000    20914842.531 6  87079044.353 6      1847.860          36.000
R17  19513918.195 8 104422926.199 8     -1921.695          51.000    19513919.297 7  81217807.700 7     -1494.655          45.000
R24  22900316.203 6 122458218.101 6     -4429.629          40.000    22900315.188 5  95245307.816 5     -3445.267          34.000
C19  21603236.719 8 112493706.276 8      -625.441          51.000
C20  24850544.812 5 129403299.720 5     -2578.566          30.000
C22  23428300.219 5 121997285.095 5      1952.684          34.000
E07  23784932.750 8 124990688.766 8      1152.074          51.000    23784937.078 8  95772178.388 8       882.719          51.000
E08  22177017.852 8 116541067.760 8     -1469.531          51.000    22177018.648 8  89297713.573 8     -1125.918          50.000
E13  24037732.562 8 126319140.859 8     -1911.461          51.000    24037735.031 8  96789986.638 8     -1464.620          51.000
> 2020 05 03 22 11  0.0000000  0 16        .000000000000
G01  21903610.953 8 115104243.737 8     -2736.203          48.000    21903614.289 8  89691626.242 8     -2132.106          48.000
G03  20464136.648 8 107539777.939 8      -742.734          51.000    20464137.922 8  83797292.025 8      -578.754          51.000
G04  20746698.711 8 109024634.528 8      1719.684          48.000    20746699.484 7  84954292.236 7      1340.016          47.000
G09  22915365.609 6 120421147.357 6      3330.895          39.000    22915369.477 6  93834631.604 6      2595.499          39.000
G17  22060346.844 6 115927863.891 6      -401.156          37.000    22060347.508 6  90333415.500 6      -312.589          36.000
G22  21829024.469 6 114712286.437 6     -1873.324          39.000    21829021.805 6  89386242.577 6     -1459.733          37.000
R02  19378339.648 7 103406533.106 7      -974.082          43.000    19378342.352 6  80427373.208 6      -757.619          40.000
R03  20901564.203 6 111887600.883 6      2364.402          37.000    20901560.523 5  87023737.483 5      1838.983          35.000
R17  19524756.094 8 104480921.193 8     -1945.234          51.000    19524757.234 7  81262914.876 7     -1512.960          46.000
R24  22925181.742 6 122591179.815 6     -4434.922          41.000    22925179.438 5  95348722.503 5     -3449.384          34.000
C19  21606859.719 8 112512572.745 8      -632.895          51.000
C20  24865402.703 5 129480664.491 5     -2579.777          34.000
C22  23417061.914 4 121938771.014 4      1947.492          28.000
E07  23778378.461 8 124956247.456 8      1143.523          51.000    23778383.484 8  95745788.313 8       876.185          51.000
E08  22185423.305 8 116585238.448 8     -1475.730          51.000    22185423.758 8  89331558.647 8     -1130.808          49.000
E13  24048670.633 8 126376620.378 8     -1921.008          51.000    24048672.711 8  96834029.392 8     -1471.935          51.000
> 2020 05 03 22 11 30.0000000  0 16        .000000000000
G01  21919270.422 8 115186534.244 8     -2749.688          49.000    21919272.781 8  89755748.711 8     -2142.617          49.000
G03  20468412.758 8 107562249.443 8      -755.035          51.000    20468414.188 8  83814802.282 8      -588.339          51.000
G04  20736933.625 7 108973320.777 7      1701.328          47.000    20736934.961 7  84914307.489 7      1325.710          47.000
G09  22896380.555 6 120321388.037 6      3320.324          36.000    22896386.133 6  93756897.061 6      2587.266          36.000
G17  22062697.609 5 115940199.574 5      -422.121          35.000    22062693.789 5  90343027.711 5      -328.926          34.000
G22  21839741.430 5 114768609.595 5     -1881.695          32.000    21839739.359 5  89430130.807 5     -1466.256          32.000
R02  19383861.492 6 103436002.644 6      -990.129          40.000    19383865.398 6  80450293.975 6      -770.100          40.000
R03  20888357.406 6 111816895.967 6      2349.793          38.000    20888352.117 5  86968744.790 5      1827.614          33.000
R17  19535737.578 8 104539686.074 8     -1972.234          51.000    19535739.062 7  81308620.853 7     -1533.963          46.000
R24  22950085.695 6 122724353.535 6     -4443.250          40.000    22950083.484 5  95452302.047 5     -3455.861          34.000
C19  21610536.805 8 112531721.110 8      -643.496          51.000
C20  24880277.289 5 129558111.024 5     -2583.090          34.000
C22  23405875.688 5 121880507.270 5      1937.449          30.000
E07  23771884.727 8 124922122.572 8      1131.699          51.000    23771889.852 8  95719640.689 8       867.146          51.000
E08  22193875.945 8 116629657.538 8     -1485.324          51.000    22193876.305 8  89365594.060 8     -1138.052          49.000
E13  24059674.203 8 126434446.188 8     -1933.770          51.000    24059676.195 8  96878337.484 8     -1481.678          51.000
> 2020 05 03 22 12  0.0000000  0 13        .000000000000
G01  21934980.781 8 115269093.027 8     -2756.500          48.000    21934981.461 8  89820080.232 8     -2147.922          48.000
G03  20472734.148 8 107584957.916 8      -760.891          51.000    20472735.516 8  83832497.210 8      -592.902          51.000
G04  20727249.430 7 108922432.967 7      1689.121          46.000    20727251.570 7  84874654.656 7      1316.198          46.000
G09  22877431.055 6 120221809.877 6      3316.621          37.000    22877436.617 6  93679303.614 6      2584.377          37.000
G17  22065139.812 5 115953034.834 5      -435.930          35.000    22065134.180 5  90353028.862 5      -339.710          34.000
R02  19389451.172 6 103465832.648 6     -1000.449          39.000    19389455.773 6  80473495.096 6      -778.127          40.000
R17  19546845.266 8 104599126.510 8     -1992.582          51.000    19546847.203 7  81354852.265 7     -1549.789          47.000
R24  22975010.977 6 122857643.592 6     -4445.195          40.000    22975009.383 5  95555972.064 5     -3457.374          34.000
C19  21614250.680 8 112551060.633 8      -647.887          51.000
C22  23394731.188 5 121822379.726 5      1934.898          33.000
E07  23765434.305 8 124888223.185 8      1126.145          51.000    23765438.750 8  95693665.859 8       862.812          51.000
E08  22202358.273 8 116674232.938 8     -1488.547          51.000    22202358.898 8  89399749.242 8     -1140.530          49.000
E13  24070726.227 8 126492526.710 8     -1940.363          51.000    24070728.430 8  96922840.740 8     -1486.751          51.000
> 2020 05 03 22 12 30.0000000  0 16        .000000000000
G01  21950814.609 7 115352301.585 7     -2772.641          45.000    21950814.047 7  89884918.035 7     -2160.499          45.000
G03  20477173.406 8 107608285.786 8      -776.340          51.000    20477174.742 8  83850674.781 8      -604.940          51.000
G04  20717719.562 7 108872354.860 7      1667.254          47.000    20717721.922 7  84835632.752 7      1299.156          46.000
G09  22858589.750 6 120122797.447 6      3302.430          40.000    22858594.141 6  93602151.085 6      2573.322          40.000
G17  22067727.711 4 115966666.383 4      -460.051          29.000
G22  21861325.867 5 114882032.720 5     -1895.848          32.000    21861325.273 5  89518472.805 5     -1477.278          32.000
R02  19395180.875 6 103496409.411 6     -1019.891          39.000    19395185.484 6  80497276.999 6      -793.248          39.000
R03  20862178.781 6 111676859.781 6      2322.910          38.000    20862185.539 4  86859788.423 4      1806.711          29.000
R17  19558152.281 8 104659630.100 8     -2022.629          51.000    19558153.805 7  81401910.613 7     -1573.156          47.000
R24  23000029.633 6 122991435.987 6     -4456.199          40.000    23000028.742 5  95660032.778 5     -3465.933          34.000
C19  21618074.047 8 112570969.851 8      -661.621          51.000
C20  24910114.039 5 129713500.349 5     -2588.512          33.000
C22  23383682.305 4 121764779.913 4      1923.215          29.000
E07  23759099.750 8 124854932.012 8      1111.215          51.000    23759103.203 8  95668157.060 8       851.414          51.000
E08  22210943.133 8 116719346.255 8     -1501.086          51.000    22210944.016 8  89434316.593 8     -1150.159          49.000
E13  24081899.789 8 126551243.975 8     -1956.227          51.000    24081902.078 8  96967831.902 8     -1498.939          51.000
> 2020 05 03 22 13  0.0000000  0 14        .000000000000
G01  21966628.828 7 115435407.533 7     -2782.121          45.000    21966627.117 7  89949675.871 7     -2167.887          46.000
G03  20481587.438 8 107631481.392 8      -784.516          51.000    20481588.883 8  83868749.281 8      -611.308          51.000
G04  20708201.445 8 108822336.236 8      1652.688          49.000    20708203.320 8  84796657.168 8      1287.808          49.000
G09  22839713.781 6 120023601.383 6      3296.004          41.000    22839716.188 6  93524855.493 6      2568.318          41.000
G31  23335509.273 6 122628937.933 6      -662.453          39.000
R02  19400907.812 6 103526968.707 6     -1032.008          40.000    19400911.992 6  80521045.338 6      -802.673          37.000
R03  20849153.906 6 111607106.596 6      2312.367          36.000    20849160.570 5  86805535.978 5      1798.508          31.000
R17  19569514.695 8 104720430.049 8     -2045.414          51.000    19569515.883 7  81449199.446 7     -1590.878          47.000
R24  23024998.773 6 123124962.963 6     -4460.348          38.000    23024997.984 5  95763887.058 5     -3469.159          34.000
C19  21621863.711 8 112590703.652 8      -668.312          51.000
C20  24924977.828 5 129790932.085 5     -2588.535          35.000
E07  23752737.836 8 124821497.847 8      1103.285          51.000    23752740.352 8  95642538.697 8       845.341          51.000
E08  22219487.242 8 116764245.173 8     -1506.586          51.000    22219488.219 8  89468719.658 8     -1154.427          49.000
E13  24093051.719 8 126609846.121 8     -1965.016          51.000    24093053.930 8  97012734.847 8     -1505.673          51.000
> 2020 05 03 22 13 30.0000000  0 15        .000000000000
G01  21982535.602 8 115518997.804 8     -2794.191          48.000    21982534.094 8  90014811.103 8     -2177.295          48.000
G03  20486088.117 8 107655132.652 8      -795.820          51.000    20486089.594 8  83887178.854 8      -620.120          51.000
G04  20698807.023 8 108772966.325 8      1635.113          50.000    20698808.289 8  84758187.103 8      1274.114          49.000
G09  22820915.516 6 119924811.920 6      3286.191          41.000    22820916.359 7  93447876.744 7      2560.672          42.000
G22  21882987.938 5 114995870.077 5     -1908.898          34.000    21882985.211 5  89607163.931 5     -1487.450          34.000
G31  23339338.172 6 122649068.481 6      -683.434          36.000    23339339.633 6  95570696.148 6      -532.543          36.000
R02  19406743.000 7 103558105.656 7     -1047.219          43.000    19406746.555 6  80545262.937 6      -814.503          37.000
R03  20836221.984 5 111537890.815 5      2298.621          32.000    20836229.109 5  86751701.352 5      1787.813          32.000
R17  19581043.484 8 104782123.417 8     -2071.109          51.000    19581044.688 7  81497183.172 7     -1610.860          47.000
R24  23050028.430 5 123258819.776 5     -4466.773          35.000    23050029.344 5  95867997.916 5     -3474.154          34.000
C19  21625731.500 8 112610844.257 8      -677.961          51.000
C20  24939878.422 5 129868571.307 5     -2590.387          31.000
E07  23746460.570 8 124788508.977 8      1092.270          51.000    23746462.328 8  95617261.521 8       836.871          51.000
E08  22228102.070 8 116809516.785 8     -1515.141          51.000    22228102.875 8  89503408.302 8     -1161.036          49.000
E13  24104293.445 8 126668920.751 8     -1976.902          51.000    24104295.609 8  97057999.820 8     -1514.793          51.000
> 2020 05 03 22 14  0.0000000  0 15        .000000000000
G01  21998527.883 8 115603035.967 8     -2804.730          49.000    21998527.617 8  90080295.374 8     -2185.504          49.000
G03  20490668.781 8 107679204.050 8      -805.328          51.000    20490670.180 8  83905935.804 8      -627.528          51.000
G04  20689529.625 8 108724210.917 8      1618.906          51.000    20689530.273 8  84720195.898 8      1261.488          49.000
G09  22802187.922 6 119826395.767 6      3278.281          41.000    22802189.375 6  93371188.905 6      2554.508          40.000
G11  24730111.336 5 129957648.263 5     -4063.340          31.000
G22  21893913.930 6 115053277.445 6     -1914.957          38.000    21893909.148 5  89651897.030 5     -1492.174          35.000
G31  23343302.984 5 122669913.403 5      -702.582          32.000    23343308.695 5  95586938.793 5      -547.476          30.000
R02  19412679.586 6 103589783.168 6     -1060.484          38.000    19412683.641 5  80569900.999 5      -824.821          35.000
R03  20823383.266 5 111469176.943 5      2286.293          35.000    20823392.961 5  86698257.152 5      1778.225          32.000
R17  19592731.484 8 104844672.224 8     -2095.094          50.000    19592733.078 7  81545832.247 7     -1629.517          46.000
R24  23075112.977 5 123392967.641 5     -4472.258          31.000    23075115.617 5  95972335.102 5     -3478.423          35.000
C19  21629670.633 8 112631356.144 8      -685.910          51.000
E07  23740261.383 8 124755930.218 8      1083.121          51.000    23740262.430 8  95592298.578 8       829.927          51.000
E08  22236780.883 8 116855124.812 8     -1521.949          51.000    22236781.312 8  89538354.718 8     -1166.133          50.000
E13  24115617.875 8 126728432.037 8     -1986.977          51.000    24115620.062 8  97103599.366 8     -1522.533          51.000
> 2020 05 03 22 14 30.0000000  0 16        .000000000000
G01  22014568.688 8 115687328.907 8     -2815.309          49.000    22014569.594 8  90145978.166 8     -2193.747          49.000
G03  20495292.781 8 107703503.265 8      -815.047          51.000    20495294.102 8  83924870.251 8      -635.101          51.000
G04  20680332.969 8 108675879.114 8      1602.672          51.000    20680332.789 8  84682534.759 8      1248.835          48.000
G09  22783494.844 7 119728162.935 7      3270.172          42.000    22783497.930 7  93294643.877 7      2548.189          42.000
G17  22079043.883 5 116026175.939 5      -533.848          32.000
G22  21904862.953 6 115110809.483 6     -1921.141          37.000    21904858.445 6  89696727.232 6     -1496.996          36.000
G31  23347368.484 5 122691279.661 5      -722.133          34.000    23347376.383 5  95603587.853 5      -562.698          34.000
R02  19418679.945 6 103621804.549 6     -1074.375          39.000    19418683.938 5  80594806.526 5      -835.625          35.000
R03  20810605.172 6 111400769.966 6      2273.801          37.000    20810611.750 4  86645051.825 4      1768.515          26.000
R17  19604542.562 8 104907878.976 8     -2119.203          49.000    19604544.812 7  81594993.060 7     -1648.269          47.000
R24  23100214.555 4 123527207.554 4     -4477.637          29.000    23100220.039 5  96076743.901 5     -3482.603          35.000
C19  21633644.453 8 112652048.473 8      -694.051          51.000
C20  24969777.156 4 130024156.752 4     -2594.105          28.000
E07  23734103.461 8 124723569.633 8      1073.773          51.000    23734104.289 8  95567502.826 8       822.732          51.000
E08  22245487.109 8 116900876.239 8     -1528.727          51.000    22245487.367 8  89573411.012 8     -1171.353          50.000
E13  24126988.531 8 126788187.392 8     -1997.211          51.000    24126990.789 8  97149385.903 8     -1530.339          51.000
> 2020 05 03 22 15  0.0000000  0 17        .000000000000
G01  22030661.008 8 115771893.102 8     -2836.246          49.000    22030662.914 8  90211872.312 8     -2210.062          49.000
G03  20499963.438 8 107728047.721 8      -835.023          51.000    20499964.656 8  83943995.791 8      -650.668          51.000
