     3.02           OBSERVATION DATA    M (MIXED)           RINEX VERSION / TYPE
SAVERINEX           SC600               20200503 185930 LCL PGM / RUN BY / DATE
       G = GPS       R = GLONASS       C = COMPASS          COMMENT
       S = SBAS      J = QZSS          E = GALILEO          COMMENT
BEAN                                                        MARKER NAME
1                                                           MARKER NUMBER
GEODETIC                                                    MARKER TYPE
Unige DICCA         GTER                                    OBSERVER / AGENCY
SC60291900056       SC600               2.12(191226)        REC # / TYPE / VERS
                    HEMA45          NONE                    ANT # / TYPE
  4509407.8091   693652.4678  4442337.6214                  APPROX POSITION XYZ
        0.0000        0.0000        0.0000                  ANTENNA: DELTA H/E/N
G    8 C1C L1C D1C S1C C2Y L2Y D2Y S2Y                      SYS / # / OBS TYPES
R    8 C1C L1C D1C S1C C2P L2P D2P S2P                      SYS / # / OBS TYPES
C    8 C1I L1I D1I S1I C7I L7I D7I S7I                      SYS / # / OBS TYPES
E    8 C1C L1C D1C S1C C7Q L7Q D7Q S7Q                      SYS / # / OBS TYPES
DBHZ                                                        COMMENT
     30.000                                                 INTERVAL
  2020    05    03    16    00    0.0000000     GPS         TIME OF FIRST OBS
  2020    05    03    16    59   30.0000000     GPS         TIME OF LAST OBS
     0                                                      RCV CLOCK OFFS APPL
G L1C  0.00000                                              SYS / PHASE SHIFT
G L2Y  0.00000                                              SYS / PHASE SHIFT
R L1C  0.00000                                              SYS / PHASE SHIFT
R L2P  0.25000                                              SYS / PHASE SHIFT
C L1I  0.00000                                              SYS / PHASE SHIFT
C L7I  0.00000                                              SYS / PHASE SHIFT
E L1C  0.50000                                              SYS / PHASE SHIFT
E L7Q -0.25000                                              SYS / PHASE SHIFT
 13 R04  6 R05  1 R06 -4 R07  5 R08  6 R09 -2 R10 -5 R11  0 GLONASS SLOT / FRQ #
    R12 -1 R20  2 R21  4 R22 -3 R23  3                      GLONASS SLOT / FRQ #
 C1C   71.950 C2C   71.950 C2P   71.950                     GLONASS COD/PHS/BIS
    18                                                      LEAP SECONDS
*** Above antenna height is from mark to ANTENNA BOTTOM.    COMMENT
    17     4        0.0000        ANT MEASURE TYPE/HEIGT    COMMENT
    0.0000    0.0000    0.0458    0.0405    0.0000          COMMENT
                    BASE STATION                            COMMENT
                                                            END OF HEADER
> 2020 05 03 16 00  0.0000000  0  9        .000000000000
G10  21767568.836 8 114389418.490 8      2244.238          51.000    21767571.609 8  89134621.426 8      1748.757          51.000
G16  20598370.500 8 108245206.908 8      -995.184          49.000    20598369.969 8  84346866.803 8      -775.468          49.000
G20  20962211.930 8 110157203.239 8       -33.723          48.000    20962211.719 7  85836827.770 7       -26.277          43.000
G26  21793991.375 8 114528184.432 8     -2861.234          50.000    21793994.164 8  89242741.496 8     -2229.533          51.000
R07  22071236.703 6 118149065.247 6      3372.848          36.000    22071238.094 5  91893747.463 5      2623.332          35.000
R12  20840660.406 8 111327075.498 8     -2898.598          50.000    20840666.016 8  86587728.416 8     -2254.468          48.000
C05  39610470.266 5 206262112.292 5       -19.797          35.000    39610471.891 5 159494955.986 5       -14.828          34.000
C27  22459812.477 7 116954307.804 7     -1535.113          47.000
E30  23493767.094 8 123460592.865 8     -2255.918          51.000    23493769.992 8  94599629.148 8     -1728.567          51.000
> 2020 05 03 16 00 30.0000000  0 11        .000000000000
G10  21754757.336 8 114322092.187 8      2251.434          51.000    21754760.531 8  89082159.393 8      1754.367          51.000
G16  20604064.305 8 108275127.097 8      -992.070          51.000    20604063.562 8  84370181.216 8      -773.042          50.000
G20  20962418.266 7 110158288.558 7       -31.277          45.000    20962418.250 7  85837673.457 7       -24.372          43.000
G26  21810317.641 8 114613977.494 8     -2851.031          51.000    21810320.984 8  89309593.229 8     -2221.583          51.000
R07  22052329.812 6 118047861.639 6      3381.730          38.000    22052332.703 6  91815033.711 6      2630.241          36.000
R12  20856953.664 8 111414106.665 8     -2895.945          51.000    20856959.086 8  86655419.267 8     -2252.405          48.000
R22  19702888.539 6 105175353.201 6      -283.832          37.000    19702885.109 4  81803053.747 4      -220.764          28.000
R23  22270000.133 5 119129489.138 5      2749.844          31.000
C05  39610541.008 6 206262481.370 6         2.215          36.000    39610542.578 5 159495240.619 5         2.003          35.000
C27  22468632.375 7 117000234.249 7     -1519.309          46.000
E30  23506633.227 8 123528206.206 8     -2244.281          51.000    23506636.102 8  94651436.761 8     -1719.695          51.000
> 2020 05 03 16 01  0.0000000  0 12        .000000000000
G10  21741963.664 8 114254860.718 8      2228.625          51.000    21741967.172 8  89029771.264 8      1736.591          51.000
G16  20609800.250 8 108305267.165 8     -1019.074          51.000    20609799.180 8  84393666.970 8      -794.084          51.000
G20  20962669.102 7 110159608.675 7       -58.801          44.000    20962669.680 7  85838702.125 7       -45.819          44.000
G26  21826644.602 8 114699774.567 8     -2870.715          51.000    21826647.953 8  89376448.065 8     -2236.924          51.000
R07  22033436.805 5 117946720.811 5      3359.254          35.000    22033439.266 5  91736368.734 5      2612.759          35.000
R12  20873291.062 8 111501374.889 8     -2923.777          49.000    20873296.148 8  86723294.487 8     -2274.052          48.000
R22  19704531.609 6 105184110.721 6      -302.465          39.000    19704527.242 4  81809853.075 4      -235.253          29.000
R23  22254602.180 6 119047135.960 6      2737.551          38.000
C05  39610545.422 5 206262503.661 5        -5.305          35.000    39610547.070 5 159495258.880 5        -4.344          35.000
C27  22477420.016 7 117045996.014 7     -1533.414          46.000
C30  21989451.664 4 114504855.854 4      1077.004          27.000
E30  23519492.156 8 123595780.194 8     -2262.613          51.000    23519494.570 8  94703214.183 8     -1733.742          51.000
> 2020 05 03 16 01 30.0000000  0 12        .000000000000
G10  21729269.625 8 114188153.649 8      2209.301          51.000    21729273.344 8  88977791.765 8      1721.536          51.000
G16  20615659.055 8 108336053.665 8     -1042.496          51.000    20615657.812 8  84417656.440 8      -812.335          50.000
G20  20963046.219 7 110161591.045 7       -82.484          44.000    20963047.336 7  85840246.805 7       -64.274          43.000
G26  21843053.289 8 114786000.749 8     -2886.789          51.000    21843056.070 8  89443637.248 8     -2249.446          51.000
R07  22014642.211 5 117846082.092 5      3340.844          35.000    22014639.320 6  91658094.242 6      2598.437          36.000
R12  20889752.141 8 111589310.764 8     -2947.844          48.000    20889757.477 7  86791689.059 7     -2292.764          46.000
R22  19706243.180 5 105193259.685 5      -316.996          34.000    19706245.477 4  81816977.014 4      -246.553          27.000
R23  22239252.727 5 118965014.342 5      2728.000          35.000
C05  39610564.656 6 206262603.727 6        -9.492          36.000    39610566.133 5 159495335.270 5        -7.769          35.000
C27  22486257.680 7 117092016.208 7     -1543.773          47.000
C30  21983250.617 5 114472540.196 5      1064.777          32.000
E30  23532424.844 8 123663740.638 8     -2277.250          51.000    23532426.602 8  94755287.709 8     -1744.867          51.000
> 2020 05 03 16 02  0.0000000  0 12        .000000000000
G10  21716666.648 8 114121923.908 8      2207.016          51.000    21716670.125 8  88926184.197 8      1719.752          51.000
G16  20621631.102 8 108367436.667 8     -1048.770          51.000    20621629.734 8  84442110.704 8      -817.223          50.000
G20  20963540.156 7 110164186.270 7       -89.227          46.000    20963540.555 7  85842269.055 7       -69.524          43.000
G26  21859533.891 8 114872604.571 8     -2885.691          51.000    21859535.820 8  89511120.668 8     -2248.594          51.000
R07  21995926.922 5 117745923.519 5      3339.570          34.000    21995926.383 6  91580156.262 6      2597.444          36.000
R12  20906328.625 8 111677860.260 8     -2954.406          48.000    20906333.672 7  86860560.867 7     -2297.875          46.000
R21  22191760.117 5 118752571.731 5     -2793.211          33.000
R22  19708019.664 5 105202749.667 5      -314.559          35.000
C05  39610589.242 5 206262732.686 5         2.766          35.000    39610590.906 5 159495434.971 5         1.915          35.000
C27  22495136.195 7 117138245.772 7     -1537.227          47.000
C30  21977099.711 4 114440508.253 4      1070.953          28.000
E30  23545421.492 8 123732036.813 8     -2274.840          51.000    23545422.883 8  94807618.492 8     -1743.029          51.000
> 2020 05 03 16 02 30.0000000  0 11        .000000000000
G10  21704139.305 8 114056091.706 8      2185.410          51.000    21704142.875 8  88874886.413 8      1702.920          51.000
G16  20627701.023 8 108399333.442 8     -1074.160          51.000    20627699.602 8  84466965.321 8      -837.008          50.000
G20  20964135.359 8 110167312.180 8      -115.547          48.000    20964135.117 7  85844704.800 7       -90.037          42.000
G26  21876070.039 8 114959501.886 8     -2903.930          51.000    21876071.258 8  89578832.780 8     -2262.805          51.000
R07  21977283.242 5 117646118.749 5      3318.035          33.000    21977281.930 5  91502529.860 5      2580.697          34.000
R12  20923003.727 8 111766936.393 8     -2980.457          48.000    20923008.641 7  86929842.234 7     -2318.136          45.000
C05  39610604.078 5 206262809.381 5        -4.219          35.000    39610605.570 5 159495494.237 5        -2.827          34.000
C27  22504038.727 7 117184603.368 7     -1549.660          45.000
E15  23976708.008 5 125998446.559 5      1253.395          35.000
E30  23558466.086 8 123800585.351 8     -2291.574          51.000    23558467.742 8  94860142.657 8     -1755.810          51.000
E36  27136345.508 5 142602462.329 5     -2370.934          31.000
> 2020 05 03 16 03  0.0000000  0 11        .000000000000
G10  21691733.203 8 113990897.874 8      2170.473          51.000    21691737.047 8  88824086.039 8      1691.280          51.000
G16  20633913.812 8 108431982.105 8     -1092.859          51.000    20633912.508 8  84492405.812 8      -851.579          50.000
G20  20964876.828 7 110171207.126 7      -134.660          47.000    20964876.773 7  85847739.831 7      -104.930          44.000
G26  21892706.555 8 115046929.121 8     -2915.125          49.000    21892707.773 8  89646957.818 8     -2271.526          49.000
R07  21958755.336 6 117546938.924 6      3303.492          37.000    21958753.797 5  91425390.120 5      2569.383          31.000
R12  20939821.547 8 111856777.509 8     -2999.281          48.000    20939826.977 7  86999718.605 7     -2332.777          45.000
R21  22223207.102 5 118920846.313 5     -2806.164          35.000    22223225.148 4  92494075.308 4     -2182.575          26.000
C05  39610654.195 5 206263070.355 5        -3.750          35.000    39610655.594 5 159495695.081 5        -2.519          35.000
C27  22513010.953 7 117231325.209 7     -1555.613          46.000
E15  23969593.414 5 125961065.470 5      1248.031          34.000
E30  23571603.734 8 123869623.410 8     -2301.402          51.000    23571606.062 8  94913041.931 8     -1763.427          51.000
> 2020 05 03 16 03 30.0000000  0 13        .000000000000
G10  21679342.914 8 113925787.903 8      2166.535          51.000    21679346.969 8  88773351.000 8      1688.212          51.000
G16  20640163.414 8 108464825.286 8     -1100.422          51.000    20640162.070 8  84517997.871 8      -857.472          48.000
G20  20965658.484 8 110175314.180 8      -142.797          49.000    20965658.039 7  85850940.153 7      -111.270          43.000
G21  23075269.664 5 121261327.321 5     -2496.863          31.000
G26  21909337.070 7 115134327.324 7     -2915.160          47.000    21909338.938 7  89715060.279 7     -2271.553          47.000
R07  21940238.453 6 117447821.656 6      3300.520          37.000    21940236.586 4  91348299.064 4      2567.077          28.000
R12  20956676.445 8 111946813.833 8     -3006.785          51.000    20956681.984 7  87069746.825 7     -2338.611          45.000
R21  22238917.602 5 119004849.717 5     -2798.047          35.000
R23  22178131.125 5 118638031.938 5      2725.504          35.000
C05  39610633.844 5 206262963.964 5         7.379          35.000    39610635.047 5 159495612.801 5         5.917          35.000
C27  22521947.344 7 117277859.414 7     -1550.371          46.000
E15  23962438.062 5 125923463.548 5      1253.387          33.000
E30  23584728.180 8 123938592.813 8     -2300.184          51.000    23584731.195 8  94965888.602 8     -1762.490          51.000
> 2020 05 03 16 04  0.0000000  0 12        .000000000000
G10  21667144.859 8 113861689.069 8      2128.820          51.000    21667148.883 8  88723403.885 8      1658.821          51.000
G16  20646625.914 8 108498787.475 8     -1141.680          51.000    20646624.281 7  84544461.920 7      -889.621          47.000
G20  20966656.633 8 110180558.633 8      -184.793          49.000    20966656.031 7  85855026.740 7      -143.995          42.000
G26  21926137.344 7 115222619.459 7     -2948.727          46.000    21926140.500 7  89783859.345 7     -2297.709          46.000
R07  21921909.828 6 117349713.704 6      3262.820          37.000    21921908.898 5  91271993.010 5      2537.755          32.000
R12  20973744.305 8 112037981.883 8     -3048.559          51.000    20973749.180 7  87140655.272 7     -2371.104          45.000
R22  19715766.375 5 105244069.904 5      -373.910          32.000    19715749.961 4  81856478.732 4      -290.825          27.000
C05  39610718.859 5 206263407.052 5       -14.762          35.000    39610720.086 5 159495955.456 5       -11.850          34.000
C27  22531023.773 7 117325122.603 7     -1578.500          47.000
C30  21952921.422 5 114314620.047 5      1026.652          35.000
E15  23955425.898 6 125886617.747 6      1224.824          36.000
E30  23598015.172 8 124008417.301 8     -2332.746          51.000    23598019.055 8  95019390.473 8     -1787.396          51.000
> 2020 05 03 16 04 30.0000000  0 14        .000000000000
G10  21654950.586 8 113797609.415 8      2126.055          51.000    21654954.016 8  88673471.717 8      1656.669          51.000
G16  20653111.938 8 108532873.839 8     -1148.047          51.000    20653110.766 7  84571022.703 7      -894.582          47.000
G20  20967681.891 8 110185945.373 8      -191.594          49.000    20967681.602 7  85859224.224 7      -149.294          42.000
G21  23103947.297 5 121412052.471 5     -2510.586          31.000
G26  21942918.648 7 115310809.231 7     -2947.520          47.000    21942922.805 7  89852578.653 7     -2296.768          47.000
R07  21903581.344 5 117251606.881 5      3260.457          32.000    21903583.109 5  91195687.913 5      2535.920          32.000
R12  20990833.719 8 112129267.205 8     -3054.531          51.000    20990838.289 7  87211654.947 7     -2375.747          46.000
R21  22270493.648 5 119173883.039 5     -2814.539          30.000    22270488.812 4  92690791.065 4     -2189.086          24.000
R22  19717798.438 5 105254983.170 5      -371.055          34.000    19717790.227 4  81864930.708 4      -288.601          27.000
R23  22147776.227 5 118475672.694 5      2704.645          32.000
C05  39610720.359 5 206263414.596 5        -2.684          35.000    39610721.508 5 159495961.254 5        -1.830          34.000
C27  22540051.141 7 117372129.463 7     -1572.160          47.000
E15  23948364.820 5 125849507.725 5      1231.668          34.000
E30  23611275.180 8 124078101.229 8     -2330.051          51.000    23611279.789 8  95072784.642 8     -1785.367          51.000
> 2020 05 03 16 05  0.0000000  0 12        .000000000000
G10  21642868.289 8 113734116.901 8      2116.637          51.000    21642871.531 8  88623997.063 8      1649.330          51.000
G16  20659729.156 8 108567649.293 8     -1160.492          51.000    20659728.570 8  84598120.430 8      -904.280          48.000
G18  23111096.367 5 121449664.410 5     -3052.188          32.000
G20  20968841.844 8 110192040.355 8      -204.922          49.000    20968840.992 6  85863973.574 6      -159.676          40.000
G26  21959788.336 8 115399460.224 8     -2952.711          49.000    21959793.062 8  89921657.334 8     -2300.814          49.000
R07  21885362.062 5 117154081.968 5      3251.117          34.000    21885365.180 4  91119835.290 4      2528.644          29.000
R12  21008051.438 8 112221240.879 8     -3067.000          51.000    21008055.906 7  87283189.988 7     -2385.447          45.000
R22  19719907.297 5 105266332.217 5      -374.562          30.000
C05  39610745.859 5 206263547.351 5         3.559          35.000
C27  22549136.867 7 117419440.460 7     -1572.027          47.000
E15  23941361.125 5 125812701.164 5      1232.074          32.000
E30  23624615.742 8 124148208.960 8     -2333.902          51.000    23624620.789 8  95126503.541 8     -1788.303          51.000
> 2020 05 03 16 05 30.0000000  0 15        .000000000000
G10  21630854.016 8 113670981.974 8      2093.305          51.000    21630857.297 8  88574801.050 8      1631.147          51.000
G16  20666433.461 8 108602881.534 8     -1187.199          50.000    20666433.219 7  84625574.124 7      -925.090          47.000
G18  23128553.992 5 121541419.107 5     -3063.473          34.000    23128557.594 5  94707576.161 5     -2387.122          33.000
G20  20970092.367 8 110198611.784 8      -232.230          48.000    20970090.906 6  85869094.165 6      -180.959          40.000
G26  21976701.391 8 115488338.542 8     -2971.512          48.000    21976706.539 8  89990913.143 8     -2315.467          48.000
R07  21867209.758 5 117056907.807 5      3228.004          35.000    21867212.555 5  91044255.405 5      2510.670          32.000
R12  21025353.250 8 112313663.498 8     -3093.488          51.000    21025357.266 7  87355074.178 7     -2406.049          45.000
R21  22302069.633 5 119342875.948 5     -2823.055          30.000
R22  19722064.820 5 105277881.555 5      -392.570          30.000
R23  22117504.477 5 118313723.323 5      2693.391          33.000
C05                                                                  39610752.336 5 159496084.867 5        -3.057          34.000
C27  22558236.820 7 117466825.887 7     -1585.953          46.000
C30  21935143.523 5 114222047.787 5      1016.387          30.000
E15  23934370.484 5 125775964.412 5      1218.211          35.000
E30  23637992.883 8 124218507.365 8     -2351.668          51.000    23637997.773 8  95180368.537 8     -1801.897          51.000
> 2020 05 03 16 06  0.0000000  0 13        .000000000000
G10  21618958.734 8 113608472.560 8      2061.637          51.000    21618962.281 8  88526092.489 8      1606.470          51.000
G16  20673275.109 8 108638835.530 8     -1222.109          48.000    20673275.133 8  84653590.201 8      -952.293          48.000
G18  23146065.453 5 121633441.381 5     -3083.312          33.000
G20  20971483.961 7 110205925.167 7      -267.805          47.000    20971483.102 6  85874792.930 6      -208.679          37.000
G21  23147023.570 4 121638433.716 4     -2536.508          29.000
G26  21993707.742 7 115577707.804 7     -2998.695          47.000    21993713.312 7  90060551.512 7     -2336.646          47.000
R07  21849174.625 5 116960359.428 5      3195.645          34.000    21849176.039 5  90969162.158 5      2485.495          32.000
R12  21042788.336 8 112406801.320 8     -3128.227          49.000    21042793.445 7  87427514.674 7     -2433.065          45.000
R22  19724327.977 5 105289823.542 5      -420.059          33.000    19724348.391 4  81892150.458 4      -326.706          27.000
C05  39610787.047 5 206263762.427 5       -20.363          35.000    39610788.508 5 159496230.994 5       -15.785          34.000
C27  22567401.180 7 117514549.033 7     -1607.820          46.000
E15  23927443.461 5 125739561.178 5      1195.984          34.000
E30  23651457.109 8 124289260.840 8     -2377.688          51.000    23651461.281 8  95234582.197 8     -1821.832          51.000
> 2020 05 03 16 06 30.0000000  0 13        .000000000000
G10  21607170.852 8 113546526.556 8      2071.500          51.000    21607174.070 8  88477822.908 8      1614.159          51.000
G16  20680241.875 8 108675446.484 8     -1215.180          48.000    20680242.055 8  84682118.195 8      -946.893          48.000
G20  20973004.539 7 110213916.246 7      -261.598          46.000    20973003.742 6  85881019.751 6      -203.842          36.000
G21  23161446.086 5 121714222.055 5     -2512.414          30.000
G26  22010795.086 8 115667501.527 8     -2984.180          48.000    22010800.812 8  90130520.628 8     -2325.335          48.000
R12  21060344.352 8 112500584.833 8     -3120.414          51.000    21060350.258 7  87500457.392 7     -2426.989          45.000
R22  19726657.312 5 105302246.736 5      -404.949          33.000
R23  22087381.594 5 118152593.596 5      2692.172          34.000
C05  39610841.531 5 206264045.684 5         4.559          35.000    39610843.000 5 159496450.022 5         3.739          34.000
C27  22576618.609 7 117562545.963 7     -1588.512          46.000
C30  21923539.273 5 114161621.186 5      1011.703          35.000
E30  23664995.812 8 124360403.630 8     -2361.887          51.000    23664998.875 8  95289094.154 8     -1809.763          51.000
E36  27244627.922 5 143171485.331 5     -2360.148          33.000    27244630.891 5 109702836.650 5     -1808.090          34.000
> 2020 05 03 16 07  0.0000000  0 13        .000000000000
G10  21595430.914 8 113484831.498 8      2043.469          51.000    21595433.883 8  88429748.842 8      1592.313          51.000
G16  20687273.969 8 108712398.939 8     -1246.207          49.000    20687273.797 8  84710912.302 8      -971.070          48.000
G20  20974594.133 7 110222269.733 7      -293.172          43.000    20974593.766 5  85887528.974 5      -228.446          35.000
G21  23175837.383 6 121789862.399 6     -2527.504          37.000
G26  22027903.258 8 115757402.885 8     -3007.191          49.000    22027908.500 8  90200573.599 8     -2343.266          49.000
R12  21077961.820 8 112594690.302 8     -3151.133          51.000    21077966.672 7  87573650.451 7     -2450.884          44.000
R22  19728997.086 5 105314774.999 5      -427.402          30.000
R23  22072343.508 4 118072115.731 4      2675.520          28.000
C05  39610854.398 5 206264113.895 5        -7.820          35.000    39610855.844 5 159496501.986 5        -5.664          34.000
C27  22585828.875 7 117610504.855 7     -1606.684          45.000
C30  21917770.328 5 114131583.698 5       992.344          31.000
E30  23678548.547 8 124431619.640 8     -2383.812          51.000    23678550.453 8  95343662.210 8     -1826.573          51.000
E36  27258140.031 5 143242492.179 5     -2371.820          30.000    27258144.047 5 109757244.400 5     -1817.210          34.000
> 2020 05 03 16 07 30.0000000  0 14        .000000000000
G10  21583781.398 8 113423611.612 8      2038.004          51.000    21583784.203 8  88382045.052 8      1588.052          51.000
G16  20694413.219 8 108749914.109 8     -1254.645          49.000    20694412.773 8  84740144.902 8      -977.645          49.000
G18  23198690.352 5 121909935.564 5     -3071.023          34.000
G20  20976294.500 7 110231207.114 7      -302.207          43.000    20976294.953 5  85894493.301 5      -235.483          35.000
G21  23190241.102 6 121865562.948 6     -2519.207          39.000
G26  22045073.922 8 115847631.906 8     -3007.938          50.000    22045078.328 8  90270881.877 8     -2343.850          50.000
R07  21795559.062 5 116673325.219 5      3172.719          33.000    21795559.109 4  90745926.413 4      2467.670          29.000
R12  21095681.156 8 112689339.795 8     -3158.660          51.000    21095683.992 7  87647266.622 7     -2456.739          43.000
R21  22365516.266 6 119682368.154 6     -2826.746          37.000    22365529.602 4  93086342.950 4     -2198.583          27.000
C05  39610868.227 5 206264185.405 5         2.656          35.000    39610869.625 5 159496557.328 5         1.960          34.000
C27  22595074.062 7 117658645.739 7     -1602.512          44.000
C30  21912039.805 5 114101745.881 5       996.191          30.000
E30  23692157.094 8 124503129.652 8     -2383.281          51.000    23692158.047 8  95398455.525 8     -1826.139          51.000
E36                                                                  27271657.648 5 109811649.107 5     -1809.706          34.000
> 2020 05 03 16 08  0.0000000  0 15        .000000000000
G10  21572236.031 8 113362939.564 8      2013.906          51.000    21572238.945 8  88334768.173 8      1569.278          51.000
G16  20701672.727 8 108788061.876 8     -1281.516          50.000    20701672.039 8  84769870.411 8      -998.584          49.000
G18  23216272.289 6 122002327.271 6     -3081.762          36.000    23216288.570 5  95066820.160 5     -2401.373          32.000
G20  20978119.664 6 110240799.047 6      -329.805          41.000    20978119.352 5  85901967.561 5      -256.991          35.000
G21  23204672.133 6 121941402.499 6     -2529.633          38.000
G26  22062319.719 8 115938256.853 8     -3026.699          50.000    22062323.211 8  90341498.644 8     -2358.470          50.000
R07  21777872.922 6 116578625.403 6      3148.121          40.000    21777871.211 5  90672270.568 5      2448.542          31.000
R12  21113513.766 8 112784600.577 8     -3184.871          50.000    21113516.633 7  87721358.305 7     -2477.122          45.000
R21  22381425.844 5 119767458.591 5     -2838.207          33.000    22381425.016 5  93152523.702 5     -2207.500          33.000
C05  39610896.109 5 206264331.150 5        -5.113          35.000    39610897.539 5 159496670.008 5        -4.268          34.000
C27  22604367.422 6 117707038.342 6     -1616.629          41.000
C30  21906365.992 5 114072202.472 5       980.160          31.000
E15  23900034.156 6 125595519.070 6      1188.152          37.000    23900035.078 6  96235548.398 6       910.151          36.000
E30  23705834.273 8 124575002.677 8     -2401.176          51.000    23705834.727 8  95453527.015 8     -1839.877          51.000
E36                                                                  27285183.227 5 109866104.702 5     -1815.411          33.000
> 2020 05 03 16 08 30.0000000  0 15        .000000000000
G10  21560784.867 8 113302762.832 8      1996.195          51.000    21560787.898 8  88287877.243 8      1555.480          51.000
G16  20709042.125 8 108826786.869 8     -1301.789          51.000    20709041.211 8  84800045.712 8     -1014.381          49.000
G18  23233873.703 5 122094829.582 5     -3086.391          32.000
G20  20980058.812 6 110250990.622 6      -351.234          41.000    20980058.203 6  85909909.073 6      -273.686          38.000
G21  23219119.414 6 122017325.247 6     -2533.375          40.000
G26  22079629.711 8 116029220.898 8     -3039.004          50.000    22079632.695 8  90412379.653 8     -2368.055          50.000
R07  21760275.367 7 116484430.121 7      3129.906          43.000    21760272.867 5  90599007.714 5      2434.378          30.000
R12  21131449.844 8 112880413.347 8     -3204.195          51.000    21131453.773 7  87795879.316 7     -2492.155          46.000
R21  22397351.719 5 119852659.118 5     -2843.230          33.000    22397347.883 4  93218790.779 4     -2211.398          28.000
R23  22027414.133 5 117831833.108 5      2659.527          35.000
C05  39610928.055 5 206264496.234 5        -7.379          35.000    39610929.500 5 159496798.434 5        -5.661          34.000
C27  22613698.195 6 117755628.502 6     -1624.508          40.000
E15  23893270.367 6 125559964.737 6      1180.574          36.000    23893266.719 5  96208305.362 5       904.698          35.000
E30  23719569.180 8 124647182.629 8     -2412.523          51.000    23719570.133 8  95508833.700 8     -1848.569          51.000
E36  27298705.500 5 143455659.113 5     -2371.242          33.000    27298710.156 5 109920569.248 5     -1816.695          33.000
> 2020 05 03 16 09  0.0000000  0 14        .000000000000
G10  21549425.617 8 113243069.326 8      1977.398          51.000    21549428.398 8  88241362.805 8      1540.830          51.000
G16  20716518.594 8 108866073.925 8     -1323.367          51.000    20716517.492 8  84830659.008 8     -1031.195          50.000
G20  20982109.570 7 110261767.191 7      -373.156          42.000    20982109.648 6  85918306.391 6      -290.771          40.000
G21  23233579.508 6 122093316.057 6     -2538.125          37.000
G26  22097000.961 8 116120507.618 8     -3052.590          50.000    22097003.992 8  90483512.098 8     -2378.641          50.000
R07  21742770.070 7 116390729.548 7      3110.664          42.000    21742769.477 5  90526129.613 5      2419.411          32.000
R12  21149486.359 8 112976759.661 8     -3224.777          51.000    21149490.812 7  87870815.277 7     -2508.163          45.000
R21  22413289.148 5 119937954.696 5     -2849.641          31.000
R23  22012506.023 6 117752083.785 6      2651.227          38.000
C05  39610961.188 5 206264668.562 5       -10.262          35.000    39610962.602 5 159496931.659 5        -7.699          34.000
C27  22623063.688 6 117804401.957 6     -1633.621          36.000
E15                                                                  23886535.031 5  96181200.261 5       898.008          34.000
E30  23733358.891 8 124719653.838 8     -2424.961          50.000    23733361.492 8  95564363.591 8     -1858.018          51.000
E36                                                                  27312235.680 5 109975054.699 5     -1818.189          30.000
> 2020 05 03 16 09 30.0000000  0 13        .000000000000
G10  21538185.250 8 113184001.837 8      1971.152          51.000    21538187.984 8  88195336.220 8      1535.960          51.000
G16  20724128.375 8 108906063.113 8     -1331.840          51.000    20724127.375 8  84861819.394 8     -1037.800          50.000
G20  20984298.258 7 110273268.867 7      -382.758          42.000    20984298.297 6  85927268.713 6      -298.256          41.000
G21  23248091.617 6 122169545.176 6     -2530.844          38.000
G26  22114460.102 8 116212255.639 8     -3053.195          51.000    22114463.406 8  90555004.016 8     -2379.113          51.000
R07  21725384.812 7 116297671.400 7      3103.918          42.000    21725386.750 5  90453751.159 5      2414.158          32.000
R12  21167648.844 8 113073778.561 8     -3232.164          51.000    21167652.750 7  87946274.363 7     -2513.908          45.000
R23  21997656.617 5 117672639.555 5      2655.879          35.000
C05  39611022.469 5 206264987.881 5         -.637          35.000    39611023.695 5 159497177.810 5         -.459          34.000
C27  22632490.039 6 117853498.216 6     -1628.984          36.000
C30  21889640.188 4 113985084.857 4       964.965          28.000
E15                                                                  23879865.180 5  96154320.854 5       901.055          33.000
E30  23747230.203 8 124792555.667 8     -2424.453          49.000    23747235.109 8  95620223.450 8     -1857.776          51.000
> 2020 05 03 16 10  0.0000000  0 14        .000000000000
G10  21526958.117 8 113125003.713 8      1948.590          51.000    21526960.797 8  88149363.694 8      1518.382          51.000
G16  20731765.016 8 108946194.664 8     -1357.078          51.000    20731764.445 8  84893090.693 8     -1057.463          51.000
G18  23286780.867 6 122372824.889 6     -3096.445          36.000
G20  20986518.578 7 110284936.801 7      -408.520          44.000    20986518.344 7  85936360.555 7      -318.327          43.000
G21  23262540.141 6 122245392.521 6     -2539.285          37.000
G26  22131900.266 8 116303904.012 8     -3070.258          50.000    22131903.844 8  90626418.285 8     -2392.409          50.000
R07  21708015.383 7 116204691.096 7      3080.738          43.000    21708017.945 6  90381433.078 6      2396.130          36.000
R12  21185830.031 8 113170897.984 8     -3256.113          51.000    21185833.617 7  88021811.653 7     -2532.536          45.000
R23  21982756.547 5 117592932.251 5      2643.781          32.000
C05  39611005.273 6 206264898.696 6        -7.098          36.000    39611006.641 5 159497108.863 5        -5.588          34.000
C27  22641875.805 6 117902363.452 6     -1642.270          36.000
C30  21884075.117 5 113956164.121 5       951.500          31.000
E15                                                                  23873149.859 5  96127280.992 5       891.399          30.000
E30  23761077.742 8 124865327.920 8     -2440.520          50.000    23761084.133 8  95675984.029 8     -1869.973          51.000
> 2020 05 03 16 10 30.0000000  0 12        .000000000000
G10  21515881.695 8 113066797.793 8      1933.164          50.000    21515884.406 8  88104008.448 8      1506.365          50.000
G16  20739565.797 8 108987188.654 8     -1374.777          51.000    20739565.523 8  84925034.028 8     -1071.255          51.000
G18  23304467.086 6 122465768.972 6     -3098.691          39.000
G20  20988908.047 7 110297491.243 7      -427.148          42.000    20988907.797 7  85946143.235 7      -332.840          42.000
G21  23277044.664 6 122321608.397 6     -2540.164          36.000
G26  22149458.117 8 116396171.260 8     -3079.926          49.000    22149461.953 8  90698314.788 8     -2399.945          49.000
R07  21690798.594 7 116112527.228 7      3064.605          42.000    21690801.820 5  90309750.133 5      2383.585          35.000
R12  21204166.539 8 113268846.489 8     -3272.504          51.000    21204169.484 7  88097993.783 7     -2545.281          44.000
C05  39611047.062 6 206265116.303 6        -6.152          36.000    39611048.422 5 159497277.122 5        -4.697          34.000
C27  22651354.656 5 117951711.765 5     -1646.305          31.000
C30  21878605.828 5 113927737.864 5       945.031          33.000
E30  23775038.797 8 124938689.931 8     -2449.066          51.000    23775045.078 8  95732196.471 8     -1876.590          51.000
> 2020 05 03 16 11  0.0000000  0 14        .000000000000
G10  21504885.469 8 113009013.800 8      1917.891          50.000    21504888.602 8  88058981.976 8      1494.460          50.000
G16  20747459.648 8 109028671.814 8     -1391.969          51.000    20747459.430 8  84957358.544 8     -1084.651          50.000
G18  23322159.367 6 122558741.914 6     -3100.746          38.000
G20  20991394.852 7 110310559.389 7      -445.273          44.000    20991394.828 7  85956326.216 7      -346.966          42.000
G21  23291548.016 6 122397819.313 6     -2541.527          37.000
G26  22167062.227 8 116488682.831 8     -3088.746          48.000    22167066.281 8  90770401.686 8     -2406.818          48.000
R07  21673664.172 6 116020804.699 6      3048.969          38.000    21673666.344 5  90238410.497 5      2371.423          30.000
R12  21222585.984 8 113367241.646 8     -3288.418          49.000    21222589.219 7  88174523.327 7     -2557.658          44.000
C05  39611077.023 5 206265271.992 5        -5.414          35.000
C27  22660852.930 5 118001009.396 5     -1651.875          33.000
C30  21873174.938 4 113899459.886 4       938.898          29.000
E15  23859923.008 5 125384733.570 5      1153.492          34.000    23859921.594 5  96074016.956 5       883.833          32.000
E30  23789041.586 8 125012267.933 8     -2457.336          51.000    23789046.750 8  95788574.387 8     -1882.906          51.000
E36  27366295.617 5 143810853.221 5     -2367.227          31.000
> 2020 05 03 16 11 30.0000000  0 15        .000000000000
G10  21493982.156 8 112951718.310 8      1902.234          51.000    21493985.773 8  88014336.169 8      1482.261          51.000
G16  20755458.703 8 109070707.654 8     -1409.914          51.000    20755458.328 8  84990113.732 8     -1098.634          49.000
G18  23339869.461 5 122651806.999 5     -3103.320          35.000
G20  20993991.883 7 110324205.426 7      -464.000          45.000    20993991.039 7  85966959.456 7      -361.558          42.000
G21  23306062.938 6 122474088.876 6     -2542.793          36.000
G26  22184724.562 8 116581501.178 8     -3098.672          48.000    22184728.758 8  90842727.635 8     -2414.550          48.000
R07  21656624.383 5 115929594.144 5      3032.277          31.000    21656625.539 5  90167469.032 5      2358.444          34.000
R12  21241099.883 8 113466144.910 8     -3304.648          48.000    21241103.867 7  88251448.096 7     -2570.282          45.000
R23  21938385.227 5 117355546.891 5      2630.828          33.000
C05  39611107.383 5 206265429.936 5        -4.238          35.000    39611108.734 5 159497520.638 5        -3.764          35.000
C27  22670386.922 5 118050650.008 5     -1657.461          34.000
C30  21867784.367 5 113871394.600 5       932.070          32.000
E15  23853353.906 5 125350215.962 5      1148.352          35.000    23853353.461 6  96047563.100 6       879.723          36.000
E30  23803097.469 8 125086125.065 8     -2466.008          51.000    23803101.062 8  95845166.165 8     -1889.580          51.000
E36  27379809.375 5 143881869.535 5     -2366.320          32.000
> 2020 05 03 16 12  0.0000000  0 14        .000000000000
G10  21483186.508 8 112894987.280 8      1883.383          51.000    21483190.406 8  87970130.203 8      1467.574          51.000
G16  20763576.805 8 109113369.453 8     -1430.746          51.000    20763576.188 8  85023356.665 8     -1114.867          49.000
G18  23357610.969 5 122745036.667 5     -3109.453          34.000    23357612.188 5  95645521.371 5     -2422.950          33.000
G20  20996712.812 7 110338502.784 7      -485.723          45.000    20996712.000 6  85978100.262 6      -378.485          40.000
G26  22202459.172 8 116674697.906 8     -3111.234          50.000    22202463.047 8  90915348.428 8     -2424.342          50.000
R07  21639687.766 5 115838942.055 5      3013.246          30.000    21639694.727 6  90096983.962 6      2343.636          36.000
R12  21259723.125 8 113565627.498 8     -3323.949          50.000    21259727.883 7  88328823.396 7     -2585.297          46.000
R22  19755747.523 5 105457436.558 5      -527.887          35.000
R23  21923660.781 6 117276796.134 6      2623.285          37.000
C05  39611152.117 5 206265663.480 5        -7.004          35.000    39611153.586 5 159497701.197 5        -5.416          34.000
C27  22679970.508 6 118100541.813 6     -1665.418          36.000
C30  21862449.625 4 113843615.979 4       922.195          29.000
E15  23846831.234 6 125315943.878 6      1140.133          37.000    23846831.680 6  96021299.631 6       873.617          38.000
E30  23817219.867 8 125160333.707 8     -2477.691          51.000    23817221.906 8  95902027.273 8     -1898.479          51.000
> 2020 05 03 16 12 30.0000000  0 11        .000000000000
G10  21472478.586 8 112838715.146 8      1868.449          51.000    21472482.273 8  87926281.796 8      1455.937          51.000
G16  20771793.477 8 109156548.371 8     -1447.520          51.000    20771792.305 8  85057002.548 8     -1127.937          48.000
G20  20999536.969 7 110353343.512 7      -503.312          45.000    20999535.898 6  85989664.422 6      -392.195          38.000
G26  22220245.453 8 116768163.238 8     -3119.586          51.000    22220248.344 8  90988178.515 8     -2430.849          51.000
G27  20657297.617 6 108554849.802 6      1266.527          36.000    20657289.461 6  84588141.498 6       986.907          36.000
R07  21622859.758 6 115748809.542 6      2996.527          39.000    21622860.383 5  90026880.399 5      2330.632          35.000
R12  21278434.586 8 113665575.707 8     -3339.016          51.000    21278438.594 7  88406560.835 7     -2597.015          45.000
C05  39611190.953 5 206265865.261 5        -6.547          35.000    39611192.641 5 159497858.004 5        -4.437          35.000
C27  22689580.266 4 118150578.243 4     -1669.715          29.000
E15  23840335.195 6 125281808.745 6      1135.883          36.000    23840336.688 6  95995144.112 6       870.355          38.000
E30  23831387.844 8 125234784.784 8     -2485.414          51.000    23831388.906 8  95959074.147 8     -1904.462          51.000
> 2020 05 03 16 13  0.0000000  0 12        .000000000000
G10  21461875.414 8 112782992.500 8      1844.324          51.000    21461878.930 8  87882861.576 8      1437.139          51.000
G16  20780125.539 8 109200332.313 8     -1473.465          51.000    20780123.758 8  85091119.906 8     -1148.154          48.000
G20  21002481.031 7 110368815.268 7      -530.125          42.000    21002479.375 6  86001720.318 6      -413.084          38.000
G26  22238099.500 8 116861983.672 8     -3137.113          51.000    22238101.297 8  91061285.283 8     -2444.504          51.000
R07  21606132.930 7 115659257.621 7      2971.480          43.000    21606131.656 5  89957228.961 5      2311.155          35.000
R12  21297249.523 8 113766075.969 8     -3363.094          51.000    21297251.727 7  88484727.648 7     -2615.743          45.000
R22  19761804.906 5 105489798.170 5      -554.355          32.000    19761773.539 4  82047539.966 4      -431.159          28.000
C05  39611240.906 5 206266125.268 5       -14.277          35.000    39611242.422 5 159498059.052 5       -10.786          34.000
C27  22699233.656 6 118200847.199 6     -1683.496          37.000
C30  21851910.992 5 113788632.187 5       902.984          31.000
E15  23833881.961 5 125247903.244 5      1122.438          34.000    23833885.469 6  95969164.487 6       860.047          38.000
E30  23845617.820 8 125309565.458 8     -2502.059          49.000    23845618.797 8  96016373.595 8     -1917.171          51.000
> 2020 05 03 16 13 30.0000000  0 12        .000000000000
G10  21451340.961 8 112727630.817 8      1839.457          51.000    21451344.141 8  87839722.644 8      1433.343          51.000
G16  20788536.109 8 109244529.753 8     -1480.023          49.000    20788534.062 8  85125559.461 8     -1153.265          48.000
G20  21005508.750 6 110384727.477 6      -537.652          41.000    21005507.625 6  86014119.443 6      -418.950          37.000
G26  22255984.383 8 116955966.448 8     -3135.465          51.000    22255985.273 8  91134518.551 8     -2443.219          51.000
R07  21589476.883 7 115570097.146 7      2965.516          43.000    21589476.680 6  89887882.000 6      2306.515          36.000
R12  21316130.180 8 113866930.046 8     -3367.512          50.000    21316131.414 7  88563169.629 7     -2619.179          45.000
R23  21879654.445 5 117041374.995 5      2612.770          35.000
C05  39611265.617 6 206266253.838 6        -1.691          36.000    39611267.102 5 159498157.489 5        -1.667          34.000
C27  22708895.758 6 118251159.545 6     -1677.797          36.000
C30  21846678.711 5 113761383.986 5       906.895          30.000
E15  23827436.547 5 125214036.806 5      1128.258          32.000    23827441.977 6  95943214.830 6       864.449          38.000
E30  23859872.883 8 125384483.802 8     -2499.605          48.000    23859874.938 8  96073778.540 8     -1915.228          51.000
> 2020 05 03 16 14  0.0000000  0 14        .000000000000
G10  21440889.453 8 112672705.304 8      1821.242          51.000    21440892.102 8  87796923.563 8      1419.150          51.000
G16  20797038.977 8 109289212.935 8     -1499.945          49.000    20797037.070 8  85160377.513 8     -1168.789          48.000
G18  23428682.477 5 123118553.026 5     -3115.926          34.000
G20  21008634.383 6 110401152.898 6      -558.395          41.000    21008633.312 5  86026918.371 5      -435.122          33.000
G26  22273913.523 8 117050182.588 8     -3146.855          50.000    22273913.844 8  91207933.643 8     -2452.098          50.000
G27  20635866.352 5 108442209.202 5      1236.387          33.000
R07  21572908.094 6 115481406.950 6      2946.152          41.000    21572908.531 6  89818900.745 6      2291.452          37.000
R12  21335088.867 7 113968208.475 7     -3385.438          47.000    21335090.492 7  88641941.690 7     -2633.118          45.000
R21  22573560.703 5 120795644.984 5     -2871.109          33.000    22573561.070 4  93952182.508 4     -2233.088          29.000
R23  21865016.461 5 116963085.490 5      2605.477          32.000
C05  39611279.047 5 206266323.846 5        -3.672          35.000    39611280.656 5 159498212.611 5        -2.860          34.000
C27  22718578.203 5 118301588.317 5     -1685.184          35.000
E15                                                                  23821019.031 6  95917351.223 6       858.762          37.000
E30  23874167.375 8 125459611.536 8     -2510.203          48.000    23874170.906 8  96131343.953 8     -1923.411          51.000
> 2020 05 03 16 14 30.0000000  0 15        .000000000000
G10  21430554.875 8 112618396.096 8      1801.352          51.000    21430557.398 8  87754604.704 8      1403.654          51.000
G16  20805668.078 8 109334559.097 8     -1521.207          50.000    20805666.414 8  85195712.173 8     -1185.356          48.000
G18  23446495.938 5 123212156.339 5     -3121.801          35.000
G20  21011891.133 6 110418269.011 6      -580.660          41.000    21011891.594 6  86040255.542 6      -452.462          36.000
G21  23393378.648 5 122933029.324 5     -2555.227          34.000
G26  22291920.141 7 117144807.983 7     -3159.590          47.000    22291920.922 7  91281667.644 7     -2462.021          47.000
G27  20628853.453 5 108405356.031 5      1222.402          33.000    20628859.188 5  84471719.156 5       952.521          34.000
R07  21556462.062 6 115393372.937 6      2924.891          40.000    21556464.703 6  89750429.893 6      2274.918          36.000
R12  21354159.914 8 114070088.181 8     -3404.465          49.000    21354163.391 7  88721181.427 7     -2647.917          46.000
R23  21850428.039 4 116885065.162 4      2597.594          28.000
C05  39611315.156 5 206266511.903 5        -6.906          35.000    39611316.703 5 159498358.042 5        -5.627          34.000
C27  22728319.766 6 118352309.328 6     -1694.328          37.000
C30  21836337.656 5 113707547.178 5       887.520          30.000
E15  23814646.648 5 125146812.424 5      1112.031          34.000    23814651.367 6  95891710.052 6       852.124          36.000
E30  23888536.719 8 125535125.413 8     -2522.148          51.000    23888540.477 8  96189205.208 8     -1932.567          51.000
> 2020 05 03 16 15  0.0000000  0 15        .000000000000
G10  21420312.594 8 112564573.864 8      1785.789          51.000    21420315.219 8  87712665.302 8      1391.524          51.000
G16  20814398.297 8 109380436.068 8     -1538.223          51.000    20814396.867 8  85231460.456 8     -1198.615          48.000
G18  23464321.281 5 123305827.362 5     -3123.801          35.000
G20  21015254.344 6 110435944.076 6      -598.402          36.000    21015256.516 5  86054028.258 5      -466.284          31.000
G21  23407977.148 5 123009720.849 5     -2556.031          35.000
G26  22309978.273 7 117239709.150 7     -3168.172          43.000    22309980.844 7  91355616.562 7     -2468.705          43.000
R07  21540114.609 6 115305865.754 6      2908.098          37.000    21540118.320 5  89682368.748 5      2261.857          32.000
R12  21373318.312 8 114172431.779 8     -3419.223          48.000    21373323.320 7  88800781.944 7     -2659.398          46.000
R23  21835872.883 5 116807175.971 5      2592.945          31.000
C05  39611348.938 5 206266688.235 5        -6.117          35.000    39611350.469 5 159498493.345 5        -4.238          34.000
C27  22738091.961 5 118403192.940 5     -1698.547          33.000
C30  21831234.203 5 113680985.467 5       881.859          34.000
E15  23808307.445 5 125113503.528 5      1107.328          33.000    23808313.203 5  95866190.755 5       848.317          35.000
E30  23902955.281 8 125610892.676 8     -2529.891          51.000    23902958.734 8  96247260.600 8     -1938.541          51.000
E36  27474375.461 5 144378817.491 5     -2364.758          33.000    27474379.773 5 110627938.466 5     -1812.107          35.000
> 2020 05 03 16 15 30.0000000  0 15        .000000000000
G10  21410169.531 8 112511273.617 8      1774.922          51.000    21410172.547 8  87671132.654 8      1383.056          51.000
G16  20823235.578 8 109426875.750 8     -1550.355          51.000    20823234.586 8  85267647.205 8     -1208.069          49.000
G18  23482167.297 5 123399621.950 5     -3120.117          32.000
G20  21018729.586 6 110454210.305 6      -611.797          38.000    21018732.469 5  86068261.655 5      -476.722          33.000
G21  23422575.320 5 123086446.941 5     -2551.586          34.000
G26  22328093.766 7 117334916.860 7     -3171.797          43.000    22328099.281 7  91429804.440 7     -2471.530          43.000
R07  21523872.016 6 115218923.150 6      2895.395          36.000    21523876.531 4  89614746.798 4      2251.977          28.000
R12  21392569.664 8 114275268.498 8     -3429.000          50.000    21392574.734 7  88880766.010 7     -2667.000          46.000
R21  22621954.078 5 121054646.761 5     -2875.527          32.000
R23  21821356.117 5 116729492.669 5      2593.641          33.000
C05  39611386.852 5 206266885.770 5          .184          35.000    39611388.430 5 159498646.120 5         -.139          35.000
C30  21826177.016 5 113654658.606 5       880.918          32.000
E15  23802005.688 5 125080390.723 5      1107.609          35.000    23802010.258 5  95840818.661 5       848.556          32.000
E30  23917428.320 8 125686944.933 8     -2532.824          51.000    23917431.633 8  96305534.359 8     -1940.792          51.000
E36  27487879.023 5 144449778.852 5     -2358.637          32.000    27487883.539 5 110682312.157 5     -1807.438          35.000
> 2020 05 03 16 16  0.0000000  0 15        .000000000000
G10  21400113.242 8 112458428.357 8      1751.582          51.000    21400116.062 8  87629954.543 8      1364.869          51.000
G16  20832166.477 8 109473807.931 8     -1574.965          51.000    20832165.836 8  85304217.714 8     -1227.245          49.000
G18  23500017.023 5 123493419.781 5     -3130.262          34.000
G20  21022304.797 6 110472998.396 6      -637.316          38.000    21022307.836 6  86082901.640 6      -496.607          36.000
G26  22346255.508 7 117430360.169 7     -3187.617          44.000    22346262.336 7  91504175.834 7     -2483.858          44.000
R07  21507722.625 6 115132479.796 6      2870.875          36.000    21507726.523 5  89547513.131 5      2232.900          31.000
R12  21411899.852 8 114378524.389 8     -3451.203          51.000    21411904.859 7  88961076.107 7     -2684.272          47.000
R21  22638113.953 5 121141128.908 5     -2884.508          33.000
R22  19781166.789 4 105593211.014 4      -605.281          29.000
R23  21806854.055 5 116651920.005 5      2581.387          31.000
C05  39611415.711 5 206267036.445 5        -6.691          35.000    39611417.297 5 159498762.610 5        -5.120          34.000
C30  21821151.531 5 113628499.099 5       866.926          31.000
E15  23795729.758 6 125047401.322 6      1095.258          37.000    23795731.156 5  95815547.041 5       839.409          32.000
E30  23931942.102 8 125763211.809 8     -2548.160          51.000    23931945.609 8  96363972.574 8     -1952.495          51.000
E36  27501370.344 5 144520677.399 5     -2364.762          30.000    27501376.945 5 110736639.994 5     -1811.990          35.000
> 2020 05 03 16 16 30.0000000  0 14        .000000000000
G10  21390158.289 8 112406115.189 8      1734.223          51.000    21390161.031 8  87589191.052 8      1351.345          51.000
G16  20841204.891 8 109521306.867 8     -1593.434          50.000    20841204.664 8  85341229.834 8     -1241.637          49.000
G18  23517886.414 5 123587322.861 5     -3132.211          33.000
G20  21025993.398 5 110492382.716 5      -656.961          34.000    21025995.734 5  86098006.235 5      -511.918          33.000
G26  22364477.039 7 117526112.045 7     -3197.453          46.000    22364483.344 7  91578787.643 7     -2491.522          46.000
R07  21491680.703 5 115046616.420 5      2851.203          34.000    21491687.016 5  89480730.544 5      2217.599          35.000
R12  21431321.969 8 114482271.638 8     -3467.055          51.000    21431326.672 7  89041768.333 7     -2696.601          47.000
R21  22654290.031 4 121227700.416 4     -2887.543          27.000
R22  19784599.500 5 105611532.222 5      -616.527          35.000    19784613.734 5  82142335.271 5      -479.521          34.000
C05  39611450.039 5 206267214.964 5        -6.844          35.000    39611451.625 5 159498900.642 5        -5.283          34.000
C27  22767604.344 5 118556874.596 5     -1717.797          32.000
E15  23789490.992 5 125014610.355 5      1089.195          34.000    23789492.383 5  95790427.543 5       834.494          32.000
E30  23946510.523 8 125839767.009 8     -2557.340          51.000    23946514.500 8  96422631.710 8     -1959.502          51.000
E36                                                                  27514872.938 5 110790979.707 5     -1811.939          35.000
> 2020 05 03 16 17  0.0000000  0 13        .000000000000
G10  21380304.633 8 112354334.502 8      1719.105          51.000    21380307.680 8  87548842.527 8      1339.563          51.000
G16  20850350.953 8 109569370.386 8     -1609.617          51.000    20850350.719 8  85378681.899 8     -1254.247          49.000
G18  23535773.898 5 123681326.624 5     -3132.848          32.000
G20  21029795.305 6 110512361.370 6      -673.770          36.000    21029796.773 6  86113573.963 6      -525.015          36.000
G26  22382756.766 8 117622168.764 8     -3204.887          48.000    22382761.922 8  91653636.972 8     -2497.314          48.000
R12  21450835.203 8 114586504.714 8     -3480.461          51.000    21450839.094 7  89122838.463 7     -2707.025          46.000
R22  19788094.289 5 105630176.086 5      -624.969          35.000    19788099.773 5  82156836.117 5      -486.084          32.000
R23  21777957.914 5 116497393.234 5      2572.066          31.000
C05  39611489.547 5 206267420.221 5        -5.082          35.000    39611491.031 5 159499059.356 5        -4.156          34.000
C30  21811245.812 5 113576864.459 5       854.258          32.000
E15  23783287.805 5 124982023.221 5      1085.230          34.000    23783290.484 5  95765452.952 5       831.397          32.000
E30  23961132.930 8 125916607.577 8     -2564.172          51.000    23961137.086 8  96481509.507 8     -1964.686          50.000
E36                                                                  27528371.258 5 110845330.105 5     -1810.224          34.000
> 2020 05 03 16 17 30.0000000  0 12        .000000000000
G10  21370559.133 8 112303120.759 8      1700.113          51.000    21370562.078 8  87508935.778 8      1324.767          51.000
G16  20859610.617 8 109618029.808 8     -1629.383          51.000    20859610.242 8  85416598.307 8     -1269.652          49.000
G20  21033716.398 5 110532966.290 5      -694.730          34.000    21033717.523 5  86129629.683 5      -541.348          35.000
G26  22401100.227 8 117718560.602 8     -3216.152          49.000    22401104.172 8  91728747.425 8     -2506.096          49.000
R07  21459934.008 6 114876695.728 6      2814.078          37.000    21459941.469 5  89348575.778 5      2188.727          32.000
R12  21470444.141 8 114691252.454 8     -3497.645          51.000    21470448.156 7  89204308.838 7     -2720.393          47.000
C05  39611540.398 5 206267684.549 5        -7.277          35.000    39611541.906 5 159499264.739 5        -5.621          34.000
C27  22787472.023 5 118660334.573 5     -1729.133          30.000
C30  21806366.055 5 113551470.481 5       845.133          31.000
E15  23777128.492 5 124949658.735 5      1077.625          35.000    23777132.164 5  95740654.193 5       825.677          34.000
E30  23975815.141 8 125993764.576 8     -2574.676          51.000    23975819.117 8  96540629.761 8     -1972.815          49.000
E36                                                                  27541878.469 5 110899716.149 5     -1811.661          33.000
> 2020 05 03 16 18  0.0000000  0 10        .000000000000
G10  21360903.289 8 112252378.162 8      1680.543          51.000    21360905.820 8  87469396.122 8      1309.514          51.000
G16  20868964.828 8 109667186.454 8     -1649.926          51.000    20868964.195 8  85454902.145 8     -1285.659          49.000
G20  21037737.945 6 110554098.889 6      -715.988          37.000    21037738.461 6  86146096.657 6      -557.913          37.000
G26  22419488.266 8 117815187.666 8     -3227.750          49.000    22419491.117 8  91804041.192 8     -2515.130          49.000
R07  21444220.344 5 114792560.006 5      2792.137          31.000    21444223.398 4  89283136.848 4      2171.665          29.000
R12  21490129.898 8 114796411.434 8     -3515.121          51.000    21490134.492 7  89286099.105 7     -2733.983          47.000
C05                                                                  39611585.516 5 159499440.201 5        -7.678          35.000
E15  23770994.562 5 124917419.254 5      1069.156          31.000    23770998.883 5  95715956.453 5       819.430          34.000
E30  23990538.266 8 126071138.867 8     -2585.586          50.000    23990542.086 8  96599916.526 8     -1981.307          48.000
E36                                                                  27555374.797 5 110954075.020 5     -1813.265          31.000
> 2020 05 03 16 18 30.0000000  0 10        .000000000000
G10  21351311.867 8 112201976.062 8      1675.312          51.000    21351314.445 8  87430121.780 8      1305.438          51.000
G16  20878388.383 8 109716706.270 8     -1655.707          51.000    20878387.195 8  85493488.989 8     -1290.161          49.000
G20  21041834.891 6 110575626.227 6      -722.879          39.000    21041834.586 6  86162871.138 6      -563.282          38.000
G21  23510337.305 6 123547620.709 6     -2559.012          36.000
G26  22437895.148 8 117911915.282 8     -3224.906          49.000    22437897.609 8  91879413.312 8     -2512.914          49.000
R12  21509866.438 8 114901842.786 8     -3517.898          50.000    21509871.703 7  89368101.215 7     -2736.143          46.000
C05  39611595.164 5 206267969.832 5         2.234          35.000    39611596.750 5 159499485.388 5         1.000          34.000
E15                                                                  23764865.531 5  95691258.280 5       824.108          34.000
E30  24005277.273 8 126148596.486 8     -2582.215          51.000    24005280.883 7  96659267.132 7     -1978.673          47.000
