     3.02           OBSERVATION DATA    M (MIXED)           RINEX VERSION / TYPE
SAVERINEX           SC600               20200505 025931 LCL PGM / RUN BY / DATE
       G = GPS       R = GLONASS       C = COMPASS          COMMENT
       S = SBAS      J = QZSS          E = GALILEO          COMMENT
BEAN                                                        MARKER NAME
1                                                           MARKER NUMBER
GEODETIC                                                    MARKER TYPE
Unige DICCA         GTER                                    OBSERVER / AGENCY
SC60291900056       SC600               2.12(191226)        REC # / TYPE / VERS
                    HEMA45          NONE                    ANT # / TYPE
  4509407.8091   693652.4678  4442337.6214                  APPROX POSITION XYZ
        0.0000        0.0000        0.0000                  ANTENNA: DELTA H/E/N
G    8 C1C L1C D1C S1C C2Y L2Y D2Y S2Y                      SYS / # / OBS TYPES
R    8 C1C L1C D1C S1C C2P L2P D2P S2P                      SYS / # / OBS TYPES
C    8 C1I L1I D1I S1I C7I L7I D7I S7I                      SYS / # / OBS TYPES
E    8 C1C L1C D1C S1C C7Q L7Q D7Q S7Q                      SYS / # / OBS TYPES
DBHZ                                                        COMMENT
     30.000                                                 INTERVAL
  2020    05    05    00    00    0.0000000     GPS         TIME OF FIRST OBS
  2020    05    05    00    59   30.0000000     GPS         TIME OF LAST OBS
     0                                                      RCV CLOCK OFFS APPL
G L1C  0.00000                                              SYS / PHASE SHIFT
G L2Y  0.00000                                              SYS / PHASE SHIFT
R L1C  0.00000                                              SYS / PHASE SHIFT
R L2P  0.25000                                              SYS / PHASE SHIFT
C L1I  0.00000                                              SYS / PHASE SHIFT
C L7I  0.00000                                              SYS / PHASE SHIFT
E L1C  0.50000                                              SYS / PHASE SHIFT
E L7Q -0.25000                                              SYS / PHASE SHIFT
 13 R02 -4 R03  5 R04  6 R05  1 R10 -5 R11  0 R12 -1 R13 -2 GLONASS SLOT / FRQ #
    R14 -7 R15  0 R17  4 R18 -3 R19  3                      GLONASS SLOT / FRQ #
 C1C   71.950 C2C   71.950 C2P   71.950                     GLONASS COD/PHS/BIS
    18                                                      LEAP SECONDS
*** Above antenna height is from mark to ANTENNA BOTTOM.    COMMENT
    17     4        0.0000        ANT MEASURE TYPE/HEIGT    COMMENT
    0.0000    0.0000    0.0458    0.0405    0.0000          COMMENT
                    BASE STATION                            COMMENT
                                                            END OF HEADER
> 2020 05 05 00 00  0.0000000  0 14        .000000000000
G04  20917428.070 8 109921826.128 8     -1748.699          51.000    20917428.039 8  85653422.124 8     -1362.626          51.000
G07  23324230.008 5 122569661.069 5      3228.262          32.000    23324232.773 5  95508883.255 5      2515.529          34.000
G09  20311331.375 8 106736858.860 8       484.867          51.000    20311332.086 8  83171554.632 8       377.819          51.000
G19  24041339.141 7 126338078.631 7     -3037.242          45.000    24041336.797 7  98445238.461 7     -2366.682          42.000
R05  21311042.336 5 113919741.322 5      2321.891          32.000    21311034.180 4  88604217.001 4      1805.912          27.000
R14  21763142.383 6 116009832.588 6      3143.898          36.000    21763147.422 4  90229841.362 4      2445.263          29.000
R19  21336517.336 6 114135970.596 6     -3644.699          40.000    21336519.883 7  88772425.187 7     -2834.763          45.000
C19  21727243.398 6 113139424.169 6       652.840          39.000
C20  23251770.406 6 121078005.870 6     -1764.543          38.000
E03  23455406.391 8 123258977.538 8       254.309          50.000    23455409.281 8  94445239.016 8       194.890          51.000
E05                                                                  25124739.758 5 101166928.745 5     -1431.322          31.000
E08  24342005.367 6 127918148.142 6      2102.867          37.000
E15  23980627.125 8 126019034.790 8     -1046.363          48.000    23980631.031 8  96560051.240 8      -801.729          51.000
E25  27707055.555 5 145601555.241 5      2807.484          35.000
> 2020 05 05 00 00 30.0000000  0 13        .000000000000
G04  20927434.164 8 109974408.963 8     -1756.160          51.000    20927434.320 8  85694395.764 8     -1368.433          51.000
G09  20308595.742 8 106722481.343 8       474.105          51.000    20308596.469 8  83160351.371 8       369.433          51.000
G19  24058690.086 7 126429259.591 7     -3040.906          44.000    24058688.820 7  98516288.576 7     -2369.537          43.000
R05  21298020.789 4 113850137.833 4      2317.609          29.000
R14  21745487.398 7 115915722.755 7      3130.879          43.000    21745494.672 5  90156644.880 5      2435.128          34.000
R19  21356992.602 6 114245500.009 6     -3656.809          40.000    21356994.359 7  88857614.720 7     -2844.188          43.000
C19  21723494.969 6 113119910.243 6       648.434          36.000
C20  23261951.234 5 121130975.440 5     -1766.711          33.000
E03  23453966.133 8 123251408.614 8       250.855          50.000    23453968.602 8  94439439.451 8       192.196          51.000
E05  25135408.586 5 132087464.973 5     -1868.289          31.000
E08  24330005.477 5 127855039.834 5      2102.152          33.000
E15  23986633.414 8 126050600.151 8     -1057.461          49.000    23986636.875 8  96584237.658 8      -810.274          51.000
E25  27691027.180 6 145517322.672 6      2808.652          37.000
> 2020 05 05 00 01  0.0000000  0 12        .000000000000
G04  20937501.773 8 110027315.079 8     -1770.449          51.000    20937502.227 8  85735621.313 8     -1379.571          51.000
G09  20305939.906 8 106708524.438 8       456.695          51.000    20305940.492 8  83149475.855 8       355.866          51.000
G19  24076081.578 7 126520653.066 7     -3051.289          46.000    24076081.617 7  98587504.317 7     -2377.628          42.000
R14  21727924.617 7 115822104.102 7      3110.914          43.000    21727931.188 6  90083830.388 6      2419.600          37.000
R19  21377554.938 6 114355499.442 6     -3675.832          38.000    21377556.617 7  88943169.814 7     -2858.980          43.000
C19  21719788.484 6 113100618.323 6       637.660          36.000
C20  23272152.234 5 121184112.571 5     -1775.488          32.000
E03  23452564.852 8 123244043.740 8       240.723          50.000    23452566.789 8  94433796.220 8       184.438          51.000
E05  25146095.672 6 132143623.736 6     -1874.992          39.000
E08                                                                  24318036.094 5  97918651.168 5      1605.278          32.000
E15  23992721.812 8 126082595.398 8     -1075.125          50.000    23992724.719 8  96608753.468 8      -823.785          51.000
E25  27675010.906 6 145433153.875 6      2803.250          37.000    27675026.172 6 111435847.830 6      2147.804          37.000
> 2020 05 05 00 01 30.0000000  0 13        .000000000000
G04  20947622.992 8 110080502.958 8     -1777.586          51.000    20947623.734 8  85777066.420 8     -1385.132          51.000
G07  23269067.922 5 122279772.549 5      3213.098          35.000    23269063.094 5  95282929.508 5      2503.709          34.000
G09  20303356.180 8 106694947.892 8       446.152          51.000    20303356.938 8  83138896.716 8       347.651          51.000
G19  24093505.562 7 126612216.181 7     -3054.848          47.000    24093506.195 6  98658852.254 6     -2380.398          41.000
R14  21710446.484 6 115728940.582 6      3097.730          41.000    21710451.883 6  90011369.836 6      2409.346          36.000
R19  21398196.469 6 114465923.940 6     -3687.758          40.000    21398199.789 7  89029055.543 7     -2868.256          44.000
C19  21716118.102 6 113081509.386 6       633.922          39.000
C20  23282382.234 6 121237377.035 6     -1777.480          39.000
E03  23451194.539 8 123236842.736 8       237.258          50.000    23451196.562 8  94428278.559 8       181.867          51.000
E05  25156793.070 6 132199835.742 6     -1874.648          37.000
E08                                                                  24306073.719 5  97870486.368 5      1605.083          33.000
E15  23998884.250 8 126114980.075 8     -1085.934          49.000    23998887.102 8  96633567.691 8      -832.046          51.000
E25  27658998.727 6 145349011.297 6      2803.961          38.000    27659016.625 6 111371374.904 6      2148.552          37.000
> 2020 05 05 00 02  0.0000000  0 13        .000000000000
G04  20957808.016 8 110134025.805 8     -1789.652          51.000    20957808.703 8  85818772.536 8     -1394.534          50.000
G07  23250754.125 6 122183525.789 6      3204.164          39.000    23250750.828 6  95207932.066 6      2496.754          39.000
G09  20300855.273 8 106681806.136 8       430.828          51.000    20300856.242 8  83128656.379 8       335.713          51.000
G19  24110971.711 7 126704000.073 7     -3063.035          47.000    24110972.383 6  98730372.213 6     -2386.781          40.000
R14  21693065.078 6 115636292.393 6      3079.617          40.000    21693070.391 6  89939310.077 6      2395.258          37.000
R19  21418928.477 7 114576824.682 7     -3704.582          43.000    21418932.477 7  89115311.657 7     -2881.345          44.000
C19  21712494.305 6 113062638.002 6       625.145          40.000
C20  23292646.836 5 121290823.309 5     -1784.891          33.000
E03  23449865.742 8 123229860.074 8       229.266          50.000    23449867.930 8  94422928.204 8       175.698          51.000
E05  25167510.789 6 132256154.498 6     -1879.016          38.000    25167507.586 5 101339122.557 5     -1439.442          32.000
E08                                                                  24294139.477 5  97822419.440 5      1600.737          32.000
E15  24005130.938 8 126147808.382 8     -1101.523          49.000    24005134.484 8  96658721.838 8      -844.075          51.000
E25  27643002.766 6 145264951.891 6      2800.688          38.000    27643024.734 6 111306965.662 6      2146.071          36.000
> 2020 05 05 00 02 30.0000000  0 14        .000000000000
G04  20968026.789 8 110187725.596 8     -1791.539          51.000    20968027.266 8  85860616.523 8     -1396.004          50.000
G07  23232450.414 6 122087333.895 6      3207.090          39.000    23232446.031 6  95132977.369 6      2499.034          39.000
G09  20298407.359 8 106668942.348 8       425.508          51.000    20298408.211 8  83118632.652 8       331.568          51.000
G19  24128449.422 7 126795845.118 7     -3061.109          45.000    24128449.453 6  98801939.775 6     -2385.280          41.000
R03  22245869.125 5 119083831.572 5     -2795.766          32.000    22245869.352 5  92620762.500 5     -2174.481          32.000
R05  21246309.031 5 113573680.939 5      2297.199          35.000
R14  21675752.094 6 115544004.983 6      3071.621          39.000    21675756.828 5  89867531.027 5      2389.045          33.000
R19  21439719.703 7 114688038.365 7     -3710.980          43.000    21439722.969 7  89201811.156 7     -2886.321          42.000
C19  21708886.398 6 113043849.533 6       626.211          40.000
E03  23448548.898 8 123222939.041 8       231.094          51.000    23448550.625 8  94417625.067 8       177.120          50.000
E05  25178218.578 6 132312422.860 6     -1873.570          36.000    25178219.359 5 101382240.321 5     -1435.270          33.000
E08  24282175.531 5 127603693.373 5      2093.531          33.000    24282200.484 5  97774357.702 5      1604.464          32.000
E15  24011432.422 8 126180923.186 8     -1107.109          50.000    24011436.844 8  96684095.536 8      -848.341          51.000
E25  27626993.180 6 145180821.413 6      2806.668          40.000    27627017.234 5 111242502.000 5      2150.698          34.000
> 2020 05 05 00 03  0.0000000  0 13        .000000000000
G04  20978353.906 8 110241994.545 8     -1822.035          51.000    20978354.297 8  85902904.016 8     -1419.765          49.000
G07  23214231.883 6 121991593.296 6      3180.367          40.000    23214225.617 6  95058374.370 6      2478.214          39.000
G09  20296087.328 8 106656749.986 8       391.594          51.000    20296088.047 8  83109132.112 8       305.141          51.000
G19  24146012.812 7 126888142.048 7     -3087.469          43.000    24146011.844 6  98873859.440 6     -2405.820          41.000
R14  21658582.969 6 115452482.506 6      3034.539          38.000    21658585.195 5  89796346.898 5      2360.197          30.000
R19  21460642.992 7 114799960.935 7     -3746.418          42.000    21460645.805 7  89288862.017 7     -2913.881          42.000
C19  21705369.531 6 113025534.635 6       598.953          39.000
C20  23313257.023 5 121398233.317 5     -1806.984          32.000
E03  23447318.773 8 123216473.148 8       204.348          51.000    23447319.812 8  94412670.692 8       156.518          50.000
E05  25188991.867 5 132369034.561 5     -1896.449          35.000    25188996.852 5 101425617.994 5     -1453.120          33.000
E08  24270306.656 5 127541321.314 5      2069.973          33.000    24270330.703 4  97726563.976 4      1585.894          29.000
E15  24017863.586 8 126214717.744 8     -1141.426          51.000    24017868.477 8  96709990.074 8      -874.599          51.000
E25  27611045.766 6 145097015.950 6      2784.656          40.000    27611069.234 5 111178287.308 5      2133.521          34.000
> 2020 05 05 00 03 30.0000000  0 13        .000000000000
G04  20988725.469 8 110296497.176 8     -1819.328          51.000    20988725.773 8  85945373.598 8     -1417.658          48.000
G07  23196035.672 6 121895972.076 6      3186.637          41.000    23196030.266 6  94983864.375 6      2483.094          41.000
G09  20293831.297 8 106644894.754 8       390.844          51.000    20293832.234 8  83099894.277 8       304.554          51.000
G19  24163597.773 7 126980553.554 7     -3080.980          42.000    24163595.883 7  98945868.399 7     -2400.761          42.000
R14  21641494.078 5 115361390.823 5      3030.426          34.000    21641495.625 6  89725497.747 6      2356.998          36.000
R19  21481634.164 6 114912248.623 6     -3747.770          41.000    21481636.812 7  89376196.874 7     -2914.929          42.000
C19  21701878.953 5 113007362.886 5       604.219          35.000
C20  23323627.531 4 121452208.723 4     -1798.945          29.000
E03  23446111.445 8 123210128.214 8       210.867          51.000    23446112.203 8  94407809.004 8       161.574          50.000
E05  25199766.070 5 132425654.915 5     -1886.062          35.000    25199770.891 5 101469002.431 5     -1445.069          33.000
E08  24258444.672 5 127478974.246 5      2079.148          35.000
E15  24024360.594 8 126248857.477 8     -1142.305          51.000    24024365.133 8  96736149.094 8      -875.356          51.000
E25  27595097.008 6 145013203.841 6      2794.969          41.000    27595115.562 6 111114067.569 6      2141.863          38.000
> 2020 05 05 00 04  0.0000000  0 12        .000000000000
G04  20999148.078 8 110351268.186 8     -1832.652          51.000    20999148.117 7  85988052.295 7     -1428.041          46.000
G07  23177870.047 7 121800509.945 7      3177.184          43.000    23177866.008 7  94909478.278 7      2475.724          45.000
G09  20291646.141 8 106633412.363 8       373.941          51.000    20291647.211 8  83090946.969 8       291.383          51.000
G19  24181211.000 7 127073112.672 7     -3090.125          43.000    24181208.375 7  99017992.371 7     -2407.890          42.000
R14  21624492.773 6 115270770.588 6      3010.258          37.000    21624496.688 6  89655015.408 6      2341.315          37.000
R19  21502699.680 6 115024933.626 6     -3765.406          39.000    21502701.617 6  89463840.745 6     -2928.652          41.000
C19  21698422.039 4 112989370.386 4       595.766          28.000
E03  23444933.742 8 123203940.237 8       201.145          51.000    23444934.688 8  94403067.588 8       154.127          50.000
E05  25210547.570 6 132482325.983 6     -1892.203          36.000    25210552.500 5 101512421.078 5     -1449.882          35.000
E08  24246596.938 5 127416700.549 5      2072.258          35.000
E15  24030930.008 8 126283378.038 8     -1159.590          51.000    24030933.945 8  96762599.902 8      -888.532          51.000
E25  27579154.242 6 144929423.570 6      2789.613          40.000    27579167.539 6 111049872.256 6      2137.313          41.000
> 2020 05 05 00 04 30.0000000  0 16        .000000000000
G03  22887717.984 6 120275757.861 6     -2725.758          37.000    22887714.734 6  93721369.346 6     -2123.967          37.000
G04  21009631.023 8 110406356.361 8     -1840.605          51.000    21009630.930 7  86030978.130 7     -1434.238          45.000
G07  23159745.109 7 121705259.354 7      3172.363          46.000    23159742.141 7  94835257.024 7      2471.971          46.000
G09  20289541.617 8 106622353.175 8       362.523          51.000    20289542.633 8  83082329.418 8       282.486          51.000
G19  24198861.773 7 127165866.688 7     -3094.004          45.000    24198858.445 7  99090268.186 7     -2410.912          42.000
R04  19727762.547 5 105641286.947 5      -543.062          34.000    19727762.844 4  82165444.657 4      -422.382          25.000
R05  21195270.398 5 113300865.267 5      2261.625          30.000
R14  21607591.281 6 115180677.615 6      2995.230          40.000    21607595.484 6  89584943.064 6      2329.624          36.000
R19  21523847.227 6 115138062.806 6     -3777.270          36.000    21523848.453 6  89551830.093 6     -2937.876          39.000
C19  21695011.039 6 112971612.769 6       589.250          36.000
C20  23344449.727 5 121560628.463 5     -1810.676          35.000
E03  23443795.406 8 123197959.314 8       196.812          51.000    23443796.594 8  94398484.801 8       150.783          51.000
E05  25221348.078 5 132539078.451 5     -1892.918          33.000    25221353.688 6 101555912.100 6     -1450.163          37.000
E08  24234771.695 5 127354550.712 5      2070.523          35.000
E15  24037581.078 8 126318329.069 8     -1171.273          51.000    24037584.734 8  96789380.554 8      -897.454          51.000
E25  27563227.570 6 144845727.833 6      2789.340          41.000    27563236.320 7 110985741.703 7      2137.304          42.000
> 2020 05 05 00 05  0.0000000  0 14        .000000000000
G03  22903304.172 5 120357661.786 5     -2733.496          34.000    22903298.852 5  93785190.560 5     -2129.997          35.000
G04  21020175.039 8 110461765.427 8     -1852.320          51.000    21020174.742 7  86074154.025 7     -1443.366          45.000
G07  23141661.969 7 121610227.977 7      3164.164          47.000    23141659.758 8  94761206.593 8      2465.582          48.000
G09  20287518.508 8 106611721.912 8       347.266          51.000    20287519.539 8  83074045.329 8       270.597          51.000
G19  24216550.078 7 127258817.211 7     -3101.688          46.000    24216546.250 7  99162697.133 7     -2416.902          42.000
R04  19730846.672 6 105657777.556 6      -554.855          40.000    19730842.570 4  82178255.651 4      -431.551          26.000
R14  21590790.750 7 115091121.434 7      2976.312          42.000    21590795.242 6  89515288.307 6      2314.910          38.000
R19  21545077.789 6 115251637.334 6     -3793.160          38.000    21545078.898 6  89640165.822 6     -2950.236          39.000
C19  21691646.227 6 112954085.483 6       580.500          40.000
C20  23354908.344 4 121615073.315 4     -1817.129          29.000
E03  23442697.508 8 123192190.479 8       188.785          51.000    23442698.641 8  94394064.504 8       144.707          50.000
E05  25232168.516 6 132595938.402 6     -1896.840          39.000    25232172.836 6 101599479.320 6     -1453.519          37.000
E15  24044314.898 8 126353715.282 8     -1186.727          51.000    24044318.750 8  96816494.667 8      -909.346          51.000
E25  27547317.922 6 144762124.063 6      2785.191          39.000    27547323.930 7 110921681.654 7      2134.108          42.000
> 2020 05 05 00 05 30.0000000  0 15        .000000000000
G03  22918925.320 5 120439756.320 5     -2739.527          32.000    22918923.961 5  93849160.383 5     -2134.697          32.000
G04  21030775.953 8 110517473.732 8     -1861.387          51.000    21030775.406 7  86117563.096 7     -1450.431          44.000
G07  23123616.867 8 121515398.032 8      3158.148          48.000    23123615.227 8  94687313.129 8      2460.895          48.000
G09  20285572.914 8 106601498.063 8       334.660          51.000    20285573.953 8  83066078.694 8       260.774          51.000
G19  24234271.281 7 127351941.087 7     -3106.520          45.000    24234267.203 7  99235261.152 7     -2420.665          42.000
R04  19733982.508 6 105674566.895 6      -563.996          36.000    19733981.648 4  82191314.062 4      -438.661          27.000
R14  21574088.656 7 115002086.039 7      2959.594          43.000    21574093.281 6  89446038.581 6      2301.909          40.000
R19  21566388.586 6 115365632.167 6     -3806.254          39.000    21566389.172 6  89728828.456 6     -2960.420          40.000
C19  21688322.531 7 112936774.104 7       574.066          42.000
C20  23365380.336 5 121669659.860 5     -1822.324          30.000
E03  23441636.148 8 123186613.318 8       183.266          51.000    23441636.930 8  94389791.097 8       140.352          50.000
E05  25243003.641 6 132652876.232 6     -1898.938          36.000    25243005.625 6 101643107.053 6     -1454.910          37.000
E08  24211179.180 5 127230623.826 5      2062.895          35.000
E15  24051127.758 8 126389515.858 8     -1199.746          51.000    24051131.734 8  96843926.277 8      -919.280          51.000
E25  27531421.789 6 144678594.463 6      2783.598          38.000    27531426.531 7 110857678.413 7      2132.922          42.000
> 2020 05 05 00 06  0.0000000  0 15        .000000000000
G04  21041433.398 8 110573478.962 8     -1871.133          51.000    21041432.938 7  86161203.529 7     -1458.026          45.000
G07  23105610.117 8 121420771.786 8      3151.504          49.000    23105609.133 8  94613578.370 8      2455.717          49.000
G09  20283704.641 8 106591680.472 8       321.145          51.000    20283705.539 8  83058428.620 8       250.242          51.000
G19  24252024.555 7 127445234.188 7     -3111.887          45.000    24252020.438 7  99307957.053 7     -2424.847          42.000
R04  19737172.641 6 105691654.102 6      -573.680          38.000    19737172.508 4  82204604.104 4      -446.195          28.000
R05  21157393.094 5 113098352.693 5      2240.316          31.000
R14  21557485.352 7 114913575.020 7      2942.254          44.000    21557489.445 6  89377196.692 6      2288.420          37.000
R19  21587777.227 6 115480042.419 6     -3819.945          39.000    21587777.531 6  89817814.196 6     -2971.069          40.000
C19  21685039.383 6 112919678.189 6       567.027          41.000
C20  23375893.125 5 121724417.321 5     -1827.621          34.000
E03  23440611.008 8 123181226.825 8       177.047          51.000    23440611.672 8  94385663.780 8       135.680          50.000
E05  25253852.750 5 132709891.906 5     -1901.531          34.000    25253853.438 6 101686794.321 6     -1456.970          37.000
E08  24199420.906 6 127168821.432 6      2058.895          37.000
E15  24058019.062 8 126425729.339 8     -1213.270          51.000    24058023.414 8  96871674.263 8      -929.687          51.000
E25  27515540.023 6 144595140.474 6      2781.258          38.000    27515544.086 7 110793733.152 7      2131.016          42.000
> 2020 05 05 00 06 30.0000000  0 15        .000000000000
G04  21052145.695 8 110629772.275 8     -1882.273          49.000    21052145.758 7  86205068.448 7     -1466.707          46.000
G07  23087640.875 8 121326344.503 8      3143.062          48.000    23087640.477 8  94539998.658 8      2449.140          48.000
G09  20281912.227 8 106582261.429 8       306.258          51.000    20281912.906 8  83051089.118 8       238.645          51.000
G19  24269807.828 7 127538686.380 7     -3118.875          43.000    24269803.539 7  99380776.955 7     -2430.292          43.000
R03  22372242.172 5 119760326.217 5     -2831.406          33.000    22372232.758 4  93146910.025 4     -2202.205          27.000
R04  19740418.859 6 105709031.411 6      -584.973          38.000    19740416.734 5  82218119.746 5      -454.979          30.000
R14  21540979.023 7 114825585.371 7      2923.078          42.000    21540982.578 5  89308760.268 5      2273.505          35.000
R19  21609240.797 6 115594855.976 6     -3834.969          38.000    21609241.523 6  89907113.641 6     -2982.753          40.000
C19  21681796.320 7 112902790.998 7       558.602          42.000
C20  23386442.398 5 121779323.182 5     -1833.168          30.000
E03  23439620.812 8 123176023.490 8       169.402          51.000    23439621.547 8  94381676.814 8       129.754          50.000
E05  25264715.508 5 132766977.452 5     -1904.688          33.000    25264715.352 6 101730535.270 6     -1459.639          38.000
E08  24187680.969 6 127107120.618 6      2053.988          37.000
E15  24064987.016 8 126462347.763 8     -1228.418          51.000    24064991.953 8  96899732.526 8      -941.219          51.000
E25  27499672.570 6 144511757.171 6      2777.410          40.000    27499675.867 7 110729842.032 7      2128.080          42.000
> 2020 05 05 00 07  0.0000000  0 16        .000000000000
G04  21062918.383 8 110686383.268 8     -1891.531          49.000    21062918.758 7  86249180.925 7     -1473.920          45.000
G07  23069715.625 8 121232149.457 8      3136.648          48.000    23069715.672 8  94466599.895 8      2444.142          48.000
G09  20280201.664 8 106573271.705 8       293.273          51.000    20280202.102 8  83044084.145 8       228.525          51.000
G19  24287626.438 7 127632325.154 7     -3123.457          44.000    24287621.812 7  99453742.239 7     -2433.863          42.000
R03  22388119.109 5 119845318.154 5     -2834.371          31.000
R04  19743724.406 5 105726730.158 5      -594.914          32.000    19743723.430 5  82231885.382 5      -462.714          32.000
R05  21132314.453 4 112964303.970 4      2226.848          27.000
R14  21524576.844 6 114738153.054 6      2905.785          40.000    21524579.672 5  89240757.221 5      2260.046          31.000
R19  21630783.828 6 115710100.339 6     -3848.195          36.000    21630785.781 6  89996748.184 6     -2993.041          39.000
C19  21678599.961 7 112886143.851 7       551.855          44.000
C20  23397030.664 4 121834478.088 4     -1838.383          29.000
E03  23438671.398 8 123171034.196 8       163.551          51.000    23438672.109 8  94377853.852 8       125.318          50.000
E05  25275598.750 5 132824166.943 5     -1907.215          35.000    25275598.703 6 101774353.493 6     -1461.169          39.000
E08  24175965.734 6 127045552.823 6      2051.086          37.000    24175969.141 5  97346597.206 5      1571.578          35.000
E15  24072037.781 8 126499401.554 8     -1241.539          51.000    24072042.672 8  96928124.393 8      -951.363          51.000
E25  27483825.430 6 144428477.935 6      2774.914          40.000    27483827.828 7 110666030.662 7      2126.257          42.000
> 2020 05 05 00 07 30.0000000  0 13        .000000000000
G04  21073748.094 8 110743293.357 8     -1900.977          49.000    21073748.141 7  86293526.439 7     -1481.280          45.000
G07  23051832.133 8 121138172.395 8      3129.832          49.000    23051832.250 8  94393371.012 8      2438.830          49.000
G09  20278569.445 8 106564693.819 8       279.934          51.000    20278569.773 8  83037400.074 8       218.130          51.000
G19  24305476.820 7 127726130.350 7     -3128.500          45.000    24305471.508 6  99526837.185 6     -2437.792          39.000
R04  19747082.180 4 105744732.574 4      -603.977          29.000    19747087.117 5  82245887.375 5      -469.757          33.000
R14  21508276.406 6 114651265.082 6      2888.531          38.000    21508282.227 5  89173177.704 5      2246.638          34.000
R19  21652403.617 5 115825753.589 5     -3860.652          35.000    21652407.109 6  90086700.752 6     -3002.730          40.000
C19  21675446.383 7 112869720.331 7       544.465          44.000
E03  23437759.336 8 123166241.611 8       157.426          50.000    23437759.992 8  94374181.623 8       120.598          50.000
E05  25286498.172 5 132881436.574 5     -1909.531          33.000    25286498.891 6 101818235.592 6     -1463.204          39.000
E08  24164271.742 6 126984101.121 6      2047.520          36.000    24164279.266 5  97299510.835 5      1568.774          35.000
E15  24079168.125 8 126536872.946 8     -1255.027          51.000    24079172.414 8  96956836.223 8      -961.659          51.000
E25  27467995.562 6 144345287.965 6      2772.531          41.000    27467997.008 7 110602287.688 7      2124.458          42.000
> 2020 05 05 00 08  0.0000000  0 12        .000000000000
G04  21084633.016 8 110800493.561 8     -1911.051          50.000    21084632.852 7  86338098.020 7     -1489.130          46.000
G07  23033989.562 8 121044408.114 8      3122.258          50.000    23033989.086 8  94320307.924 8      2432.922          51.000
G09  20277014.039 8 106556519.915 8       266.133          51.000    20277014.312 8  83031030.790 8       207.373          51.000
G19  24323357.062 7 127820091.461 7     -3134.215          44.000    24323351.414 6  99600053.596 6     -2442.248          38.000
R14  21492077.523 6 114564917.881 6      2869.832          36.000    21492083.875 4  89106018.875 4      2232.095          29.000
R19  21674098.047 5 115941803.524 5     -3875.090          33.000    21674103.109 6  90176961.840 6     -3013.956          38.000
C19  21672333.797 7 112853513.388 7       537.086          43.000
E03  23436883.227 8 123161638.090 8       150.730          51.000    23436883.719 8  94370654.254 8       115.534          50.000
E05                                                                  25297411.789 6 101862175.614 6     -1465.320          39.000
E08  24152596.969 5 126922758.289 5      2043.527          35.000    24152606.430 5  97252507.821 5      1565.742          34.000
E15  24086376.523 8 126574753.785 8     -1269.141          51.000    24086380.289 8  96985861.785 8      -972.464          51.000
E25  27452181.586 6 144262182.099 6      2769.047          40.000    27452182.352 7 110538609.202 7      2121.860          42.000
> 2020 05 05 00 08 30.0000000  0 12        .000000000000
G04  21095574.742 8 110857992.456 8     -1921.137          50.000    21095574.797 7  86382902.360 7     -1496.990          46.000
G07  23016189.875 8 120950869.227 8      3114.637          51.000    23016188.445 8  94247420.523 8      2426.993          50.000
G09  20275537.375 8 106548759.715 8       252.156          51.000    20275537.508 8  83024983.877 8       196.485          51.000
G19  24341268.453 7 127914214.761 7     -3139.609          43.000    24341262.359 6  99673396.424 6     -2446.449          39.000
R14  21475983.586 6 114479126.017 6      2850.645          37.000    21475986.781 4  89039296.406 4      2217.165          28.000
R19  21695866.906 5 116058256.122 5     -3887.820          34.000    21695872.961 5  90267536.105 5     -3023.863          34.000
C19  21669264.648 7 112837533.621 7       529.172          44.000
E03  23436044.992 8 123157233.549 8       143.895          50.000    23436045.516 8  94367279.348 8       110.275          50.000
E05                                                                  25308340.883 6 101906181.047 6     -1467.703          39.000
E08  24140944.305 5 126861525.530 5      2039.559          34.000    24140953.922 5  97205596.185 5      1562.267          32.000
E15  24093664.594 8 126613053.461 8     -1283.199          51.000    24093668.477 8  97015208.278 8      -983.237          51.000
E25  27436385.766 6 144179172.735 6      2765.883          41.000    27436385.930 7 110475004.652 7      2119.214          43.000
> 2020 05 05 00 09  0.0000000  0 14        .000000000000
G04  21106572.305 8 110915785.124 8     -1931.059          50.000    21106572.523 7  86427935.616 7     -1504.721          46.000
G07  22998432.789 8 120857555.444 8      3106.957          50.000    22998430.750 8  94174708.531 8      2421.005          50.000
G09  20274138.727 8 106541409.378 8       238.363          51.000    20274138.758 8  83019256.350 8       185.738          51.000
G19  24359209.453 6 128008494.180 6     -3145.070          38.000    24359203.469 6  99746860.927 6     -2450.701          37.000
R04  19757503.141 5 105800536.339 5      -634.949          33.000    19757501.055 4  82289309.918 4      -493.849          29.000
R14  21459994.383 6 114393890.717 6      2832.316          37.000    21459995.609 4  88972996.367 4      2202.913          28.000
R19  21717710.461 5 116175103.930 5     -3901.523          34.000    21717713.094 5  90358417.660 5     -3034.521          33.000
C19  21666238.820 7 112821778.027 7       521.551          45.000
C20  23439630.727 5 122056304.520 5     -1860.117          33.000
E03  23435243.914 8 123153024.317 8       137.258          50.000    23435244.711 8  94364054.088 8       105.181          51.000
E05                                                                  25319284.828 6 101950249.003 6     -1469.768          38.000
E08  24129314.844 6 126800417.694 6      2035.289          36.000    24129319.117 5  97158771.318 5      1559.780          31.000
E15  24101031.633 8 126651767.856 8     -1297.117          51.000    24101035.836 8  97044872.547 8      -993.895          51.000
E25  27420607.797 7 144096258.845 7      2762.223          43.000    27420608.242 7 110411473.228 7      2116.766          43.000
> 2020 05 05 00 09 30.0000000  0 14        .000000000000
G04  21117627.992 8 110973882.777 8     -1940.934          50.000    21117627.984 7  86473206.498 7     -1512.416          46.000
G07  22980720.977 8 120764481.448 8      3099.172          50.000    22980719.062 8  94102183.335 8      2414.939          50.000
G09  20272820.336 8 106534481.184 8       224.676          51.000    20272820.688 8  83013857.769 8       175.072          51.000
G19  24377180.891 5 128102939.486 5     -3150.066          33.000    24377176.188 5  99820454.648 5     -2454.609          33.000
R04  19761095.133 6 105819758.134 6      -645.312          36.000    19761090.383 5  82304260.146 5      -501.910          30.000
R14  21444121.430 5 114309247.425 5      2813.605          32.000    21444112.852 5  88907159.006 5      2188.360          31.000
R19  21739630.250 5 116292355.040 5     -3914.668          34.000    21739630.492 6  90449612.931 6     -3044.745          36.000
C19  21663258.945 7 112806259.680 7       514.082          46.000
C20  23450361.039 5 122112207.300 5     -1865.496          32.000
E03  23434482.336 8 123149022.874 8       130.656          50.000    23434483.570 8  94360988.050 8       100.044          51.000
E05  25330244.664 5 133111314.690 5     -1921.137          35.000    25330247.328 6 101994388.930 6     -1471.965          38.000
E08  24117711.062 6 126739438.683 6      2030.945          36.000    24117711.336 5  97112041.168 5      1556.152          31.000
E15  24108479.984 8 126690908.905 8     -1311.176          51.000    24108484.266 8  97074863.758 8     -1004.622          51.000
E25  27404850.727 7 144013455.364 7      2758.957          44.000    27404851.883 7 110348026.411 7      2113.877          45.000
> 2020 05 05 00 10  0.0000000  0 14        .000000000000
G04  21128736.398 8 111032257.294 8     -1949.598          51.000    21128736.039 7  86518693.121 7     -1519.167          46.000
G07  22963050.211 8 120671623.108 8      3092.434          50.000    22963048.750 8  94029826.181 8      2409.689          50.000
G09  20271577.133 8 106527948.120 8       212.000          51.000    20271577.695 8  83008767.060 8       165.195          51.000
G19  24395177.398 5 128197522.370 5     -3153.363          30.000    24395174.625 4  99894154.155 4     -2457.163          28.000
R03  22483759.148 5 120357274.058 5     -2852.926          34.000
R04  19764738.281 6 105839267.473 6      -654.324          36.000    19764735.375 5  82319434.036 5      -508.922          31.000
R19  21761619.828 6 116409978.100 6     -3926.160          36.000    21761619.383 6  90541097.552 6     -3053.680          37.000
C19  21660319.820 7 112790952.709 7       507.602          45.000
C20  23461124.906 6 122168257.616 6     -1870.145          37.000
E03  23433755.266 8 123145202.410 8       125.168          50.000    23433756.812 8  94358060.667 8        95.971          51.000
E05                                                                  25341222.797 6 102038580.251 6     -1473.210          38.000
E08  24106127.383 6 126678562.045 6      2028.379          36.000    24106125.461 5  97065377.396 5      1554.314          31.000
E15  24116004.391 8 126730449.247 8     -1323.695          51.000    24116008.031 8  97105160.915 8     -1014.344          51.000
E25  27389109.945 7 143930737.998 7      2756.703          43.000    27389112.484 7 110284645.554 7      2112.360          47.000
> 2020 05 05 00 10 30.0000000  0 16        .000000000000
G04  21139896.938 8 111090905.915 8     -1959.457          51.000    21139896.492 7  86564393.335 7     -1526.850          47.000
G07  22945421.086 8 120578982.249 8      3084.457          51.000    22945420.102 8  93957638.507 8      2403.473          50.000
G09  20270408.727 8 106521808.476 8       198.164          51.000    20270409.250 8  83003982.921 8       154.417          51.000
G19  24413200.188 5 128292234.634 5     -3159.484          32.000    24413196.875 5  99967955.867 5     -2461.948          31.000
R03  22499754.711 6 120442919.307 6     -2856.422          38.000
R04  19768434.773 6 105859062.863 6      -664.547          39.000    19768434.883 5  82334830.488 5      -516.870          34.000
R05  21045837.273 5 112502102.573 5      2177.074          33.000    21045841.312 4  87501627.232 4      1693.283          27.000
R14  21412654.344 5 114141464.192 5      2776.051          34.000    21412656.461 4  88776721.693 4      2159.157          27.000
R19  21783677.852 6 116527967.451 6     -3939.316          36.000    21783676.875 6  90632867.049 6     -3063.913          36.000
C19  21657420.742 7 112775856.380 7       499.695          43.000
C20  23471918.203 6 122224454.229 6     -1875.445          38.000
E03  23433062.430 8 123141561.414 8       118.316          50.000    23433064.000 8  94355270.817 8        90.712          51.000
E05                                                                  25352209.836 6 102082821.700 6     -1475.407          38.000
E08  24094563.414 5 126617786.683 5      2024.027          35.000    24094559.953 5  97018808.301 5      1550.636          30.000
E15  24123604.375 8 126770386.865 8     -1337.910          51.000    24123607.062 8  97135762.448 8     -1025.134          51.000
E25  27373385.328 7 143848107.805 7      2752.797          43.000    27373389.375 8 110221331.485 8      2109.268          48.000
> 2020 05 05 00 11  0.0000000  0 16        .000000000000
G04  21151113.844 8 111149851.206 8     -1968.742          51.000    21151113.648 7  86610324.723 7     -1534.085          47.000
G07  22927838.586 8 120486584.729 8      3076.965          51.000    22927837.789 8  93885640.439 8      2397.635          51.000
G09  20269319.609 8 106516085.893 8       184.883          51.000    20269320.273 8  82999523.764 8       144.065          51.000
G19  24431252.805 6 128387098.914 6     -3164.008          37.000    24431248.539 5 100041876.125 5     -2465.461          33.000
R03  22515775.883 5 120528668.950 5     -2858.652          31.000    22515784.172 4  93744545.697 4     -2223.396          26.000
R04  19772190.203 6 105879168.728 6      -674.418          41.000    19772192.969 5  82350468.414 5      -524.547          34.000
R05  21033650.094 5 112436863.147 5      2170.902          30.000
R14  21397095.938 6 114058489.053 6      2757.055          37.000    21397093.961 5  88712185.573 5      2144.376          32.000
R19  21805807.602 5 116646343.124 5     -3951.062          35.000    21805805.570 5  90724936.970 5     -3073.052          34.000
C19  21654566.266 7 112760994.954 7       492.461          43.000
C20  23482743.211 6 122280820.870 6     -1880.656          37.000
E03  23432408.203 8 123138123.759 8       112.301          50.000    23432409.914 8  94352636.777 8        86.001          51.000
E05                                                                  25363214.133 6 102127131.481 6     -1477.397          39.000
E08  24083023.664 5 126557136.876 5      2020.590          34.000
E15  24131284.219 8 126810745.050 8     -1351.266          51.000    24131286.289 8  97166686.227 8     -1035.379          51.000
E25  27357681.922 7 143765591.124 7      2749.648          42.000    27357687.664 8 110158104.411 8      2106.933          48.000
> 2020 05 05 00 11 30.0000000  0 15        .000000000000
G04  21162385.461 8 111209084.555 8     -1978.574          51.000    21162385.617 8  86656480.577 8     -1541.746          48.000
G07  22910301.969 8 120394426.720 8      3068.566          51.000    22910300.656 8  93813829.030 8      2391.091          51.000
G09  20268308.414 8 106510772.835 8       170.938          51.000    20268309.258 8  82995383.724 8       133.198          51.000
G19  24449332.562 6 128482105.273 6     -3168.305          40.000    24449326.391 3 100115906.918 3     -2468.824          23.000
R04  19776001.609 6 105899577.579 6      -684.562          39.000    19776005.609 5  82366342.038 5      -532.434          31.000
R05  21021505.242 5 112371889.249 5      2163.203          31.000
R14  21381641.867 5 113976093.275 5      2738.277          32.000    21381639.211 5  88648099.984 5      2129.777          33.000
R19  21828007.406 5 116765093.534 5     -3963.941          33.000    21828001.477 5  90817298.264 5     -3083.069          31.000
C19  21651755.891 7 112746361.911 7       484.637          44.000
C20  23493598.953 5 122337350.740 5     -1886.336          35.000
E03  23431791.180 8 123134882.151 8       105.410          50.000    23431793.289 8  94350152.948 8        80.838          51.000
E05                                                                  25374234.867 6 102171503.876 6     -1479.609          39.000
E08  24071506.250 6 126496605.706 6      2016.453          37.000
E15  24139042.492 8 126851515.924 8     -1365.156          51.000    24139044.742 8  97197926.222 8     -1046.044          51.000
E25  27341999.719 7 143683183.238 7      2745.887          44.000    27342006.352 8 110094960.681 8      2103.973          48.000
> 2020 05 05 00 12  0.0000000  0 17        .000000000000
G03  23125343.258 5 121524484.550 5     -2822.227          35.000    23125356.383 5  94694444.294 5     -2199.138          34.000
G04  21173708.844 8 111268589.861 8     -1987.625          51.000    21173709.094 7  86702848.342 7     -1548.796          47.000
G07  22892808.688 8 120302495.856 8      3060.992          51.000    22892806.086 8  93742194.630 8      2385.189          51.000
G09  20267372.258 8 106505854.170 8       157.824          51.000    20267373.133 8  82991551.009 8       122.980          51.000
G19  24467436.023 6 128577235.951 6     -3172.676          41.000    24467430.102 4 100190034.601 4     -2472.230          27.000
R03  22547856.875 5 120700468.933 5     -2865.656          30.000    22547868.578 4  93878152.136 4     -2228.844          26.000
R04  19779866.914 6 105920274.348 6      -694.254          41.000    19779870.328 4  82382439.506 4      -539.975          29.000
R05  21009384.836 5 112307197.094 5      2156.418          34.000
R14  21366290.531 7 113894266.001 7      2718.410          42.000    21366287.008 6  88584456.486 6      2114.319          36.000
R19  21850272.500 4 116884199.410 4     -3976.270          28.000    21850267.320 5  90909936.041 5     -3092.660          33.000
C19  21648986.719 7 112731943.225 7       477.414          44.000
C20  23504483.633 6 122394028.979 6     -1891.199          39.000
E03  23431208.641 8 123131821.711 8        99.434          51.000    23431211.180 8  94347807.952 8        76.192          51.000
E05  25385264.750 6 133400466.592 6     -1933.199          36.000    25385268.039 6 102215927.487 6     -1481.289          38.000
E08  24060008.445 6 126436178.777 6      2012.961          38.000    24060016.172 5  96879695.185 5      1542.581          31.000
E15  24146876.289 8 126892684.044 8     -1378.434          51.000    24146879.438 8  97229470.624 8     -1056.205          51.000
E25  27326336.742 7 143600871.773 7      2742.430          45.000    27326343.156 8 110031890.816 8      2101.381          48.000
> 2020 05 05 00 12 30.0000000  0 15        .000000000000
G03  23141476.086 5 121609254.397 5     -2828.785          34.000
G04  21185086.766 8 111328381.837 8     -1998.223          51.000    21185086.984 7  86749439.482 7     -1557.057          47.000
G07  22875362.055 8 120210810.634 8      3051.605          51.000    22875358.133 8  93670751.635 8      2377.874          51.000
G09  20266514.297 8 106501345.729 8       143.094          51.000    20266515.219 8  82988037.938 8       111.505          51.000
G19  24485565.500 7 128672503.726 7     -3178.227          42.000    24485560.516 4 100264269.274 4     -2476.549          25.000
R04  19783789.133 6 105941275.334 6      -705.492          38.000    19783789.367 4  82398773.554 4      -548.719          29.000
R05  20997301.188 5 112242644.214 5      2147.750          35.000
R14  21351049.727 6 113813028.012 6      2697.828          40.000    21351049.344 6  88521271.488 6      2098.320          37.000
C19  21646262.062 7 112717755.482 7       468.754          44.000
C20  23515400.273 5 122450871.794 5     -1897.844          33.000
E03  23430663.766 8 123128958.520 8        91.863          51.000    23430666.359 8  94345614.086 8        70.350          51.000
E05  25396312.047 6 133458525.940 6     -1937.062          38.000    25396315.820 6 102260414.548 6     -1484.237          37.000
E08  24048532.852 6 126375872.598 6      2007.703          37.000
E15  24154788.594 8 126934264.869 8     -1393.344          51.000    24154792.727 8  97261331.246 8     -1067.579          51.000
E25  27310695.859 7 143518675.261 7      2737.520          45.000    27310701.641 7 109968909.085 7      2097.628          47.000
> 2020 05 05 00 13  0.0000000  0 13        .000000000000
G04  21196524.938 8 111388489.857 8     -2007.598          51.000    21196525.070 7  86796276.890 7     -1564.362          46.000
G07  22857968.094 8 120119404.495 8      3043.398          51.000    22857963.977 8  93599526.087 8      2371.479          51.000
G09  20265740.180 8 106497277.837 8       129.434          51.000    20265741.281 8  82984868.160 8       100.857          51.000
G19  24503726.078 6 128767936.235 6     -3182.609          41.000    24503721.742 4 100338632.270 4     -2479.943          24.000
R04  19787773.008 5 105962611.591 5      -715.152          33.000    19787771.805 5  82415368.400 5      -556.227          31.000
R05  20985270.086 6 112178342.360 6      2140.422          38.000    20985284.344 4  87249840.433 4      1664.770          26.000
R14  21335925.820 7 113732414.609 7      2678.000          42.000    21335925.977 5  88458572.224 5      2082.886          32.000
C19  21643588.086 7 112703829.661 7       460.984          45.000
C20  23526352.273 5 122507909.929 5     -1903.020          35.000
E03  23430162.273 8 123126323.174 8        85.316          51.000    23430164.523 8  94343594.796 8        65.309          51.000
E05  25407381.820 5 133516692.575 5     -1939.879          34.000    25407384.703 6 102304988.373 6     -1486.185          37.000
E15  24162785.086 8 126976288.351 8     -1406.891          51.000    24162789.977 8  97293531.049 8     -1078.004          51.000
E25  27295082.859 7 143436626.776 7      2733.625          45.000    27295088.023 7 109906040.814 7      2094.662          47.000
> 2020 05 05 00 13 30.0000000  0 14        .000000000000
G04  21208008.641 8 111448836.729 8     -2016.348          50.000    21208008.594 7  86843300.422 7     -1571.180          46.000
G07  22840612.938 8 120028204.189 8      3035.672          50.000    22840609.656 8  93528460.887 8      2365.459          50.000
G09  20265035.438 8 106493574.335 8       116.605          51.000    20265036.508 8  82981982.324 8        90.861          51.000
G19  24521902.789 6 128863454.793 6     -3186.117          41.000    24521898.039 5 100413062.274 5     -2482.695          32.000
R04  19791804.859 5 105984205.861 5      -724.668          31.000    19791804.602 5  82432163.942 5      -563.628          32.000
R05  20973273.492 5 112114214.902 5      2133.992          34.000    20973279.453 4  87199963.585 4      1659.775          26.000
R14  21320905.555 6 113652352.964 6      2658.590          41.000    21320906.656 6  88396302.092 6      2067.795          36.000
C19  21640950.703 7 112690091.313 7       454.023          45.000
C20  23537329.539 6 122565068.015 6     -1908.199          36.000
E03  23429689.711 8 123123839.754 8        79.402          51.000    23429691.453 8  94341691.918 8        60.856          51.000
E05  25418458.328 6 133574902.490 6     -1941.633          36.000    25418461.438 6 102349590.744 6     -1487.906          37.000
E08                                                                  24025653.547 5  96741340.356 5      1533.147          34.000
E15  24170851.328 8 127018677.984 8     -1419.969          51.000    24170856.078 8  97326011.395 8     -1087.983          51.000
E25  27279484.234 7 143354653.062 7      2730.352          47.000    27279488.766 8 109843229.794 8      2092.120          48.000
> 2020 05 05 00 14  0.0000000  0 14        .000000000000
G04  21219546.359 8 111509467.891 8     -2025.535          51.000    21219546.258 7  86890545.470 7     -1578.339          45.000
G07  22823306.398 8 119937259.282 8      3027.516          50.000    22823304.109 8  93457594.700 8      2359.103          50.000
G09  20264408.898 8 106490281.724 8       103.090          51.000    20264409.734 8  82979416.663 8        80.333          51.000
G19  24540104.055 6 128959103.343 6     -3190.426          39.000    24540099.227 5 100487593.638 5     -2486.043          33.000
R04  19795893.406 6 106006105.759 6      -734.973          37.000    19795894.273 5  82449197.234 5      -571.645          30.000
R05  20961319.656 5 112050310.301 5      2127.504          32.000
R14  21305997.875 5 113572895.164 5      2638.824          34.000    21306001.203 5  88334501.611 5      2052.416          35.000
C19  21638358.047 7 112676587.468 7       446.562          45.000
C20  23548339.000 6 122622392.712 6     -1913.250          38.000
E03  23429255.000 8 123121555.027 8        73.102          51.000    23429256.438 8  94339941.283 8        56.043          51.000
E05  25429551.203 6 133633196.258 6     -1944.324          37.000    25429551.938 5 102394257.447 5     -1489.798          35.000
E08  24014241.914 5 126195705.816 5      1996.652          33.000    24014248.641 6  96695400.820 6      1529.843          37.000
E15  24178996.156 8 127061479.837 8     -1433.418          51.000    24178999.898 8  97358807.599 8     -1098.303          51.000
E25  27263909.211 7 143272803.331 7      2726.336          47.000    27263913.422 8 109780513.765 8      2089.023          48.000
> 2020 05 05 00 14 30.0000000  0 13        .000000000000
G04  21231135.242 8 111570368.071 8     -2034.258          51.000    21231135.055 7  86938000.140 7     -1585.136          45.000
G07  22806046.570 8 119846558.420 8      3019.598          51.000    22806044.758 8  93386918.698 8      2352.933          50.000
G09  20263857.867 8 106487385.653 8        90.273          51.000    20263858.539 8  82977159.997 8        70.346          51.000
G19  24558326.680 5 129054864.703 5     -3194.062          34.000    24558321.391 4 100562212.821 4     -2488.880          29.000
R03  22628393.789 5 121131529.021 5     -2880.441          30.000
R04  19800037.609 6 106028296.881 6      -744.398          39.000    19800037.875 4  82466457.024 4      -578.974          29.000
C19  21635806.977 7 112663304.921 7       439.391          45.000
C20  23559377.695 6 122679870.356 6     -1918.523          36.000
E03  23428855.312 8 123119454.963 8        67.277          51.000    23428856.867 8  94338332.157 8        51.577          51.000
E05  25440658.641 6 133691560.000 6     -1946.414          36.000    25440657.023 5 102438977.685 5     -1491.315          35.000
E08                                                                  24002863.562 6  96649545.302 6      1527.391          36.000
E15  24187216.859 8 127104679.275 8     -1446.242          51.000    24187219.727 8  97391908.449 8     -1108.154          51.000
E25  27248355.438 7 143191066.068 7      2723.125          46.000    27248359.336 7 109717883.908 7      2086.523          47.000
> 2020 05 05 00 15  0.0000000  0 13        .000000000000
G04  21242775.891 8 111631539.953 8     -2038.445          50.000    21242775.672 7  86985666.533 7     -1588.399          45.000
G06  21093965.281 6 110849545.779 6       426.059          38.000    21093969.477 5  86376274.885 5       331.991          35.000
G07  22788834.617 8 119756107.931 8      3016.059          51.000    22788832.844 8  93316437.807 8      2350.176          51.000
G09  20263382.945 8 106484889.863 8        81.660          51.000    20263383.602 8  82975215.235 8        63.631          51.000
R03  22644543.625 4 121218005.458 4     -2878.484          28.000    22644545.914 4  94280686.374 4     -2238.815          28.000
R04  19804237.320 6 106050783.486 6      -749.016          37.000    19804237.914 4  82483946.641 4      -582.568          29.000
C19  21633298.703 7 112650248.273 7       436.590          45.000
C20  23570445.836 5 122737504.949 5     -1917.863          35.000
E03  23428491.570 8 123117543.518 8        65.855          51.000    23428493.297 8  94336867.559 8        50.455          51.000
E05                                                                  25451777.242 5 102483754.380 5     -1489.588          35.000
E08                                                                  23991497.117 5  96603777.113 5      1528.544          32.000
E15  24195513.945 8 127148279.573 8     -1454.742          51.000    24195516.781 8  97425316.471 8     -1114.649          51.000
E25  27232823.930 7 143109447.764 7      2723.898          46.000    27232827.695 7 109655345.210 7      2087.131          46.000
> 2020 05 05 00 15 30.0000000  0 13        .000000000000
G04  21254468.117 8 111692983.031 8     -2048.168          50.000    21254467.992 7  87033544.246 7     -1595.978          45.000
G06  21091620.500 6 110837220.401 6       405.336          37.000    21091623.227 6  86366670.776 6       315.852          37.000
G07  22771671.109 8 119665911.862 8      3006.781          51.000    22771669.023 8  93246155.194 8      2342.946          51.000
G09  20262984.156 8 106482794.741 8        67.664          51.000    20262984.883 8  82973582.688 8        52.725          51.000
R03  22660716.164 5 121304571.234 5     -2882.379          33.000    22660717.367 4  94348015.301 4     -2241.853          29.000
R04  19808491.289 5 106073566.232 5      -759.738          34.000    19808491.820 4  82501666.487 4      -590.911          28.000
R14  21261947.438 6 113338151.578 6      2582.414          36.000    21261949.492 4  88151901.535 4      2008.547          29.000
C19  21630833.953 7 112637418.918 7       428.398          45.000
C20  23581544.062 5 122795297.573 5     -1924.938          31.000
E03  23428164.016 8 123115821.478 8        58.840          51.000    23428165.672 8  94335548.080 8        45.064          51.000
E05  25462915.164 5 133808520.324 5     -1947.191          35.000    25462909.914 5 102528588.107 5     -1492.333          34.000
E15  24203887.250 8 127192280.808 8     -1468.879          51.000    24203890.656 8  97459031.714 8     -1125.532          51.000
E25  27217315.711 7 143027951.712 7      2719.039          46.000    27217319.266 7 109592900.197 7      2083.396          46.000
> 2020 05 05 00 16  0.0000000  0 12        .000000000000
G04  21266219.430 8 111754736.582 8     -2066.660          50.000    21266219.445 7  87081663.891 7     -1610.385          45.000
G06  21089396.281 5 110825535.607 5       375.637          34.000    21089399.602 5  86357565.715 5       292.698          35.000
G07  22754563.984 8 119576013.190 8      2988.570          50.000    22754561.820 8  93176104.319 8      2328.756          50.000
G09  20262669.344 8 106481140.570 8        44.727          51.000    20262670.016 8  82972293.720 8        34.852          51.000
R04  19812808.750 5 106096686.724 5      -778.906          34.000    19812807.914 4  82519648.087 4      -605.819          26.000
R14  21247511.305 5 113261149.208 5      2552.723          34.000    21247509.102 5  88092010.654 5      1985.454          33.000
C19  21628421.242 7 112624857.758 7       411.230          46.000
C20  23592681.914 5 122853288.220 5     -1939.547          32.000
E03  23427880.273 8 123114329.376 8        42.777          51.000    23427881.680 8  94334404.771 8        32.786          51.000
E05  25474072.039 6 133867146.839 6     -1959.262          39.000    25474066.430 5 102573509.752 5     -1501.157          34.000
E15  24212344.641 8 127236722.802 8     -1491.781          51.000    24212348.312 8  97493084.684 8     -1143.089          51.000
E25  27201838.906 7 142946620.916 7      2705.324          45.000    27201842.078 7 109530581.826 7      2072.824          45.000
> 2020 05 05 00 16 30.0000000  0 14        .000000000000
G03  23271814.852 5 122294217.556 5     -2868.324          33.000
G04  21278013.844 8 111816716.552 8     -2060.820          50.000    21278013.758 7  87129959.963 7     -1605.834          45.000
G06  21087278.531 5 110814409.550 5       370.102          34.000    21087282.031 5  86348896.129 5       288.394          34.000
G07  22737497.852 8 119486331.637 8      2994.574          48.000    22737496.258 8  93106222.628 8      2333.434          48.000
G09  20262422.664 8 106479844.259 8        46.156          51.000    20262423.461 8  82971283.604 8        35.966          51.000
R04  19817173.281 5 106120060.455 5      -774.387          35.000    19817171.953 4  82537821.675 4      -602.301          27.000
R14  21233178.445 5 113184719.436 5      2547.008          35.000    21233173.648 6  88032565.292 6      1981.003          37.000
C19  21626045.078 7 112612483.551 7       418.215          47.000
C20  23603841.148 4 122911395.530 4     -1929.965          27.000
E03  23427624.461 8 123112984.436 8        51.332          51.000    23427625.695 8  94333374.233 8        39.335          51.000
E05  25485234.641 6 133925805.395 6     -1947.125          38.000    25485230.469 5 102618455.936 5     -1491.486          34.000
E08  23957527.156 5 125897658.507 5      1986.977          33.000    23957535.023 5  96467065.548 5      1522.818          34.000
E15  24220870.078 8 127281522.126 8     -1490.246          51.000    24220873.539 8  97527411.435 8     -1141.919          51.000
