     3.02           OBSERVATION DATA    M (MIXED)           RINEX VERSION / TYPE
SAVERINEX           SC600               20200518 155932 LCL PGM / RUN BY / DATE
       G = GPS       R = GLONASS       C = COMPASS          COMMENT
       S = SBAS      J = QZSS          E = GALILEO          COMMENT
BEAN                                                        MARKER NAME
1                                                           MARKER NUMBER
GEODETIC                                                    MARKER TYPE
Unige DICCA         GTER                                    OBSERVER / AGENCY
SC60291900056       SC600               2.12(191202)        REC # / TYPE / VERS
                    HEMA45          NONE                    ANT # / TYPE
  4509407.8091   693652.4678  4442337.6214                  APPROX POSITION XYZ
        0.0000        0.0000        0.0000                  ANTENNA: DELTA H/E/N
G    8 C1C L1C D1C S1C C2Y L2Y D2Y S2Y                      SYS / # / OBS TYPES
R    8 C1C L1C D1C S1C C2P L2P D2P S2P                      SYS / # / OBS TYPES
C    8 C1I L1I D1I S1I C7I L7I D7I S7I                      SYS / # / OBS TYPES
E    8 C1C L1C D1C S1C C7Q L7Q D7Q S7Q                      SYS / # / OBS TYPES
DBHZ                                                        COMMENT
     30.000                                                 INTERVAL
  2020    05    18    13    00    0.0000000     GPS         TIME OF FIRST OBS
  2020    05    18    13    59   30.0000000     GPS         TIME OF LAST OBS
     0                                                      RCV CLOCK OFFS APPL
G L1C  0.00000                                              SYS / PHASE SHIFT
G L2Y  0.00000                                              SYS / PHASE SHIFT
R L1C  0.00000                                              SYS / PHASE SHIFT
R L2P  0.25000                                              SYS / PHASE SHIFT
C L1I  0.00000                                              SYS / PHASE SHIFT
C L7I  0.00000                                              SYS / PHASE SHIFT
E L1C  0.50000                                              SYS / PHASE SHIFT
E L7Q -0.25000                                              SYS / PHASE SHIFT
 12 R03  5 R04  6 R05  1 R06 -4 R09 -2 R10 -7 R11  0 R16 -1 GLONASS SLOT / FRQ #
    R18 -3 R19  3 R20  2 R21  4                             GLONASS SLOT / FRQ #
 C1C   71.950 C2C   71.950 C2P   71.950                     GLONASS COD/PHS/BIS
    18                                                      LEAP SECONDS
*** Above antenna height is from mark to ANTENNA BOTTOM.    COMMENT
    17     4        0.0000        ANT MEASURE TYPE/HEIGT    COMMENT
    0.0000    0.0000    0.0458    0.0405    0.0000          COMMENT
                    BASE STATION                            COMMENT
                                                            END OF HEADER
> 2020 05 18 13 00  0.0000000  0 19        .000000000000
G18  20296299.062 8 106657870.530 8        80.359          51.000    20296298.297 8  83110008.640 8        62.621          50.000
G20  23584872.164 5 123939310.903 5      3250.207          33.000    23584868.289 5  96576130.053 5      2532.635          34.000
G21  20639881.336 8 108463333.516 8       107.594          48.000    20639880.320 8  84516881.937 8        83.839          48.000
G25  24801669.102 7 130333640.270 7     -3569.746          42.000    24801674.656 7 101558663.107 7     -2781.623          42.000
G26  20433835.453 6 107380553.179 6       964.656          38.000    20433839.570 6  83673151.697 6       751.677          38.000
G29  22367089.742 4 117539850.417 4     -2513.195          29.000    22367085.125 4  91589474.317 4     -1958.331          29.000
G31  22730680.812 8 119450525.122 8     -2861.859          51.000    22730680.586 8  93078319.933 8     -2230.020          51.000
R09  21263397.766 8 113545335.341 8     -3847.355          48.000    21263400.984 8  88313026.261 8     -2992.388          48.000
R10  19472713.922 8 103800525.891 8     -1316.258          49.000
R20  19568949.188 5 104643945.929 5     -1096.293          31.000    19568952.664 6  81389748.939 6      -852.675          40.000
R21  21213258.375 6 113516419.283 6      2636.488          40.000    21213261.594 6  88290544.820 6      2050.602          38.000
C05                                                                  39632557.477 5 159583884.533 5        11.777          35.000
C11                                                                  24749521.570 4  99656067.666 4     -2013.161          27.000
C23  23800025.312 8 123932976.104 8     -2864.555          49.000
C27  25117990.336 7 130796051.055 7      2678.109          44.000
C28  21899215.555 8 114034960.340 8       764.328          49.000
E01  24473627.820 8 128609783.977 8     -1928.848          51.000    24473630.711 8  98545164.271 8     -1477.942          51.000
E26  23264830.516 8 122257511.334 8     -1642.668          51.000    23264833.414 8  93677894.185 8     -1258.686          51.000
E33  23655140.789 8 124308641.036 8       947.922          50.000    23655143.156 8  95249498.048 8       726.321          51.000
> 2020 05 18 13 00 30.0000000  0 18        .000000000000
G18  20295907.047 8 106655810.446 8        60.074          51.000    20295906.578 8  83108403.380 8        46.814          51.000
G20  23566341.289 5 123841936.989 5      3244.438          35.000    23566338.297 5  96500254.232 5      2528.133          35.000
G21  20639325.664 8 108460413.581 8        90.250          49.000    20639324.594 8  84514606.680 8        70.325          49.000
G25  24822071.500 7 130440856.175 7     -3574.488          42.000    24822077.203 6 101642207.830 6     -2785.319          41.000
G26  20428385.617 6 107351911.152 6       947.645          39.000    20428389.617 6  83650833.247 6       738.424          39.000
G29  22381464.547 6 117615397.004 6     -2519.559          36.000    22381471.969 5  91648348.168 5     -1963.292          35.000
G31  22747060.570 8 119536600.445 8     -2873.281          50.000    22747061.406 8  93145391.555 8     -2238.920          50.000
R09  21285063.734 8 113661030.322 8     -3862.547          48.000    21285067.352 8  88403011.225 8     -3004.203          49.000
R10  19480207.000 8 103840470.837 8     -1343.562          50.000
R20  19575160.617 5 104677162.029 5     -1113.543          31.000    19575164.352 6  81415583.689 6      -866.089          40.000
R21  21198526.094 6 113437584.840 6      2622.410          40.000    21198529.016 6  88229229.147 6      2039.652          38.000
C05                                                                  39632484.477 5 159583590.974 5        10.412          35.000
C23  23816567.984 8 124019116.683 8     -2874.957          49.000
C27  25102587.578 7 130715842.206 7      2672.277          44.000
C28  21894853.000 8 114012243.530 8       753.219          49.000
E01  24484683.258 8 128667877.920 8     -1940.816          51.000    24484686.047 8  98589677.780 8     -1487.068          51.000
E26  23274242.648 8 122306972.805 8     -1651.586          51.000    23274245.906 8  93715793.223 8     -1265.477          51.000
E33  23649772.891 8 124280432.023 8       935.883          51.000    23649774.859 8  95227883.364 8       717.105          51.000
> 2020 05 18 13 01  0.0000000  0 19        .000000000000
G18  20295616.070 8 106654280.558 8        41.656          51.000    20295615.742 8  83107211.262 8        32.462          50.000
G20  23547826.508 6 123744653.448 6      3240.582          38.000    23547825.297 6  96424448.828 6      2525.126          37.000
G21  20638854.148 8 108457935.678 8        74.699          49.000    20638852.914 8  84512675.844 8        58.207          49.000
G25  24842485.258 6 130548132.295 6     -3577.586          40.000    24842490.828 6 101725799.509 6     -2787.732          40.000
G26  20423016.820 6 107323695.517 6       933.090          40.000    20423020.570 6  83628847.034 6       727.083          41.000
G29  22395861.602 5 117691052.952 5     -2524.219          32.000    22395862.898 4  91707300.858 4     -1966.933          29.000
G31  22763489.430 8 119622933.344 8     -2882.477          50.000    22763491.047 8  93212663.898 8     -2246.086          50.000
R09  21306798.758 7 113777094.500 7     -3875.492          47.000    21306802.992 8  88493283.374 8     -3014.269          50.000
R10  19487837.508 8 103881147.263 8     -1368.582          50.000
R11  21181329.203 5 113186600.159 5      3100.613          31.000
R20  19581453.062 5 104710810.306 5     -1129.102          31.000    19581456.438 6  81441754.570 6      -878.190          40.000
R21  21183859.320 6 113359096.860 6      2609.715          39.000    21183862.000 6  88168182.994 6      2029.781          39.000
C05                                                                  39632405.273 5 159583272.705 5        10.614          34.000
C23  23833156.148 8 124105492.970 8     -2883.688          49.000
C27  25087203.789 7 130635731.673 7      2668.258          44.000
C28  21890540.281 8 113989786.016 8       743.695          49.000
E01  24495790.883 8 128726247.203 8     -1950.762          51.000    24495793.781 8  98634402.278 8     -1494.754          51.000
E26  23283690.422 8 122356621.475 8     -1658.613          51.000    23283693.945 8  93753835.706 8     -1270.871          51.000
E33  23644458.875 8 124252504.463 8       925.648          51.000    23644459.969 8  95206484.322 8       709.350          51.000
> 2020 05 18 13 01 30.0000000  0 17        .000000000000
G18  20295435.703 8 106653331.719 8        22.762          51.000    20295435.336 8  83106471.906 8        17.736          51.000
G20  23529338.852 6 123647514.602 6      3236.367          39.000    23529340.617 6  96348756.247 6      2521.842          38.000
G21  20638476.297 8 108455950.186 8        58.824          49.000    20638475.219 8  84511128.719 8        45.837          49.000
G25  24862919.562 6 130655518.672 6     -3580.305          37.000    24862925.492 6 101809477.098 6     -2789.851          38.000
G26  20417739.148 6 107295959.199 6       917.273          41.000    20417742.398 6  83607234.330 6       714.759          41.000
G31  22779976.758 8 119709572.821 8     -2892.113          49.000    22779978.633 8  93280175.163 8     -2253.595          49.000
R09  21328612.719 8 113893576.611 8     -3888.762          49.000    21328616.539 8  88583880.588 8     -3024.595          49.000
R10  19495614.641 8 103922606.620 8     -1394.195          49.000
R20  19587836.555 4 104744963.449 4     -1144.660          29.000    19587839.375 6  81468300.614 6      -890.291          39.000
R21  21169266.414 6 113281008.546 6      2597.367          39.000    21169269.914 6  88107447.669 6      2020.174          40.000
C05                                                                  39632330.148 5 159582969.177 5        10.657          35.000
C23  23849798.930 8 124192153.848 8     -2892.551          49.000
C27  25071848.641 7 130555770.805 7      2663.914          45.000
C28  21886286.953 8 113967638.433 8       733.770          49.000
E01  24506960.641 8 128784942.577 8     -1961.086          51.000    24506963.148 8  98679376.642 8     -1502.659          51.000
E26  23293183.383 8 122406507.460 8     -1665.949          51.000    23293186.820 8  93792060.026 8     -1276.477          51.000
E33  23639208.234 8 124224909.589 8       915.164          51.000    23639208.633 8  95185340.210 8       701.230          51.000
> 2020 05 18 13 02  0.0000000  0 18        .000000000000
G18  20295361.516 8 106652940.812 8         3.109          51.000    20295361.234 8  83106167.317 8         2.426          51.000
G20  23510876.391 6 123550500.784 6      3230.980          41.000    23510879.688 6  96273161.068 6      2517.644          40.000
G21  20638187.727 8 108454433.708 8        42.098          50.000    20638186.664 8  84509947.060 8        32.803          49.000
G25  24883370.055 6 130762991.309 6     -3584.137          37.000    24883376.641 6 101893221.904 6     -2792.837          36.000
G26  20412548.242 6 107268681.049 6       901.188          40.000    20412551.383 6  83585978.619 6       702.221          40.000
G29  22424765.688 6 117842881.100 6     -2535.203          39.000    22424755.109 6  91825618.977 6     -1975.486          36.000
G31  22796517.641 8 119796493.317 8     -2902.566          49.000    22796519.219 8  93347905.410 8     -2261.740          49.000
R09  21350500.391 8 114010450.382 8     -3902.973          50.000    21350503.305 8  88674782.377 8     -3035.645          48.000
R10  19503534.188 8 103964824.490 8     -1420.527          50.000
R11  21146729.930 5 113001706.113 5      3063.066          31.000
R21  21154744.750 6 113203297.646 6      2583.355          41.000    21154747.391 6  88047005.907 6      2009.276          38.000
C05                                                                  39632254.648 5 159582666.053 5         9.799          35.000
C23  23866491.242 8 124279074.977 8     -2902.211          49.000
C27  25056518.172 7 130475937.718 7      2658.266          45.000
C28  21882089.102 8 113945778.140 8       723.414          49.000
E01  24518188.172 8 128843940.817 8     -1972.262          51.000    24518190.422 8  98724583.064 8     -1511.208          51.000
E26  23302716.938 8 122456606.887 8     -1674.137          51.000    23302720.141 8  93830447.887 8     -1282.828          51.000
E33  23634016.508 8 124197624.619 8       903.777          51.000    23634016.555 8  95164433.562 8       692.496          51.000
> 2020 05 18 13 02 30.0000000  0 16        .000000000000
G18  20295386.938 8 106653073.583 8       -13.887          51.000    20295386.695 8  83106270.778 8       -10.821          51.000
G20  23492433.039 7 123453581.239 7      3228.508          43.000    23492436.469 6  96197639.400 6      2515.723          39.000
G21  20637981.945 8 108453351.691 8        28.164          49.000    20637980.766 8  84509103.922 8        21.943          49.000
G26  20407437.984 6 107241828.795 6       887.684          41.000    20407441.664 6  83565054.747 6       691.698          40.000
G31  22813104.977 8 119883658.152 8     -2910.344          49.000    22813105.930 8  93415826.040 8     -2267.800          49.000
R09  21372454.109 8 114127678.193 8     -3914.145          51.000    21372455.961 7  88765959.480 7     -3044.338          46.000
R10  19511589.398 8 104007765.426 8     -1444.043          48.000
R11  21129582.828 5 112910049.374 5      3048.031          33.000
R21  21140287.734 6 113125930.558 6      2572.633          40.000    21140288.641 6  87986831.578 6      2000.937          39.000
C05                                                                  39632172.227 5 159582333.633 5        10.572          34.000
C23  23883226.391 8 124366220.901 8     -2909.355          48.000
C27  25041205.906 7 130396199.463 7      2655.539          44.000
C28  21877939.898 8 113924171.474 8       715.414          49.000
E01  24529466.766 8 128903207.561 8     -1980.707          51.000    24529468.633 8  98769995.213 8     -1517.679          51.000
E26  23312284.500 8 122506884.749 8     -1679.566          51.000    23312287.727 8  93868972.469 8     -1286.908          51.000
E33  23628877.430 8 124170615.666 8       895.039          51.000    23628877.133 8  95143738.412 8       685.791          51.000
> 2020 05 18 13 03  0.0000000  0 17        .000000000000
G18  20295521.953 8 106653783.034 8       -30.609          51.000    20295521.578 8  83106823.604 8       -23.851          51.000
G20  23474018.992 7 123356812.411 7      3225.445          45.000    23474021.352 6  96122235.181 6      2513.340          38.000
G21  20637868.828 8 108452757.254 8        14.320          49.000    20637867.719 8  84508640.738 8        11.159          49.000
G26  20402419.406 7 107215457.446 7       873.676          42.000    20402423.258 6  83544505.636 6       680.786          41.000
G29  22453729.281 5 117995122.593 5     -2541.254          32.000    22453712.422 5  91944247.596 5     -1980.210          32.000
G31  22829748.570 8 119971118.767 8     -2917.695          48.000    22829748.836 8  93483977.147 8     -2273.529          48.000
R09  21394483.242 8 114245310.935 8     -3925.203          51.000    21394484.250 7  88857451.528 7     -3052.939          46.000
R10  19519790.219 8 104051482.693 8     -1467.551          49.000
R20  19607481.867 4 104850016.801 4     -1187.293          27.000    19607488.750 6  81550040.930 6      -923.450          37.000
R21  21125905.164 6 113048962.524 6      2561.516          41.000    21125906.188 6  87926967.611 6      1992.293          40.000
C05                                                                  39632093.461 5 159582017.387 5        12.270          34.000
C23  23900014.109 8 124453642.798 8     -2916.098          48.000
C27  25025921.617 7 130316609.592 7      2653.086          43.000
C28  21873849.328 8 113902871.253 8       707.453          48.000
E01  24540806.406 8 128962795.801 8     -1989.078          51.000    24540808.023 8  98815653.705 8     -1524.129          51.000
E26  23321896.016 8 122557393.389 8     -1684.852          51.000    23321899.531 8  93907673.893 8     -1291.023          51.000
E33  23623800.922 8 124143936.180 8       886.359          51.000    23623800.367 8  95123295.706 8       679.173          51.000
> 2020 05 18 13 03 30.0000000  0 17        .000000000000
G18  20295757.797 8 106655022.326 8       -51.883          51.000    20295757.500 8  83107789.293 8       -40.425          51.000
G20  23455625.727 7 123260151.312 7      3218.523          46.000    23455627.172 6  96046914.890 6      2507.943          38.000
G21  20637839.633 8 108452603.190 8        -3.883          49.000    20637838.352 8  84508520.689 8        -3.026          50.000
G26  20397483.961 7 107189522.214 7       855.531          43.000    20397487.586 7  83524296.358 7       666.648          42.000
G29  22468259.703 6 118071452.188 6     -2548.051          37.000    22468239.547 5  92003725.367 5     -1985.494          35.000
G31  22846438.984 8 120058825.924 8     -2929.348          49.000    22846438.438 8  93552320.362 8     -2282.609          49.000
R09  21416578.578 8 114363298.051 8     -3940.469          51.000    21416579.414 7  88949219.205 7     -3064.809          47.000
R10  19528127.891 8 104095928.061 8     -1495.332          48.000
R20  19614195.539 4 104885924.547 4     -1204.641          29.000    19614201.461 6  81577942.210 6      -936.943          36.000
R21  21111588.492 6 112972347.045 6      2546.551          40.000    21111589.789 6  87867377.791 6      1980.651          39.000
C05                                                                  39632009.164 5 159581677.567 5        10.581          35.000
C23  23916845.969 8 124541292.791 8     -2927.199          49.000
C27  25010656.672 7 130237122.742 7      2646.359          44.000
C28  21869808.727 8 113881831.345 8       695.320          48.000
E01  24552197.906 8 129022658.615 8     -2001.641          51.000    24552199.688 8  98861522.565 8     -1533.737          51.000
E26  23331542.383 8 122608085.255 8     -1694.496          51.000    23331546.055 8  93946515.706 8     -1298.341          51.000
E33  23618777.961 8 124117539.646 8       873.465          51.000    23618777.039 8  95103069.813 8       669.341          51.000
> 2020 05 18 13 04  0.0000000  0 16        .000000000000
G18  20296124.391 8 106656949.767 8       -70.859          51.000    20296124.508 8  83109291.221 8       -55.212          51.000
G20  23437283.680 7 123163759.859 7      3213.332          45.000    23437284.328 6  95971804.731 6      2503.898          38.000
G21  20637924.336 8 108453047.879 8       -19.969          49.000    20637922.883 8  84508867.202 8       -15.560          49.000
G26  20392662.297 7 107164183.424 7       839.348          43.000    20392665.422 7  83504551.848 7       654.037          43.000
G29  22482823.734 5 118148035.652 5     -2554.340          31.000
G31  22863205.805 8 120146935.636 8     -2938.848          50.000    22863204.273 8  93620977.241 8     -2290.011          50.000
R09  21438769.992 8 114481798.059 8     -3953.570          51.000    21438770.805 8  89041385.803 8     -3075.002          48.000
R10  19536632.219 8 104141261.488 8     -1520.898          48.000
R21  21097364.961 5 112896247.000 5      2532.941          33.000    21097368.234 6  87808188.738 6      1970.056          37.000
C05                                                                  39631949.859 5 159581438.424 5        10.013          35.000
C23  23933752.141 8 124629326.376 8     -2935.957          50.000
C27  24995442.195 7 130157896.802 7      2641.496          46.000
C28  21865848.617 8 113861208.994 8       685.301          48.000
E01  24563671.688 8 129082954.286 8     -2012.199          51.000    24563673.625 8  98907723.099 8     -1541.863          51.000
E26  23341253.555 8 122659118.031 8     -1701.926          51.000    23341256.984 8  93985618.734 8     -1304.088          51.000
E33  23613838.789 8 124091584.839 8       862.633          51.000    23613837.516 8  95083182.385 8       660.978          51.000
> 2020 05 18 13 04 30.0000000  0 16        .000000000000
G18  20296571.836 8 106659302.812 8       -91.527          50.000    20296571.992 8  83111124.752 8       -71.320          50.000
G20  23418943.219 7 123067378.647 7      3206.336          43.000    23418942.305 6  95896702.573 6      2498.447          37.000
G21  20638072.695 8 108453828.180 8       -37.672          49.000    20638071.078 8  84509475.232 8       -29.355          49.000
G26  20387904.570 7 107139180.530 7       821.656          44.000    20387907.430 7  83485069.069 7       640.255          44.000
G31  22879998.656 8 120235183.321 8     -2949.926          48.000    22879995.805 8  93689741.607 8     -2298.647          48.000
R09  21461006.617 8 114600541.089 8     -3968.258          50.000    21461007.828 8  89133741.417 8     -3086.426          48.000
R10  19545253.359 7 104187216.056 7     -1548.266          47.000
R11  21061934.469 5 112548589.064 5      2975.164          35.000
R21  21083190.953 6 112820395.789 6      2517.676          38.000    21083193.094 6  87749193.347 6      1958.192          37.000
C05                                                                  39631865.531 5 159581098.745 5         8.470          34.000
C23  23950681.930 8 124717481.967 8     -2946.602          50.000
C27  24980228.500 7 130078672.635 7      2634.770          46.000
C28  21861918.891 8 113840744.295 8       673.512          48.000
E01  24575177.953 8 129143420.128 8     -2024.418          51.000    24575179.562 8  98954054.051 8     -1551.216          51.000
E26  23350979.477 8 122710228.449 8     -1711.027          51.000    23350982.555 8  94024781.249 8     -1311.035          51.000
E33  23608933.648 8 124065809.539 8       850.098          51.000    23608932.625 8  95063432.497 8       651.380          51.000
> 2020 05 18 13 05  0.0000000  0 17        .000000000000
G18  20297131.336 8 106662246.176 8       -90.668          49.000    20297132.141 8  83113418.278 8       -70.647          49.000
G20  23400636.203 7 122971176.175 7      3221.121          42.000    23400634.000 6  95821739.672 6      2509.968          37.000
G21  20638316.289 8 108455108.667 8       -33.586          49.000    20638314.484 8  84510473.012 8       -26.171          49.000
G26  20383242.555 7 107114680.330 7       825.652          45.000    20383245.281 7  83465978.005 7       643.365          44.000
G29  22512037.602 5 118301515.753 5     -2544.785          35.000    22512026.273 6  92182997.578 6     -1982.949          36.000
G31  22896848.273 7 120323731.618 7     -2939.047          45.000    22896844.109 7  93758740.186 7     -2290.169          45.000
R09  21483318.531 7 114719691.455 7     -3960.633          46.000    21483320.641 7  89226413.866 7     -3080.492          47.000
R10  19554022.273 7 104233958.053 7     -1553.461          47.000
R21  21069094.609 5 112744962.445 5      2525.438          35.000    21069097.250 6  87690523.074 6      1964.232          39.000
C05                                                                  39631787.812 5 159580785.334 5        23.551          34.000
C11  24900100.211 5 129661340.496 5     -2604.605          33.000    24900090.055 5 100262372.642 5     -2013.823          33.000
C23  23967665.953 8 124805921.375 8     -2935.324          50.000
C27  24965046.641 7 129999614.581 7      2649.719          44.000
C28  21858050.906 8 113820600.893 8       683.379          48.000
E01  24586747.930 8 129204220.863 8     -2014.742          51.000    24586749.609 8  99000641.623 8     -1543.749          51.000
E26  23360751.477 8 122761580.681 8     -1698.270          51.000    23360754.586 8  94064129.051 8     -1301.218          51.000
E33  23604094.211 8 124040378.963 8       859.480          51.000    23604093.969 8  95043946.760 8       658.548          51.000
> 2020 05 18 13 05 30.0000000  0 16        .000000000000
G18  20297813.680 8 106665835.229 8      -127.895          48.000    20297815.398 8  83116214.941 8       -99.658          48.000
G20  23382374.297 7 122875211.335 7      3197.332          43.000    23382370.867 6  95746961.921 6      2491.431          38.000
G21  20638665.680 8 108456944.339 8       -67.883          49.000    20638663.789 8  84511903.412 8       -52.896          49.000
G26  20378687.023 7 107090740.192 7       791.156          46.000    20378689.547 7  83447323.376 7       616.485          46.000
G31  22913764.594 7 120412633.740 7     -2966.656          42.000    22913760.719 7  93828014.488 7     -2311.680          42.000
R09  21505715.305 7 114839302.625 7     -3992.004          44.000    21505719.555 7  89319444.785 7     -3104.892          45.000
R10  19562949.703 8 104281542.846 8     -1597.617          49.000
R21  21055082.695 5 112670004.968 5      2493.188          33.000    21055090.516 6  87632222.906 6      1939.152          38.000
C05                                                                  39631727.266 5 159580542.213 5         9.167          34.000
C11  24915219.523 5 129740087.843 5     -2624.062          32.000    24915218.938 5 100323265.042 5     -2029.620          33.000
C23  23984714.500 8 124894698.133 8     -2962.227          50.000
C27  24949906.766 7 129920778.631 7      2626.707          42.000
C28  21854255.289 8 113800834.011 8       655.250          49.000
E01  24598392.133 8 129265411.866 8     -2043.527          51.000    24598394.391 8  99047528.230 8     -1565.829          51.000
E26  23370580.000 8 122813229.456 8     -1723.961          51.000    23370583.406 8  94103704.077 8     -1320.924          51.000
E33  23599330.969 8 124015348.895 8       830.332          51.000    23599331.469 8  95024767.903 8       636.228          51.000
> 2020 05 18 13 06  0.0000000  0 17        .000000000000
G18  20298563.508 8 106669777.488 8      -146.605          49.000    20298565.469 8  83119286.802 8      -114.238          48.000
G20  23364102.852 7 122779195.640 7      3192.055          44.000    23364099.773 6  95672144.534 6      2487.318          37.000
G21  20639064.938 8 108459042.579 8       -83.621          49.000    20639063.039 8  84513538.416 8       -65.159          49.000
G26  20374182.828 7 107067069.809 7       775.164          46.000    20374185.117 7  83428878.911 7       604.024          46.000
G29  22541328.375 5 118455485.387 5     -2572.582          32.000    22541300.016 5  92302881.041 5     -2004.609          33.000
G31  22930692.641 7 120501595.019 7     -2975.750          43.000    22930691.242 7  93897334.927 7     -2318.769          43.000
R09  21528144.156 8 114959075.149 8     -4004.578          48.000    21528148.328 7  89412601.127 7     -3114.675          45.000
R10  19571979.383 8 104329672.762 8     -1622.980          48.000
R21  21041106.227 5 112595226.778 5      2479.945          34.000    21041115.000 5  87574062.172 5      1928.843          35.000
C05                                                                  39631628.273 5 159580143.768 5         8.847          34.000
C11  24930306.945 4 129818650.846 4     -2626.312          27.000    24930314.797 5 100384036.372 5     -2030.717          30.000
C23  24001771.703 8 124983521.075 8     -2970.711          49.000
C27  24934752.594 6 129841876.182 6      2621.824          39.000
C28  21850476.094 8 113781154.215 8       645.316          48.000
E01  24610054.828 8 129326700.636 8     -2053.969          51.000    24610057.859 8  99094489.748 8     -1573.856          51.000
E26  23380409.156 8 122864881.690 8     -1731.148          51.000    23380412.758 8  94143281.752 8     -1326.440          51.000
E33  23594588.078 8 123990427.308 8       819.531          51.000    23594589.109 8  95005672.161 8       627.961          51.000
> 2020 05 18 13 06 30.0000000  0 16        .000000000000
G18  20299453.211 8 106674453.377 8      -167.832          49.000    20299455.320 8  83122930.349 8      -130.778          49.000
G20  23345895.094 7 122683513.219 7      3184.035          46.000    23345892.398 6  95597586.830 6      2481.069          40.000
G21  20639586.680 8 108461784.147 8      -101.883          50.000    20639584.727 8  84515674.707 8       -79.389          50.000
G26  20369802.461 7 107044051.653 7       756.371          46.000    20369804.805 7  83410942.688 7       589.380          46.000
G31  22947704.805 7 120590994.037 7     -2986.938          46.000    22947705.859 7  93966996.440 7     -2327.484          45.000
R09  21550676.977 8 115079392.657 8     -4019.379          51.000    21550679.852 7  89506181.298 7     -3126.187          45.000
R10  19581183.203 8 104378733.390 8     -1650.645          49.000
R21  21027240.609 6 112521016.580 6      2464.293          38.000    21027245.461 5  87516343.160 5      1916.675          34.000
C05                                                                  39631563.656 5 159579883.190 5         6.609          35.000
C11                                                                  24945449.492 5 100444978.274 5     -2034.230          35.000
C23  24018909.930 8 125072765.928 8     -2981.719          49.000
C27  24919658.523 6 129763285.241 6      2614.641          40.000
C28  21846785.812 8 113761938.931 8       633.031          48.000
E01  24621808.383 8 129388467.689 8     -2066.648          51.000    24621812.156 8  99141817.724 8     -1583.545          51.000
E26  23390311.211 8 122916917.341 8     -1740.727          51.000    23390314.602 8  94183153.210 8     -1333.794          51.000
E33  23589938.172 8 123965995.198 8       806.469          51.000    23589939.820 8  94986951.465 8       617.962          51.000
> 2020 05 18 13 07  0.0000000  0 16        .000000000000
G18  20300442.523 8 106679651.644 8      -181.152          50.000    20300444.688 8  83126980.953 8      -141.158          50.000
G20  23327711.484 8 122587956.239 8      3184.031          48.000    23327709.320 6  95523126.905 6      2481.066          41.000
G21  20640190.500 8 108464957.083 8      -112.027          50.000    20640188.648 8  84518147.121 8       -87.294          50.000
G26  20365506.406 7 107021476.482 7       746.148          46.000    20365508.750 7  83393351.634 7       581.411          46.000
G31  22964760.062 7 120680617.348 7     -2990.207          46.000    22964762.547 7  94036832.718 7     -2330.034          46.000
R09  21573271.281 8 115200037.381 8     -4025.992          51.000    21573273.531 7  89600015.987 7     -3131.330          47.000
R10  19590521.477 8 104428509.477 8     -1670.227          50.000
R21  21013440.719 6 112447160.623 6      2456.965          37.000    21013442.695 5  87458899.532 5      1910.967          34.000
C05                                                                  39631493.258 5 159579600.132 5        10.551          34.000
C11                                                                  24960586.188 6 100505928.875 6     -2031.136          38.000
C23  24036088.758 8 125162221.898 8     -2984.566          49.000
C27  24904585.523 6 129684797.560 6      2615.539          40.000
C28  21843144.711 8 113742979.166 8       628.633          48.000
E01  24633612.805 8 129450501.708 8     -2071.324          51.000    24633616.625 8  99189350.262 8     -1587.134          51.000
E26  23400245.898 8 122969124.525 8     -1742.176          51.000    23400248.836 8  94223156.111 8     -1334.917          51.000
E33  23585341.367 8 123941841.685 8       801.406          51.000    23585343.875 8  94968444.244 8       614.035          51.000
> 2020 05 18 13 07 30.0000000  0 16        .000000000000
G18  20301547.516 8 106685456.926 8      -207.008          50.000    20301549.328 8  83131504.555 8      -161.305          50.000
G20  23309568.695 8 122492613.143 8      3170.961          49.000    23309567.117 7  95448833.641 7      2470.879          42.000
G21  20640892.414 8 108468645.923 8      -135.027          49.000    20640890.711 8  84521021.557 8      -105.216          49.000
G26  20361311.117 7 106999431.083 7       722.555          46.000    20361313.430 7  83376173.388 7       563.030          47.000
G31  22981873.805 7 120770547.462 7     -3006.133          44.000    22981876.969 7  94106908.098 7     -2342.441          44.000
R09  21595942.328 8 115321092.899 8     -4045.551          50.000    21595944.195 8  89694170.216 8     -3146.543          48.000
R10  19600009.656 8 104479086.155 8     -1702.754          50.000
R21  20999724.906 6 112373746.409 6      2436.289          40.000    20999722.938 5  87401799.484 5      1894.891          34.000
C05                                                                  39631433.250 5 159579358.623 5         4.247          35.000
C11  24975744.328 4 130055167.194 4     -2635.957          28.000    24975741.039 6 100566952.901 6     -2037.881          39.000
C23  24053324.016 8 125251971.629 8     -2999.992          49.000
C27  24889549.523 6 129606498.257 6      2603.492          41.000
C28  21839568.797 8 113724359.272 8       611.562          48.000
E01  24645484.320 8 129512887.351 8     -2088.770          51.000    24645487.453 8  99237152.248 8     -1600.471          51.000
E26  23410229.273 8 123021587.402 8     -1756.480          51.000    23410231.953 8  94263354.931 8     -1345.869          51.000
E33  23580814.094 8 123918051.977 8       783.434          51.000    23580817.203 8  94950215.780 8       600.320          51.000
> 2020 05 18 13 08  0.0000000  0 17        .000000000000
G18  20302727.969 8 106691659.266 8      -219.043          50.000    20302729.547 8  83136337.554 8      -170.683          50.000
G20  23291427.109 8 122397277.672 8      3172.055          48.000    23291426.500 7  95374546.344 7      2471.734          42.000
G21  20641652.508 8 108472640.771 8      -143.898          48.000    20641650.898 8  84524134.426 8      -112.129          48.000
G26  20357177.250 8 106977707.556 8       713.035          48.000    20357179.391 8  83359245.963 8       555.612          48.000
G31  22999005.211 7 120860572.548 7     -3008.176          43.000    22999008.875 7  94177057.507 7     -2344.033          42.000
R09  21618648.766 7 115442343.075 7     -4050.547          45.000    21618651.094 7  89788475.846 7     -3150.425          47.000
R10  19609607.812 8 104530249.617 8     -1720.949          50.000
R21  20986051.539 6 112300561.350 6      2430.016          40.000    20986047.062 5  87344877.825 5      1890.018          35.000
C05                                                                  39631343.688 5 159578997.798 5         9.669          35.000
C11                                                                  24990874.766 6 100627889.559 6     -2034.082          36.000
C23  24070575.852 8 125341805.782 8     -3001.367          50.000
C27  24874510.367 7 129528180.516 7      2605.270          43.000
C28  21836017.945 7 113705871.642 7       608.371          47.000
E01  24657383.039 8 129575414.735 8     -2092.133          51.000    24657384.844 8  99285062.829 8     -1603.120          51.000
E12  24971497.992 6 131226108.684 6      2618.410          41.000    24971498.859 7 100549877.823 7      2006.386          42.000
E26  23420221.266 8 123074095.524 8     -1756.641          51.000    23420224.133 8  94303588.427 8     -1345.997          51.000
E33  23576316.633 8 123894416.555 8       779.707          51.000    23576319.773 8  94932105.533 8       597.423          51.000
> 2020 05 18 13 08 30.0000000  0 18        .000000000000
G18  20304029.336 8 106698496.983 8      -241.355          50.000    20304030.883 8  83141665.649 8      -188.069          50.000
G20  23273332.484 7 122302191.980 7      3162.512          46.000    23273333.078 7  95300453.661 7      2464.295          44.000
G21  20642516.211 8 108477179.818 8      -163.227          48.000    20642514.797 7  84527671.342 7      -127.190          47.000
G26  20353150.484 7 106956546.324 7       693.078          47.000    20353152.359 8  83342756.691 8       540.061          48.000
G29  22615023.164 5 118842752.768 5     -2596.992          30.000    22615015.633 4  92604725.387 4     -2023.630          29.000
G31  23016199.070 7 120950928.751 7     -3019.969          42.000    23016203.227 7  94247464.974 7     -2353.219          42.000
R09  21641434.359 6 115564027.314 6     -4066.074          40.000    21641438.938 7  89883119.168 7     -3162.499          46.000
R10  19619361.117 8 104582240.714 8     -1749.711          49.000
R21  20972464.148 6 112227849.612 6      2413.012          38.000    20972460.289 6  87288324.346 6      1876.790          37.000
C05                                                                  39631270.242 5 159578701.500 5         6.543          34.000
C11                                                                  25006031.609 5 100688921.463 5     -2038.132          34.000
C23  24087889.312 8 125431959.233 8     -3013.223          49.000
C27  24859513.656 7 129450081.588 7      2596.785          43.000
C28  21832538.266 8 113687752.927 8       594.996          48.000
E01  24669353.969 8 129638322.233 8     -2106.125          51.000    24669355.188 8  99333264.653 8     -1613.736          51.000
E12  24956563.828 7 131147625.242 7      2609.410          42.000    24956563.898 7 100489741.215 7      1999.442          42.000
E26  23430267.188 8 123126886.725 8     -1767.262          51.000    23430270.406 8  94344038.824 8     -1354.145          51.000
E33  23571894.344 8 123871174.308 8       765.340          51.000    23571896.852 8  94914296.545 8       586.438          51.000
> 2020 05 18 13 09  0.0000000  0 17        .000000000000
G18  20305441.031 8 106705914.325 8      -255.586          50.000    20305442.344 8  83147445.409 8      -199.155          50.000
G20  23255274.977 7 122207304.222 7      3160.895          45.000    23255277.219 7  95226515.198 7      2463.035          44.000
G21  20643472.734 8 108482207.091 8      -174.445          48.000    20643471.742 8  84531588.711 8      -135.931          48.000
G26  20349220.594 8 106935893.809 8       681.344          48.000    20349221.961 8  83326663.826 8       530.917          48.000
G31  23033445.320 7 121041558.497 7     -3024.023          44.000    23033449.031 7  94318085.551 7     -2356.379          44.000
R09  21664289.961 7 115686086.301 7     -4073.531          42.000    21664296.609 7  89978054.027 7     -3168.302          44.000
R10  19629258.586 8 104635002.127 8     -1770.195          50.000
R21  20958951.258 5 112155555.748 5      2403.980          34.000    20958951.969 6  87232095.822 6      1869.760          37.000
C05                                                                  39631202.641 5 159578430.153 5         9.747          34.000
C11                                                                  25021200.867 5 100750006.031 5     -2035.918          34.000
C23  24105253.188 8 125522375.499 8     -3016.949          49.000
C27  24844548.484 7 129372147.547 7      2596.223          43.000
C28  21829119.148 7 113669948.374 7       589.691          47.000
E01  24681386.430 8 129701554.150 8     -2111.816          51.000    24681387.633 8  99381715.044 8     -1618.142          51.000
E12  24941663.250 7 131069321.106 7      2608.465          43.000    24941663.445 7 100429742.002 7      1998.658          42.000
E26  23440356.266 8 123179904.824 8     -1769.703          51.000    23440359.758 8  94384663.076 8     -1356.063          51.000
E33  23567536.180 8 123848270.061 8       759.180          51.000    23567538.047 8  94896746.536 8       581.655          51.000
> 2020 05 18 13 09 30.0000000  0 17        .000000000000
G18  20306955.453 8 106713871.572 8      -273.848          50.000    20306956.375 8  83153645.870 8      -213.388          50.000
G20  23237248.391 7 122112578.315 7      3155.000          44.000    23237251.695 7  95152702.785 7      2458.442          43.000
G21  20644514.688 8 108487682.432 8      -189.602          49.000    20644513.641 8  84535855.197 8      -147.741          49.000
G26  20345380.203 8 106915712.361 8       665.164          48.000    20345381.398 8  83310938.029 8       518.310          48.000
G31  23050736.047 7 121132420.328 7     -3032.113          44.000    23050738.297 7  94388886.934 7     -2362.689          44.000
R09  21687211.273 7 115808477.171 7     -4084.883          46.000    21687215.898 6  90073246.883 6     -3177.131          40.000
R10  19639293.148 8 104688492.926 8     -1794.758          50.000
R21  20945508.461 4 112083640.814 4      2391.117          29.000    20945513.758 6  87176162.035 6      1859.770          36.000
C05                                                                  39631133.258 5 159578150.591 5         9.497          34.000
C11                                                                  25036374.180 4 100811112.971 4     -2037.163          29.000
C23  24122659.227 7 125613013.970 7     -3024.535          47.000
C27  24829607.047 6 129294340.225 6      2591.750          41.000
C28  21825752.688 7 113652419.122 7       579.957          47.000
E01  24693473.211 8 129765070.863 8     -2121.637          51.000    24693474.508 8  99430383.655 8     -1625.667          51.000
E12  24926789.453 7 130991157.949 7      2603.414          44.000    24926790.227 7 100369850.835 7      1994.746          42.000
E26  23450480.859 8 123233109.667 8     -1776.281          51.000    23450484.344 8  94425430.421 8     -1361.068          51.000
E33  23563234.594 8 123825664.600 8       748.848          51.000    23563236.219 8  94879425.468 8       573.789          51.000
> 2020 05 18 13 10  0.0000000  0 17        .000000000000
G18  20308584.148 8 106722429.477 8      -291.281          50.000    20308584.930 8  83160314.385 8      -226.972          50.000
G20  23219265.711 7 122018078.901 7      3149.926          45.000    23219269.117 7  95079066.877 7      2454.491          45.000
G21  20645653.562 8 108493666.740 8      -203.992          49.000    20645652.500 8  84540518.308 8      -158.955          49.000
G26  20341641.383 8 106896064.825 8       649.945          49.000    20341642.820 8  83295628.256 8       506.451          49.000
G29  22659561.938 6 119076834.633 6     -2604.895          36.000    22659588.664 6  92787159.845 6     -2029.794          36.000
G31  23068082.195 7 121223572.593 7     -3039.066          44.000    23068082.430 7  94459914.621 7     -2368.107          44.000
R09  21710206.070 7 115931258.897 7     -4095.176          47.000    21710208.039 5  90168743.730 5     -3185.140          35.000
R10  19649475.953 8 104742773.539 8     -1818.477          49.000
R21  20932148.141 5 112012167.994 5      2379.246          30.000    20932157.898 6  87120572.056 6      1850.519          37.000
C05                                                                  39631073.914 5 159577911.434 5        10.354          34.000
C23  24140118.758 7 125703933.507 7     -3031.367          46.000
C27  24814700.469 6 129216721.074 6      2588.121          38.000
C28  21822450.438 7 113635225.883 7       571.453          46.000
E01  24705625.914 8 129828933.144 8     -2130.492          51.000    24705627.172 8  99479317.055 8     -1632.476          51.000
E12  24911954.109 7 130913198.082 7      2599.227          44.000    24911955.742 7 100310115.413 7      1991.612          42.000
E26  23460652.430 8 123286561.514 8     -1781.844          51.000    23460655.711 8  94466387.029 8     -1365.279          51.000
E33  23559001.703 8 123803419.211 8       739.582          51.000    23559002.648 8  94862380.298 8       566.642          51.000
> 2020 05 18 13 10 30.0000000  0 17        .000000000000
G18  20310306.727 8 106731481.291 8      -312.379          50.000    20310307.383 8  83167367.767 8      -243.412          50.000
G20  23201306.984 7 121923702.905 7      3141.277          46.000    23201310.109 7  95005527.171 7      2447.749          45.000
G21  20646868.875 8 108500053.043 8      -222.000          50.000    20646867.906 8  84545494.674 8      -172.987          50.000
G26  20337984.234 8 106876846.598 8       631.031          49.000    20337986.055 8  83280653.015 8       491.713          49.000
G31  23085463.156 7 121314906.821 7     -3049.996          43.000    23085461.070 7  94531084.083 7     -2376.623          44.000
R09  21733252.719 7 116054320.312 7     -4109.090          47.000    21733249.805 4  90264496.505 4     -3195.968          24.000
R10  19659786.531 8 104797734.810 8     -1845.969          50.000
R11  20868748.914 5 111516205.388 5      2753.047          31.000
R21  20918858.609 6 111941030.110 6      2363.016          36.000    20918865.133 6  87065242.485 6      1837.901          37.000
C05                                                                  39631004.602 5 159577632.144 5         7.856          34.000
C23  24157611.828 7 125795027.273 7     -3041.730          47.000
C27  24799806.883 5 129139185.616 5      2580.992          32.000
C28  21819192.531 7 113618263.398 7       559.141          46.000
E01  24717824.109 8 129893034.346 8     -2143.043          51.000    24717825.297 8  99528433.541 8     -1642.081          51.000
E12  24897137.328 7 130835336.361 7      2591.250          45.000    24897139.727 6 100250455.161 6      1985.461          41.000
E26  23470850.562 8 123340153.302 8     -1791.098          51.000    23470853.727 8  94507450.859 8     -1372.337          51.000
E33  23554817.016 8 123781427.729 8       726.422          51.000    23554817.086 8  94845529.674 8       556.621          51.000
> 2020 05 18 13 11  0.0000000  0 18        .000000000000
G18  20312130.414 8 106741064.400 8      -328.852          50.000    20312130.602 8  83174835.120 8      -256.248          50.000
G20  23183379.664 7 121829491.594 7      3136.953          47.000    23183381.977 7  94932115.794 7      2444.379          44.000
G21  20648167.883 8 108506878.610 8      -235.387          50.000    20648166.602 8  84550813.306 8      -183.418          50.000
G26  20334416.344 8 106858097.204 8       616.711          49.000    20334418.562 8  83266043.077 8       480.554          49.000
G29  22689367.422 5 119233418.727 5     -2614.707          34.000    22689392.086 5  92909280.867 5     -2037.446          33.000
G31  23102885.375 6 121406458.388 6     -3055.656          40.000    23102881.359 6  94602422.943 6     -2381.031          40.000
R09  21756357.164 7 116177696.670 7     -4118.527          43.000    21756372.742 5  90360458.940 5     -3203.296          33.000
R10  19670232.000 8 104853413.811 8     -1868.527          50.000
R21  20905637.930 6 111870266.076 6      2352.039          38.000    20905641.531 6  87010203.874 6      1829.370          36.000
C05                                                                  39630932.570 5 159577342.501 5         9.732          34.000
C11  25081950.953 5 130608213.783 5     -2638.523          30.000    25081949.281 5 100994523.315 5     -2039.567          33.000
C23  24175145.828 8 125886331.062 8     -3047.512          49.000
C27  24784938.195 5 129061772.202 5      2577.578          35.000
C28  21815986.766 8 113601569.238 8       551.547          48.000
E01  24730074.992 8 129957411.977 8     -2151.156          51.000    24730076.195 8  99577761.843 8     -1648.259          51.000
E12  24882346.438 7 130757611.628 7      2588.066          44.000    24882349.266 6 100190899.842 6      1982.935          41.000
E26  23481082.305 8 123393922.012 8     -1795.840          51.000    23481085.547 8  94548650.252 8     -1376.036          51.000
E33  23550687.422 8 123759728.094 8       717.852          51.000    23550687.242 8  94828902.681 8       550.045          51.000
> 2020 05 18 13 11 30.0000000  0 18        .000000000000
G18  20314064.812 8 106751229.869 8      -346.930          49.000    20314064.859 8  83182756.271 8      -270.332          49.000
G20  23165494.086 7 121735500.192 7      3130.930          46.000    23165495.156 7  94858875.775 7      2439.689          42.000
G21  20649560.078 8 108514194.107 8      -250.383          49.000    20649558.562 8  84556513.717 8      -195.100          49.000
G26  20330947.836 8 106839869.882 8       600.473          50.000    20330950.195 8  83251839.949 8       467.901          50.000
G29  22704311.734 5 119311956.690 5     -2619.340          30.000    22704332.500 4  92970479.069 4     -2041.050          28.000
G31  23120357.445 5 121498276.518 5     -3064.371          33.000    23120353.484 5  94673969.554 5     -2387.819          34.000
R09  21779528.695 6 116301437.367 6     -4128.871          39.000    21779540.297 6  90456701.741 6     -3211.344          39.000
R10  19680821.633 8 104909861.222 8     -1892.789          48.000
R21  20892494.258 6 111799929.849 6      2339.117          36.000    20892497.039 5  86955497.931 5      1819.313          31.000
C05                                                                  39630867.516 5 159577081.009 5         9.388          34.000
C11  25097165.336 4 130687524.478 4     -2639.820          29.000    25097152.992 4 101055838.883 4     -2041.431          28.000
C23  24192729.828 8 125977894.257 8     -3054.863          49.000
C27  24770103.555 5 128984532.571 5      2573.496          34.000
C28  21812842.516 8 113585194.686 8       542.105          48.000
E01  24742388.352 8 130022117.193 8     -2160.613          51.000    24742389.750 8  99627341.167 8     -1655.580          51.000
E12  24867591.625 7 130680076.556 7      2582.855          44.000    24867594.227 6 100131489.874 6      1979.071          40.000
E26  23491357.391 8 123447918.348 8     -1802.074          51.000    23491360.727 8  94590024.056 8     -1380.798          51.000
E33  23546622.945 8 123738372.036 8       707.777          50.000    23546623.148 8  94812538.934 8       542.308          51.000
> 2020 05 18 13 12  0.0000000  0 17        .000000000000
G18  20316097.711 8 106761913.497 8      -361.621          50.000    20316098.039 8  83191081.182 8      -281.783          49.000
G20  23147638.781 7 121641668.267 7      3128.172          46.000    23147637.773 6  94785760.040 6      2437.537          41.000
G21  20651033.258 8 108521935.575 8      -262.000          50.000    20651031.633 8  84562546.057 8      -204.153          49.000
G26  20327566.828 8 106822102.515 8       587.766          50.000    20327569.016 8  83237995.246 8       457.999          50.000
G31  23137866.078 5 121590309.961 5     -3067.195          33.000    23137866.320 5  94745672.262 5     -2390.025          32.000
R09  21802754.859 5 116425474.597 5     -4136.152          34.000    21802765.492 6  90553175.183 6     -3217.004          41.000
R10  19691542.938 7 104967011.176 7     -1913.500          47.000
R21  20879416.258 6 111729957.301 6      2329.613          38.000
C05                                                                  39630797.539 5 159576798.631 5        12.191          33.000
C11                                                                  25112353.523 4 101117070.738 4     -2039.213          29.000
C23  24210351.016 8 126069652.120 8     -3058.699          48.000
C27  24755292.180 6 128907404.472 6      2572.090          38.000
C28  21809747.172 7 113569076.566 7       536.180          47.000
E01  24754751.758 8 130087086.009 8     -2166.805          51.000    24754753.812 8  99677122.448 8     -1660.270          51.000
E12  24852861.062 7 130602668.493 7      2581.262          43.000    24852862.297 6 100072177.234 6      1978.041          39.000
E26  23501663.578 8 123502077.783 8     -1804.734          51.000    23501666.844 8  94631522.840 8     -1382.878          51.000
E33  23542612.211 8 123717295.913 8       701.105          51.000    23542612.609 8  94796389.699 8       537.184          51.000
> 2020 05 18 13 12 30.0000000  0 18        .000000000000
G18  20318232.680 8 106773133.706 8      -382.320          50.000    20318233.062 8  83199824.190 8      -297.912          50.000
G20  23129818.008 7 121548017.967 7      3119.355          45.000    23129814.359 6  94712785.848 6      2430.670          39.000
G21  20652591.047 8 108530121.334 8      -279.520          50.000    20652589.367 8  84568924.569 8      -217.807          50.000
G26  20324277.336 8 106804815.688 8       568.965          51.000    20324279.375 8  83224524.989 8       443.349          50.000
G31  23155417.758 6 121682545.358 6     -3077.246          39.000    23155423.492 5  94817543.984 5     -2397.851          35.000
R09  21826042.148 6 116549824.037 6     -4149.363          39.000    21826050.844 7  90649891.532 7     -3227.283          42.000
R10  19702399.227 7 105024881.436 7     -1940.375          47.000
R11  20807755.305 5 111190245.790 5      2678.215          32.000
R21  20866412.109 6 111660368.596 6      2314.203          38.000    20866423.328 5  86846972.510 5      1799.933          31.000
C05                                                                  39630726.219 5 159576511.306 5         9.708          34.000
C11                                                                  25127566.398 5 101178296.115 5     -2042.122          30.000
C23  24228012.969 8 126161621.667 8     -3068.500          48.000
C27  24740507.766 6 128830407.494 6      2565.398          37.000
C28  21806704.648 8 113553233.788 8       524.266          48.000
E01  24767168.484 8 130152336.900 8     -2179.051          51.000    24767171.383 8  99727119.860 8     -1669.683          51.000
E12  24838158.500 7 130525407.425 7      2573.543          44.000    24838157.266 6 100012977.263 6      1971.930          40.000
E26  23512004.297 8 123556418.439 8     -1813.727          51.000    23512007.336 8  94673160.474 8     -1389.745          51.000
E33  23538658.820 8 123696518.739 8       688.281          51.000    23538659.305 8  94780469.531 8       527.366          51.000
> 2020 05 18 13 13  0.0000000  0 18        .000000000000
G18  20320471.234 8 106784898.342 8      -404.695          50.000    20320471.789 8  83208991.443 8      -315.347          50.000
G20  23112034.047 7 121454561.097 7      3108.543          46.000    23112028.602 6  94639962.397 6      2422.241          38.000
G21  20654234.680 8 108538758.999 8      -298.730          49.000    20654233.062 8  84575655.217 8      -232.777          49.000
G26  20321081.195 8 106788019.456 8       548.391          51.000    20321083.203 8  83211437.012 8       427.317          51.000
G31  23173012.531 7 121775003.941 7     -3088.977          43.000    23173024.586 5  94889589.597 5     -2406.998          32.000
R09  21849390.688 6 116674491.663 6     -4164.082          41.000    21849395.914 6  90746855.204 6     -3238.734          41.000
R10  19713391.516 7 105083479.198 7     -1968.832          47.000
R11  20792772.922 5 111110211.132 5      2654.367          32.000    20792773.266 4  86419101.455 4      2064.511          26.000
R21  20853480.742 5 111591173.214 5      2295.992          30.000    20853493.531 5  86793153.734 5      1785.766          33.000
C11  25142806.055 5 130925133.596 5     -2645.062          30.000    25142791.336 5 101239584.180 5     -2045.514          31.000
C23  24245717.484 8 126253809.617 8     -3079.832          49.000
C27  24725751.453 6 128753550.836 6      2556.391          38.000
C28  21803716.930 8 113537674.819 8       510.617          48.000
E01  24779640.156 8 130217877.882 8     -2192.805          51.000    24779643.711 8  99777339.544 8     -1680.150          51.000
E12  24823485.719 7 130448302.796 7      2564.129          42.000    24823482.164 6  99953897.174 6      1964.863          40.000
E26  23522380.984 8 123610947.879 8     -1824.020          51.000    23522383.805 8  94714942.762 8     -1397.655          51.000
E31  23763111.461 6 124875994.505 6       580.066          41.000    23763113.375 6  95684205.162 6       444.469          38.000
E33  23534763.625 8 123676049.021 8       673.930          51.000    23534764.508 8  94764784.958 8       516.388          51.000
> 2020 05 18 13 13 30.0000000  0 18        .000000000000
G18  20322804.898 8 106797162.466 8      -418.777          51.000    20322805.836 8  83218547.901 8      -326.320          51.000
G20  23094279.039 7 121361256.736 7      3105.848          46.000    23094272.984 6  94567257.775 6      2420.147          36.000
G21  20655955.594 8 108547803.133 8      -310.000          49.000    20655954.109 8  84582702.592 8      -241.558          49.000
G26  20317970.242 8 106771670.971 8       535.793          51.000    20317972.250 8  83198697.939 8       417.501          51.000
G31  23190640.945 7 121867638.410 7     -3092.457          43.000    23190658.953 4  94961772.374 4     -2409.692          26.000
R09  21872789.109 7 116799428.963 7     -4170.746          43.000    21872791.305 6  90844028.593 6     -3243.917          38.000
R10  19724511.820 8 105142757.565 8     -1989.062          48.000
R21  20840615.570 5 111522326.823 5      2287.395          35.000    20840626.383 5  86739606.433 5      1779.079          31.000
C05                                                                  39630576.688 5 159575908.791 5         9.699          34.000
C11  25158025.648 5 131004383.454 5     -2643.781          30.000    25158015.477 5 101300864.952 5     -2043.868          35.000
C23  24263455.523 8 126346170.294 8     -3083.188          50.000
C27  24711013.953 6 128676791.181 6      2555.508          36.000
C28  21800775.391 8 113522355.663 8       505.047          48.000
E01  24792158.523 8 130283664.187 8     -2198.691          51.000    24792162.203 8  99827747.192 8     -1684.688          51.000
E12  24808834.398 7 130371311.305 7      2562.840          42.000    24808829.891 6  99894903.744 6      1963.773          41.000
E26  23532785.031 8 123665620.865 8     -1826.469          51.000    23532787.828 8  94756835.031 8     -1399.481          51.000
E31  23759811.195 7 124858642.911 7       571.414          42.000    23759812.164 6  95670909.821 6       437.543          39.000
E33  23530918.062 8 123655842.473 8       667.512          51.000    23530919.391 8  94749302.026 8       511.425          51.000
> 2020 05 18 13 14  0.0000000  0 18        .000000000000
G18  20325260.594 8 106810067.370 8      -437.566          51.000    20325261.516 8  83228603.663 8      -340.961          51.000
G20  23076580.594 7 121268250.163 7      3098.559          47.000    23076575.242 6  94494785.170 6      2414.461          38.000
G21  20657780.961 8 108557395.446 8      -325.520          50.000    20657779.609 8  84590177.100 8      -253.655          50.000
G26  20314971.688 8 106755913.722 8       518.660          51.000    20314973.836 8  83186419.561 8       404.151          51.000
