     3.02           OBSERVATION DATA    M (MIXED)           RINEX VERSION / TYPE
SAVERINEX           SC600               20200502 135931 LCL PGM / RUN BY / DATE
       G = GPS       R = GLONASS       C = COMPASS          COMMENT
       S = SBAS      J = QZSS          E = GALILEO          COMMENT
BEAN                                                        MARKER NAME
1                                                           MARKER NUMBER
GEODETIC                                                    MARKER TYPE
Unige DICCA         GTER                                    OBSERVER / AGENCY
SC60291900056       SC600               2.12(191226)        REC # / TYPE / VERS
                    HEMA45          NONE                    ANT # / TYPE
  4509407.8091   693652.4678  4442337.6214                  APPROX POSITION XYZ
        0.0000        0.0000        0.0000                  ANTENNA: DELTA H/E/N
G    8 C1C L1C D1C S1C C2Y L2Y D2Y S2Y                      SYS / # / OBS TYPES
R    8 C1C L1C D1C S1C C2P L2P D2P S2P                      SYS / # / OBS TYPES
C    4 C1I L1I D1I S1I                                      SYS / # / OBS TYPES
E    8 C1C L1C D1C S1C C7Q L7Q D7Q S7Q                      SYS / # / OBS TYPES
DBHZ                                                        COMMENT
     30.000                                                 INTERVAL
  2020    05    02    11    00    0.0000000     GPS         TIME OF FIRST OBS
  2020    05    02    11    59   30.0000000     GPS         TIME OF LAST OBS
     0                                                      RCV CLOCK OFFS APPL
G L1C  0.00000                                              SYS / PHASE SHIFT
G L2Y  0.00000                                              SYS / PHASE SHIFT
R L1C  0.00000                                              SYS / PHASE SHIFT
R L2P  0.25000                                              SYS / PHASE SHIFT
C L1I  0.00000                                              SYS / PHASE SHIFT
E L1C  0.50000                                              SYS / PHASE SHIFT
E L7Q -0.25000                                              SYS / PHASE SHIFT
 14 R04  6 R05  1 R06 -4 R07  5 R09 -2 R10 -5 R13 -2 R14 -7 GLONASS SLOT / FRQ #
    R15  0 R16 -1 R17  4 R18 -3 R19  3 R20  2               GLONASS SLOT / FRQ #
 C1C   71.950 C2C   71.950 C2P   71.950                     GLONASS COD/PHS/BIS
    18                                                      LEAP SECONDS
*** Above antenna height is from mark to ANTENNA BOTTOM.    COMMENT
    17     4        0.0000        ANT MEASURE TYPE/HEIGT    COMMENT
    0.0000    0.0000    0.0458    0.0405    0.0000          COMMENT
                    BASE STATION                            COMMENT
                                                            END OF HEADER
> 2020 05 02 11 00  0.0000000  0 13        .000000000000
G12  21238053.633 6 111606719.499 6     -2009.227          40.000    21238054.328 6  86966275.042 6     -1565.634          40.000
G24  23776332.633 6 124945417.960 6     -3575.176          41.000    23776338.297 6  97360071.569 6     -2785.854          41.000
G25  20164620.961 8 105965850.343 8      -242.523          51.000    20164623.562 8  82570764.071 8      -188.982          51.000
G29  20852386.914 8 109580029.600 8      1896.805          51.000    20852386.242 8  85387057.949 8      1478.030          51.000
G32  22768532.297 6 119649436.913 6     -1944.676          40.000    22768538.664 6  93233335.930 6     -1515.332          40.000
R16  19750196.008 7 105502014.893 7     -1255.453          47.000    19750199.133 7  82057106.857 7      -976.464          44.000
R18  19890934.375 8 106179193.822 8     -1671.414          51.000    19890938.055 7  82583846.301 7     -1299.989          47.000
R19  19910259.250 6 106506477.471 6      2493.270          39.000    19910260.633 7  82838384.307 7      1939.210          46.000
C27  21988248.688 8 114498684.600 8      1623.555          50.000
C28  22634188.562 7 117862174.858 7     -1610.605          43.000
E15  24020742.992 8 126229852.066 8      1666.922          51.000    24020744.680 8  96721613.743 8      1277.273          50.000
E27  23333420.773 8 122617946.585 8       484.293          49.000    23333423.039 8  93954027.445 8       371.040          49.000
E30  23868549.992 5 125430077.929 5     -1732.055          33.000    23868559.016 6  96108778.159 6     -1326.928          40.000
> 2020 05 02 11 00 30.0000000  0 14        .000000000000
G06  24246402.297 5 127415703.455 5     -2220.363          30.000
G12  21249546.930 7 111667117.990 7     -2017.875          42.000    21249547.945 7  87013338.776 7     -1572.367          42.000
G24  23796755.812 6 125052744.295 6     -3580.102          41.000    23796762.031 6  97443702.388 6     -2789.693          41.000
G25  20166038.984 8 105973302.274 8      -254.445          51.000    20166041.445 8  82576570.764 8      -198.269          51.000
G29  20841603.562 8 109523361.853 8      1880.797          51.000    20841602.633 8  85342901.272 8      1465.556          51.000
G32  22779676.484 5 119708000.393 5     -1959.922          35.000    22779683.102 5  93278969.811 5     -1527.212          35.000
R16  19757293.203 7 105539926.998 7     -1272.230          47.000    19757296.141 7  82086594.017 7      -989.513          42.000
R18  19900397.633 8 106229710.004 8     -1696.461          51.000    19900401.422 7  82623136.659 7     -1319.470          47.000
R19  19896339.891 6 106432020.627 6      2469.547          37.000    19896341.891 7  82780473.413 7      1920.759          46.000
C27  21978937.492 8 114450199.520 8      1608.531          49.000
C28  22643507.562 6 117910701.565 6     -1624.582          40.000
E15  24011264.195 8 126180041.733 8      1653.461          51.000    24011265.805 8  96683447.423 8      1266.959          50.000
E27  23330674.844 8 122603516.453 8       477.531          50.000    23330677.250 8  93942970.592 8       365.850          49.000
E30                                                                  23878460.578 6  96148649.414 6     -1331.313          39.000
> 2020 05 02 11 01  0.0000000  0 13        .000000000000
G12  21261086.727 7 111727759.863 7     -2023.566          42.000    21261087.383 7  87060592.209 7     -1576.805          42.000
G24  23817206.961 6 125160213.981 6     -3582.895          41.000    23817213.672 7  97527444.884 7     -2791.872          42.000
G25  20167523.102 8 105981101.703 8      -263.965          51.000    20167525.469 8  82582648.250 8      -205.687          51.000
G29  20830908.141 8 109467159.754 8      1867.473          50.000    20830907.812 8  85299107.422 8      1455.173          50.000
G32  22790916.367 6 119767071.392 6     -1972.223          38.000    22790909.688 6  93324970.765 6     -1536.797          37.000
R16  19764481.555 7 105578324.787 7     -1286.145          47.000    19764484.031 7  82116458.921 7     -1000.335          42.000
R18  19909998.766 8 106280961.378 8     -1718.746          51.000    19910002.531 7  82662998.843 7     -1336.803          47.000
R19  19882550.672 6 106358260.698 6      2448.684          36.000    19882553.102 7  82723104.540 7      1904.532          45.000
C27  21969710.750 8 114402151.649 8      1596.086          51.000
C28  22652902.898 6 117959627.457 6     -1635.816          40.000
E15  24001859.117 8 126130620.015 8      1642.762          51.000    24001861.281 8  96645578.874 8      1258.775          50.000
E27  23327964.820 8 122589275.381 8       473.488          50.000    23327967.500 8  93932058.600 8       362.851          50.000
E30                                                                  23888391.289 6  96188640.908 6     -1333.349          36.000
> 2020 05 02 11 01 30.0000000  0 13        .000000000000
G12  21272645.883 7 111788503.826 7     -2035.086          42.000    21272646.000 7  87107925.175 7     -1585.781          42.000
G24  23837658.438 7 125267683.554 7     -3590.961          44.000    23837665.695 7  97611187.307 7     -2798.154          43.000
G25  20169046.578 8 105989107.455 8      -279.113          51.000    20169048.820 8  82588886.492 8      -217.491          51.000
G29  20820274.484 8 109411282.756 8      1848.523          51.000    20820275.102 8  85255566.895 8      1440.408          51.000
G32  22802202.781 6 119826357.014 6     -1989.500          39.000    22802189.836 6  93371167.203 6     -1550.266          39.000
R16  19771733.836 8 105617064.457 8     -1305.898          48.000    19771736.297 7  82146589.723 7     -1015.699          43.000
R18  19919710.047 8 106332801.389 8     -1746.621          51.000    19919713.805 7  82703318.849 7     -1358.483          47.000
R19  19868865.211 6 106285056.492 6      2421.938          38.000    19868868.164 7  82666167.968 7      1883.729          45.000
C27  21960541.531 8 114354401.986 8      1577.992          51.000
C28  22662348.562 6 118008811.144 6     -1652.434          40.000
E15  23992501.641 8 126081446.904 8      1626.395          51.000    23992504.031 8  96607900.791 8      1246.183          51.000
E27  23325263.930 8 122575082.873 8       463.582          50.000    23325267.023 8  93921183.817 8       355.257          50.000
E30                                                                  23898323.453 5  96228650.663 5     -1340.143          34.000
> 2020 05 02 11 02  0.0000000  0 13        .000000000000
G12  21284289.547 6 111849692.323 6     -2044.352          38.000    21284289.875 6  87155604.495 6     -1593.004          38.000
G24  23858175.016 7 125375494.150 7     -3596.566          44.000    23858182.656 7  97695195.481 7     -2802.522          44.000
G25  20170674.656 8 105997662.683 8      -291.586          51.000    20170676.734 8  82595552.906 8      -227.210          51.000
G29  20809768.773 8 109356075.145 8      1831.797          51.000    20809769.930 8  85212548.005 8      1427.377          51.000
G32  22813597.500 7 119886273.404 7     -2004.879          42.000    22813591.352 7  93417855.188 7     -1562.246          42.000
R16  19779115.703 8 105656495.947 8     -1323.082          48.000    19779118.125 7  82177258.630 7     -1029.064          44.000
R18  19929596.602 8 106385575.976 8     -1771.895          51.000    19929600.539 8  82744365.754 8     -1378.140          48.000
R19  19855350.188 6 106212760.117 6      2397.723          39.000    19855353.430 7  82609937.489 7      1864.898          46.000
C27  21951494.773 8 114307291.400 8      1562.477          51.000
C28  22671907.359 6 118058590.831 6     -1666.527          36.000
E15  23983257.250 8 126032866.733 8      1612.215          51.000    23983260.047 8  96570677.054 8      1235.304          51.000
E27  23322637.695 8 122561282.741 8       456.246          50.000    23322641.055 8  93910609.696 8       349.537          51.000
E30                                                                  23908326.656 6  96268929.578 6     -1345.207          36.000
> 2020 05 02 11 02 30.0000000  0 13        .000000000000
G12  21295974.273 6 111911096.914 6     -2050.469          38.000    21295974.578 6  87203452.133 6     -1597.771          38.000
G24  23878712.688 7 125483416.154 7     -3599.500          44.000    23878720.484 7  97779290.431 7     -2804.808          44.000
G25  20172363.875 8 106006539.259 8      -301.375          51.000    20172365.867 8  82602469.718 8      -234.838          51.000
G29  20799347.453 8 109301309.315 8      1817.961          51.000    20799348.516 8  85169873.396 8      1416.596          51.000
G32  22825067.164 6 119946589.046 6     -2017.387          41.000    22825069.641 7  93464854.319 7     -1571.993          42.000
R16  19786583.312 8 105696386.949 8     -1337.609          48.000    19786585.719 7  82208284.954 7     -1040.363          45.000
R18  19939614.125 8 106439049.977 8     -1794.211          51.000    19939617.797 8  82785956.632 8     -1395.497          48.000
R19  19841962.008 6 106141141.822 6      2375.691          40.000    19841965.492 7  82554234.409 7      1847.760          47.000
C27  21942526.758 8 114260594.641 8      1549.469          50.000
C28  22681537.633 6 118108738.795 6     -1677.891          38.000
E15  23974082.438 8 125984652.363 8      1600.781          51.000    23974085.695 8  96533733.606 8      1226.579          51.000
E27  23320042.875 8 122547647.454 8       451.539          50.000    23320046.227 8  93900161.882 8       345.975          50.000
E30  23918351.531 6 125691790.411 6     -1759.113          37.000    23918356.266 5  96309308.829 5     -1347.991          35.000
> 2020 05 02 11 03  0.0000000  0 14        .000000000000
G02  23069396.203 5 121230494.298 5      -935.266          30.000
G12  21307702.023 7 111972726.017 7     -2058.418          43.000    21307701.773 7  87251474.875 7     -1603.959          42.000
G24  23899272.906 7 125591457.353 7     -3603.488          43.000    23899279.938 7  97863478.277 7     -2807.916          43.000
G25  20174116.148 8 106015747.144 8      -312.637          51.000    20174118.125 8  82609644.695 8      -243.613          51.000
G29  20789012.438 8 109246995.953 8      1802.586          51.000    20789012.812 8  85127551.338 8      1404.612          51.000
G32  22836616.773 6 120007311.397 6     -2031.168          39.000    22836624.812 6  93512170.417 6     -1582.728          38.000
R16  19794138.945 8 105736748.052 8     -1353.418          48.000    19794141.773 7  82239676.911 7     -1052.658          46.000
R18  19949764.062 8 106493230.889 8     -1818.023          51.000    19949768.180 8  82828097.362 8     -1414.018          49.000
R19  19828703.055 6 106070214.543 6      2352.484          40.000    19828706.703 7  82499068.774 7      1829.713          46.000
C27  21933640.133 8 114214322.506 8      1535.086          49.000
C28  22691241.219 6 118159263.446 6     -1690.957          38.000
E15  23964979.297 8 125936814.913 8      1588.047          51.000    23964983.008 8  96497078.974 8      1216.857          51.000
E27  23317481.438 8 122534187.622 8       445.539          49.000    23317484.617 8  93889848.526 8       341.366          50.000
E30  23928407.375 6 125744629.988 6     -1763.465          36.000
> 2020 05 02 11 03 30.0000000  0 13        .000000000000
G12  21319470.625 6 112034569.317 6     -2065.770          39.000    21319470.633 6  87299664.469 6     -1609.691          40.000
G24  23919852.992 6 125699605.717 6     -3607.570          41.000    23919858.992 6  97947749.621 6     -2811.097          41.000
G25  20175929.391 8 106025275.649 8      -323.820          51.000    20175931.438 8  82617069.511 8      -252.328          51.000
G29  20778761.578 8 109193125.650 8      1787.480          51.000    20778761.586 8  85085574.510 8      1392.842          51.000
G32  22848244.617 6 120068427.316 6     -2044.703          39.000    22848255.734 6  93559793.132 6     -1593.278          39.000
R16  19801780.477 8 105777568.677 8     -1369.227          48.000    19801783.547 7  82271426.290 7     -1064.954          46.000
R18  19960043.914 8 106548104.752 8     -1841.516          51.000    19960047.852 8  82870777.015 8     -1432.290          49.000
R19  19815571.016 6 105999969.494 6      2329.297          39.000    19815574.859 7  82444433.754 7      1811.675          45.000
C27  21924832.898 8 114168465.209 8      1520.863          48.000
C28  22701013.633 5 118210152.226 5     -1702.785          31.000
E15  23955945.969 8 125889344.841 8      1575.531          51.000    23955949.969 8  96460705.828 8      1207.249          51.000
E27  23314951.484 8 122520893.237 8       439.672          49.000    23314954.469 8  93879661.927 8       336.909          50.000
E30  23938487.195 6 125797600.253 6     -1768.258          39.000
> 2020 05 02 11 04  0.0000000  0 14        .000000000000
G06  24337242.461 5 127893071.952 5     -2323.914          32.000
G12  21331282.414 6 112096640.542 6     -2071.074          38.000    21331283.109 6  87348031.617 6     -1613.824          38.000
G24  23940455.633 6 125807874.219 6     -3608.941          40.000    23940460.945 6  98032114.586 6     -2812.165          41.000
G25  20177806.492 8 106035139.669 8      -332.676          51.000    20177808.586 8  82624755.756 8      -259.228          51.000
G29  20768597.648 8 109139714.168 8      1774.418          51.000    20768597.664 8  85043955.185 8      1382.663          51.000
G32  22859950.930 6 120129948.911 6     -2056.000          41.000    22859963.188 6  93607732.044 6     -1602.078          40.000
R16  19809510.969 8 105818864.236 8     -1382.781          48.000    19809513.922 7  82303545.056 7     -1075.497          45.000
R18  19970455.641 8 106603683.542 8     -1862.625          51.000    19970459.617 8  82914004.963 8     -1448.708          49.000
R19  19802569.969 6 105930424.478 6      2308.074          40.000    19802573.812 7  82390343.210 7      1795.169          46.000
C27  21916108.594 8 114123038.277 8      1508.680          48.000
C28  22710858.297 5 118261418.215 5     -1713.684          34.000
E15  23946985.461 8 125842258.122 8      1564.734          51.000    23946989.672 8  96424626.423 8      1198.982          51.000
E27  23312456.000 8 122507779.860 8       435.715          48.000    23312458.922 8  93869614.014 8       333.865          50.000
E30  23948594.523 6 125850716.088 6     -1771.172          38.000    23948606.703 5  96431084.498 5     -1357.626          31.000
> 2020 05 02 11 04 30.0000000  0 14        .000000000000
G02  23085814.438 5 121316797.900 5      -984.117          33.000
G12  21343138.055 6 112158941.905 6     -2080.582          41.000    21343138.031 6  87396578.073 6     -1621.230          41.000
G24  23961081.406 7 125916263.159 7     -3614.504          42.000    23961086.266 6  98116573.402 6     -2816.500          41.000
G25  20179747.914 8 106045341.900 8      -345.578          51.000    20179750.000 8  82632705.542 8      -269.282          51.000
G29  20758521.523 8 109086764.623 8      1757.430          51.000    20758521.367 8  85002695.792 8      1369.426          51.000
G32  22871735.727 7 120191876.456 7     -2070.910          43.000    22871746.719 7  93655987.230 7     -1613.696          43.000
R16  19817331.086 8 105860637.585 8     -1400.227          49.000    19817334.055 7  82336035.418 7     -1089.065          45.000
R18  19980999.297 8 106659967.179 8     -1887.656          51.000    19981003.359 8  82957781.139 8     -1468.177          49.000
R19  19789700.961 6 105861585.014 6      2283.082          40.000    19789704.914 7  82336801.433 7      1775.730          45.000
C27  21907468.492 8 114078045.242 8      1492.605          50.000
C28  22720777.477 6 118313062.583 6     -1727.453          36.000
E15  23938098.641 8 125795558.495 8      1550.352          51.000    23938103.000 8  96388843.619 8      1187.893          51.000
E27  23309995.578 8 122494850.797 8       428.082          49.000    23309998.422 8  93859707.331 8       327.987          50.000
E30  23958730.328 6 125903980.407 6     -1777.961          40.000    23958724.938 5  96471920.447 5     -1362.085          34.000
> 2020 05 02 11 05  0.0000000  0 13        .000000000000
G12  21355037.844 7 112221473.357 7     -2088.723          42.000    21355037.180 7  87445303.939 7     -1627.573          42.000
G24  23981730.508 7 126024771.390 7     -3619.473          43.000    23981734.914 7  98201125.156 7     -2820.371          43.000
G25  20181753.766 8 106055883.060 8      -357.664          51.000    20181755.922 8  82640919.439 8      -278.699          51.000
G29  20748533.539 8 109034278.735 8      1741.133          51.000    20748533.273 8  84961797.713 8      1356.727          51.000
G32  22883597.617 7 120254207.948 7     -2085.012          45.000    22883607.133 7  93704557.176 7     -1624.687          45.000
R16  19825240.703 8 105902889.398 8     -1416.977          48.000    19825243.484 7  82368897.907 7     -1102.093          44.000
R18  19991674.711 8 106716953.097 8     -1911.855          51.000    19991678.508 8  83002103.502 8     -1486.999          49.000
R19  19776964.867 6 105793453.766 6      2258.426          41.000    19776968.516 7  82283810.489 7      1756.553          45.000
C27  21898912.625 8 114033487.585 8      1477.246          51.000
C28  22730768.500 5 118365084.370 5     -1740.914          32.000
E15  23929285.695 8 125749247.748 8      1536.574          51.000    23929290.281 8  96353358.793 8      1177.369          51.000
E27  23307570.609 8 122482107.452 8       421.098          50.000    23307573.250 8  93849942.961 8       322.632          51.000
E30  23968894.891 6 125957393.860 6     -1783.473          41.000    23968890.844 6  96512847.612 6     -1366.494          37.000
> 2020 05 02 11 05 30.0000000  0 12        .000000000000
G12  21366986.672 6 112284263.657 6     -2096.180          38.000    21366985.531 6  87494231.391 6     -1633.390          39.000
G24  24002407.555 7 126133426.430 7     -3623.285          43.000    24002411.875 7  98285791.285 7     -2823.342          43.000
G25  20183829.625 8 106066792.334 8      -368.824          51.000    20183831.914 8  82649420.172 8      -287.395          51.000
G29  20738639.422 8 108982286.219 8      1725.766          51.000    20738639.219 8  84921284.091 8      1344.755          51.000
G32  22895541.688 7 120316969.961 7     -2098.449          46.000    22895550.078 7  93753462.584 7     -1635.155          46.000
R16  19833245.781 7 105945649.962 7     -1432.879          47.000    19833248.180 7  82402156.121 7     -1114.461          44.000
R18  20002486.555 8 106774667.884 8     -1935.051          51.000    20002490.461 8  83046992.800 8     -1505.039          50.000
R19  19764367.312 6 105726063.292 6      2234.828          41.000    19764370.711 7  82231395.709 7      1738.200          46.000
C27  21890446.141 8 113989394.994 8      1462.891          51.000
E15  23920552.508 8 125703356.177 8      1523.719          51.000    23920557.117 8  96318195.144 8      1167.525          51.000
E27  23305186.820 8 122469579.683 8       415.004          50.000    23305189.219 8  93840343.768 8       317.975          51.000
E30  23979092.781 6 126010985.861 6     -1788.512          39.000    23979092.367 6  96553911.564 6     -1370.337          39.000
> 2020 05 02 11 06  0.0000000  0 13        .000000000000
G12  21378973.016 6 112347252.303 6     -2103.527          36.000    21378971.547 6  87543313.449 6     -1639.115          37.000
G24  24023100.406 7 126242165.885 7     -3627.027          42.000    24023104.852 7  98370523.176 7     -2826.261          42.000
G25  20185964.078 8 106078009.481 8      -379.887          51.000    20185966.500 8  82658160.802 8      -296.016          51.000
G29  20728827.805 8 108930727.842 8      1710.512          51.000    20728827.672 8  84881108.764 8      1332.869          51.000
G32  22907556.078 7 120380099.602 7     -2111.129          46.000    22907563.500 7  93802654.449 7     -1645.036          46.000
R16  19841334.359 7 105988857.895 7     -1448.629          45.000    19841336.906 7  82435762.275 7     -1126.711          44.000
R18  20013423.023 8 106833047.285 8     -1957.906          51.000    20013426.750 8  83092398.989 8     -1522.816          50.000
R19  19751897.000 6 105659354.406 6      2211.508          41.000    19751900.180 7  82179511.052 7      1720.065          46.000
C27  21882057.367 8 113945708.510 8      1448.605          51.000
C28  22750968.789 5 118470264.315 5     -1766.227          31.000
E15  23911887.656 8 125657824.556 8      1510.816          51.000    23911892.625 8  96283307.298 8      1157.665          51.000
E27  23302832.750 8 122457207.901 8       408.980          50.000    23302834.969 8  93830864.108 8       313.357          51.000
E30  23989312.195 5 126064696.180 5     -1793.445          34.000    23989313.914 6  96595066.256 6     -1374.255          38.000
> 2020 05 02 11 06 30.0000000  0 13        .000000000000
G12  21391006.273 6 112410486.317 6     -2111.332          39.000    21391004.672 6  87592586.658 6     -1645.191          39.000
G24  24043818.188 7 126351037.008 7     -3630.570          42.000    24043822.812 7  98455357.723 7     -2829.019          42.000
G25  20188166.391 8 106089582.832 8      -391.219          51.000    20188168.984 8  82667178.994 8      -304.846          51.000
G29  20719108.180 8 108879652.364 8      1694.820          51.000    20719108.141 8  84841309.722 8      1320.639          51.000
G32  22919649.258 7 120443642.534 7     -2124.527          47.000    22919655.953 7  93852168.365 7     -1655.479          46.000
R16  19849515.789 7 106032562.547 7     -1464.902          46.000    19849518.648 7  82469754.779 7     -1139.368          44.000
R18  20024492.516 8 106892137.445 8     -1981.039          51.000    20024496.602 8  83138358.008 8     -1540.808          50.000
R19  19739563.516 6 105593378.683 6      2187.316          41.000    19739566.180 7  82128196.623 7      1701.246          45.000
C27  21873755.141 8 113902476.785 8      1434.012          51.000
C28  22761176.984 5 118523422.707 5     -1778.449          32.000
E15  23903300.617 8 125612702.197 8      1497.824          51.000    23903306.070 8  96248733.042 8      1147.675          51.000
E27  23300517.688 8 122445041.082 8       402.656          51.000    23300519.648 8  93821541.487 8       308.541          51.000
E30  23999563.805 5 126118558.305 5     -1798.113          33.000    23999566.539 6  96636348.782 6     -1377.856          40.000
> 2020 05 02 11 07  0.0000000  0 13        .000000000000
G12  21403085.641 6 112473962.183 6     -2120.340          39.000    21403085.281 6  87642048.428 6     -1652.207          38.000
G24  24064560.023 6 126460034.811 6     -3635.742          41.000    24064564.617 6  98540290.952 6     -2833.049          41.000
G25  20190435.984 8 106101509.371 8      -403.750          51.000    20190438.703 8  82676472.407 8      -314.610          51.000
G29  20709480.500 8 108829057.822 8      1678.152          51.000    20709480.453 8  84801885.400 8      1307.651          51.000
G32  22931819.805 7 120507593.108 7     -2138.711          46.000    22931825.812 7  93901999.948 7     -1666.528          46.000
R16  19857789.648 8 106076760.885 8     -1481.883          48.000    19857792.648 7  82504131.261 7     -1152.576          44.000
R18  20035694.070 8 106951931.766 8     -2005.184          51.000    20035698.094 8  83184864.709 8     -1559.584          50.000
R19  19727367.188 6 105528134.898 6      2162.164          41.000    19727369.008 7  82077451.479 7      1681.686          45.000
C27  21865539.289 8 113859697.566 8      1418.180          51.000
C28  22771455.375 4 118576965.516 4     -1791.027          28.000
E15  23894791.547 8 125567987.172 8      1483.418          51.000    23894797.242 8  96214470.892 8      1136.564          51.000
E27  23298241.227 8 122433076.934 8       395.098          50.000    23298242.852 8  93812374.158 8       302.728          51.000
E30  24009846.852 6 126172599.248 6     -1804.375          36.000    24009851.922 7  96677756.822 7     -1382.594          42.000
> 2020 05 02 11 07 30.0000000  0 13        .000000000000
G12  21415207.094 5 112537659.866 5     -2126.691          34.000    21415207.406 5  87691682.942 5     -1657.171          34.000
G24  24085321.758 6 126569136.873 6     -3638.488          41.000    24085325.742 7  98625305.432 7     -2835.189          42.000
G25  20192769.055 8 106113769.223 8      -414.363          51.000    20192771.688 8  82686025.546 8      -322.880          51.000
G29  20699940.734 8 108778924.468 8      1663.309          51.000    20699940.875 8  84762820.458 8      1296.085          51.000
G32  22944063.328 7 120571928.786 7     -2151.020          45.000    22944068.141 7  93952131.599 7     -1676.122          45.000
R16  19866152.477 8 106121433.124 8     -1497.062          49.000    19866155.422 7  82538876.306 7     -1164.385          43.000
R18  20047023.141 8 107012407.081 8     -2027.355          51.000    20047027.047 8  83231901.073 8     -1576.832          51.000
R19  19715304.711 6 105463605.695 6      2138.941          41.000    19715305.703 7  82027262.115 7      1663.621          45.000
C27  21857406.492 8 113817351.887 8      1404.109          51.000
C28  22781808.695 5 118630871.513 5     -1802.652          34.000
E15  23886356.711 8 125523660.619 8      1471.004          51.000    23886362.633 8  96180506.385 8      1127.196          51.000
E27  23295999.555 8 122421296.238 8       389.652          51.000    23296000.898 8  93803347.393 8       298.580          51.000
E30  24020158.523 6 126226784.291 6     -1808.668          37.000    24020164.375 6  96719275.264 6     -1385.656          39.000
> 2020 05 02 11 08  0.0000000  0 14        .000000000000
G02  23127450.836 6 121535535.846 6     -1098.418          39.000
G12  21427373.039 6 112601591.465 6     -2134.738          37.000    21427371.711 6  87741499.853 6     -1663.429          36.000
G24  24106105.523 7 126678355.100 7     -3642.387          42.000    24106108.945 7  98710410.416 7     -2838.226          42.000
G25  20195168.023 8 106126375.399 8      -425.871          51.000    20195170.469 8  82695848.548 8      -331.845          51.000
G29  20690491.422 8 108729266.574 8      1647.469          51.000    20690491.711 8  84724126.018 8      1283.742          51.000
G32  22956381.977 7 120636659.856 7     -2164.168          46.000    22956385.594 7  94002571.349 7     -1686.365          46.000
R16  19874606.445 8 106166592.288 8     -1513.309          49.000    19874609.211 7  82574000.055 7     -1177.021          43.000
R18  20058481.711 8 107073573.442 8     -2050.266          51.000    20058485.641 8  83279474.895 8     -1594.651          51.000
R19  19703378.477 6 105399806.552 6      2114.668          40.000    19703378.820 7  81977640.556 7      1644.742          45.000
C27  21849359.750 8 113775453.343 8      1389.238          50.000
C28  22792232.695 5 118685151.798 5     -1815.570          33.000
E15  23877998.195 8 125479736.544 8      1457.574          51.000    23878004.422 8  96146850.287 8      1116.810          51.000
E27  23293795.203 8 122409712.682 8       382.926          51.000    23293796.469 8  93794471.682 8       293.441          51.000
E30  24030499.750 6 126281126.666 6     -1813.645          37.000    24030503.992 6  96760914.312 6     -1389.915          37.000
> 2020 05 02 11 08 30.0000000  0 13        .000000000000
G02  23133768.047 6 121568740.732 6     -1114.574          40.000    23133739.484 5  94728795.265 5      -868.499          31.000
G24  24126911.805 7 126787692.761 7     -3646.312          42.000    24126915.094 6  98795608.438 6     -2841.289          41.000
G25  20197633.938 8 106139333.356 8      -437.477          51.000    20197636.297 8  82705945.670 8      -340.891          51.000
G29  20681133.664 8 108680090.191 8      1631.527          51.000    20681133.875 8  84685806.760 8      1271.323          51.000
G32  22968775.836 7 120701789.039 7     -2177.422          45.000    22968779.195 7  94053321.330 7     -1696.692          46.000
R16  19883152.750 8 106212244.461 8     -1529.535          49.000    19883155.242 7  82609507.263 7     -1189.638          43.000
R18  20070070.211 8 107135433.118 8     -2073.141          51.000    20070073.719 8  83327587.972 8     -1612.446          50.000
R19  19691589.867 6 105336744.631 6      2089.914          39.000    19691590.156 7  81928592.421 7      1625.489          45.000
C27  21841400.070 8 113734007.994 8      1374.270          51.000
C28  22802728.664 4 118739809.917 4     -1828.270          28.000
E15  23869717.367 8 125436221.361 8      1444.117          51.000    23869723.672 8  96113507.494 8      1106.492          51.000
E27  23291629.461 8 122398332.387 8       376.246          51.000    23291630.891 8  93785751.723 8       288.349          51.000
E30  24040872.227 6 126335631.876 6     -1819.398          40.000    24040877.273 6  96802678.009 6     -1393.926          38.000
> 2020 05 02 11 09  0.0000000  0 13        .000000000000
G02  23140176.930 6 121602423.382 6     -1130.805          39.000    23140149.156 5  94755041.142 5      -881.162          34.000
G12  21451837.445 5 112730165.953 5     -2150.402          31.000
G24  24147736.703 6 126897129.311 6     -3649.691          41.000    24147739.469 6  98880883.472 6     -2843.921          41.000
G25  20200163.133 8 106152624.224 8      -448.758          51.000    20200165.547 8  82716302.184 8      -349.681          51.000
G29  20671863.617 8 108631376.723 8      1615.980          50.000    20671863.945 8  84647848.235 8      1259.206          50.000
G32  22981240.977 7 120767294.819 7     -2189.988          45.000    22981244.195 7  94104364.767 7     -1706.487          45.000
R16  19891787.562 8 106258369.939 8     -1545.570          49.000    19891790.047 7  82645382.591 7     -1202.110          43.000
R18  20081784.211 8 107197963.493 8     -2095.684          50.000    20081787.906 8  83376222.715 8     -1629.976          50.000
R19  19679935.805 6 105274403.592 6      2065.906          40.000    19679936.156 7  81880104.955 7      1606.816          44.000
C27  21833524.508 8 113692997.909 8      1359.586          51.000
E15  23861511.125 8 125393097.262 8      1430.750          51.000    23861517.289 8  96080464.351 8      1096.322          51.000
E27  23289499.016 8 122387137.230 8       369.891          51.000    23289500.758 8  93777173.617 8       283.420          51.000
E30  24051272.570 6 126390281.145 6     -1824.227          41.000    24051279.430 5  96844552.020 5     -1397.536          35.000
> 2020 05 02 11 09 30.0000000  0 14        .000000000000
G02  23146679.867 6 121636599.123 6     -1146.512          39.000    23146658.328 4  94781671.337 4      -893.392          28.000
G12  21464135.531 5 112794789.537 5     -2157.387          34.000    21464136.352 5  87892037.762 5     -1681.078          34.000
G24  24168583.305 6 127006679.342 6     -3652.570          41.000    24168585.344 6  98966246.912 6     -2846.168          41.000
G25  20202758.805 8 106166264.915 8      -459.676          51.000    20202761.422 8  82726931.300 8      -358.189          51.000
G29  20662684.969 8 108583143.947 8      1600.602          51.000    20662685.602 8  84610264.290 8      1247.222          51.000
G32  22993780.672 7 120833191.349 7     -2202.059          47.000    22993783.461 7  94155712.685 7     -1715.890          47.000
R16  19900514.266 7 106304986.467 7     -1561.090          47.000    19900516.828 7  82681639.871 7     -1214.181          44.000
R18  20093626.469 8 107261178.614 8     -2117.688          51.000    20093630.383 8  83425390.030 8     -1647.093          50.000
R19  19668419.109 6 105212802.304 6      2042.152          38.000    19668420.148 7  81832192.872 7      1588.344          43.000
C27  21825736.461 8 113652440.492 8      1345.203          51.000
C28  22823935.969 5 118850210.489 5     -1851.867          34.000
E15  23853382.797 8 125350382.101 8      1417.770          51.000    23853388.859 8  96047734.553 8      1086.331          51.000
E27  23287407.055 8 122376144.755 8       363.801          51.000    23287409.266 8  93768750.812 8       278.759          51.000
E30  24061703.781 6 126445091.440 6     -1828.855          40.000
> 2020 05 02 11 10  0.0000000  0 15        .000000000000
G02  23153272.336 5 121671246.911 5     -1163.266          34.000    23153256.242 5  94808669.422 5      -906.444          31.000
G12  21476475.430 5 112859629.677 5     -2165.715          32.000    21476472.414 5  87942562.577 5     -1687.570          33.000
G24  24189447.359 6 127116320.887 6     -3657.023          40.000    24189449.023 6  99051681.730 6     -2849.632          40.000
G25  20205417.141 8 106180235.112 8      -472.016          51.000    20205419.984 8  82737817.162 8      -367.807          51.000
G29  20653594.297 8 108535372.588 8      1583.887          50.000    20653595.094 8  84573039.882 8      1234.197          50.000
G32  23006390.648 8 120899455.712 8     -2215.750          48.000    23006392.586 8  94207347.221 8     -1726.558          48.000
R16  19909329.133 8 106352073.194 8     -1578.203          48.000    19909331.617 7  82718262.881 7     -1227.488          44.000
R18  20105592.391 8 107325054.719 8     -2141.082          49.000    20105596.531 8  83475071.468 8     -1665.283          50.000
R19  19657037.602 6 105151922.380 6      2016.207          39.000    19657039.016 7  81784841.845 7      1568.161          43.000
C27  21818031.570 8 113612316.239 8      1329.418          51.000
C28  22834641.242 6 118905949.341 6     -1864.797          39.000
C30  25091745.656 5 130659307.002 5      3299.672          34.000
E15  23845328.664 8 125308056.483 8      1403.543          51.000    23845334.562 8  96015303.254 8      1075.502          51.000
E27  23285349.891 8 122365335.322 8       356.559          51.000    23285352.508 8  93760468.263 8       273.234          51.000
E30  24072161.508 6 126500042.532 6     -1834.625          39.000
> 2020 05 02 11 10 30.0000000  0 15        .000000000000
G02  23159958.492 5 121706389.045 5     -1179.172          34.000
G12  21488858.680 5 112924707.461 5     -2172.426          33.000    21488855.867 5  87993272.469 5     -1692.796          34.000
G24  24210332.867 6 127226075.572 6     -3659.848          38.000    24210334.898 6  99137204.745 6     -2851.832          38.000
G25  20208142.656 8 106194558.129 8      -482.996          51.000    20208145.539 8  82748977.948 8      -376.361          51.000
G29  20644595.336 8 108488086.167 8      1568.355          48.000    20644596.281 8  84536193.377 8      1222.095          48.000
G32  23019074.609 7 120966108.388 7     -2227.996          46.000    23019075.922 7  94259284.332 7     -1736.101          46.000
R16  19918236.305 7 106399653.840 7     -1593.992          47.000    19918239.055 7  82755270.048 7     -1239.772          45.000
R18  20117686.219 8 107389611.764 8     -2162.895          50.000    20117690.320 8  83525282.495 8     -1682.251          50.000
R19  19645795.805 6 105091789.453 6      1992.340          38.000    19645797.953 7  81738071.819 7      1549.601          43.000
C27  21810414.422 8 113572648.898 8      1314.898          51.000
C28  22845415.289 6 118962060.085 6     -1876.070          39.000
C30  25072748.828 5 130560380.651 5      3295.383          33.000
E15  23837353.406 8 125266144.675 8      1390.398          51.000    23837358.789 8  95983189.044 8      1065.394          51.000
E27  23283332.109 8 122354732.987 8       350.301          51.000    23283335.047 8  93752344.398 8       268.385          51.000
E30  24082648.984 5 126555157.968 5     -1839.902          34.000    24082651.688 5  96970857.073 5     -1409.586          32.000
> 2020 05 02 11 11  0.0000000  0 14        .000000000000
G02  23166740.805 5 121742034.094 5     -1195.699          35.000
G24  24231241.289 6 127335951.235 6     -3663.863          36.000    24231244.914 6  99222822.022 6     -2854.961          36.000
G25  20210937.172 8 106209243.752 8      -495.070          51.000    20210940.117 8  82760421.285 8      -385.769          51.000
G29  20635690.969 8 108441295.313 8      1551.914          49.000    20635691.445 8  84499732.973 8      1209.284          49.000
G32  23031833.398 7 121033156.477 7     -2241.027          46.000    23031834.992 7  94311529.538 7     -1746.255          46.000
R16  19927237.734 8 106447738.300 8     -1610.660          48.000    19927240.672 7  82792669.058 7     -1252.736          46.000
R18  20129908.828 8 107454856.755 8     -2185.879          48.000    20129912.719 8  83576028.599 8     -1700.128          50.000
R19  19634696.008 6 105032415.754 6      1966.930          38.000    19634698.625 7  81691892.293 7      1529.837          43.000
C27  21802887.047 8 113533448.812 8      1299.395          51.000
C28  22856261.727 6 119018550.632 6     -1888.535          39.000
C30  25053782.203 4 130461614.034 4      3290.402          28.000
E15  23829459.148 8 125224657.435 8      1376.336          51.000    23829463.711 8  95951400.153 8      1054.532          51.000
E27  23281355.688 8 122344348.193 8       343.047          51.000    23281358.977 8  93744387.217 8       262.860          51.000
E30  24093168.844 6 126610447.528 6     -1845.613          38.000    24093175.164 5  97013221.712 5     -1414.171          34.000
> 2020 05 02 11 11 30.0000000  0 13        .000000000000
G12  21513764.227 6 113055588.633 6     -2187.414          37.000    21513762.328 6  88095255.684 6     -1704.478          38.000
G24  24252168.383 6 127445923.278 6     -3665.961          37.000    24252173.203 6  99308514.396 6     -2856.596          37.000
G25  20213796.352 8 106224269.053 8      -505.406          51.000    20213799.328 8  82772129.301 8      -393.823          51.000
G29  20626876.969 8 108394977.608 8      1537.246          50.000    20626877.352 8  84463641.255 8      1197.857          50.000
G32  23044662.570 7 121100574.285 7     -2252.398          47.000    23044664.633 7  94364062.850 7     -1755.116          47.000
R16  19936329.398 7 106496303.691 7     -1625.645          47.000    19936332.320 7  82830442.132 7     -1264.390          46.000
R18  20142255.391 8 107520762.833 8     -2206.637          48.000    20142258.992 8  83627288.884 8     -1716.273          50.000
R19  19623734.789 6 104973779.770 6      1943.461          38.000    19623737.125 7  81646286.555 7      1511.581          43.000
C27  21795444.773 8 113494693.925 8      1285.598          51.000
C28  22867178.609 7 119075396.721 7     -1899.613          42.000
E15  23821641.336 8 125183572.798 8      1363.965          51.000    23821645.250 8  95919919.739 8      1045.116          51.000
E27  23279416.523 8 122334158.790 8       337.551          51.000    23279420.086 8  93736579.750 8       258.622          51.000
E30  24103719.359 6 126665888.293 6     -1849.371          40.000    24103720.391 5  97055702.397 5     -1416.949          35.000
> 2020 05 02 11 12  0.0000000  0 14        .000000000000
G02  23180575.484 6 121814689.145 6     -1226.758          38.000
G24  24273112.148 6 127555979.234 6     -3669.004          37.000    24273117.289 6  99394272.172 6     -2858.967          38.000
G25  20216718.305 8 106239623.938 8      -516.535          51.000    20216721.078 8  82784094.137 8      -402.495          51.000
G29  20618151.312 8 108349122.979 8      1521.617          51.000    20618152.055 8  84427910.421 8      1185.679          51.000
G32  23057559.688 8 121168348.954 8     -2264.270          48.000    23057562.047 8  94416874.251 8     -1764.366          48.000
R16  19945508.805 7 106545339.514 7     -1641.562          46.000    19945512.117 7  82868581.091 7     -1276.771          45.000
R18  20154723.133 7 107587316.445 7     -2228.496          46.000    20154726.914 8  83679052.813 8     -1733.275          49.000
R19  19612909.953 6 104915873.231 6      1918.793          38.000    19612911.820 7  81601248.178 7      1492.398          43.000
C27  21788085.453 8 113456374.784 8      1270.855          51.000
C28  22878161.008 7 119132586.518 7     -1911.270          43.000
C30  25015934.219 5 130264530.903 5      3282.133          30.000
E15  23813898.133 8 125142881.534 8      1350.551          51.000    23813902.172 8  95888740.771 8      1034.877          51.000
E27  23277512.898 8 122324155.304 8       331.191          51.000    23277516.617 8  93728914.741 8       253.722          51.000
E30  24114296.305 5 126721470.470 5     -1854.188          35.000    24114295.555 5  97098291.316 5     -1420.843          35.000
> 2020 05 02 11 12 30.0000000  0 13        .000000000000
G24  24294074.930 6 127666135.126 6     -3674.293          36.000    24294079.953 6  99480107.760 6     -2863.092          36.000
G25  20219706.266 8 106255325.468 8      -529.422          51.000    20219708.914 8  82796329.092 8      -412.540          51.000
G29  20609517.609 8 108303749.594 8      1504.141          51.000    20609517.992 8  84392554.555 8      1172.061          51.000
G32  23070527.586 8 121236494.830 8     -2278.078          48.000    23070529.781 8  94469974.906 8     -1775.126          48.000
R16  19954779.633 7 106594863.026 7     -1659.176          45.000    19954782.938 7  82907099.382 7     -1290.470          44.000
R18  20167314.609 7 107654531.671 7     -2251.773          45.000    20167318.625 8  83731331.328 8     -1751.379          49.000
R19  19602224.562 6 104858715.427 6      1892.633          38.000    19602226.523 7  81556792.139 7      1472.051          44.000
C27  21780813.062 8 113418508.909 8      1254.395          51.000
C28  22889211.555 6 119190134.993 6     -1924.539          39.000
C30  24997046.258 5 130166183.944 5      3275.586          31.000
E15  23806233.141 8 125102601.675 8      1335.488          51.000    23806237.531 8  95857877.024 8      1023.296          51.000
E27  23275648.141 8 122314355.540 8       322.973          51.000    23275651.984 8  93721405.827 8       247.476          51.000
E30  24124903.492 6 126777211.211 6     -1860.859          39.000    24124901.555 5  97141001.744 5     -1426.512          34.000
> 2020 05 02 11 13  0.0000000  0 14        .000000000000
G12  21551453.344 5 113253587.321 5     -2210.676          33.000    21551427.555 5  88249500.022 5     -1722.608          33.000
G24  24315052.109 6 127776367.203 6     -3676.555          36.000    24315056.914 5  99566002.725 5     -2864.851          35.000
G25  20222756.117 8 106271351.946 8      -540.637          51.000    20222758.523 8  82808817.260 8      -421.275          51.000
G29  20600971.258 8 108258836.179 8      1488.473          51.000    20600971.328 8  84357557.096 8      1159.849          51.000
G32  23083561.383 8 121304987.443 8     -2289.891          49.000    23083563.617 8  94523345.713 8     -1784.333          49.000
R16  19964137.461 7 106644852.212 7     -1675.051          46.000    19964140.664 7  82945979.854 7     -1302.817          43.000
R18  20180025.328 7 107722382.656 7     -2273.234          44.000    20180029.617 8  83784104.379 8     -1768.068          48.000
R19  19591675.734 6 104802286.119 6      1867.879          39.000    19591677.664 7  81512902.689 7      1452.795          45.000
C27  21773623.828 8 113381075.382 8      1239.668          51.000
C28  22900327.336 6 119248019.014 6     -1935.988          41.000
C30  24978185.125 5 130067963.965 5      3270.711          33.000
E15  23798642.445 8 125062712.373 8      1322.191          51.000    23798647.055 8  95827312.518 8      1013.117          51.000
E27  23273818.148 8 122304738.476 8       316.594          51.000    23273821.961 8  93714036.914 8       242.564          51.000
E30  24135536.758 5 126833088.791 5     -1865.633          34.000    24135535.789 5  97183796.959 5     -1429.340          30.000
> 2020 05 02 11 13 30.0000000  0 14        .000000000000
G12  21564101.258 5 113320089.520 5     -2218.020          34.000    21564072.898 5  88301315.952 5     -1728.321          35.000
G24  24336050.914 5 127886715.371 5     -3679.230          35.000    24336055.938 5  99651988.167 5     -2866.939          35.000
G25  20225875.852 8 106287745.781 8      -552.121          51.000    20225877.875 8  82821591.681 8      -430.224          51.000
G29  20592520.188 8 108214426.077 8      1472.441          50.000    20592520.688 8  84322951.844 8      1147.357          50.000
G32  23096668.641 8 121373866.356 8     -2301.805          49.000    23096671.016 8  94577017.531 8     -1793.617          49.000
R16  19973590.773 7 106695350.413 7     -1691.273          47.000    19973594.109 7  82985256.209 7     -1315.438          43.000
R18  20192862.727 7 107790909.511 7     -2295.086          45.000    20192866.734 7  83837403.011 7     -1785.070          47.000
R19  19581271.922 6 104746630.551 6      1842.934          40.000    19581273.758 7  81469615.017 7      1433.393          45.000
C27  21766525.797 8 113344116.753 8      1224.551          51.000
C28  22911515.680 7 119306278.878 7     -1947.715          42.000
C30  24959356.625 5 129969916.561 5      3265.938          34.000
E15  23791134.227 8 125023256.946 8      1308.430          51.000    23791139.195 8  95797080.459 8      1002.650          51.000
E27  23272031.219 8 122295347.274 8       309.844          51.000    23272034.773 8  93706841.057 8       237.425          51.000
E30  24146204.414 6 126889156.963 6     -1870.824          39.000    24146210.469 4  97226783.668 4     -1433.255          29.000
> 2020 05 02 11 14  0.0000000  0 15        .000000000000
G02  23209316.719 5 121965780.028 5     -1290.562          30.000
G12  21576769.164 5 113386681.034 5     -2225.445          35.000    21576758.258 5  88353233.360 5     -1734.110          35.000
G24  24357065.375 5 127997146.552 5     -3681.938          35.000    24357070.211 5  99738038.257 5     -2869.048          35.000
G25  20229059.320 8 106304475.068 8      -562.707          51.000    20229061.203 8  82834627.493 8      -438.473          51.000
G29  20584158.852 8 108170487.324 8      1457.258          51.000    20584159.812 8  84288713.833 8      1135.523          51.000
G32  23109842.539 8 121443096.929 8     -2313.109          48.000    23109845.383 8  94630963.394 8     -1802.426          48.000
R16  19983133.344 8 106746325.025 8     -1706.621          48.000    19983136.734 7  83024903.070 7     -1327.372          43.000
R18  20205819.844 7 107860076.194 7     -2315.727          44.000    20205823.906 7  83891199.373 7     -1801.121          46.000
R19  19571007.203 6 104691718.004 6      1818.594          40.000    19571008.656 7  81426905.240 7      1414.459          46.000
C27  21759513.453 8 113307601.997 8      1210.176          51.000
C28  22922769.562 7 119364881.134 7     -1958.691          42.000
C30  24940554.594 5 129872011.769 5      3261.297          33.000
E15  23783702.547 8 124984204.373 8      1295.387          50.000    23783707.812 8  95767157.073 8       992.560          51.000
E27  23270281.312 8 122286150.746 8       303.668          51.000    23270284.594 8  93699794.369 8       232.684          51.000
E30  24156900.953 5 126945361.615 5     -1875.535          35.000
> 2020 05 02 11 14 30.0000000  0 13        .000000000000
G02  23216758.555 6 122004863.010 6     -1307.844          36.000
G24  24378097.273 6 128107668.785 6     -3686.301          37.000    24378101.391 6  99824159.300 6     -2872.445          36.000
G25  20232308.492 8 106321550.102 8      -575.406          51.000    20232310.398 8  82847932.709 8      -448.372          51.000
G29  20575889.570 8 108127031.044 8      1440.039          51.000    20575890.578 8  84254851.793 8      1122.108          51.000
G32  23123084.359 7 121512686.470 7     -2326.102          47.000    23123088.117 7  94685188.998 7     -1812.550          47.000
R16  19992767.148 7 106797786.436 7     -1724.141          47.000    19992770.500 7  83064928.584 7     -1340.998          43.000
R18  20218898.438 7 107929889.474 7     -2338.426          44.000    20218902.500 7  83945498.583 7     -1818.776          45.000
R19  19560883.523 6 104637560.559 6      1791.988          40.000    19560884.594 7  81384782.823 7      1393.772          45.000
C27  21752588.828 8 113271541.865 8      1193.898          51.000
C28  22934090.938 6 119423834.197 6     -1971.418          40.000
C30  24921780.898 5 129774261.393 5      3255.352          35.000
E15  23776349.477 8 124945565.809 8      1280.531          50.000    23776354.891 8  95737550.898 8       981.126          51.000
E27  23268570.484 8 122277159.847 8       295.645          51.000    23268573.578 8  93692905.247 8       226.488          51.000
> 2020 05 02 11 15  0.0000000  0 14        .000000000000
G12  21602261.234 5 113520648.198 5     -2240.684          32.000
G24  24399146.234 6 128218276.758 6     -3688.762          37.000    24399147.969 6  99910347.107 6     -2874.369          38.000
G25  20235622.734 8 106338967.155 8      -586.367          51.000    20235624.734 8  82861504.432 8      -456.909          51.000
G29  20567711.289 8 108084053.796 8      1424.449          51.000    20567712.211 8  84221363.076 8      1109.963          51.000
G32  23136393.422 7 121582628.772 7     -2337.266          47.000    23136397.562 7  94739689.476 7     -1821.246          46.000
R16  20002491.344 7 106849730.393 7     -1739.543          47.000    20002494.531 7  83105329.414 7     -1352.981          44.000
R18  20232096.617 7 108000342.311 7     -2359.141          44.000    20232100.422 7  84000295.276 7     -1834.884          43.000
R19  19550900.578 6 104584156.715 6      1767.273          40.000    19550900.906 7  81343246.508 7      1374.543          43.000
C27  21745750.891 8 113235933.156 8      1179.395          51.000
C28  22945478.867 6 119483132.567 6     -1982.543          40.000
C30  24903036.180 5 129676663.389 5      3250.426          35.000
E15  23769074.617 8 124907338.382 8      1267.391          49.000    23769080.375 8  95708259.719 8       971.091          51.000
E27  23266898.195 8 122268371.575 8       289.535          51.000    23266901.188 8  93686171.382 8       221.828          51.000
E30                                                                  24178387.898 5  97356345.881 5     -1445.796          35.000
> 2020 05 02 11 15 30.0000000  0 13        .000000000000
G24  24420211.133 6 128328968.779 6     -3691.598          38.000    24420211.680 6  99996600.416 6     -2876.576          38.000
G25  20239002.172 8 106356726.396 8      -597.648          51.000    20239004.273 8  82875342.790 8      -465.700          51.000
G29  20559624.445 8 108041556.515 8      1408.520          51.000    20559624.789 8  84188248.345 8      1097.548          51.000
G32  23149769.469 7 121652921.112 7     -2348.863          47.000    23149773.477 7  94794462.681 7     -1830.286          47.000
R16  20012305.836 7 106902157.377 7     -1755.652          47.000    20012309.016 7  83146105.932 7     -1365.510          44.000
R18  20245414.305 7 108071431.647 7     -2380.242          45.000    20245417.523 7  84055586.968 7     -1851.299          42.000
R19  19541058.555 6 104531507.729 6      1742.297          40.000    19541058.602 7  81302297.334 7      1355.123          44.000
C27  21738999.844 8 113200776.570 8      1164.301          51.000
C28  22956932.609 7 119542774.720 7     -1993.809          42.000
C30  24884321.086 5 129579219.511 5      3245.648          35.000
E15  23761878.484 8 124869523.065 8      1253.609          51.000    23761884.359 8  95679284.354 8       960.525          51.000
E27  23265264.602 8 122259786.839 8       282.652          51.000    23265267.555 8  93679593.469 8       216.590          51.000
E30                                                                  24189170.430 5  97399769.571 5     -1449.481          35.000
> 2020 05 02 11 16  0.0000000  0 14        .000000000000
G12  21627925.695 5 113655500.344 5     -2254.367          35.000    21627922.945 5  88562722.930 5     -1756.647          35.000
G24  24441289.305 6 128439731.776 6     -3693.121          38.000    24441289.938 6 100082909.075 6     -2877.763          38.000
G25  20242444.750 8 106374816.800 8      -608.141          51.000    20242446.695 8  82889439.206 8      -473.876          51.000
G29  20551626.641 8 107999528.393 8      1393.520          51.000    20551626.703 8  84155499.222 8      1085.862          51.000
G32  23163209.625 7 121723549.635 7     -2359.598          47.000    23163213.703 7  94849497.844 7     -1838.648          47.000
R16  20022208.570 7 106955055.900 7     -1770.832          47.000    20022211.719 7  83187249.205 7     -1377.314          45.000
R18  20258848.133 7 108143142.222 7     -2400.445          44.000    20258852.242 6  84111361.916 6     -1867.013          41.000
R19  19531355.594 6 104479604.387 6      1717.938          40.000    19531356.188 7  81261928.126 7      1336.174          45.000
C27  21732333.539 8 113166061.755 8      1150.145          51.000
C28  22968450.008 6 119602747.898 6     -2004.398          41.000
C30  24865634.945 5 129481920.544 5      3241.902          34.000
E15  23754759.141 8 124832109.711 8      1240.750          51.000    23754764.734 8  95650616.993 8       950.705          51.000
E27  23263667.805 8 122251395.381 8       276.863          51.000    23263670.562 8  93673163.645 8       212.172          51.000
E30                                                                  24199980.273 6  97443303.475 6     -1452.764          36.000
> 2020 05 02 11 16 30.0000000  0 15        .000000000000
G02  23247316.930 5 122165474.779 5     -1369.090          33.000
G24  24462387.625 6 128550603.025 6     -3695.410          39.000    24462389.227 6 100169302.056 6     -2879.550          37.000
G25  20245957.711 8 106393276.980 8      -619.488          51.000    20245959.453 8  82903823.756 8      -482.718          51.000
G29  20543725.508 8 107958008.494 8      1377.625          51.000    20543725.641 8  84123146.089 8      1073.474          51.000
G32  23176720.500 7 121794550.066 7     -2370.840          46.000    23176725.055 7  94904822.805 7     -1847.408          46.000
R16  20032206.984 7 107008465.130 7     -1786.812          47.000    20032210.156 7  83228789.674 7     -1389.746          44.000
R18  20272405.305 7 108215510.190 7     -2421.047          46.000    20272408.414 6  84167648.093 6     -1883.039          37.000
R19  19521799.273 6 104428487.469 6      1693.062          38.000    19521800.672 7  81222170.564 7      1316.826          45.000
C27  21725759.273 8 113131827.368 8      1135.172          51.000
C28  22980038.148 7 119663088.569 7     -2015.484          42.000
C30  24846985.688 5 129384806.374 5      3235.684          31.000
E13  26371779.523 6 138584637.406 6      3154.254          40.000    26371784.977 6 106188250.869 6      2416.788          40.000
E15  23747724.102 8 124795137.730 8      1227.051          51.000    23747728.961 8  95622287.836 8       940.214          51.000
E27  23262115.242 8 122243236.525 8       270.051          51.000    23262117.672 8  93666912.060 8       206.925          51.000
E30                                                                  24210826.250 5  97486977.162 5     -1456.568          35.000
> 2020 05 02 11 17  0.0000000  0 16        .000000000000
G02  23255202.750 5 122206892.828 5     -1383.816          33.000    23255205.633 4  95226178.630 4     -1078.298          25.000
G12  21653762.617 6 113791300.712 6     -2268.438          36.000
G24  24483494.828 6 128661521.996 6     -3697.391          39.000    24483497.336 6 100255732.227 6     -2881.090          39.000
G25  20249529.945 8 106412048.564 8      -629.969          51.000    20249531.578 8  82918450.971 8      -490.885          51.000
G29  20535910.250 8 107916938.932 8      1362.406          51.000    20535910.203 8  84091143.819 8      1061.615          51.000
G32  23190290.531 7 121865861.230 7     -2381.234          46.000    23190295.781 7  94960389.912 7     -1855.507          46.000
R16  20042290.000 7 107062325.699 7     -1801.988          47.000    20042292.922 7  83270681.204 7     -1401.546          43.000
R18  20286073.812 7 108288472.640 7     -2440.938          44.000    20286077.219 6  84224396.636 6     -1898.504          36.000
R19  19512378.992 6 104378099.571 6      1668.488          38.000    19512381.336 7  81182979.975 7      1297.713          46.000
C27  21719266.156 8 113098016.067 8      1120.824          51.000
C28  22991685.258 6 119723737.158 6     -2025.727          40.000
C30  24828363.023 4 129287820.542 4      3231.445          28.000
E13  26353786.172 6 138490085.526 6      3151.004          40.000    26353791.617 6 106115802.077 6      2414.450          38.000
