     3.02           OBSERVATION DATA    M (MIXED)           RINEX VERSION / TYPE
SAVERINEX           SC600               20200501 215931 LCL PGM / RUN BY / DATE
       G = GPS       R = GLONASS       C = COMPASS          COMMENT
       S = SBAS      J = QZSS          E = GALILEO          COMMENT
BEAN                                                        MARKER NAME
1                                                           MARKER NUMBER
GEODETIC                                                    MARKER TYPE
Unige DICCA         GTER                                    OBSERVER / AGENCY
SC60291900056       SC600               2.12(191226)        REC # / TYPE / VERS
                    HEMA45          NONE                    ANT # / TYPE
  4509407.8091   693652.4678  4442337.6214                  APPROX POSITION XYZ
        0.0000        0.0000        0.0000                  ANTENNA: DELTA H/E/N
G    8 C1C L1C D1C S1C C2Y L2Y D2Y S2Y                      SYS / # / OBS TYPES
R    8 C1C L1C D1C S1C C2P L2P D2P S2P                      SYS / # / OBS TYPES
C    8 C1I L1I D1I S1I C7I L7I D7I S7I                      SYS / # / OBS TYPES
E    8 C1C L1C D1C S1C C7Q L7Q D7Q S7Q                      SYS / # / OBS TYPES
DBHZ                                                        COMMENT
     30.000                                                 INTERVAL
  2020    05    01    19    00    0.0000000     GPS         TIME OF FIRST OBS
  2020    05    01    19    59   30.0000000     GPS         TIME OF LAST OBS
     0                                                      RCV CLOCK OFFS APPL
G L1C  0.00000                                              SYS / PHASE SHIFT
G L2Y  0.00000                                              SYS / PHASE SHIFT
R L1C  0.00000                                              SYS / PHASE SHIFT
R L2P  0.25000                                              SYS / PHASE SHIFT
C L1I  0.00000                                              SYS / PHASE SHIFT
C L7I  0.00000                                              SYS / PHASE SHIFT
E L1C  0.50000                                              SYS / PHASE SHIFT
E L7Q -0.25000                                              SYS / PHASE SHIFT
 14 R04  6 R05  1 R06 -4 R07  5 R08  6 R09 -2 R10 -5 R11  0 GLONASS SLOT / FRQ #
    R16 -1 R18 -3 R19  3 R20  2 R21  4 R22 -3               GLONASS SLOT / FRQ #
 C1C   71.950 C2C   71.950 C2P   71.950                     GLONASS COD/PHS/BIS
    18                                                      LEAP SECONDS
*** Above antenna height is from mark to ANTENNA BOTTOM.    COMMENT
    17     4        0.0000        ANT MEASURE TYPE/HEIGT    COMMENT
    0.0000    0.0000    0.0458    0.0405    0.0000          COMMENT
                    BASE STATION                            COMMENT
                                                            END OF HEADER
> 2020 05 01 19 00  0.0000000  0 16        .000000000000
G08  20557507.305 8 108030432.523 8     -1180.633          51.000    20557509.031 8  84179560.801 8      -919.974          51.000
G11  20076812.336 6 105504365.463 6      1094.098          41.000    20076810.461 5  82211188.871 5       852.544          34.000
G14  22727159.000 7 119432061.072 7      2120.301          43.000    22727160.375 7  93063962.713 7      1652.185          42.000
G22  21909595.711 8 115135743.921 8      2378.426          49.000    21909593.031 7  89716150.378 7      1853.319          47.000
G27  22250226.750 8 116925704.913 8     -3028.207          51.000    22250227.883 8  91110929.056 8     -2359.642          51.000
G32  22124631.266 5 116265722.256 5       863.594          31.000
R06  19506242.828 7 104089112.205 7      -730.449          47.000
R07  20562664.086 8 110073578.708 8      3247.148          51.000    20562666.297 7  85612802.556 7      2525.563          45.000
R21  19839415.273 8 106164696.498 8     -1176.008          51.000    19839417.531 8  82572558.495 8      -914.676          49.000
C05                                                                  39639748.195 6 159612845.412 6       -21.153          37.000
C21  23936438.242 8 124643334.868 8      2966.793          50.000
C22  22013426.953 8 114629769.302 8       309.664          51.000
E04  24442309.773 8 128445269.681 8      1012.668          50.000    24442311.117 8  98419095.884 8       775.869          51.000
E09  24446713.984 7 128468374.686 7      3037.129          46.000    24446714.273 6  98436822.617 6      2327.160          38.000
E11  22607077.969 8 118800987.260 8      -153.062          50.000    22607076.539 8  91029337.350 8      -117.282          49.000
E25  27631577.953 7 145204884.123 7     -2778.461          44.000    27631579.070 6 111260892.600 6     -2128.720          41.000
> 2020 05 01 19 00 30.0000000  0 19        .000000000000
G03  23840473.305 5 125282533.571 5      3489.824          31.000    23840489.320 5  97622817.724 5      2719.344          30.000
G08  20564276.812 8 108066006.293 8     -1194.551          51.000    20564278.094 8  84207280.622 8      -930.819          51.000
G10  23075580.117 5 121262986.701 5     -2975.590          32.000    23075567.836 4  94490636.922 4     -2318.635          26.000
G11  20070586.523 6 105471651.256 6      1083.125          39.000    20070584.961 6  82185697.281 6       843.990          36.000
G14  22715071.758 7 119368541.916 7      2110.367          43.000    22715073.281 7  93014467.299 7      1644.445          43.000
G22  21896030.945 8 115064462.208 8      2369.977          50.000    21896028.180 7  89660606.218 7      1846.738          47.000
G27  22267524.758 8 117016605.360 8     -3035.426          51.000    22267524.844 8  91181760.537 8     -2365.270          51.000
G32  22119738.664 6 116240003.984 6       847.934          36.000    22119760.344 5  90576697.963 5       660.731          34.000
R06  19510403.148 7 104111312.575 7      -753.148          47.000
R07  20544498.414 8 109976333.799 8      3232.219          51.000    20544500.148 7  85537167.667 7      2513.951          44.000
R21  19846033.234 8 106200111.412 8     -1188.629          50.000    19846035.539 8  82600103.436 8      -924.489          48.000
C05  39639888.094 5 206415299.459 5       -24.184          35.000    39639885.719 6 159613399.284 6       -18.764          38.000
C19  24030745.977 4 125134391.692 4     -2557.316          29.000
C21  23919350.938 8 124554354.670 8      2961.703          51.000
C22  22011669.812 8 114620619.570 8       296.676          51.000
E04  24436548.430 8 128414992.255 8      1002.164          51.000    24436549.539 8  98395896.330 8       767.811          51.000
E09  24429368.078 7 128377221.033 7      3036.207          45.000    24429366.438 6  98366977.707 6      2326.414          38.000
E11  22607950.172 8 118805570.834 8      -156.387          50.000    22607948.469 8  91032849.429 8      -119.865          49.000
E25  27647427.742 7 145288170.177 7     -2777.828          44.000    27647428.109 6 111324709.075 6     -2128.382          40.000
> 2020 05 01 19 01  0.0000000  0 18        .000000000000
G03  23820571.336 5 125177952.063 5      3484.293          35.000    23820590.883 5  97541323.516 5      2715.037          30.000
G08  20571149.594 8 108102122.507 8     -1211.230          51.000    20571151.133 8  84235423.121 8      -943.816          51.000
G10  23092586.703 5 121352362.260 5     -2981.219          33.000    23092581.375 5  94560278.686 5     -2323.028          34.000
G11  20064450.930 6 105439410.633 6      1068.465          40.000    20064449.453 6  82160574.739 6       832.570          37.000
G14  22703063.094 7 119305436.579 7      2098.320          42.000    22703065.211 7  92965294.339 7      1635.055          42.000
G22  21882538.477 8 114993559.301 8      2358.773          51.000    21882535.586 7  89605357.258 7      1838.005          47.000
G27  22284887.742 8 117107847.091 8     -3045.340          51.000    22284887.555 8  91252857.940 8     -2372.992          51.000
G32  22114955.906 5 116214877.771 5       830.324          30.000    22114981.289 5  90557114.287 5       647.036          31.000
R06  19514715.219 7 104134322.590 7      -778.777          47.000
R07  20526440.133 8 109879665.287 8      3214.285          51.000    20526440.859 7  85461981.107 7      2500.003          42.000
R21  19852746.031 8 106236032.863 8     -1204.035          50.000    19852748.250 8  82628042.354 8      -936.469          48.000
C05  39640031.789 5 206416047.421 5       -23.965          35.000    39640029.562 6 159613978.432 6       -18.232          38.000
C21  23902316.312 8 124465650.763 8      2953.871          49.000
C22  22010011.016 8 114611982.329 8       281.031          51.000
E04  24430870.969 8 128385155.187 8       988.930          51.000    24430871.648 8  98373034.150 8       757.790          51.000
E09  24412052.195 7 128286224.718 7      3032.320          44.000    24412048.992 6  98297253.366 6      2323.445          38.000
E11  22608866.078 8 118810384.285 8      -162.406          50.000    22608864.289 8  91036537.647 8      -124.441          49.000
E25  27663297.430 7 145371561.667 7     -2779.668          43.000    27663297.055 6 111388606.350 6     -2129.947          40.000
> 2020 05 01 19 01 30.0000000  0 18        .000000000000
G03  23800707.016 5 125073570.008 5      3476.582          34.000    23800731.992 5  97459986.894 5      2709.031          34.000
G08  20578123.000 8 108138767.301 8     -1229.859          51.000    20578124.648 8  84263977.508 8      -958.332          51.000
G10  23109634.688 6 121441939.585 6     -2988.762          37.000    23109632.078 5  94630079.172 5     -2328.905          35.000
G11  20058403.297 6 105407631.973 6      1052.258          39.000    20058401.758 6  82135812.144 6       819.944          37.000
G14  22691130.477 6 119242734.430 6      2084.082          36.000    22691133.703 5  92916435.507 5      1623.963          35.000
G22  21869115.836 8 114923022.846 8      2345.680          51.000    21869112.742 7  89550393.788 7      1827.802          46.000
G27  22302312.648 8 117199415.183 8     -3057.125          50.000    22302313.031 8  91324209.632 8     -2382.178          49.000
G32  22110281.891 5 116190316.022 5       809.887          34.000    22110300.086 5  90537975.516 5       631.093          34.000
R06  19519176.156 7 104158126.870 7      -806.215          47.000
R07  20508487.477 8 109783562.947 8      3194.430          51.000    20508487.484 7  85387234.894 7      2484.559          43.000
R21  19859550.977 8 106272447.646 8     -1221.488          50.000    19859553.281 7  82656364.968 7      -950.046          47.000
C05  39640179.234 5 206416814.928 5       -25.738          35.000    39640177.250 6 159614572.688 6       -19.742          38.000
C21  23885331.906 8 124377211.642 8      2944.062          48.000
C22  22008447.945 8 114603844.227 8       263.438          51.000
E04  24425274.773 8 128355745.915 8       973.652          51.000    24425275.602 8  98350499.774 8       746.051          51.000
E09  24394764.109 7 128195374.267 7      3026.551          43.000    24394761.062 6  98227640.751 6      2318.881          39.000
E11  22609823.289 8 118815414.947 8      -170.664          49.000    22609821.539 8  91040392.295 8      -130.798          49.000
E25  27679184.195 7 145455043.320 7     -2783.801          42.000    27679183.250 6 111452572.697 6     -2132.979          39.000
> 2020 05 01 19 02  0.0000000  0 16        .000000000000
G08  20585192.984 8 108175920.007 8     -1250.816          51.000    20585194.398 8  84292927.662 8      -974.662          51.000
G10  23126716.617 6 121531697.741 6     -2998.715          39.000    23126715.719 6  94700020.601 6     -2336.661          38.000
G11  20052440.016 6 105376295.820 6      1033.758          39.000    20052439.094 6  82111394.377 6       805.526          38.000
G14  22679271.117 6 119180417.189 6      2066.750          37.000    22679275.438 6  92867876.608 6      1610.455          36.000
G22  21855759.180 8 114852833.013 8      2330.012          51.000    21855756.406 7  89495700.412 7      1815.594          47.000
G27  22319795.031 8 117291287.200 8     -3071.398          50.000    22319796.234 8  91395798.157 8     -2393.297          50.000
R06  19523781.352 7 104182702.768 7      -835.973          45.000
R07  20490636.672 8 109688008.944 8      3172.023          49.000    20490637.461 7  85312915.158 7      2467.129          45.000
R21  19866444.445 8 106309335.465 8     -1241.512          50.000    19866446.641 7  82685055.483 7      -965.620          46.000
C05  39640326.641 5 206417582.439 5       -29.918          34.000    39640324.648 6 159615166.184 6       -22.597          38.000
C21  23868394.430 8 124289018.492 8      2931.758          48.000
C22  22006976.906 8 114596184.501 8       243.527          51.000
E04  24419755.852 8 128326744.344 8       956.133          51.000    24419757.383 8  98328277.813 8       732.636          51.000
E09  24377500.055 6 128104650.719 6      3018.020          41.000    24377498.766 6  98158125.366 6      2312.562          41.000
E11  22610817.938 8 118820642.642 8      -181.289          49.000    22610816.117 8  91044397.918 8      -138.913          49.000
E25  27695083.633 6 145538592.328 6     -2789.902          41.000    27695082.438 6 111516590.672 6     -2137.891          39.000
> 2020 05 01 19 02 30.0000000  0 16        .000000000000
G08  20592363.586 8 108213601.018 8     -1263.023          51.000    20592365.039 8  84322289.495 8      -984.174          51.000
G10  23143835.836 6 121621656.250 6     -3000.105          38.000    23143835.242 6  94770118.186 6     -2337.748          37.000
G11  20046565.672 6 105345425.091 6      1023.168          40.000    20046564.867 6  82087339.236 6       797.277          38.000
G14  22667490.906 7 119118508.501 7      2058.508          42.000    22667493.750 6  92819636.114 6      1604.038          36.000
G22  21842472.914 8 114783012.169 8      2322.930          51.000    21842470.227 8  89441294.575 8      1810.078          48.000
G27  22337339.008 8 117383482.797 8     -3076.758          50.000    22337340.758 8  91467638.842 8     -2397.474          50.000
R06  19528535.156 7 104208070.353 7      -856.980          47.000
R07  20472892.469 8 109593028.178 8      3158.352          48.000    20472894.812 7  85239041.252 7      2456.496          46.000
R21  19873430.547 8 106346718.301 8     -1252.562          51.000    19873432.312 7  82714130.996 7      -974.215          45.000
C05  39640478.031 5 206418370.379 5       -25.949          35.000    39640475.883 6 159615775.441 6       -19.295          37.000
C21  23851509.047 8 124201094.087 8      2928.141          49.000
C22  22005601.695 8 114589024.076 8       232.207          51.000
E04  24414318.523 8 128298172.603 8       946.996          51.000    24414320.391 8  98306385.190 8       725.689          51.000
E09  24360264.359 6 128014077.249 6      3018.402          40.000    24360265.484 7  98088724.959 7      2312.853          42.000
E11  22611854.375 8 118826089.248 8      -183.527          49.000    22611852.328 8  91048571.279 8      -140.547          49.000
E25  27710999.516 6 145622228.035 6     -2787.320          40.000    27710998.352 6 111580675.068 6     -2135.616          39.000
> 2020 05 01 19 03  0.0000000  0 15        .000000000000
G08  20599621.094 8 108251738.691 8     -1280.488          51.000    20599622.734 8  84352007.152 8      -997.783          51.000
G11  20040766.727 6 105314949.901 6      1007.547          41.000    20040765.344 6  82063592.345 6       785.098          38.000
G14  22655775.797 7 119056939.882 7      2045.094          43.000    22655776.172 5  92771660.673 5      1593.583          34.000
G22  21829243.625 8 114713489.874 8      2310.805          51.000    21829241.008 8  89387121.395 8      1800.630          48.000
G27  22354930.992 8 117475928.984 8     -3087.289          51.000    22354932.867 8  91539674.815 8     -2405.683          51.000
R06  19533423.141 7 104234155.226 7      -883.109          46.000
R07  20455243.305 8 109498551.302 8      3139.180          50.000    20455246.281 7  85165559.243 7      2441.584          47.000
R21  19880495.789 8 106384524.075 8     -1268.871          51.000    19880497.508 7  82743535.430 7      -986.900          45.000
C05  39640619.781 5 206419108.884 5       -25.234          34.000    39640617.500 6 159616345.748 6       -19.501          38.000
C21  23834662.570 8 124113369.381 8      2919.219          49.000
C22  22004308.734 8 114582292.054 8       215.633          51.000
E04  24408949.742 8 128269960.009 8       932.789          51.000    24408951.234 8  98284767.746 8       714.779          51.000
E09  24343043.773 6 127923584.348 6      3013.465          40.000    24343046.875 7  98019386.248 7      2309.099          43.000
E11  22612919.000 8 118831683.931 8      -190.805          49.000    22612916.891 8  91052858.103 8      -146.042          49.000
E25  27726918.227 6 145705877.068 6     -2790.184          39.000    27726917.211 6 111644769.670 6     -2137.768          39.000
> 2020 05 01 19 03 30.0000000  0 18        .000000000000
G03  23721589.914 5 124657789.559 5      3452.910          35.000
G08  20606978.961 8 108290404.519 8     -1296.609          51.000    20606980.906 8  84382136.354 8     -1010.345          51.000
G10  23178157.133 5 121802044.313 5     -3011.301          31.000    23178159.695 5  94910664.590 5     -2346.471          32.000
G11  20035056.961 6 105284943.607 6       993.320          41.000    20035055.180 6  82040210.829 6       774.016          39.000
G14  22644139.227 7 118995785.436 7      2032.512          42.000    22644138.773 6  92724007.962 6      1583.778          37.000
G22  21816084.758 8 114644338.955 8      2299.895          51.000    21816082.516 8  89333237.589 8      1792.126          49.000
G27  22372584.305 8 117568695.768 8     -3096.602          51.000    22372586.219 8  91611960.629 8     -2412.936          51.000
G32  22092637.219 5 116097593.919 5       735.773          31.000
R06  19538459.438 7 104261029.048 7      -907.910          47.000
R07  20437702.992 8 109404654.422 8      3121.270          50.000    20437705.898 7  85092528.365 7      2427.654          47.000
R21  19887653.664 8 106422826.307 8     -1284.020          51.000    19887655.172 7  82773326.022 7      -998.682          45.000
C05  39640765.414 5 206419867.327 5       -24.867          35.000    39640763.125 6 159616932.208 6       -18.999          38.000
C21  23817868.758 8 124025917.070 8      2911.441          49.000
C22  22003111.594 8 114576059.223 8       200.387          51.000
E04  24403663.125 8 128242178.951 8       919.832          51.000    24403664.695 8  98263480.971 8       704.776          51.000
E09  24325853.219 6 127833245.462 6      3009.699          40.000    24325857.297 7  97950165.582 7      2306.181          44.000
E11  22614025.430 8 118837499.010 8      -196.609          48.000    22614023.461 8  91057313.811 8      -150.652          49.000
E25  27742852.672 6 145789609.076 6     -2791.691          38.000    27742851.930 6 111708927.847 6     -2138.995          40.000
> 2020 05 01 19 04  0.0000000  0 18        .000000000000
G03  23701898.008 6 124554316.887 6      3446.992          38.000
G08  20614430.914 8 108329565.913 8     -1313.152          51.000    20614432.969 8  84412651.702 8     -1023.236          51.000
G11  20029430.477 7 105255375.786 7       978.895          42.000    20029429.086 6  82017170.966 6       762.775          40.000
G14  22632575.578 7 118935015.641 7      2019.520          43.000    22632575.109 6  92676654.967 6      1573.658          39.000
G22  21802990.406 8 114575528.684 8      2288.496          51.000    21802988.742 8  89279619.182 8      1783.241          48.000
G27  22390292.367 8 117661749.737 8     -3106.043          51.000    22390293.953 8  91684470.212 8     -2420.293          51.000
G32  22088489.578 5 116075802.752 5       717.988          31.000    22088496.109 5  90448701.558 5       559.468          31.000
R06  19543636.750 7 104288657.284 7      -932.867          47.000
R07  20420265.125 8 109311308.182 8      3102.812          51.000    20420268.203 7  85019925.770 7      2413.302          46.000
R21  19894898.180 8 106461593.084 8     -1299.484          51.000    19894899.750 7  82803477.946 7     -1010.710          46.000
C05  39640908.953 5 206420615.174 5       -24.215          34.000    39640906.688 6 159617510.514 6       -18.740          38.000
C19  24135114.055 5 125677865.107 5     -2615.457          32.000
C21  23801121.555 8 123938707.377 8      2903.445          49.000
C22  22002004.016 8 114570293.840 8       184.879          51.000
E04  24398452.656 8 128214798.343 8       906.547          51.000    24398454.602 8  98242501.048 8       694.579          51.000
E09  24308687.453 6 127743030.659 6      3005.641          39.000    24308690.680 7  97881040.023 7      2302.943          44.000
E11  22615167.828 8 118843503.286 8      -202.758          48.000    22615166.102 8  91061914.486 8      -155.339          49.000
E25  27758795.680 5 145873390.189 5     -2792.598          35.000    27758796.289 6 111773123.719 6     -2140.166          39.000
> 2020 05 01 19 04 30.0000000  0 17        .000000000000
G03  23682244.031 6 124451049.190 6      3439.199          38.000
G08  20621982.281 8 108369250.481 8     -1331.523          51.000    20621984.531 8  84443574.720 8     -1037.551          51.000
G11  20023893.070 7 105226276.052 7       962.262          42.000    20023892.125 6  81994495.834 6       749.811          41.000
G14  22621091.172 7 118874661.169 7      2004.777          45.000    22621090.453 6  92629625.480 6      1562.161          38.000
G22  21789966.539 8 114507087.669 8      2275.359          51.000    21789964.992 8  89226288.521 8      1773.007          48.000
G27  22408059.719 8 117755117.210 8     -3117.379          51.000    22408061.289 8  91757224.064 8     -2429.126          50.000
R06  19548960.867 7 104317066.986 7      -959.949          47.000
R07  20402935.930 8 109218544.623 8      3082.324          51.000    20402938.859 7  84947776.374 7      2397.363          45.000
R21  19902234.734 8 106500853.403 8     -1316.930          51.000    19902236.664 7  82834013.736 7     -1024.282          47.000
C05                                                                  39641053.625 6 159618102.226 6       -20.023          38.000
C19  24150215.172 5 125756503.743 5     -2625.672          34.000
C21  23784426.641 8 123851769.736 8      2893.387          50.000
C22  22000991.594 8 114565023.404 8       167.418          51.000
E04  24393324.062 8 128187846.883 8       891.312          51.000    24393325.750 8  98221849.949 8       682.945          51.000
E09  24291552.617 6 127652969.769 6      2999.422          38.000    24291552.781 7  97812032.432 7      2298.393          45.000
E11  22616351.734 8 118849725.338 8      -210.797          48.000    22616350.406 8  91066682.038 8      -161.544          50.000
E25  27774752.094 5 145957307.617 5     -2796.184          32.000    27774754.992 6 111837377.267 6     -2142.764          37.000
> 2020 05 01 19 05  0.0000000  0 18        .000000000000
G03  23662621.906 6 124347932.579 6      3433.082          37.000
G08  20629626.445 8 108409422.235 8     -1348.184          51.000    20629629.078 8  84474877.352 8     -1050.536          51.000
G11  20018438.188 7 105197610.419 7       947.113          42.000    20018437.320 7  81972158.968 7       738.010          42.000
G14  22609679.328 7 118814688.841 7      1991.492          44.000    22609678.414 6  92582893.818 6      1551.812          40.000
G22  21777006.234 8 114438981.339 8      2263.648          51.000    21777004.438 7  89173218.698 7      1763.885          46.000
G27  22425878.969 8 117848760.928 8     -3127.043          48.000    22425881.023 8  91830193.154 8     -2436.660          48.000
G32  22080514.680 5 116033863.296 5       679.461          35.000    22080523.477 6  90416041.577 6       529.447          36.000
R06  19554423.953 7 104346219.534 7      -985.086          47.000
R07  20385709.484 8 109126330.345 8      3063.566          51.000    20385712.398 7  84876054.225 7      2382.777          46.000
R21  19909656.719 8 106540571.511 8     -1332.598          51.000    19909658.500 7  82864905.597 7     -1036.465          47.000
C05  39641199.477 5 206422127.721 5       -25.590          34.000    39641197.117 6 159618680.108 6       -19.939          38.000
C19  24165358.328 5 125835367.462 5     -2633.461          34.000
C21  23767777.398 8 123765070.556 8      2884.996          49.000
C22  22000067.312 8 114560212.397 8       151.688          51.000
E04  24388270.555 8 128161289.694 8       877.539          51.000    24388271.781 8  98201500.940 8       672.394          51.000
E09  24274441.414 6 127563029.139 6      2994.895          38.000    24274437.594 7  97743117.004 7      2294.744          44.000
E11  22617570.406 7 118856130.225 7      -217.570          47.000    22617569.617 8  91071589.679 8      -166.701          50.000
E25                                                                  27790720.492 5 111901659.679 5     -2143.587          34.000
> 2020 05 01 19 05 30.0000000  0 17        .000000000000
G03  23643038.797 5 124245011.142 5      3425.719          32.000
G08  20637367.539 8 108450103.035 8     -1365.809          50.000    20637370.523 8  84506576.667 8     -1064.266          50.000
G10  23247204.000 5 122164880.754 5     -3035.953          31.000
G11  20013070.438 7 105169402.656 7       931.301          44.000    20013069.289 7  81950178.911 7       725.692          42.000
G14  22598344.516 7 118755123.581 7      1977.297          43.000    22598342.836 6  92536479.322 6      1540.751          39.000
G22  21764113.984 8 114371233.281 8      2250.887          51.000    21764111.797 7  89120428.059 7      1753.941          45.000
G27  22443754.625 7 117942701.646 7     -3137.797          47.000    22443756.688 8  91903393.657 8     -2445.037          48.000
R06  19560030.453 7 104376136.188 7     -1011.355          47.000
R07  20368590.555 8 109034691.489 8      3043.523          51.000    20368593.531 7  84804779.627 7      2367.188          47.000
R21  19917168.969 8 106580770.577 8     -1349.426          51.000    19917170.797 8  82896171.517 8     -1049.553          48.000
C05  39641343.789 5 206422879.514 5       -26.422          35.000    39641341.469 6 159619261.456 6       -20.485          38.000
C19  24180548.945 5 125914476.432 5     -2642.422          32.000
C21  23751177.625 8 123678633.705 8      2875.457          48.000
C22  21999235.406 8 114555882.749 8       134.926          51.000
E04  24383296.148 8 128135149.785 8       862.859          51.000    24383297.523 8  98181471.680 8       661.170          51.000
E09  24257355.523 6 127473232.881 6      2989.121          37.000    24257349.312 7  97674312.235 7      2290.647          43.000
E11  22618828.328 7 118862740.844 7      -225.312          47.000    22618827.875 8  91076654.949 8      -172.573          50.000
> 2020 05 01 19 06  0.0000000  0 15        .000000000000
G08  20645196.719 8 108491246.968 8     -1364.348          50.000    20645199.883 8  84538636.858 8     -1063.128          50.000
G11  20007781.711 7 105141609.174 7       934.246          45.000    20007780.273 7  81928521.638 7       727.981          43.000
G14  22587078.773 7 118695922.551 7      1982.043          45.000    22587077.328 6  92490348.729 6      1544.452          40.000
G22  21751281.711 8 114303799.016 8      2257.375          51.000    21751278.281 7  89067881.923 7      1758.997          44.000
G27  22461678.266 8 118036892.378 8     -3128.977          48.000    22461679.828 8  91976789.015 8     -2438.164          48.000
R06  19565771.172 8 104406769.422 8     -1017.977          48.000
R07  20351571.289 8 108943585.029 8      3043.027          49.000    20351573.953 8  84733919.089 8      2366.799          48.000
R21  19924762.562 8 106621405.052 8     -1346.641          51.000    19924764.312 7  82927776.072 7     -1047.387          47.000
C05  39641480.578 5 206423591.140 5        -8.191          35.000    39641478.172 6 159619811.743 6        -6.262          38.000
C19  24195778.328 4 125993767.122 4     -2632.285          29.000
C21  23734619.156 8 123592416.092 8      2884.742          48.000
C22  21998487.508 8 114551989.372 8       137.312          51.000
E04  24378392.688 8 128109382.645 8       867.566          51.000    24378394.094 8  98161728.053 8       664.741          51.000
E09  24240286.578 6 127383537.757 6      3003.145          41.000    24240279.625 7  97605584.987 7      2300.877          42.000
E11  22620117.086 8 118869512.686 8      -213.633          48.000    22620116.578 8  91081843.770 8      -163.744          50.000
> 2020 05 01 19 06 30.0000000  0 14        .000000000000
G08  20653144.727 8 108533013.377 8     -1401.863          51.000    20653147.672 8  84571182.094 8     -1092.361          51.000
G11  20002602.406 7 105114390.931 7       898.492          45.000    20002600.703 7  81907312.630 7       700.124          43.000
G14  22575913.531 7 118637247.439 7      1947.840          47.000    22575912.500 6  92444627.909 6      1517.797          41.000
G22  21738539.828 8 114236838.925 8      2224.820          51.000    21738536.258 7  89015705.267 7      1733.626          45.000
G27  22479679.656 8 118131490.902 8     -3159.355          49.000    22479681.008 8  92050502.116 8     -2461.835          49.000
R06  19571676.234 8 104438278.592 8     -1064.105          48.000
R07  20334682.008 7 108853176.644 7      3002.598          47.000    20334684.641 8  84663601.442 8      2335.354          48.000
R21  19932467.930 8 106662637.615 8     -1383.652          51.000    19932469.328 7  82959845.829 7     -1076.174          46.000
C05  39641639.852 5 206424420.640 5       -28.480          35.000    39641637.508 6 159620453.201 6       -22.349          38.000
C21  23718134.016 8 123506577.252 8      2855.695          49.000
C22  21997853.953 8 114548689.900 8       100.773          51.000
E04  24373590.719 8 128084148.293 8       833.074          51.000    24373591.969 8  98142392.650 8       638.354          51.000
E09  24223265.664 7 127294105.008 7      2977.391          44.000    24223258.555 6  97537058.742 6      2281.491          41.000
E11  22621467.078 8 118876605.663 8      -241.156          48.000    22621466.328 8  91087278.660 8      -184.761          50.000
> 2020 05 01 19 07  0.0000000  0 15        .000000000000
G03  23584526.062 5 123937516.372 5      3408.090          32.000
G08  20661175.828 8 108575213.831 8     -1414.527          51.000    20661178.227 8  84604065.575 8     -1102.229          51.000
G11  19997497.133 7 105087561.416 7       887.051          46.000    19997495.062 7  81886406.517 7       691.208          42.000
G14  22564813.117 7 118578913.205 7      1937.949          46.000    22564812.617 6  92399172.699 6      1510.090          39.000
G22  21725852.484 8 114170166.422 8      2216.887          51.000    21725849.641 7  88963752.683 7      1727.444          47.000
G27  22497722.969 8 118226307.704 8     -3164.879          50.000    22497723.938 8  92124385.323 8     -2466.139          50.000
R06  19577709.391 8 104470471.502 8     -1085.109          48.000
R07  20317886.883 7 108763278.161 7      2987.301          46.000    20317890.633 8  84593680.365 8      2323.456          48.000
R21  19940249.273 8 106704277.617 8     -1395.531          49.000    19940250.914 7  82992232.483 7     -1085.413          47.000
C05  39641786.094 5 206425182.139 5       -25.090          34.000    39641783.734 6 159621042.007 6       -19.168          38.000
C21  23701687.125 8 123420932.776 8      2850.918          50.000
C22  21997298.789 8 114545797.901 8        89.016          51.000
E04  24368854.414 8 128059259.552 8       823.270          51.000    24368855.758 8  98123322.084 8       630.802          51.000
E09  24206258.703 7 127204748.678 7      2976.570          46.000    24206251.406 6  97468591.052 6      2280.773          41.000
E11  22622842.539 8 118883832.619 8      -243.871          48.000    22622841.594 8  91092816.204 8      -186.716          50.000
> 2020 05 01 19 07 30.0000000  0 15        .000000000000
G03  23565093.141 6 123835399.314 6      3400.496          36.000    23565090.141 6  96495103.421 6      2649.740          36.000
G08  20669302.258 8 108617916.942 8     -1431.711          51.000    20669304.406 8  84637340.730 8     -1115.619          51.000
G11  19992479.117 7 105061191.405 7       871.344          47.000    19992476.820 7  81865858.476 7       678.972          43.000
G14  22553790.750 7 118520991.431 7      1923.930          45.000    22553790.586 6  92354038.886 6      1499.166          37.000
G22  21713232.516 8 114103851.572 8      2204.500          48.000    21713230.867 8  88912078.792 8      1717.795          48.000
G27  22515820.664 8 118321410.483 8     -3174.805          49.000    22515821.805 8  92198491.366 8     -2473.874          49.000
R06  19583883.312 8 104503416.289 8     -1110.590          48.000
R07  20301201.297 8 108673962.949 8      2967.531          49.000    20301205.836 8  84524212.978 8      2308.080          48.000
R21  19948119.695 8 106746395.805 8     -1411.836          48.000    19948122.289 7  83024991.078 7     -1098.095          47.000
C05  39641932.414 5 206425944.390 5       -25.621          34.000    39641930.125 6 159621631.436 6       -19.776          38.000
C21  23685291.344 8 123335553.055 8      2841.625          51.000
C22  21996835.320 8 114543381.816 8        72.684          51.000
E04  24364197.383 8 128034786.441 8       808.898          51.000    24364198.680 8  98104569.980 8       619.793          51.000
E09  24189280.102 8 127115539.932 8      2971.211          48.000    24189273.797 7  97400236.407 7      2276.582          42.000
E11  22624256.703 8 118891263.571 8      -250.891          48.000    22624255.602 8  91098510.058 8      -192.256          50.000
> 2020 05 01 19 08  0.0000000  0 17        .000000000000
G03  23545702.977 6 123733496.320 6      3395.637          38.000    23545699.695 6  96415698.572 6      2645.954          37.000
G08  20677526.344 8 108661135.909 8     -1446.488          51.000    20677528.828 8  84671017.819 8     -1127.134          51.000
G10  23334227.578 5 122622182.983 5     -3059.469          33.000
G11  19987551.555 7 105035296.527 7       857.984          47.000    19987548.992 7  81845680.645 7       668.556          43.000
G14  22542849.641 7 118463498.700 7      1912.012          44.000    22542849.516 6  92309239.415 6      1489.882          36.000
G22  21700683.375 7 114037909.026 7      2194.543          46.000    21700682.406 7  88860695.022 7      1710.033          46.000
G27  22533974.766 7 118416811.400 7     -3182.137          47.000    22533976.445 7  92272829.727 7     -2479.587          47.000
G32  22059169.898 5 115921749.627 5       568.402          34.000    22059175.711 5  90328629.890 5       442.908          33.000
R06  19590200.445 8 104537125.014 8     -1133.559          48.000
R07  20284628.797 8 108585248.277 8      2949.973          50.000    20284633.328 7  84455212.710 7      2294.423          47.000
R21  19956082.164 8 106789006.982 8     -1425.680          48.000    19956085.266 7  83058133.113 7     -1108.859          47.000
C05  39642081.641 5 206426721.243 5       -23.305          35.000    39642079.367 6 159622232.187 6       -18.329          38.000
C21  23668949.469 8 123250453.483 8      2834.762          51.000
C22  21996465.656 8 114541455.004 8        58.809          51.000
E04  24359622.195 8 128010743.443 8       796.918          51.000    24359623.422 8  98086147.439 8       610.607          51.000
E09  24172332.914 8 127026494.495 8      2968.125          49.000    24172329.211 7  97332006.858 7      2274.272          44.000
E11  22625712.508 8 118898912.924 8      -255.652          49.000    22625711.055 8  91104371.270 8      -195.979          50.000
> 2020 05 01 19 08 30.0000000  0 17        .000000000000
G03  23526330.023 6 123631688.116 6      3390.609          38.000    23526327.375 6  96336367.586 6      2642.036          37.000
G08  20685825.844 8 108704749.447 8     -1461.797          51.000    20685828.453 8  84705002.405 8     -1139.062          51.000
G10  23351703.766 5 122714021.387 5     -3063.945          33.000
G11  19982691.688 8 105009757.452 8       843.957          48.000    19982689.234 7  81825780.059 7       657.629          44.000
G14  22531967.086 7 118406316.271 7      1899.586          42.000    22531966.289 6  92264681.667 6      1480.194          36.000
G22  21688182.672 8 113972218.607 8      2183.938          48.000    21688181.547 7  88809507.740 7      1701.769          47.000
G27  22552162.016 7 118512387.840 7     -3190.230          46.000    22552164.367 7  92347304.871 7     -2485.894          46.000
G32  22055977.000 5 115904920.745 5       551.121          35.000    22055998.719 5  90315601.976 5       429.457          35.000
R06  19596637.242 8 104571473.053 8     -1156.887          48.000
R07  20268146.562 8 108497014.099 8      2931.629          51.000    20268150.188 7  84386586.154 7      2280.156          47.000
R21  19964114.172 8 106831988.291 8     -1440.352          49.000    19964117.609 7  83091563.018 7     -1120.273          47.000
C05  39642210.695 5 206427393.176 5       -21.672          34.000    39642208.367 6 159622751.721 6       -16.749          38.000
C21  23652638.609 8 123165515.868 8      2827.113          51.000
C22  21996166.906 8 114539897.308 8        44.367          51.000
E04  24355105.773 8 127987010.204 8       784.543          51.000    24355107.250 8  98067962.246 8       601.164          51.000
E09  24155394.586 8 126937493.275 8      2964.598          48.000    24155394.367 7  97263811.174 7      2271.656          45.000
E11  22627187.062 8 118906660.376 8      -261.254          49.000    22627185.180 8  91110307.639 8      -200.110          50.000
> 2020 05 01 19 09  0.0000000  0 17        .000000000000
G03  23507010.383 6 123530162.860 6      3379.996          37.000    23507008.742 6  96257257.093 6      2633.766          37.000
G08  20694235.547 8 108748943.149 8     -1482.312          51.000    20694238.383 8  84739439.053 8     -1155.049          51.000
G10  23369226.117 5 122806098.229 5     -3072.938          35.000    23369228.773 5  95693077.955 5     -2394.497          35.000
G11  19977935.234 8 104984761.892 8       824.492          48.000    19977932.953 7  81806303.017 7       642.461          43.000
G14  22521179.172 7 118349632.764 7      1881.645          42.000    22521177.836 5  92220512.799 5      1466.223          31.000
G22  21675766.164 8 113906967.986 8      2168.180          51.000    21675764.086 7  88758663.125 7      1689.491          45.000
G27  22570418.164 7 118608324.563 7     -3203.477          46.000    22570421.070 7  92422060.755 7     -2496.216          47.000
G32  22052903.727 5 115888761.739 5       528.672          33.000    22052917.023 4  90303010.947 4       411.986          29.000
R06  19603228.914 8 104606647.894 8     -1185.828          48.000
R07  20251790.383 8 108409453.494 8      2907.828          51.000    20251792.898 7  84318483.504 7      2261.647          46.000
R21  19972251.180 8 106875529.943 8     -1460.355          51.000    19972254.656 7  83125428.736 7     -1135.832          46.000
C05  39642355.102 5 206428144.952 5       -25.875          35.000    39642352.758 6 159623333.055 6       -19.715          37.000
C21  23636394.359 8 123080926.707 8      2814.312          50.000
C22  21995974.414 8 114538893.229 8        24.691          51.000
E04  24350683.906 8 127963773.846 8       766.742          51.000    24350685.594 8  98050157.777 8       587.534          51.000
E09  24138500.961 7 126848724.633 7      2955.504          47.000    24138503.875 7  97195793.683 7      2264.736          46.000
E11  22628715.797 8 118914693.131 8      -272.191          49.000    22628713.750 8  91116462.635 8      -208.535          50.000
> 2020 05 01 19 09 30.0000000  0 17        .000000000000
G03  23487735.531 5 123428872.557 5      3373.941          33.000    23487734.164 5  96178329.704 5      2629.048          33.000
G08  20702745.984 8 108793667.308 8     -1498.660          51.000    20702749.172 8  84774289.007 8     -1167.790          50.000
G10  23386781.719 6 122898358.026 6     -3077.305          37.000    23386783.367 6  95764968.642 6     -2397.906          36.000
G11  19973273.008 8 104960261.787 8       809.285          49.000    19973270.773 7  81787212.023 7       630.612          45.000
G14  22510478.703 7 118293401.377 7      1868.035          42.000    22510476.602 5  92176696.160 5      1455.612          33.000
G22  21663424.312 8 113842108.519 8      2156.348          51.000    21663421.875 7  88708123.324 7      1680.271          44.000
G27  22588733.219 8 118704570.376 8     -3212.332          48.000    22588736.617 8  92497057.430 8     -2503.119          48.000
G32  22049945.414 6 115873203.096 6       509.523          41.000    22049944.766 5  90290887.396 5       397.022          31.000
R06  19609965.602 7 104642596.780 7     -1210.168          47.000
R07  20235550.609 8 108322518.847 8      2888.359          49.000    20235552.469 7  84250867.707 7      2246.505          46.000
R21  19980483.320 8 106919581.850 8     -1475.957          51.000    19980486.820 7  83159691.301 7     -1147.970          45.000
C05  39642505.414 5 206428927.651 5       -25.082          34.000    39642503.078 6 159623938.325 6       -19.851          38.000
C21  23620207.453 8 122996638.510 8      2805.488          51.000
C22  21995878.469 8 114538393.174 8         9.191          51.000
E04  24346347.445 8 127940985.356 8       753.156          51.000    24346349.070 8  98032696.477 8       577.106          51.000
E09  24121642.961 7 126760140.834 7      2950.547          47.000    24121648.023 7  97127917.820 7      2260.943          46.000
E11  22630289.312 8 118922962.181 8      -278.844          49.000    22630287.383 8  91122798.666 8      -213.600          50.000
> 2020 05 01 19 10  0.0000000  0 16        .000000000000
G08  20711346.328 8 108838862.948 8     -1514.973          51.000    20711349.594 8  84809506.357 8     -1180.498          51.000
G10  23404361.055 6 122990741.221 6     -3082.078          37.000    23404362.430 6  95836955.529 6     -2401.613          36.000
G11  19968694.336 8 104936200.686 8       794.113          49.000    19968692.273 7  81768463.113 7       618.790          45.000
G14  22499853.875 7 118237566.397 7      1853.820          44.000    22499853.008 6  92133188.458 6      1444.535          36.000
G22  21651145.859 8 113777583.291 8      2144.824          50.000    21651143.500 7  88657843.950 7      1671.292          45.000
G27  22607096.164 8 118801065.598 8     -3221.199          50.000    22607099.312 8  92572248.500 8     -2510.025          51.000
G32  22047081.719 5 115858201.499 5       490.750          35.000    22047080.875 5  90279094.988 5       382.403          34.000
R06  19616836.023 7 104679258.811 7     -1234.539          47.000
R07  20219416.195 8 108236153.860 8      2868.816          48.000    20219418.328 7  84183694.975 7      2231.305          45.000
R21  19988800.344 8 106964085.380 8     -1491.578          51.000    19988802.914 7  83194305.092 7     -1160.119          43.000
C05  39642650.609 5 206429684.110 5       -25.824          34.000    39642648.211 6 159624523.238 6       -19.356          37.000
C21  23604067.805 8 122912595.514 8      2796.809          51.000
C22  21995868.258 8 114538339.429 8        -6.195          51.000
E04  24342085.258 8 127918587.438 8       739.559          51.000    24342086.820 8  98015534.443 8       566.705          51.000
E09  24104810.055 8 126671685.803 8      2945.855          48.000    24104815.633 7  97060140.628 7      2257.220          45.000
E11  22631896.906 8 118931410.235 8      -285.230          50.000    22631895.055 8  91129271.865 8      -218.550          50.000
> 2020 05 01 19 10 30.0000000  0 16        .000000000000
G08  20720045.281 8 108884575.899 8     -1532.457          51.000    20720048.531 8  84845126.814 8     -1194.122          51.000
G10  23421972.992 5 123083292.149 5     -3087.383          35.000    23421974.203 5  95909073.147 5     -2405.759          34.000
G11  19964208.344 8 104912626.307 8       777.637          49.000    19964206.500 7  81750093.473 7       605.954          46.000
G14  22489314.070 7 118182176.419 7      1838.859          46.000    22489314.031 6  92090027.468 6      1432.877          39.000
G22  21638939.547 8 113713439.145 8      2131.773          49.000    21638937.227 7  88607861.504 7      1661.122          45.000
G27  22625515.117 8 118897854.755 8     -3231.266          51.000    22625517.984 8  92647668.605 8     -2517.869          51.000
G32  22044341.180 6 115843776.734 6       470.859          41.000    22044343.859 6  90267854.925 6       366.906          39.000
R06  19623848.406 7 104716678.902 7     -1260.035          45.000
R07  20203397.352 8 108150409.138 8      2847.621          48.000    20203400.320 7  84117004.646 7      2214.816          45.000
R21  19997210.367 8 107009088.085 8     -1508.461          51.000    19997211.898 7  83229307.145 7     -1173.250          44.000
C05  39642799.688 5 206430460.254 5       -26.898          34.000    39642797.250 6 159625123.427 6       -20.555          38.000
C21  23587984.812 8 122828845.170 8      2786.707          51.000
C22  21995952.594 8 114538777.401 8       -22.793          51.000
E04  24337906.148 8 127896626.889 8       724.621          51.000    24337907.719 8  97998707.541 8       555.241          51.000
E09  24088011.086 8 126583407.656 8      2939.574          48.000    24088015.461 7  96992498.984 7      2252.371          44.000
E11  22633547.547 8 118940084.192 8      -293.008          50.000    22633545.742 8  91135918.139 8      -224.515          50.000
> 2020 05 01 19 11  0.0000000  0 15        .000000000000
G08  20728865.234 8 108930923.898 8     -1556.695          51.000    20728868.531 8  84881242.124 8     -1213.009          51.000
G11  19959837.703 8 104889658.677 8       754.289          49.000    19959836.016 7  81732196.622 7       587.758          47.000
G14  22478881.828 7 118127352.302 7      1816.824          43.000    22478882.148 6  92047307.383 6      1415.707          41.000
G22  21626828.555 8 113649795.747 8      2111.820          51.000    21626825.938 7  88558269.250 7      1645.574          46.000
G27  22644012.305 8 118995054.663 8     -3248.117          51.000    22644014.367 8  92723408.785 8     -2531.000          51.000
G32  22041729.898 6 115830061.718 6       444.254          37.000    22041726.867 5  90257168.035 5       346.175          33.000
R06  19631025.133 7 104754975.217 7     -1292.449          46.000
R07  20187517.945 8 108065408.089 8      2819.727          48.000    20187521.664 7  84050892.728 7      2193.121          45.000
R21  20005736.383 8 107054710.941 8     -1532.332          51.000    20005737.672 7  83264791.546 7     -1191.814          45.000
C05                                                                  39642972.602 6 159625829.774 6       -26.324          38.000
C21  23571980.977 8 122745506.569 8      2769.895          51.000
C22  21996153.734 8 114539824.167 8       -46.258          51.000
E04  24333832.984 8 127875222.803 8       702.941          51.000    24333834.453 8  97982307.039 8       538.582          51.000
E09  24071268.844 8 126495426.743 8      2926.461          48.000    24071270.562 7  96925085.129 7      2242.290          43.000
E11  22635263.789 8 118949103.196 8      -307.516          50.000    22635262.047 8  91142828.802 8      -235.629          50.000
> 2020 05 01 19 11 30.0000000  0 16        .000000000000
G03  23411043.023 5 123025855.012 5      3347.711          35.000    23411038.102 5  95864289.266 5      2608.606          35.000
G08  20737749.680 8 108977610.783 8     -1562.969          51.000    20737752.633 8  84917621.511 8     -1217.898          51.000
G11  19955526.531 8 104867003.888 8       748.992          49.000    19955524.828 7  81714543.544 7       583.630          47.000
G14  22468500.508 6 118072801.231 6      1812.770          40.000    22468501.555 6  92004800.041 6      1412.548          39.000
G22  21614757.055 8 113586358.362 8      2109.953          51.000    21614753.727 7  88508837.545 7      1644.122          45.000
G27  22662531.008 8 119092368.120 8     -3246.750          51.000    22662532.312 8  92799237.425 8     -2529.938          51.000
G32  22039199.086 6 115816762.267 6       435.293          41.000    22039192.047 6  90246804.805 6       339.183          36.000
R06  19638308.984 7 104793845.066 7     -1306.469          44.000
R07  20171722.016 8 107980852.555 8      2809.863          48.000    20171725.812 7  83985127.338 7      2185.449          44.000
R21  20014321.727 8 107100653.093 8     -1537.840          50.000    20014323.148 7  83300524.309 7     -1196.101          47.000
C05  39643120.391 5 206432130.808 5       -24.117          34.000    39643118.211 6 159626415.995 6       -18.649          38.000
C21  23555999.789 8 122662288.517 8      2770.766          51.000
C22  21996415.547 8 114541186.471 8       -51.754          51.000
E04  24329809.484 8 127854080.223 8       699.254          51.000    24329810.914 8  97966106.908 8       535.777          51.000
E09  24054527.391 8 126407449.439 8      2931.371          49.000    24054526.523 7  96857674.045 7      2246.008          43.000
E11  22636989.531 8 118958172.381 8      -304.156          50.000    22636987.680 8  91149777.920 8      -233.064          50.000
> 2020 05 01 19 12  0.0000000  0 16        .000000000000
G03  23391964.680 6 122925594.000 6      3337.469          37.000    23391958.844 6  95786163.877 6      2600.622          38.000
G08  20746730.648 8 109024805.386 8     -1582.207          51.000    20746733.195 8  84954396.519 8     -1232.892          51.000
G11  19951307.172 8 104844832.208 8       730.277          48.000    19951305.781 8  81697266.902 8       569.047          48.000
G14  22458203.539 7 118018694.393 7      1795.543          42.000    22458205.180 6  91962638.836 6      1399.121          40.000
G22  21602757.000 8 113523297.031 8      2095.148          51.000    21602753.039 7  88459698.882 7      1632.583          45.000
G27  22681103.078 8 119189962.779 8     -3258.523          51.000    22681103.109 8  92875285.183 8     -2539.109          51.000
G32  22036779.164 5 115804057.311 5       413.312          35.000    22036775.625 5  90236897.997 5       322.074          34.000
R06  19645732.633 7 104833458.730 7     -1333.449          46.000
R07  20156042.641 8 107896918.081 8      2786.785          50.000    20156045.305 7  83919845.005 7      2167.503          42.000
R21  20022999.031 8 107147087.610 8     -1556.781          50.000    20023000.914 7  83336640.034 7     -1210.830          47.000
C05  39643268.414 5 206432901.514 5       -27.023          34.000    39643266.180 6 159627011.933 6       -20.612          38.000
C21  23540073.633 8 122579360.519 8      2758.711          50.000
C22  21996769.977 8 114543031.709 8       -70.191          51.000
E04  24325868.273 8 127833369.060 8       682.508          51.000    24325869.711 8  97950237.329 8       522.964          51.000
E09  24037819.375 8 126319646.946 8      2923.133          49.000    24037818.031 7  96790396.884 7      2239.818          45.000
E11  22638757.164 8 118967461.780 8      -314.039          51.000    22638755.258 8  91156895.768 8      -240.615          50.000
> 2020 05 01 19 12 30.0000000  0 16        .000000000000
G03  23372930.516 6 122825578.631 6      3330.152          36.000    23372927.633 5  95708229.883 5      2594.930          35.000
G08  20755811.867 8 109072526.882 8     -1598.801          51.000    20755813.945 8  84991582.073 8     -1245.819          51.000
G11  19947183.984 8 104823165.340 8       714.438          49.000    19947182.719 8  81680383.624 8       556.708          48.000
G14  22447996.344 7 117965054.309 7      1780.992          44.000    22447997.547 6  91920841.352 6      1387.786          38.000
G22  21590832.195 8 113460632.847 8      2082.781          49.000    21590828.391 7  88410869.676 7      1622.946          46.000
G27  22699731.805 8 119287856.884 8     -3267.586          50.000    22699730.656 8  92951566.262 8     -2546.174          50.000
G32  22034474.453 6 115791950.030 6       394.035          40.000    22034470.453 6  90227463.676 6       307.037          38.000
R06  19653298.898 7 104873834.104 7     -1358.016          46.000
R07  20140483.984 8 107813627.996 8      2766.156          50.000    20140485.875 7  83855063.914 7      2151.458          44.000
R21  20031772.445 8 107194035.045 8     -1572.871          50.000    20031774.492 8  83373154.716 8     -1223.344          48.000
C05  39643422.688 5 206433704.749 5       -26.586          34.000    39643420.461 6 159627633.087 6       -20.661          37.000
C21  23524206.617 8 122496743.972 8      2749.312          49.000
C22  21997220.844 8 114545379.241 8       -86.004          51.000
E04  24322013.195 8 127813109.811 8       668.457          51.000    24322014.711 8  97934714.022 8       512.197          51.000
E09  24021148.695 8 126232041.076 8      2917.551          49.000    24021148.992 7  96723270.365 7      2235.547          46.000
E11  22640570.586 8 118976991.995 8      -321.168          51.000    22640568.703 8  91164198.126 8      -246.060          49.000
> 2020 05 01 19 13  0.0000000  0 16        .000000000000
G08  20764986.891 8 109120741.660 8     -1616.246          51.000    20764988.570 8  85029152.005 8     -1259.416          51.000
G11  19943150.969 8 104801971.903 8       697.617          50.000    19943149.594 8  81663869.253 8       543.598          48.000
G14  22437872.562 7 117911850.136 7      1765.125          45.000    22437872.773 6  91879383.609 6      1375.422          38.000
G22  21578976.852 8 113398333.544 8      2069.625          49.000    21578973.727 7  88362324.789 7      1612.695          47.000
G27  22718410.375 8 119386015.643 8     -3277.242          48.000    22718408.219 8  93028053.560 8     -2553.698          48.000
G32  22032280.000 5 115780417.056 5       374.320          35.000    22032277.195 5  90218476.942 5       291.684          34.000
R06  19661001.516 7 104914935.747 7     -1382.957          46.000
R07  20125039.273 8 107730951.288 8      2744.754          49.000    20125041.945 7  83790759.871 7      2134.812          45.000
R21  20040635.047 8 107241461.774 8     -1589.801          50.000    20040637.555 8  83410042.166 8     -1236.512          48.000
C05  39643576.992 5 206434508.127 5       -28.160          34.000    39643574.711 6 159628247.283 6       -21.358          38.000
C19  24413789.180 5 127129010.060 5     -2754.508          30.000
C21  23508393.359 8 122414407.738 8      2739.047          48.000
C22  21997761.695 8 114548195.874 8      -102.641          51.000
E04  24318237.820 8 127793269.966 8       653.410          51.000    24318239.461 8  97919512.075 8       500.659          51.000
E09  24004509.297 8 126144600.683 8      2911.031          48.000    24004512.062 8  96656270.623 8      2230.471          49.000
E11  22642423.742 8 118986730.648 8      -329.184          51.000    22642421.750 8  91171660.195 8      -252.226          49.000
> 2020 05 01 19 13 30.0000000  0 17        .000000000000
G08  20774209.719 8 109169207.844 8     -1630.395          51.000    20774210.828 8  85066917.842 8     -1270.437          51.000
G10  23528204.203 5 123641508.718 5     -3115.023          35.000    23528208.438 5  96344079.312 5     -2427.291          32.000
G11  19939162.477 8 104781012.263 8       684.020          50.000    19939161.055 8  81647537.079 8       533.002          49.000
G14  22427786.281 7 117858843.540 7      1752.770          43.000    22427785.055 6  91838079.874 6      1365.801          37.000
G22  21567145.508 8 113336158.705 8      2059.691          51.000    21567142.453 7  88313876.860 7      1604.954          47.000
G27  22737092.273 7 119484196.456 7     -3283.887          45.000    22737090.156 7  93104558.020 7     -2558.876          46.000
G32  22030149.180 6 115769194.215 6       356.906          37.000    22030145.984 6  90209764.661 6       278.106          37.000
R06  19668793.531 7 104956515.623 7     -1404.848          47.000
R07  20109663.492 8 107648645.433 8      2726.414          49.000    20109667.234 7  83726744.232 7      2120.547          45.000
R21  20049541.805 8 107289123.161 8     -1603.520          50.000    20049544.234 7  83447112.132 7     -1247.182          47.000
C05  39643685.461 5 206435072.912 5       -26.008          34.000    39643683.188 6 159628684.002 6       -19.712          38.000
C19  24429632.367 5 127211507.557 5     -2760.082          31.000
C21  23492589.727 8 122332114.637 8      2731.742          51.000
C22  21998346.508 8 114551242.371 8      -115.973          51.000
E04  24314496.391 8 127773609.082 8       641.664          51.000    24314498.250 8  97904447.255 8       491.668          51.000
E09  23987855.742 8 126057086.661 8      2907.574          48.000    23987860.445 8  96589214.439 8      2227.968          50.000
E11  22644270.781 8 118996437.432 8      -333.766          51.000    22644268.828 8  91179097.850 8      -255.719          49.000
> 2020 05 01 19 14  0.0000000  0 17        .000000000000
G03  23316071.438 6 122526787.036 6      3302.422          36.000    23316084.648 5  95475436.759 5      2573.316          35.000
G08  20783614.445 8 109218631.083 8     -1653.938          51.000    20783615.438 8  85105429.451 8     -1288.782          51.000
G10  23546050.992 5 123735293.573 5     -3127.074          33.000    23546069.484 4  96417229.605 4     -2436.684          28.000
G11  19935353.172 8 104760994.104 8       660.930          50.000    19935351.594 8  81631938.515 8       515.010          48.000
G14  22417871.797 6 117806742.994 6      1730.930          41.000    22417869.570 5  91797482.097 5      1348.773          35.000
G22  21555472.547 8 113274815.976 8      2040.316          51.000    21555469.273 7  88266077.322 7      1589.857          46.000
G27  22755912.219 7 119583103.898 7     -3299.438          45.000    22755911.781 7  93181628.690 7     -2570.993          44.000
G32  22028213.789 6 115759036.875 6       331.602          38.000    22028209.523 6  90201849.739 6       258.385          36.000
R06  19676809.539 8 104999289.487 8     -1436.203          48.000
R07  20094492.391 8 107567432.708 8      2698.352          50.000    20094495.242 7  83663578.794 7      2098.718          43.000
R21  20058626.914 8 107337738.492 8     -1626.750          50.000    20058629.023 7  83484924.021 7     -1265.250          46.000
C05  39643882.586 5 206436099.287 5       -32.441          34.000    39643880.266 6 159629477.658 6       -25.167          38.000
C21  23476930.055 8 122250566.235 8      2715.188          51.000
C22  21999109.953 8 114555218.226 8      -138.719          51.000
E04  24310923.516 8 127754834.023 8       620.508          51.000    24310925.688 8  97890061.187 8       475.436          51.000
E09  23971323.133 8 125970207.181 8      2894.793          50.000    23971329.023 8  96522644.480 8      2218.160          51.000
E11  22646246.477 8 119006819.358 8      -347.816          51.000    22646244.586 8  91187052.816 8      -266.515          49.000
> 2020 05 01 19 14 30.0000000  0 17        .000000000000
