     3.02           OBSERVATION DATA    M (MIXED)           RINEX VERSION / TYPE
SAVERINEX           SC600               20200513 055931 LCL PGM / RUN BY / DATE
       G = GPS       R = GLONASS       C = COMPASS          COMMENT
       S = SBAS      J = QZSS          E = GALILEO          COMMENT
BEAN                                                        MARKER NAME
1                                                           MARKER NUMBER
GEODETIC                                                    MARKER TYPE
Unige DICCA         GTER                                    OBSERVER / AGENCY
SC60291900056       SC600               2.12(191226)        REC # / TYPE / VERS
                    HEMA45          NONE                    ANT # / TYPE
  4509407.8091   693652.4678  4442337.6214                  APPROX POSITION XYZ
        0.0000        0.0000        0.0000                  ANTENNA: DELTA H/E/N
G    8 C1C L1C D1C S1C C2Y L2Y D2Y S2Y                      SYS / # / OBS TYPES
R    8 C1C L1C D1C S1C C2P L2P D2P S2P                      SYS / # / OBS TYPES
C    8 C1I L1I D1I S1I C7I L7I D7I S7I                      SYS / # / OBS TYPES
E    8 C1C L1C D1C S1C C7Q L7Q D7Q S7Q                      SYS / # / OBS TYPES
DBHZ                                                        COMMENT
     30.000                                                 INTERVAL
  2020    05    13    03    00    0.0000000     GPS         TIME OF FIRST OBS
  2020    05    13    03    59   30.0000000     GPS         TIME OF LAST OBS
     0                                                      RCV CLOCK OFFS APPL
G L1C  0.00000                                              SYS / PHASE SHIFT
G L2Y  0.00000                                              SYS / PHASE SHIFT
R L1C  0.00000                                              SYS / PHASE SHIFT
R L2P  0.25000                                              SYS / PHASE SHIFT
C L1I  0.00000                                              SYS / PHASE SHIFT
C L7I  0.00000                                              SYS / PHASE SHIFT
E L1C  0.50000                                              SYS / PHASE SHIFT
E L7Q -0.25000                                              SYS / PHASE SHIFT
 15 R02 -4 R03  5 R04  6 R05  1 R06 -4 R09 -2 R10 -5 R13 -2 GLONASS SLOT / FRQ #
    R14 -7 R15  0 R16 -1 R17  4 R18 -3 R19  3 R20  2        GLONASS SLOT / FRQ #
 C1C   71.950 C2C   71.950 C2P   71.950                     GLONASS COD/PHS/BIS
    18                                                      LEAP SECONDS
*** Above antenna height is from mark to ANTENNA BOTTOM.    COMMENT
    17     4        0.0000        ANT MEASURE TYPE/HEIGT    COMMENT
    0.0000    0.0000    0.0458    0.0405    0.0000          COMMENT
                    BASE STATION                            COMMENT
                                                            END OF HEADER
> 2020 05 13 03 00  0.0000000  0 13        .000000000000
G05  20570266.531 8 108097470.862 8      -300.512          51.000    20570265.648 8  84231793.249 8      -234.165          51.000
G07  22075122.766 6 116005556.127 6     -2234.223          39.000    22075121.164 6  90393936.342 6     -1740.953          39.000
G28  22191769.078 7 116618566.988 7      2657.090          42.000    22191767.336 6  90871639.710 6      2070.457          41.000
G30  20432351.727 8 107372734.343 8      -619.156          51.000    20432352.883 8  83667069.649 8      -482.456          51.000
R05  20867015.477 8 111546154.633 8     -2711.965          51.000    20867018.969 7  86758118.104 7     -2109.306          47.000
R16  19245987.039 7 102808616.405 7      1176.133          47.000    19245988.117 7  79962241.469 7       914.770          43.000
C05  39801867.172 6 207258765.612 6          .785          37.000    39801864.570 6 160265611.746 6          .438          41.000
C19  21480848.953 8 111856431.458 8      -309.066          51.000
C20  24267951.875 7 126369611.793 7     -2790.551          46.000
E01  25359497.055 5 133265056.321 5     -1552.875          34.000    25359501.172 5 102112200.317 5     -1189.889          32.000
E04  25062566.281 7 131704788.322 7     -1797.215          44.000    25062566.172 7 100916647.059 7     -1377.111          47.000
E09  21538959.375 8 113187980.402 8       538.535          51.000    21538961.125 8  86728479.917 8       412.608          51.000
E31  24035423.734 8 126307050.793 8      1352.184          48.000    24035427.977 8  96780754.613 8      1036.098          51.000
> 2020 05 13 03 00 30.0000000  0 14        .000000000000
G05  20572037.539 8 108106778.333 8      -320.566          51.000    20572036.648 8  84239045.812 8      -249.792          51.000
G07  22087896.992 5 116072681.248 5     -2242.090          32.000    22087894.445 5  90446242.599 5     -1747.074          32.000
G28  22176630.102 7 116539015.510 7      2645.473          45.000    22176628.977 7  90809651.495 7      2061.404          42.000
G30  20435925.461 8 107391514.198 8      -633.586          51.000    20435926.617 8  83681703.304 8      -493.703          51.000
R05  20882276.117 8 111627727.016 8     -2726.852          51.000    20882278.672 8  86821563.282 8     -2120.888          48.000
R06  19342236.484 6 103213877.519 6      1306.422          36.000
R16  19239450.852 7 102773701.082 7      1150.902          47.000    19239451.773 7  79935085.091 7       895.146          42.000
C05  39801861.812 6 207258738.291 6          .410          36.000    39801859.359 6 160265590.598 6          .393          41.000
C19  21482669.109 8 111865909.670 8      -323.484          51.000
C20  24284050.000 8 126453438.843 8     -2798.539          48.000
E01  25368394.453 6 133311810.974 6     -1564.918          37.000
E04  25072842.312 7 131758793.519 7     -1803.609          44.000    25072843.594 7 100958027.688 7     -1382.061          47.000
E09  21535904.617 8 113171928.191 8       530.879          51.000    21535906.445 8  86716180.161 8       406.807          51.000
E31  24027740.461 8 126266676.396 8      1338.797          48.000    24027743.922 8  96749818.391 8      1025.798          50.000
> 2020 05 13 03 01  0.0000000  0 14        .000000000000
G05  20573923.484 8 108116688.922 8      -339.789          51.000    20573922.414 8  84246768.355 8      -264.771          51.000
G07  22100717.062 6 116140049.055 6     -2248.922          37.000    22100713.781 6  90498736.910 6     -1752.407          37.000
G28  22161561.914 8 116459827.842 8      2634.055          48.000    22161560.734 7  90747946.803 7      2052.510          42.000
G30  20439582.211 8 107410730.269 8      -647.145          51.000    20439583.211 8  83696676.876 8      -504.268          51.000
R05  20897621.109 8 111709750.006 8     -2741.023          51.000    20897622.836 8  86885358.923 8     -2131.907          48.000
R06  19334942.031 5 103174959.316 5      1289.047          33.000
R16  19233057.281 7 102739548.351 7      1126.398          47.000    19233058.914 7  79908521.890 7       876.091          43.000
C05  39801859.016 6 207258723.475 6          .855          36.000    39801856.570 6 160265579.175 6          .755          40.000
C19  21484573.211 8 111875824.460 8      -337.199          51.000
C20  24300196.305 8 126537510.099 8     -2805.852          50.000
E01  25377361.938 6 133358932.705 6     -1576.320          38.000    25377365.930 5 102184135.535 5     -1207.719          33.000
E04  25083157.609 7 131813002.199 7     -1809.785          45.000    25083159.961 7 100999564.225 7     -1386.778          46.000
E09  21532895.180 8 113156113.828 8       523.738          51.000    21532896.844 8  86704062.667 8       401.267          51.000
E31  24020136.117 8 126226712.947 8      1325.777          50.000    24020137.836 8  96719197.063 8      1015.822          50.000
> 2020 05 13 03 01 30.0000000  0 15        .000000000000
G05  20575916.125 8 108127159.115 8      -356.984          51.000    20575914.922 8  84254926.935 8      -278.170          51.000
G07  22113574.617 6 116207615.268 6     -2254.203          40.000    22113570.641 6  90551385.879 6     -1756.525          39.000
G28  22146555.445 8 116380963.400 8      2624.742          48.000    22146554.273 7  90686494.007 7      2045.257          43.000
G30  20443313.547 8 107430338.212 8      -658.684          51.000    20443314.469 8  83711955.817 8      -513.260          51.000
R05  20913041.570 8 111792178.618 8     -2753.070          51.000    20913043.125 8  86949470.030 8     -2141.277          48.000
R06  19327740.586 5 103136538.118 5      1273.855          34.000
R15  20840584.930 5 111365696.350 5     -3077.688          31.000
R16  19226798.500 7 102706115.044 7      1103.746          47.000    19226800.492 7  79882518.233 7       858.472          43.000
C05  39801850.367 6 207258678.413 6         3.148          36.000    39801847.938 6 160265544.308 6         2.589          41.000
C19  21486553.234 8 111886133.530 8      -348.949          51.000
C20  24316381.523 8 126621781.638 8     -2811.098          50.000
E01  25386391.180 5 133406376.726 5     -1585.516          35.000
E04  25093503.680 7 131867371.163 7     -1813.785          45.000    25093506.180 7 101041223.537 7     -1389.586          45.000
E09  21529923.070 8 113140494.919 8       518.676          51.000    21529924.391 8  86692094.929 8       397.427          51.000
E31  24012602.148 8 126187117.920 8      1314.984          51.000    24012602.906 8  96688858.051 8      1007.567          51.000
> 2020 05 13 03 02  0.0000000  0 16        .000000000000
G05  20578015.117 8 108138188.219 8      -379.184          51.000    20578013.906 8  84263521.024 8      -295.468          51.000
G07  22126469.305 6 116275376.618 6     -2264.215          39.000    22126464.680 6  90604186.905 6     -1764.326          39.000
G13  21659689.109 5 113822434.398 5      2231.754          32.000
G28  22131610.406 7 116302423.724 7      2610.414          47.000    22131609.336 7  90625294.273 7      2034.089          44.000
G30  20447119.031 8 107450335.860 8      -675.250          51.000    20447119.859 8  83727538.399 8      -526.169          51.000
R05  20928537.320 8 111875010.649 8     -2770.008          51.000    20928538.719 8  87013894.948 8     -2154.451          48.000
R06  19320633.289 5 103098614.909 5      1253.645          31.000
R15  20857914.328 5 111458264.498 5     -3095.008          30.000
R16  19220674.023 7 102673400.087 7      1076.312          46.000    19220676.047 7  79857073.270 7       837.132          43.000
C05  39801835.711 6 207258602.002 6          .688          36.000    39801833.266 6 160265485.231 6          .607          40.000
C19  21488608.695 8 111896836.245 8      -365.477          51.000
C20  24332603.836 8 126706251.255 8     -2821.047          49.000
E01  25395481.109 6 133454140.572 6     -1599.348          37.000    25395486.328 5 102257093.999 5     -1225.540          32.000
E04  25103879.914 7 131921899.235 7     -1822.559          44.000    25103881.531 7 101083004.766 7     -1396.431          43.000
E09  21526988.141 8 113125071.113 8       508.711          51.000    21526989.219 8  86680276.694 8       389.747          51.000
E31  24005138.289 8 126147890.915 8      1299.258          51.000    24005139.062 8  96658801.035 8       995.460          51.000
> 2020 05 13 03 02 30.0000000  0 15        .000000000000
G05  20580238.867 8 108149873.385 8      -398.445          51.000    20580237.680 8  84272626.330 8      -310.477          51.000
G07  22139419.219 5 116343428.927 5     -2271.492          34.000    22139414.773 5  90657214.683 5     -1769.991          33.000
G28  22116745.812 7 116224308.815 7      2598.625          46.000    22116745.070 7  90564425.519 7      2024.903          46.000
G30  20451016.789 8 107470819.454 8      -688.953          51.000    20451017.664 8  83743499.650 8      -536.847          51.000
R05  20944126.094 8 111958344.187 8     -2784.141          50.000    20944128.391 8  87078709.912 8     -2165.443          50.000
R06  19313638.430 5 103061291.206 5      1235.988          35.000
R15  20875336.492 5 111551456.472 5     -3110.027          35.000
R16  19214702.711 8 102641503.226 8      1051.508          48.000    19214704.844 7  79832264.607 7       817.839          44.000
C05  39801833.586 6 207258590.845 6          .906          37.000    39801831.039 6 160265476.580 6         1.051          40.000
C19  21490758.383 8 111908029.652 8      -379.410          51.000
C20  24348881.047 7 126791014.498 7     -2828.324          47.000
E01  25404650.305 6 133502320.446 6     -1611.312          36.000    25404655.281 5 102294019.043 5     -1234.528          32.000
E04  25114304.727 7 131976683.912 7     -1828.602          44.000    25114306.305 7 101124982.560 7     -1401.017          44.000
E09  21524108.953 8 113109940.703 8       501.379          51.000    21524109.984 8  86668683.269 8       384.123          51.000
E31  23997763.008 8 126109130.097 8      1286.141          51.000    23997763.984 8  96629101.203 8       985.460          51.000
> 2020 05 13 03 03  0.0000000  0 16        .000000000000
G05  20582563.961 8 108162091.309 8      -417.105          51.000    20582562.453 8  84282146.793 8      -325.017          51.000
G07  22152400.000 6 116411646.993 6     -2277.441          38.000    22152397.781 6  90710371.627 6     -1774.630          39.000
G09  24448300.391 5 128476685.684 5     -3053.461          35.000
G28  22101938.906 8 116146497.640 8      2587.754          48.000    22101938.125 7  90503793.455 7      2016.432          46.000
G30  20454983.320 8 107491664.261 8      -701.695          51.000    20454984.422 8  83759742.362 8      -546.776          51.000
R05  20959784.469 8 112042052.228 8     -2797.426          50.000    20959787.914 8  87143816.183 8     -2175.773          49.000
R06  19306733.570 6 103024443.920 6      1219.430          37.000
R15  20892831.383 6 111644931.725 6     -3123.590          37.000
R16  19208861.188 8 102610299.175 8      1027.598          48.000    19208863.188 7  79807994.802 7       799.243          43.000
C05  39801820.352 6 207258522.492 6         2.512          37.000    39801817.945 6 160265423.747 6         1.924          41.000
C19  21492978.930 8 111919591.725 8      -392.477          51.000
C20  24365190.156 7 126875947.824 7     -2834.773          45.000
E01  25413874.523 6 133550791.110 6     -1621.477          36.000    25413875.945 5 102331154.956 5     -1242.849          30.000
E04  25124755.328 7 132031601.442 7     -1833.785          45.000    25124756.367 7 101167062.169 7     -1404.911          44.000
E09  21521262.109 8 113094980.872 8       494.859          51.000    21521263.203 8  86657220.535 8       379.226          51.000
E31  23990452.719 8 126070712.511 8      1273.957          51.000    23990453.969 8  96599664.361 8       976.143          51.000
> 2020 05 13 03 03 30.0000000  0 16        .000000000000
G05  20585014.430 8 108174968.830 8      -435.863          51.000    20585012.883 8  84292181.223 8      -339.634          51.000
G07  22165436.617 6 116480156.695 6     -2284.039          41.000    22165436.188 6  90763755.801 6     -1779.771          36.000
G28  22087214.703 8 116069119.806 8      2576.379          50.000    22087213.328 7  90443499.045 7      2007.568          46.000
G30  20459042.641 8 107512996.256 8      -714.797          51.000    20459044.008 8  83776364.696 8      -556.985          51.000
R05  20975537.445 8 112126263.056 8     -2810.891          50.000    20975541.078 8  87209313.542 8     -2186.248          48.000
R06  19299943.016 6 102988204.931 6      1202.227          37.000
R09  23184760.133 5 123805335.144 5      4251.059          35.000    23184769.992 5  96293070.053 5      3306.379          30.000
R15  20910421.484 5 111738946.720 5     -3137.625          34.000
R16  19203173.625 8 102579917.469 8      1003.500          48.000    19203175.086 7  79784364.584 7       780.500          42.000
C05  39801820.523 6 207258522.955 6         3.156          37.000    39801818.039 6 160265424.102 6         2.480          41.000
C19  21495294.430 8 111931648.899 8      -405.793          51.000
C20  24381555.898 7 126961176.123 7     -2841.633          46.000
E01  25423176.680 5 133599698.455 5     -1632.281          35.000
E04  25135255.594 7 132086778.957 7     -1839.246          45.000    25135254.891 7 101209341.019 7     -1409.137          42.000
E09  21518471.961 8 113080319.577 8       488.090          51.000    21518473.164 8  86645986.550 8       373.991          51.000
E31  23983231.945 8 126032765.969 8      1261.410          51.000    23983233.422 8  96570588.447 8       966.544          51.000
> 2020 05 13 03 04  0.0000000  0 16        .000000000000
G05  20587569.750 8 108188397.670 8      -458.934          50.000    20587568.227 8  84302645.248 8      -357.611          51.000
G07  22178508.094 6 116548848.205 6     -2294.797          41.000    22178507.211 5  90817281.552 5     -1788.156          34.000
G28  22072553.219 8 115992070.215 8      2560.711          51.000    22072551.234 7  90383460.404 7      1995.359          46.000
G30  20463173.750 8 107534705.937 8      -732.129          51.000    20463175.227 8  83793281.334 8      -570.490          51.000
R05  20991364.359 8 112210865.375 8     -2828.715          51.000    20991367.852 8  87275115.335 8     -2200.112          48.000
R06  19293246.078 6 102952466.572 6      1180.961          37.000
R09  23160906.383 5 123677945.760 5      4241.180          32.000    23160918.945 5  96194003.471 5      3298.695          30.000
R15  20928096.086 5 111833379.612 5     -3155.742          35.000
R16  19197619.508 8 102550248.585 8       974.887          48.000    19197620.812 7  79761288.800 7       758.245          42.000
C05  39801813.195 6 207258484.897 6         -.105          36.000    39801810.703 6 160265394.691 6         -.148          41.000
C19  21497684.500 8 111944094.244 8      -423.438          51.000
C20  24397959.094 7 127046590.889 7     -2852.285          47.000
E01  25432538.109 5 133648889.646 5     -1647.125          35.000    25432539.273 5 102406293.252 5     -1261.601          31.000
E04  25145784.133 7 132142108.138 7     -1848.844          43.000    25145780.570 6 101251736.137 6     -1416.808          40.000
E09  21515718.086 8 113065849.293 8       476.977          51.000    21515719.430 8  86634898.930 8       365.520          51.000
E31  23976080.172 8 125995182.779 8      1244.566          51.000    23976081.984 8  96541790.942 8       953.629          51.000
> 2020 05 13 03 04 30.0000000  0 15        .000000000000
G05  20590230.703 8 108202381.469 8      -473.062          50.000    20590229.094 8  84313541.738 8      -368.620          50.000
G07  22191614.812 6 116617723.512 6     -2296.461          37.000    22191611.328 6  90870950.592 6     -1789.447          37.000
G28  22057955.484 8 115915354.921 8      2553.965          51.000    22057953.086 7  90323682.263 7      1990.102          45.000
G30  20467377.281 8 107556795.904 8      -740.289          51.000    20467378.844 8  83810494.296 8      -576.849          51.000
R05  21007265.359 8 112295861.720 8     -2837.379          51.000    21007267.648 7  87341223.574 7     -2206.850          46.000
R06  19286643.953 6 102917235.341 6      1168.422          38.000
R15  20945837.344 6 111928154.168 6     -3164.816          36.000
R16  19192199.602 8 102521296.315 8       955.574          48.000    19192200.727 7  79738770.375 7       743.224          43.000
C05  39801799.156 6 207258412.064 6         5.824          37.000    39801796.742 6 160265338.392 6         4.029          41.000
C19  21500150.039 8 111956931.943 8      -432.145          51.000
C20  24414399.180 7 127132194.726 7     -2854.266          47.000
E01  25441959.250 6 133698392.968 6     -1652.699          36.000    25441968.125 5 102444244.478 5     -1266.704          32.000
E04  25156342.180 7 132197592.611 7     -1849.539          44.000    25156337.859 6 101294250.235 6     -1417.371          41.000
E09  21513001.531 8 113051574.551 8       474.891          51.000    21513002.969 8  86623961.137 8       363.904          51.000
E31  23968998.086 8 125957967.344 8      1236.746          51.000    23969000.203 8  96513275.211 8       947.622          51.000
> 2020 05 13 03 05  0.0000000  0 16        .000000000000
G05  20593010.438 8 108216988.946 8      -493.535          50.000    20593008.906 8  84324924.178 8      -384.573          50.000
G07  22204769.273 5 116686849.967 5     -2303.312          34.000    22204764.469 5  90924815.361 5     -1794.789          34.000
G09  24518210.141 5 128844059.389 5     -3064.938          34.000
G28  22043434.672 8 115839045.493 8      2540.688          50.000    22043432.344 7  90264220.371 7      1979.756          44.000
G30  20471666.078 8 107579334.025 8      -754.992          51.000    20471667.914 8  83828056.466 8      -588.306          51.000
R05  21023252.609 8 112381321.223 8     -2852.449          51.000    21023254.102 7  87407691.982 7     -2218.575          46.000
R06  19280150.461 6 102882582.587 6      1149.457          38.000
R15  20963669.758 6 112023460.079 6     -3180.348          37.000
R16  19186927.023 8 102493131.178 8       929.613          48.000    19186928.281 7  79716864.172 7       723.033          43.000
C05  39801791.633 6 207258372.995 6         4.371          37.000    39801789.250 6 160265308.153 6         3.516          41.000
C19  21502703.781 8 111970230.813 8      -447.176          51.000
C20  24430887.742 7 127218054.919 7     -2862.469          45.000
E01  25451451.008 6 133748273.115 6     -1665.023          36.000    25451449.211 5 102482438.269 5     -1275.659          30.000
E04  25166943.344 7 132253301.424 7     -1856.812          44.000    25166940.477 7 101336936.189 7     -1422.663          43.000
E09  21510335.641 8 113037565.191 8       466.449          51.000    21510337.047 8  86613226.688 8       357.382          51.000
E31  23961999.102 8 125921189.298 8      1222.504          51.000    23962001.500 8  96485094.613 8       936.736          51.000
> 2020 05 13 03 05 30.0000000  0 15        .000000000000
G05  20595905.398 8 108232200.954 8      -514.836          51.000    20595903.734 8  84336777.697 8      -401.171          51.000
G07  22217967.469 5 116756207.149 5     -2313.250          34.000    22217963.547 5  90978860.013 5     -1802.526          35.000
G28  22028986.883 7 115763125.126 7      2526.539          47.000    22028985.703 7  90205061.652 7      1968.732          43.000
G30  20476036.188 8 107602299.788 8      -770.262          51.000    20476038.062 8  83845951.865 8      -600.207          51.000
R05  21039322.844 8 112467223.183 8     -2868.398          51.000    21039323.930 8  87474504.608 8     -2230.977          48.000
R06  19273762.320 6 102848492.507 6      1129.191          38.000
R15  20981586.352 5 112119221.020 5     -3196.551          33.000
R16  19181798.289 8 102465733.786 8       902.797          48.000    19181799.430 7  79695555.104 7       702.175          43.000
C05  39801786.812 6 207258348.530 6         3.094          37.000    39801784.516 6 160265289.241 6         2.042          41.000
C19  21505342.586 8 111983972.156 8      -463.105          51.000
C20  24447420.938 7 127304151.325 7     -2871.430          46.000
E01  25461010.695 5 133798509.299 5     -1677.961          35.000    25461004.297 5 102520915.924 5     -1285.884          30.000
E04  25177583.453 7 132309215.279 7     -1865.043          42.000    25177582.906 7 101379779.241 7     -1428.984          44.000
E09  21507716.938 8 113023802.774 8       456.918          51.000    21507718.109 8  86602681.469 8       350.046          51.000
E31  23955079.836 8 125884829.995 8      1207.230          51.000    23955082.305 8  96457234.897 8       925.006          51.000
> 2020 05 13 03 06  0.0000000  0 15        .000000000000
G05  20598909.969 8 108247988.513 8      -532.734          51.000    20598908.094 8  84349079.699 8      -415.118          51.000
G07  22231203.625 5 116825764.585 5     -2318.441          31.000    22231201.742 5  91033060.622 5     -1806.581          31.000
G28  22014607.180 7 115687567.790 7      2515.598          44.000    22014607.359 7  90146185.789 7      1960.209          42.000
G30  20480482.070 8 107625663.306 8      -782.293          51.000    20480483.883 8  83864157.206 8      -609.579          51.000
R05  21055469.648 8 112553537.032 8     -2880.875          50.000    21055471.477 8  87541637.573 8     -2240.681          49.000
R06  19267474.297 6 102814937.948 6      1112.852          39.000
R15  20999582.867 5 112215379.696 5     -3208.223          30.000
R16  19176807.750 7 102439075.332 7       879.566          47.000    19176809.211 7  79674820.767 7       684.107          43.000
C05  39801779.516 6 207258309.239 6         5.000          37.000    39801777.117 6 160265259.614 6         3.664          40.000
C19  21508061.086 8 111998127.880 8      -475.680          51.000
C20  24463995.195 8 127390454.281 8     -2877.125          48.000
E01  25470633.188 5 133849071.362 5     -1687.789          35.000    25470628.867 5 102559654.208 5     -1292.774          31.000
E04  25188257.016 7 132365305.382 7     -1869.473          44.000    25188257.539 7 101422757.347 7     -1432.366          44.000
E09  21505140.008 8 113010259.311 8       450.953          51.000    21505140.953 8  86592304.020 8       345.533          51.000
E31  23948235.125 8 125848861.238 8      1195.586          51.000    23948237.039 8  96429674.436 8       916.137          51.000
> 2020 05 13 03 06 30.0000000  0 15        .000000000000
G05  20602022.242 8 108264343.061 8      -552.086          51.000    20602020.328 8  84361823.512 8      -430.197          51.000
G07  22244476.117 5 116895512.559 5     -2326.848          34.000    22244475.359 5  91087409.702 5     -1813.119          35.000
G28  22000296.070 7 115612367.601 7      2503.230          46.000    22000296.547 7  90087588.266 7      1950.569          42.000
G30  20485001.797 8 107649414.955 8      -795.676          51.000    20485003.789 8  83882665.001 8      -620.007          51.000
R05  21071691.203 8 112640253.076 8     -2894.684          49.000    21071693.914 8  87609083.399 8     -2251.418          49.000
R06  19261285.547 6 102781912.315 6      1094.688          39.000
R09  23042179.508 5 123043969.332 5      4214.344          31.000
R16  19171953.930 7 102413147.129 7       854.711          47.000    19171955.531 7  79654654.388 7       664.775          43.000
C05  39801767.898 6 207258248.798 6         5.090          37.000    39801765.562 6 160265212.891 6         3.718          41.000
C19  21510857.258 8 112012689.992 8      -489.691          51.000
C20  24480608.219 8 127476954.374 8     -2884.129          50.000
E01  25480314.445 5 133899958.452 5     -1698.852          34.000    25480317.211 5 102598669.721 5     -1301.487          32.000
E04  25198962.891 7 132421563.203 7     -1875.473          46.000    25198963.602 7 101465864.010 7     -1437.077          45.000
E09  21502603.219 8 112996927.237 8       443.367          51.000    21502604.094 8  86582088.535 8       339.711          51.000
E31  23941463.422 8 125813275.228 8      1182.309          51.000    23941464.727 8  96402407.267 8       905.898          51.000
> 2020 05 13 03 07  0.0000000  0 15        .000000000000
G05  20605240.023 8 108281253.329 8      -575.156          50.000    20605238.359 8  84375000.350 8      -448.174          50.000
G07  22257782.172 6 116965438.034 6     -2335.910          37.000    22257782.078 6  91141897.129 6     -1820.190          36.000
G28  21986052.273 8 115537516.180 8      2486.938          49.000    21986051.945 7  90029262.490 7      1937.873          43.000
G30  20489593.094 8 107673542.637 8      -812.684          51.000    20489595.102 8  83901465.802 8      -633.260          51.000
R05  21087985.656 8 112727358.665 8     -2912.199          50.000    21087988.766 8  87676832.286 8     -2265.044          49.000
R06  19255194.070 6 102749407.300 6      1072.461          39.000
R09  23018535.727 5 122917705.577 5      4203.430          31.000
R16  19167234.703 7 102387938.204 7       825.988          47.000    19167236.703 7  79635047.463 7       642.435          44.000
C05  39801749.914 6 207258155.406 6         1.645          37.000    39801747.594 6 160265140.655 6         1.078          41.000
C19  21513729.391 8 112027648.077 8      -507.359          51.000
C20  24497256.820 8 127563639.624 8     -2894.801          50.000
E01  25490053.047 5 133951133.109 5     -1713.164          35.000    25490059.125 5 102637904.871 5     -1312.855          31.000
E04  25209698.438 7 132477977.797 7     -1885.367          45.000    25209699.773 7 101509090.772 7     -1444.638          47.000
E09  21500104.555 8 112983796.394 8       432.012          51.000    21500105.547 8  86572027.238 8       331.043          51.000
E31  23934762.547 8 125778061.610 8      1165.293          51.000    23934763.648 8  96375425.444 8       892.842          51.000
> 2020 05 13 03 07 30.0000000  0 16        .000000000000
G05  20608580.289 8 108298807.582 8      -593.516          51.000    20608579.016 8  84388678.983 8      -462.477          51.000
G07  22271138.672 5 117035628.285 5     -2341.652          35.000    22271139.102 5  91196590.850 5     -1824.664          34.000
G28  21971892.539 8 115463104.254 8      2475.371          50.000    21971891.602 7  89971279.162 7      1928.861          44.000
G30  20494272.555 8 107698133.319 8      -825.094          51.000    20494274.250 8  83920627.390 8      -642.927          51.000
R05  21104370.289 8 112814942.631 8     -2925.105          50.000    21104373.367 8  87744953.150 8     -2275.082          49.000
R06  19249217.336 6 102717514.673 6      1055.129          41.000
R09  22994938.367 5 122791701.946 5      4197.719          33.000
R15  21054024.344 6 112506253.334 6     -3252.789          38.000
R16  19162666.945 7 102363538.685 7       802.102          46.000    19162669.594 7  79616070.068 7       623.857          44.000
C05  39801742.594 6 207258117.590 6         2.535          36.000    39801740.195 6 160265110.638 6         2.123          41.000
C19  21516694.586 8 112043089.919 8      -520.559          51.000
C20  24513956.273 8 127650596.347 8     -2900.785          48.000
E01  25499866.758 6 134002704.279 6     -1723.391          38.000    25499868.172 5 102677407.162 5     -1320.400          31.000
E04  25220480.727 7 132534637.356 7     -1890.391          45.000    25220482.109 7 101552505.213 7     -1448.529          47.000
E09  21497661.078 8 112970955.853 8       425.516          51.000    21497662.211 8  86562188.378 8       326.062          51.000
E31  23928149.336 8 125743309.196 8      1153.059          51.000    23928150.500 8  96348797.008 8       883.545          51.000
> 2020 05 13 03 08  0.0000000  0 16        .000000000000
G05  20612028.094 8 108316925.898 8      -614.176          51.000    20612026.695 8  84402797.161 8      -478.579          51.000
G07  22284530.312 5 117106002.160 5     -2349.438          35.000    22284530.734 5  91251427.671 5     -1830.734          34.000
G28  21957801.719 8 115389054.974 8      2461.500          49.000    21957800.484 7  89913578.410 7      1918.052          44.000
G30  20499024.852 8 107723106.323 8      -839.531          51.000    20499026.453 8  83940086.882 8      -654.180          51.000
R05  21120828.820 8 112902922.863 8     -2940.145          51.000    21120831.625 7  87813382.181 7     -2286.782          47.000
R06  19243340.727 6 102686156.006 6      1035.738          40.000
R09  22971375.914 5 122665880.123 5      4189.340          32.000
R15  21072322.055 5 112604055.539 5     -3267.637          35.000    21072331.953 4  87581012.005 4     -2541.495          25.000
R16  19158235.195 7 102339867.219 7       776.188          45.000    19158238.531 7  79597658.941 7       603.701          44.000
C05  39801730.477 6 207258054.589 6         1.633          36.000    39801728.148 6 160265061.930 6         1.238          41.000
C19  21519737.453 8 112058937.113 8      -535.789          51.000
C20  24530691.828 8 127737744.633 8     -2908.789          48.000
E01  25509739.984 6 134054585.846 6     -1734.898          37.000    25509738.758 5 102717151.544 5     -1329.909          32.000
E04  25231294.633 7 132591462.303 7     -1897.871          45.000    25231295.648 8 101596046.376 8     -1454.033          48.000
E09  21495257.906 8 112958326.908 8       416.641          51.000    21495259.117 8  86552511.652 8       319.271          51.000
E31  23921608.727 8 125708939.060 8      1138.504          51.000    23921610.039 8  96322461.474 8       872.354          51.000
> 2020 05 13 03 08 30.0000000  0 16        .000000000000
G05  20615588.633 8 108335636.551 8      -633.480          51.000    20615587.133 8  84417376.896 8      -493.621          51.000
G07  22297962.148 5 117176587.037 5     -2356.148          35.000    22297962.547 5  91306428.802 5     -1835.963          35.000
G28  21943785.680 8 115315399.289 8      2448.688          49.000    21943784.195 7  89856184.370 7      1908.068          44.000
G30  20503855.086 8 107748489.021 8      -852.812          51.000    20503856.875 8  83959865.626 8      -664.529          51.000
R05  21137366.758 8 112991327.082 8     -2953.762          51.000    21137369.172 7  87882140.998 7     -2297.370          46.000
R06  19237569.992 6 102655363.007 6      1017.270          41.000
R09  22947853.781 5 122540272.227 5      4183.430          33.000    22947863.523 4  95309128.901 4      3253.776          24.000
R15  21090707.500 5 112702331.628 5     -3280.770          30.000
R16  19153945.492 7 102316952.947 7       751.180          46.000    19153949.219 7  79579836.734 7       584.251          44.000
C05  39801719.242 6 207257995.745 6         2.051          37.000    39801716.820 6 160265016.438 6         1.411          41.000
C19  21522863.727 8 112075218.311 8      -549.938          51.000
C20  24547469.812 8 127825111.609 8     -2915.840          49.000
E01  25519677.273 5 134106809.031 5     -1746.734          31.000    25519676.016 5 102757162.831 5     -1337.883          33.000
E04  25242144.977 7 132648481.154 7     -1903.672          42.000    25242145.938 7 101639736.142 7     -1458.756          47.000
E09  21492900.578 8 112945938.959 8       408.895          51.000    21492901.852 8  86543019.589 8       313.327          51.000
E31  23915145.867 8 125674980.289 8      1125.082          50.000    23915147.867 8  96296441.137 8       862.106          51.000
> 2020 05 13 03 09  0.0000000  0 15        .000000000000
G05  20619262.852 8 108354944.973 8      -655.516          51.000    20619261.273 8  84432422.415 8      -510.791          51.000
G07  22311435.328 5 117247386.667 5     -2365.680          35.000    22311434.688 5  91361597.549 5     -1843.387          32.000
G28  21929846.359 8 115242145.716 8      2433.352          49.000    21929844.703 7  89799103.667 7      1896.121          45.000
G30  20508764.172 8 107774285.952 8      -868.672          51.000    20508765.828 8  83979967.134 8      -676.887          51.000
R05  21153984.578 8 113080159.938 8     -2970.035          51.000    21153986.758 7  87951233.173 7     -2310.027          46.000
R06  19231906.680 6 102625143.231 6       995.867          41.000
R15  21109167.430 5 112800923.917 5     -3296.801          33.000    21109166.656 4  87734071.292 4     -2564.175          29.000
R16  19149798.719 7 102294801.952 7       723.703          46.000    19149802.406 7  79562608.202 7       562.880          44.000
C05  39801709.766 6 207257946.767 6         -.316          37.000    39801707.391 6 160264978.549 6         -.109          40.000
C19  21526074.805 8 112091939.471 8      -566.453          51.000
C20  24564290.547 8 127912701.798 8     -2925.121          49.000
E01                                                                  25529678.938 5 102797435.230 5     -1348.161          34.000
E04  25253032.648 7 132705699.607 7     -1912.316          42.000    25253033.953 7 101683578.833 7     -1465.353          47.000
E09  21490590.359 8 112933798.498 8       398.777          51.000    21490591.672 8  86533717.158 8       305.566          51.000
E31  23908762.156 8 125641439.158 8      1109.246          49.000    23908765.500 8  96270740.800 8       849.975          51.000
> 2020 05 13 03 09 30.0000000  0 15        .000000000000
G05  20623048.188 8 108374837.394 8      -667.914          51.000    20623046.711 8  84447922.975 8      -520.453          51.000
G07  22324946.734 5 117318385.712 5     -2364.816          34.000    22324945.305 5  91416921.458 5     -1842.711          33.000
G28  21915981.578 8 115169282.637 8      2427.172          51.000    21915979.766 7  89742327.275 7      1891.306          46.000
G30  20513749.250 8 107800482.122 8      -874.906          51.000    20513750.586 8  84000379.714 8      -681.745          51.000
R05  21170679.750 8 113169406.098 8     -2976.785          51.000    21170682.188 7  88020646.814 7     -2315.277          47.000
R06  19226348.625 7 102595485.872 7       984.051          42.000
R15  21127698.547 5 112899954.243 5     -3302.840          33.000    21127705.539 4  87811087.806 4     -2568.878          29.000
R16  19145792.297 7 102273400.302 7       705.996          46.000    19145795.602 7  79545962.475 7       549.108          44.000
C05  39801699.531 6 207257894.168 6         6.867          37.000    39801697.336 6 160264937.871 6         5.123          41.000
C19  21529368.070 8 112109087.342 8      -573.812          51.000
C20  24581151.797 8 128000500.502 8     -2925.238          51.000
E01                                                                  25539743.133 5 102837957.133 5     -1351.032          35.000
E04  25263955.828 7 132763103.798 7     -1911.605          42.000    25263958.016 8 101727563.852 8     -1464.817          48.000
E09  21488324.820 8 112921892.659 8       397.781          51.000    21488326.062 8  86524594.502 8       304.817          51.000
E31  23902455.438 8 125608302.508 8      1102.707          48.000    23902460.062 8  96245350.349 8       844.863          51.000
> 2020 05 13 03 10  0.0000000  0 15        .000000000000
G05  20626937.711 8 108395277.027 8      -690.641          51.000    20626936.297 8  84463849.947 8      -538.162          51.000
G28  21902184.758 8 115096776.427 8      2410.660          51.000    21902182.633 7  89685828.951 7      1878.436          46.000
G30  20518803.125 8 107827040.055 8      -891.449          51.000    20518804.477 8  84021074.227 8      -694.636          51.000
R05  21187444.750 8 113259027.325 8     -2993.828          50.000    21187447.508 7  88090352.251 7     -2328.530          46.000
R06  19220889.742 7 102566355.625 7       962.039          42.000
R09  22877513.156 5 122164620.199 5      4163.078          31.000
R15  21146300.945 5 112999354.414 5     -3319.688          34.000    21146312.555 4  87888455.549 4     -2581.982          27.000
R16  19141919.414 7 102252710.662 7       677.590          46.000    19141922.273 7  79529870.521 7       527.014          44.000
C05  39801681.812 6 207257801.025 6         3.574          36.000    39801679.680 6 160264866.609 6         2.688          40.000
C19  21532736.438 8 112126626.371 8      -591.375          51.000
C20  24598046.508 8 128088470.615 8     -2935.438          51.000
E01                                                                  25549861.336 6 102878699.624 6     -1362.124          36.000
E04  25274907.359 7 132820657.508 7     -1921.348          42.000    25274910.516 8 101771663.429 8     -1472.049          48.000
E09  21486097.180 8 112910186.002 8       386.691          51.000    21486098.211 8  86515624.470 8       296.290          51.000
E31  23896219.273 7 125575534.591 7      1085.883          47.000    23896224.648 8  96220242.411 8       832.034          51.000
> 2020 05 13 03 10 30.0000000  0 16        .000000000000
G05  20630941.125 8 108416315.068 8      -710.180          51.000    20630939.641 8  84480243.215 8      -553.387          51.000
G07  22352103.070 5 117461076.442 5     -2381.574          34.000
G28  21888466.125 8 115024681.492 8      2397.340          51.000    21888463.672 7  89629651.095 7      1868.057          46.000
G30  20523935.523 8 107854010.154 8      -904.801          51.000    20523936.766 8  84042089.899 8      -705.037          51.000
R05  21204289.750 8 113349075.010 8     -3007.562          51.000    21204292.367 7  88160389.358 7     -2339.215          47.000
R06  19215539.734 7 102537807.755 7       942.918          43.000
R09  22854152.336 5 122039856.032 5      4156.090          33.000
R15  21164977.688 6 113099189.222 6     -3332.758          37.000    21164993.594 4  87966126.339 4     -2592.145          25.000
R16  19138189.469 7 102232785.732 7       652.520          47.000    19138192.031 7  79514373.381 7       507.518          43.000
C05  39801666.391 6 207257720.549 6         3.301          36.000    39801664.227 6 160264804.366 6         2.797          40.000
C19  21536189.969 8 112144607.910 8      -605.746          51.000
C20  24614983.461 8 128176662.169 8     -2942.312          51.000
E01                                                                  25560043.562 5 102919701.095 5     -1370.307          35.000
E04  25285897.836 7 132878412.203 7     -1927.414          44.000    25285901.266 8 101815917.040 8     -1476.871          48.000
E09  21483917.461 8 112898730.941 8       378.727          51.000    21483918.242 8  86506847.219 8       290.190          51.000
E31  23890063.906 8 125543187.428 8      1072.363          48.000    23890069.430 8  96195456.916 8       821.666          51.000
> 2020 05 13 03 11  0.0000000  0 15        .000000000000
G05  20635046.148 8 108437888.246 8      -730.184          51.000    20635044.969 8  84497053.465 8      -568.974          51.000
G28  21874814.031 8 114952936.940 8      2383.445          51.000    21874811.000 7  89573746.258 7      1857.230          46.000
G30  20529134.188 8 107881328.246 8      -918.559          51.000    20529135.055 8  84063376.724 8      -715.760          51.000
R05  21221203.320 8 113439483.508 8     -3021.773          51.000    21221205.516 8  88230707.087 8     -2350.268          48.000
R06  19210287.500 7 102509780.738 7       923.500          44.000
R09  22830820.891 5 121915263.700 5      4147.969          33.000    22830814.148 4  94822981.264 4      3226.195          28.000
R15  21183723.242 6 113199339.024 6     -3346.359          36.000    21183737.117 4  88044031.684 4     -2602.718          24.000
R16  19134590.812 7 102213561.258 7       626.930          47.000    19134592.609 7  79499421.016 7       487.615          43.000
C05  39801641.266 6 207257589.429 6         2.855          37.000    39801639.039 6 160264702.976 6         2.474          40.000
C19  21539716.641 8 112162969.910 8      -620.555          51.000
C20  24631950.094 8 128265011.662 8     -2949.805          51.000
E04  25296914.930 7 132936304.958 7     -1933.992          45.000    25296917.977 7 101860276.430 7     -1482.082          47.000
E09  21481773.781 8 112887465.361 8       370.215          51.000    21481774.555 8  86498215.154 8       283.662          51.000
E24  24667182.422 6 129626914.862 6      3059.023          40.000
E31  23883977.289 8 125511198.634 8      1058.148          50.000    23883982.281 8  96170946.038 8       810.804          51.000
> 2020 05 13 03 11 30.0000000  0 16        .000000000000
G05  20639287.977 8 108460179.889 8      -753.324          51.000    20639286.953 8  84514423.570 8      -587.006          51.000
G28  21861264.062 8 114881729.411 8      2366.328          51.000    21861259.992 7  89518259.864 7      1843.892          46.000
G30  20534433.680 8 107909177.144 8      -935.375          51.000    20534434.344 8  84085077.188 8      -728.864          51.000
R05  21238218.648 8 113530438.920 8     -3039.305          50.000    21238221.062 7  88301450.173 7     -2363.904          47.000
R06  19205168.078 7 102482463.251 7       900.621          44.000
R09  22807554.227 5 121791032.315 5      4137.523          31.000    22807555.414 5  94726356.967 5      3218.077          30.000
R15  21202562.453 5 113300061.232 5     -3362.586          34.000    21202562.320 4  88122266.056 4     -2615.339          28.000
R16  19131158.289 8 102195224.071 8       598.258          48.000    19131159.406 7  79485158.778 7       465.312          43.000
C05  39801641.484 6 207257591.066 6         -.461          37.000    39801639.180 6 160264703.471 6         -.299          40.000
C19  21543351.398 8 112181895.029 8      -638.527          51.000
C20  24648981.078 8 128353700.230 8     -2960.070          48.000
E01                                                                  25580601.078 5 103002478.986 5     -1389.759          35.000
E04  25307993.578 7 132994519.741 7     -1944.105          47.000    25307996.094 8 101904882.566 8     -1489.630          48.000
E09  21479701.266 8 112876574.149 8       358.508          51.000    21479702.164 8  86489869.939 8       274.749          51.000
E24  24649751.938 6 129535315.989 6      3050.461          40.000
E31  23877994.047 8 125479752.758 8      1040.895          51.000    23877998.289 8  96146851.158 8       797.613          51.000
> 2020 05 13 03 12  0.0000000  0 15        .000000000000
G05  20643627.242 8 108482983.438 8      -774.688          51.000    20643626.398 8  84532192.567 8      -603.653          51.000
G28  21847777.016 8 114810854.627 8      2350.902          51.000    21847772.016 7  89463032.751 7      1831.872          45.000
G30  20539794.617 8 107937348.805 8      -950.566          51.000    20539795.234 8  84107029.131 8      -740.701          51.000
R05  21255295.977 8 113621729.359 8     -3054.746          50.000    21255298.727 7  88372453.811 7     -2375.914          44.000
R06  19200142.812 7 102455647.562 7       879.172          45.000
R15  21221455.883 5 113401011.545 5     -3377.004          33.000    21221453.539 4  88200786.800 4     -2626.559          27.000
R16  19127852.430 7 102177563.775 7       571.184          47.000    19127853.219 7  79471423.001 7       444.254          43.000
C05  39801627.531 6 207257518.622 6        -2.156          37.000    39801625.273 6 160264647.437 6        -1.800          41.000
C19  21547054.586 8 112201178.612 8      -654.812          51.000
C20  24666035.914 7 128442521.825 7     -2969.113          43.000
E01                                                                  25590971.531 5 103044229.659 5     -1399.679          35.000
E04  25319094.094 7 133052849.606 7     -1952.363          47.000    25319096.172 8 101949576.878 8     -1495.907          48.000
E09  21477660.789 8 112865851.280 8       348.598          51.000    21477661.734 8  86481653.713 8       267.137          51.000
E24  24632334.227 6 129443789.611 6      3043.652          39.000
E31  23872074.641 8 125448643.436 8      1025.352          51.000    23872078.438 8  96123014.166 8       785.722          51.000
> 2020 05 13 03 12 30.0000000  0 15        .000000000000
G05  20648075.391 8 108506358.977 8      -789.785          51.000    20648074.742 8  84550407.271 8      -615.417          51.000
G28  21834364.852 8 114740376.473 8      2341.633          51.000    21834360.156 7  89408114.713 7      1824.649          44.000
G30  20545228.414 8 107965903.336 8      -959.262          51.000    20545229.164 8  84129279.411 8      -747.477          51.000
R05  21272448.305 8 113713416.060 8     -3063.883          51.000    21272450.062 7  88443765.708 7     -2383.017          45.000
R06  19195224.164 7 102429399.125 7       864.531          46.000
R09  22761121.109 5 121543109.263 5      4124.801          31.000    22761131.891 5  94533563.661 5      3208.181          34.000
R16  19124684.961 7 102160642.578 7       550.719          47.000    19124685.820 7  79458262.074 7       428.337          44.000
C05  39801611.219 6 207257432.987 6         1.668          36.000    39801608.945 6 160264581.964 6         1.640          40.000
C19  21550838.164 8 112220881.721 8      -664.871          51.000
C20  24683125.359 6 128531535.969 6     -2971.559          39.000
E01  25601427.961 5 134536372.329 5     -1832.973          33.000    25601397.375 5 103086216.096 5     -1404.162          35.000
E04  25330227.859 7 133111355.925 7     -1954.148          46.000    25330229.500 7 101994406.401 7     -1497.355          46.000
E09  21475664.148 8 112855358.950 8       344.918          51.000    21475665.023 8  86473614.137 8       264.321          51.000
E24  24614942.422 6 129352398.732 6      3043.133          39.000
E31  23866231.055 8 125417932.513 8      1016.102          51.000    23866234.156 8  96099482.448 8       778.586          51.000
> 2020 05 13 03 13  0.0000000  0 15        .000000000000
G05  20652645.531 8 108530375.298 8      -808.176          50.000    20652645.055 8  84569121.291 8      -629.747          50.000
G28  21821041.062 8 114670365.105 8      2328.965          50.000    21821037.664 7  89353560.409 7      1814.778          44.000
G30  20550747.609 8 107994907.449 8      -971.238          51.000    20550748.461 8  84151880.033 8      -756.809          51.000
R05  21289687.812 8 113805566.805 8     -3076.203          51.000    21289688.648 7  88515438.497 7     -2392.602          46.000
R06  19190424.883 7 102403788.193 7       845.988          46.000
R09  22737982.648 5 121419542.628 5      4117.961          32.000    22737990.758 5  94437456.321 5      3202.855          33.000
R16  19121668.797 7 102144529.222 7       526.879          47.000    19121669.695 7  79445729.465 7       409.795          44.000
C05  39801605.555 6 207257403.434 6         3.148          37.000    39801603.305 6 160264559.132 6         2.489          41.000
C19  21554715.594 8 112241071.966 8      -678.047          51.000
C20  24700269.391 7 128620808.902 7     -2976.883          43.000
E01  25611929.117 5 134591595.650 5     -1841.938          33.000    25611893.383 5 103128489.309 5     -1411.415          35.000
E04  25341407.852 7 133170106.557 7     -1959.238          45.000    25341409.242 7 102039423.158 7     -1501.303          45.000
E09  21473724.328 8 112845165.954 8       337.914          51.000    21473725.289 8  86465803.926 8       258.951          51.000
E24  24597590.094 6 129261212.877 6      3039.105          38.000
E31  23860476.156 8 125387688.434 8      1003.539          51.000    23860478.383 8  96076308.447 8       768.895          51.000
> 2020 05 13 03 13 30.0000000  0 15        .000000000000
G05  20657313.672 8 108554907.517 8      -828.156          49.000    20657313.273 8  84588237.287 8      -645.317          49.000
G28  21807783.375 8 114600699.477 8      2314.570          50.000    21807781.195 7  89299275.506 7      1803.561          45.000
G30  20556328.656 8 108024236.159 8      -984.766          51.000    20556329.375 8  84174733.567 8      -767.353          51.000
R05  21306989.812 8 113898054.112 8     -3090.223          51.000    21306990.625 7  88587373.011 7     -2403.507          47.000
R06  19185721.875 7 102378691.469 7       826.098          46.000
R09  22714875.891 5 121296144.134 5      4108.449          34.000    22714884.992 5  94341479.708 5      3195.464          34.000
R16  19118779.945 7 102129097.203 7       501.121          46.000    19118781.055 7  79433726.776 7       389.761          44.000
C05                                                                  39801584.680 6 160264484.229 6         1.988          40.000
C19  21558662.867 8 112261626.904 8      -693.000          51.000
C20  24717441.500 7 128710216.980 7     -2984.285          47.000
E01                                                                  25622438.328 5 103170953.278 5     -1420.124          35.000
E04  25352610.484 7 133228977.685 7     -1966.234          45.000    25352612.391 7 102084532.171 7     -1506.475          44.000
E09  21471818.062 8 112835149.351 8       329.188          51.000    21471819.281 8  86458128.862 8       252.262          51.000
E24  24580253.945 6 129170109.840 6      3033.527          41.000
E31  23854786.266 8 125357787.860 8       989.219          51.000    23854787.953 8  96053397.654 8       757.967          51.000
> 2020 05 13 03 14  0.0000000  0 15        .000000000000
G05  20662092.172 8 108580018.994 8      -845.895          49.000    20662091.727 8  84607804.661 8      -659.139          49.000
G28  21794604.539 8 114531445.918 8      2302.340          50.000    21794603.547 7  89245311.731 7      1794.031          45.000
G30  20561983.578 8 108053952.474 8      -996.070          51.000    20561984.094 8  84197889.131 8      -776.156          51.000
R05  21324366.438 8 113990942.043 8     -3102.152          50.000    21324367.445 7  88659619.199 7     -2412.782          47.000
R06  19181127.781 7 102354176.710 7       808.234          46.000
R09  22691814.328 5 121172981.825 5      4102.359          32.000    22691822.445 5  94245686.866 5      3190.730          32.000
R16  19116030.633 7 102114412.053 7       477.859          46.000    19116032.266 7  79422305.007 7       371.671          44.000
C05  39801567.750 6 207257207.132 6         3.883          36.000    39801565.391 6 160264406.536 6         3.317          40.000
C19  21562692.344 8 112282610.484 8      -705.863          51.000
C20  24734651.344 8 128799822.567 8     -2989.312          48.000
E01                                                                  25633044.344 5 103213656.143 5     -1426.856          35.000
E04  25363848.180 7 133288033.448 7     -1970.902          45.000    25363849.141 7 102129782.673 7     -1510.193          42.000
E09  21469957.805 8 112825374.233 8       322.578          51.000    21469959.242 8  86450638.835 8       247.167          51.000
E24  24562946.711 7 129079155.434 7      3030.125          43.000
E31  23849174.000 8 125328295.487 8       977.016          51.000    23849175.008 8  96030799.630 8       748.646          51.000
> 2020 05 13 03 14 30.0000000  0 15        .000000000000
G05  20666979.094 8 108605699.203 8      -866.461          49.000    20666978.492 8  84627815.215 8      -675.164          49.000
G28  21781502.992 8 114462596.704 8      2287.230          50.000    21781502.695 7  89191663.025 7      1782.258          46.000
G30  20567709.977 8 108084044.723 8     -1010.324          51.000    20567710.539 8  84221337.657 8      -787.266          51.000
R05  21341814.828 7 114084218.566 7     -3116.516          45.000    21341817.062 7  88732167.651 7     -2423.957          47.000
R06  19176641.203 7 102330235.410 7       787.398          46.000
R09  22668795.984 5 121050048.409 5      4093.461          33.000    22668801.523 4  94150071.954 4      3183.800          29.000
R16  19113418.898 7 102100462.669 7       451.695          46.000    19113420.898 7  79411455.496 7       351.319          43.000
C05  39801545.812 6 207257092.700 6         3.020          36.000    39801543.430 6 160264318.063 6         2.471          40.000
C19  21566802.289 8 112304012.632 8      -721.363          51.000
C20  24751895.922 7 128889614.236 7     -2997.105          47.000
E01                                                                  25643707.750 5 103256588.768 5     -1435.647          35.000
E04  25375119.219 7 133347263.383 7     -1978.125          44.000    25375118.375 6 102175166.628 6     -1515.742          41.000
E09  21468141.758 8 112815830.994 8       313.387          51.000    21468143.305 8  86443326.483 8       240.089          51.000
E24  24545666.273 7 128988340.875 7      3023.883          43.000
E31  23843637.625 8 125299201.353 8       962.297          51.000    23843638.234 8  96008506.738 8       737.287          51.000
> 2020 05 13 03 15  0.0000000  0 15        .000000000000
G05  20671978.531 8 108631971.599 8      -885.770          49.000    20671977.953 8  84648287.196 8      -690.213          49.000
G28  21768483.469 8 114394178.387 8      2273.137          50.000    21768483.422 7  89138350.047 7      1771.272          45.000
G30  20573512.305 8 108114535.999 8     -1023.199          51.000    20573513.016 8  84245097.101 8      -797.298          51.000
R05  21359337.320 6 114177907.174 6     -3130.168          41.000    21359343.727 7  88805036.653 7     -2434.572          46.000
R06  19172267.148 7 102306894.301 7       767.801          47.000
R09  22645825.227 5 120927371.062 5      4085.039          33.000    22645828.320 4  94054656.285 4      3177.253          28.000
R16  19110949.312 7 102087273.057 7       426.770          46.000    19110951.789 7  79401196.923 7       331.935          44.000
C05  39801525.844 6 207256988.671 6         2.934          37.000    39801523.492 6 160264237.591 6         2.465          40.000
C19  21570997.531 8 112325857.665 8      -735.750          51.000
C20  24769179.766 7 128979614.864 7     -3003.695          47.000
E01                                                                  25654431.680 5 103299768.658 5     -1443.632          34.000
E04  25386427.656 7 133406691.892 7     -1984.434          44.000    25386425.172 6 102220702.673 6     -1520.627          41.000
E09  21466374.789 8 112806544.874 8       304.945          51.000    21466376.336 8  86436211.138 8       233.656          51.000
E24  24528417.156 7 128897692.080 7      3018.660          44.000
E31  23838181.727 8 125270530.233 8       948.422          51.000    23838182.297 8  95986537.980 8       726.668          51.000
> 2020 05 13 03 15 30.0000000  0 15        .000000000000
G05  20677090.000 8 108658833.418 8      -905.309          49.000    20677089.430 8  84669218.492 8      -705.432          49.000
G28  21755545.727 8 114326191.035 8      2258.902          49.000    21755545.836 7  89085372.863 7      1760.181          43.000
G30  20579389.805 8 108145422.339 8     -1036.230          51.000    20579390.266 8  84269164.371 8      -807.452          51.000
R05  21376939.648 8 114272003.757 8     -3143.352          49.000    21376946.211 7  88878222.869 7     -2444.829          42.000
R06  19168005.422 7 102284153.109 7       748.004          47.000
R09  22622901.172 5 120804949.752 5      4076.324          35.000
R16  19108621.609 7 102074840.160 7       401.715          47.000    19108624.492 7  79391526.921 7       312.448          44.000
C05  39801507.336 6 207256892.319 6         2.594          36.000    39801504.945 6 160264163.085 6         2.429          41.000
C19  21575277.500 8 112348143.090 8      -750.309          51.000
C20  24786502.375 7 129069820.537 7     -3010.340          44.000
E01                                                                  25665216.070 5 103343192.613 5     -1451.738          34.000
E04  25397773.812 7 133466316.002 7     -1990.840          45.000    25397770.609 7 102266388.615 7     -1525.335          43.000
E09  21464656.484 8 112797513.908 8       296.695          51.000    21464657.852 8  86429291.305 8       227.359          51.000
E24  24511198.867 7 128807207.908 7      3013.320          44.000    24511215.188 6  98696499.363 6      2308.917          38.000
E31  23832805.914 8 125242279.753 8       934.605          51.000    23832806.281 8  95964891.511 8       716.150          51.000
> 2020 05 13 03 16  0.0000000  0 15        .000000000000
G05  20682313.703 8 108686284.818 8      -924.875          49.000    20682313.156 8  84690609.187 8      -720.682          49.000
G28  21742690.367 8 114258637.708 8      2244.574          48.000    21742689.797 7  89032733.883 7      1749.019          42.000
