     3.02           OBSERVATION DATA    M (MIXED)           RINEX VERSION / TYPE
SAVERINEX           SC600               20200504 045931 LCL PGM / RUN BY / DATE
       G = GPS       R = GLONASS       C = COMPASS          COMMENT
       S = SBAS      J = QZSS          E = GALILEO          COMMENT
BEAN                                                        MARKER NAME
1                                                           MARKER NUMBER
GEODETIC                                                    MARKER TYPE
Unige DICCA         GTER                                    OBSERVER / AGENCY
SC60291900056       SC600               2.12(191226)        REC # / TYPE / VERS
                    HEMA45          NONE                    ANT # / TYPE
  4509407.8091   693652.4678  4442337.6214                  APPROX POSITION XYZ
        0.0000        0.0000        0.0000                  ANTENNA: DELTA H/E/N
G    8 C1C L1C D1C S1C C2Y L2Y D2Y S2Y                      SYS / # / OBS TYPES
R    8 C1C L1C D1C S1C C2P L2P D2P S2P                      SYS / # / OBS TYPES
C    8 C1I L1I D1I S1I C7I L7I D7I S7I                      SYS / # / OBS TYPES
E    8 C1C L1C D1C S1C C7Q L7Q D7Q S7Q                      SYS / # / OBS TYPES
DBHZ                                                        COMMENT
     30.000                                                 INTERVAL
  2020    05    04    02    00    0.0000000     GPS         TIME OF FIRST OBS
  2020    05    04    02    59   30.0000000     GPS         TIME OF LAST OBS
     0                                                      RCV CLOCK OFFS APPL
G L1C  0.00000                                              SYS / PHASE SHIFT
G L2Y  0.00000                                              SYS / PHASE SHIFT
R L1C  0.00000                                              SYS / PHASE SHIFT
R L2P  0.25000                                              SYS / PHASE SHIFT
C L1I  0.00000                                              SYS / PHASE SHIFT
C L7I  0.00000                                              SYS / PHASE SHIFT
E L1C  0.50000                                              SYS / PHASE SHIFT
E L7Q -0.25000                                              SYS / PHASE SHIFT
 12 R01  1 R02 -4 R03  5 R04  6 R10 -5 R12 -1 R13 -2 R14 -7 GLONASS SLOT / FRQ #
    R15  0 R17  4 R18 -3 R19  3                             GLONASS SLOT / FRQ #
 C1C   71.950 C2C   71.950 C2P   71.950                     GLONASS COD/PHS/BIS
    18                                                      LEAP SECONDS
*** Above antenna height is from mark to ANTENNA BOTTOM.    COMMENT
    17     4        0.0000        ANT MEASURE TYPE/HEIGT    COMMENT
    0.0000    0.0000    0.0458    0.0405    0.0000          COMMENT
                    BASE STATION                            COMMENT
                                                            END OF HEADER
> 2020 05 04 02 00  0.0000000  0 15        .000000000000
G04  24283234.359 5 127609264.450 5     -2975.570          31.000    24283236.461 5  99435793.100 5     -2318.626          31.000
G06  22804797.062 7 119840021.007 7     -3033.734          45.000    22804800.227 7  93381813.729 7     -2363.949          45.000
G07  20785378.000 8 109227890.822 8       197.246          51.000    20785376.766 8  85112622.277 8       153.698          51.000
G09  21505011.430 6 113009587.231 6     -2018.723          39.000    21505012.734 6  88059420.343 6     -1573.031          39.000
G30  21392957.023 8 112420814.204 8      2343.133          51.000    21392959.203 8  87600615.368 8      1825.818          51.000
R03  21640908.062 5 115845474.724 5     -2582.656          31.000    21640901.664 5  90102019.686 5     -2008.730          33.000
R04  19541590.508 7 104644335.296 7       249.527          43.000    19541592.938 6  81390073.262 6       194.077          38.000
R14  19861819.375 8 105874762.894 8      1679.426          51.000    19861823.891 8  82347024.919 8      1306.220          51.000
R15  22556928.094 5 120537356.204 5      4435.824          31.000    22556926.352 5  93751313.625 5      3450.089          32.000
C05  39777535.719 5 207132065.688 5       -13.402          35.000    39777534.422 6 160167636.564 6       -10.403          41.000
C21  21993036.820 5 114523519.651 5      1067.062          33.000
C22  22867516.594 8 119077155.767 8     -1697.266          51.000
E07  25268026.547 6 132784360.527 6     -1743.105          40.000
E27  25051341.148 8 131645706.983 8      2178.227          51.000    25051345.000 8 100871403.628 8      1669.010          51.000
E33  26304994.359 8 138233665.150 8     -2370.027          51.000    26304994.797 8 105919336.348 8     -1815.974          49.000
> 2020 05 04 02 00 30.0000000  0 14        .000000000000
G04  24300228.648 5 127698564.024 5     -2979.602          30.000
G06  22822141.570 7 119931164.493 7     -3045.160          43.000    22822145.766 7  93452834.603 7     -2372.852          43.000
G07  20784295.789 8 109222202.626 8       179.305          51.000    20784294.273 8  85108189.932 8       139.718          51.000
G09  21516553.031 5 113070239.706 5     -2027.086          34.000    21516556.062 5  88106682.006 5     -1579.551          34.000
G30  21379616.797 8 112350710.558 8      2327.898          51.000    21379618.055 8  87545989.144 8      1813.947          51.000
R04  19540224.852 7 104637023.163 7       235.246          43.000    19540226.547 6  81384386.058 6       182.969          38.000
R14  19852436.094 8 105824745.706 8      1652.188          51.000    19852440.820 8  82308122.660 8      1285.032          51.000
R15  22532044.953 4 120404415.759 4      4428.195          29.000    22532040.539 4  93647881.744 4      3444.155          29.000
C05  39777609.844 6 207132451.583 6       -14.906          36.000    39777608.555 6 160167934.963 6       -11.526          41.000
C21  21986902.297 5 114491621.574 5      1056.828          32.000
C22  22877318.742 8 119128195.329 8     -1707.988          51.000
E07  25277985.992 6 132836698.761 6     -1748.707          39.000
E27  25038933.672 8 131580502.487 8      2166.207          51.000    25038937.062 8 100821441.747 8      1659.776          51.000
E33  26318546.078 8 138304877.277 8     -2379.969          51.000    26318545.883 8 105973901.463 8     -1823.597          50.000
> 2020 05 04 02 01  0.0000000  0 16        .000000000000
G02  22574525.156 5 118629926.428 5     -1069.602          32.000
G04  24317237.164 5 127787922.818 5     -2979.992          30.000
G06  22839551.055 6 120022652.811 6     -3053.957          41.000    22839556.531 6  93524124.263 6     -2379.704          40.000
G07  20783316.109 8 109217053.551 8       163.965          51.000    20783313.914 8  85104177.682 8       127.765          51.000
G09  21528145.727 5 113131163.515 5     -2033.965          34.000    21528151.820 5  88154155.044 5     -1584.914          34.000
G30  21366364.305 8 112281066.217 8      2315.008          51.000    21366364.539 8  87491720.858 8      1803.905          51.000
R03  21669949.844 5 116000962.766 5     -2601.082          31.000    21669951.977 5  90222960.485 5     -2023.064          31.000
R04  19538941.984 7 104630148.816 7       223.191          45.000    19538943.055 6  81379039.317 6       173.593          40.000
R14  19843206.562 8 105775549.068 8      1627.453          51.000    19843211.844 8  82269858.598 8      1265.797          51.000
R15  22507207.297 4 120271685.323 4      4420.867          28.000    22507202.734 4  93544647.515 4      3438.464          25.000
C05  39777693.555 6 207132887.843 6       -14.090          36.000    39777692.344 6 160168272.298 6       -10.956          40.000
C21  21980827.867 6 114460046.799 6      1048.531          36.000
C22  22887182.758 8 119179556.709 8     -1716.125          51.000
E07  25287977.867 6 132889203.601 6     -1751.719          40.000    25287974.859 5 101824195.521 5     -1342.708          31.000
E27  25026596.156 8 131515665.387 8      2156.359          51.000    25026599.203 8 100771761.380 8      1652.254          51.000
E33  26332155.500 8 138376392.177 8     -2387.652          51.000    26332154.539 8 106028698.580 8     -1829.515          49.000
> 2020 05 04 02 01 30.0000000  0 14        .000000000000
G06  22857002.773 7 120114362.671 7     -3060.559          43.000    22857008.945 7  93595586.546 7     -2384.848          42.000
G07  20782415.859 8 109212322.528 8       151.051          51.000    20782413.055 8  85100491.183 8       117.702          51.000
G09  21539767.234 5 113192237.520 5     -2037.832          34.000    21539773.109 5  88201745.187 5     -1587.918          34.000
G30  21353176.664 8 112211762.265 8      2304.715          51.000    21353176.484 8  87437717.803 8      1795.882          51.000
R04  19537717.953 7 104623590.673 7       213.676          46.000    19537718.133 6  81373938.561 6       166.189          40.000
R14  19834108.898 8 105727052.944 8      1605.102          51.000    19834113.805 8  82232139.372 8      1248.412          50.000
R15  22482388.531 5 120139045.939 5      4417.883          35.000
C05  39777764.062 5 207133255.174 5       -11.035          35.000    39777762.891 6 160168556.357 6        -8.500          41.000
C21  21974798.453 5 114428676.913 5      1042.250          34.000
C22  22897085.609 8 119231120.509 8     -1721.926          51.000
E07  25297978.305 5 132941754.807 5     -1752.547          32.000    25297976.547 5 101864461.987 5     -1342.558          35.000
E27  25014305.867 8 131451076.983 8      2148.949          51.000    25014308.867 8 100722271.582 8      1646.615          51.000
E30  24404932.391 6 128248813.993 6      -575.945          36.000
E33  26345799.023 8 138448087.483 8     -2392.660          51.000    26345797.578 8 106083633.940 8     -1833.391          50.000
> 2020 05 04 02 02  0.0000000  0 15        .000000000000
G02  22586922.320 5 118695047.900 5     -1100.492          33.000
G06  22874508.625 7 120206354.422 7     -3071.734          45.000    22874514.438 7  93667268.434 7     -2393.559          45.000
G07  20781607.094 8 109208072.562 8       133.008          51.000    20781604.492 8  85097179.541 8       103.645          51.000
G09  21551429.359 5 113253524.319 5     -2047.000          34.000    21551431.648 5  88249501.237 5     -1595.062          34.000
G30  21340065.945 8 112142863.572 8      2289.191          51.000    21340065.945 8  87384030.526 8      1783.786          51.000
R04  19536564.703 7 104617414.593 7       198.824          44.000    19536564.703 6  81369134.962 6       154.641          40.000
R14  19825155.406 8 105679323.309 8      1577.562          51.000    19825159.305 8  82195016.321 8      1226.993          49.000
R15  22457613.688 5 120006655.668 5      4408.695          34.000
C05                                                                  39777832.203 6 160168835.631 6        -9.759          41.000
C21  21968822.680 6 114397575.946 6      1031.832          36.000
C22  22907039.078 8 119282949.386 8     -1732.645          51.000
E07  25308006.367 5 132994475.820 5     -1758.137          35.000    25307999.273 6 101904812.504 6     -1347.144          38.000
E27  25002075.219 8 131386802.342 8      2136.559          51.000    25002077.922 8 100673022.195 8      1637.052          51.000
E30  24408273.273 5 128266349.312 5      -592.570          33.000
E33  26359488.102 8 138520024.554 8     -2402.652          50.000    26359486.922 8 106138754.551 8     -1840.993          50.000
> 2020 05 04 02 02 30.0000000  0 14        .000000000000
G02  22593234.438 5 118728245.984 5     -1114.336          33.000
G06  22892074.195 7 120298658.900 7     -3079.109          45.000    22892078.820 7  93739193.987 7     -2399.309          46.000
G07  20780896.102 8 109204336.889 8       118.863          51.000    20780893.594 8  85094268.644 8        92.621          51.000
G09  21563138.758 6 113315056.979 6     -2051.961          36.000    21563141.172 6  88297448.786 6     -1598.928          36.000
G30  21327038.820 8 112074405.373 8      2277.547          51.000    21327039.242 8  87330686.471 8      1774.712          51.000
R04  19535489.258 7 104611656.166 7       187.965          46.000    19535488.836 6  81364656.169 6       146.195          41.000
R14  19816352.609 8 105632396.770 8      1553.824          51.000    19816355.711 7  82158517.952 7      1208.530          47.000
R15  22432880.484 6 119874507.434 6      4404.293          36.000    22432881.883 4  93235733.995 4      3425.561          28.000
C05  39777907.977 5 207134003.972 5       -10.918          35.000    39777906.891 6 160169136.115 6        -8.035          40.000
C21  21962907.609 5 114366778.579 5      1024.555          34.000
C22  22917049.742 8 119335076.763 8     -1739.562          51.000
E07  25318058.781 5 133047280.048 5     -1759.484          35.000    25318046.930 6 101945272.973 6     -1348.224          38.000
E27  24989911.031 8 131322876.980 8      2127.953          51.000    24989913.328 8 100624040.422 8      1630.477          51.000
E33  26373228.828 8 138592235.249 8     -2408.664          49.000    26373228.367 8 106194084.794 8     -1845.528          49.000
> 2020 05 04 02 03  0.0000000  0 16        .000000000000
G02  22599650.961 4 118761968.226 4     -1132.488          29.000
G06  22909687.133 7 120391212.391 7     -3089.797          45.000    22909690.180 7  93811313.582 7     -2407.634          45.000
G07  20780271.359 8 109201054.057 8       101.363          51.000    20780268.734 8  85091710.585 8        78.984          51.000
G09  21574883.461 6 113376774.259 6     -2060.426          39.000    21574885.398 6  88345540.127 6     -1605.524          39.000
G30  21314084.227 8 112006328.474 8      2262.367          51.000    21314084.875 8  87277639.531 8      1762.884          51.000
R03  21728635.500 4 116315096.597 4     -2634.719          29.000
R04  19534480.656 7 104606254.810 7       173.383          46.000    19534480.422 7  81360455.117 7       134.853          42.000
R14  19807689.078 8 105586213.652 8      1526.555          51.000    19807691.641 7  82122597.816 7      1187.323          47.000
R15  22408184.906 5 119742544.025 5      4395.051          35.000    22408186.773 5  93133095.804 5      3418.376          30.000
C05  39777976.398 6 207134360.886 6       -11.625          36.000    39777975.195 6 160169411.366 6        -9.143          41.000
C21  21957040.086 6 114336225.782 6      1013.809          37.000
C22  22927106.008 8 119387442.435 8     -1750.062          51.000
E07                                                                  25328111.438 6 101985796.975 6     -1352.184          38.000
E27  24977801.914 8 131259241.939 8      2115.852          51.000    24977803.852 8 100575281.095 8      1621.240          51.000
E30  24415224.352 6 128302856.618 6      -621.113          40.000
E33  26387010.047 8 138664656.930 8     -2418.094          50.000    26387009.859 8 106249576.730 8     -1852.810          49.000
> 2020 05 04 02 03 30.0000000  0 14        .000000000000
G02  22606160.508 5 118796179.244 5     -1148.102          31.000
G06  22927355.422 7 120484056.933 7     -3098.930          43.000    22927356.961 7  93883659.965 7     -2414.750          43.000
G07  20779741.461 8 109198269.386 8        85.246          51.000    20779738.953 8  85089540.712 8        66.426          51.000
G09  21586671.750 6 113438720.327 6     -2067.973          40.000    21586672.742 6  88393809.780 6     -1611.410          39.000
G30  21301211.039 8 111938679.348 8      2248.605          51.000    21301211.969 8  87224925.940 8      1752.160          51.000
R04  19533547.117 7 104601257.516 7       160.469          46.000    19533547.320 7  81356568.318 7       124.809          42.000
R14  19799173.516 8 105540821.474 8      1500.547          51.000    19799176.070 8  82087292.857 8      1167.095          48.000
R15  22383533.281 5 119610814.872 5      4387.883          34.000    22383533.203 4  93030635.808 4      3412.798          29.000
C05  39778047.156 6 207134728.908 6       -11.977          36.000    39778045.891 6 160169695.910 6        -9.038          40.000
C21  21951229.055 6 114305963.347 6      1004.582          39.000
C22  22937216.492 8 119440090.920 8     -1758.938          51.000
E07                                                                  25338200.586 6 102026419.029 6     -1355.096          38.000
E27  24965756.688 8 131195943.933 8      2105.023          51.000    24965758.781 8 100526780.040 8      1612.937          51.000
E33  26400839.898 8 138737332.667 8     -2426.000          50.000    26400839.586 8 106305263.310 8     -1858.910          50.000
> 2020 05 04 02 04  0.0000000  0 13        .000000000000
G06  22945075.633 6 120577176.177 6     -3107.723          40.000    22945076.398 6  93956220.455 6     -2421.602          40.000
G07  20779303.734 8 109195968.935 8        69.297          51.000    20779301.430 8  85087748.161 8        53.998          51.000
G09  21598500.969 7 113500881.161 7     -2075.035          42.000    21598501.508 5  88442246.754 5     -1616.917          34.000
G30  21288416.930 8 111871446.117 8      2234.883          51.000    21288418.070 8  87172536.441 8      1741.470          51.000
R04  19532686.641 7 104596652.038 7       147.668          46.000    19532687.398 7  81352986.298 7       114.853          43.000
R14  19790804.305 8 105496208.920 8      1474.758          51.000    19790807.117 8  82052594.249 8      1147.034          49.000
R15  22358924.484 5 119479310.582 5      4380.555          32.000    22358923.719 5  92928354.678 5      3407.098          30.000
C05  39778117.516 6 207135095.745 6       -11.246          36.000    39778116.383 6 160169979.598 6        -8.751          40.000
C21  21945472.836 6 114275979.239 6       995.750          39.000
C22  22947378.977 8 119493008.910 8     -1767.703          51.000
E07                                                                  25348312.750 6 102067128.940 6     -1357.898          39.000
E27  24953773.164 8 131132971.376 8      2094.320          51.000    24953775.656 8 100478528.328 8      1604.805          51.000
E33  26414715.414 8 138810247.169 8     -2433.738          51.000    26414714.633 8 106361132.830 8     -1864.803          49.000
> 2020 05 04 02 04 30.0000000  0 15        .000000000000
G02  22619459.688 5 118866040.545 5     -1179.383          35.000
G06  22962845.477 5 120670564.054 5     -3116.730          33.000    22962848.281 5  94028990.321 5     -2428.615          32.000
G07  20778957.477 8 109194149.020 8        53.414          51.000    20778955.266 8  85086330.041 8        41.621          51.000
G09  21610370.055 6 113563253.144 6     -2082.098          37.000    21610370.555 5  88490848.111 5     -1622.417          34.000
G30  21275701.648 8 111804627.196 8      2221.137          51.000    21275702.594 8  87120469.774 8      1730.756          51.000
R03  21773157.469 4 116553388.459 4     -2660.816          29.000
R04  19531899.609 7 104592436.363 7       134.816          47.000    19531900.617 7  81349707.407 7       104.857          43.000
R14  19782580.875 8 105452374.484 8      1448.828          51.000    19782584.203 8  82018500.793 8      1126.866          50.000
C05  39778187.203 6 207135458.571 6       -11.078          36.000    39778186.047 6 160170260.146 6        -8.790          41.000
C21  21939769.836 6 114246271.654 6       986.156          40.000
C22  22957592.180 8 119546193.295 8     -1776.609          51.000
E07  25358440.953 5 133259502.616 5     -1776.105          34.000    25358444.852 6 102107924.428 6     -1360.762          37.000
E27  24941850.633 8 131070322.919 8      2083.523          49.000    24941853.812 8 100430524.933 8      1596.490          51.000
E30  24426219.211 6 128360635.823 6      -664.684          36.000
E33  26428635.469 8 138883395.395 8     -2441.410          51.000    26428633.883 8 106417181.465 8     -1870.673          48.000
> 2020 05 04 02 05  0.0000000  0 15        .000000000000
G02  22626239.750 6 118901668.600 6     -1195.980          36.000    22626238.727 5  92650643.349 5      -931.936          34.000
G06  22980662.328 6 120764199.546 6     -3125.465          36.000    22980668.992 5  94101953.172 5     -2435.424          35.000
G07  20778699.219 8 109192791.258 8        37.172          51.000    20778696.852 8  85085272.043 8        28.965          51.000
G09  21622275.742 6 113625817.418 6     -2089.301          38.000    21622278.930 6  88539599.317 6     -1628.027          36.000
G30  21263061.898 8 111738205.965 8      2206.941          51.000    21263062.727 8  87068712.980 8      1719.695          51.000
R03  21788100.430 5 116633365.138 5     -2670.418          33.000
R04  19531182.734 8 104588593.388 8       121.426          48.000    19531183.586 7  81346718.412 7        94.442          44.000
R14  19774500.031 8 105409301.950 8      1422.516          51.000    19774503.930 8  81984999.898 8      1106.398          51.000
C05  39778252.617 6 207135798.533 6       -11.598          36.000    39778251.531 6 160170523.785 6        -8.835          40.000
C21  21934116.320 6 114216823.764 6       976.527          40.000
C22  22967852.508 8 119599626.108 8     -1785.660          51.000
E07  25368592.227 6 133312837.882 6     -1780.031          38.000    25368591.359 5 102148791.765 5     -1363.953          35.000
E27  24929986.422 8 131007982.174 8      2072.453          49.000    24929990.156 8 100382757.328 8      1587.978          51.000
E30  24430063.328 5 128380805.327 5      -679.590          34.000
E33  26442595.922 8 138956757.353 8     -2449.324          50.000    26442594.008 8 106473393.874 8     -1876.803          49.000
> 2020 05 04 02 05 30.0000000  0 15        .000000000000
G02  22633115.625 6 118937807.535 6     -1212.410          38.000    22633116.062 6  92678803.523 6      -944.735          37.000
G06  22998538.047 6 120858135.923 6     -3135.656          41.000    22998548.523 6  94175150.363 6     -2443.369          41.000
G07  20778539.383 8 109191951.101 8        20.027          51.000    20778537.164 8  85084617.381 8        15.609          51.000
G09  21634228.250 6 113688629.463 6     -2097.125          38.000    21634231.109 5  88588543.788 5     -1634.126          34.000
G30  21250508.430 8 111672239.915 8      2191.898          51.000    21250509.656 8  87017310.856 8      1707.973          51.000
R03  21803097.594 5 116713645.357 5     -2680.285          31.000
R04  19530545.797 8 104585181.490 8       107.195          48.000    19530546.383 7  81344064.728 7        83.374          43.000
R14  19766573.336 8 105367049.997 8      1395.398          51.000    19766577.586 8  81952137.250 8      1085.310          51.000
R15  22285350.188 5 119086157.509 5      4355.602          33.000    22285351.953 5  92622567.666 5      3387.690          31.000
C05  39778324.508 6 207136173.194 6       -12.371          36.000    39778323.484 6 160170813.510 6        -9.536          41.000
C21  21928523.266 6 114187692.431 6       966.512          40.000
C22  22978171.070 8 119653362.781 8     -1795.629          51.000
E07  25378771.594 6 133366322.981 6     -1784.410          36.000    25378767.805 6 102189773.885 6     -1367.554          37.000
E27  24918192.656 8 130946006.831 8      2060.410          51.000    24918195.961 8 100335269.729 8      1578.756          51.000
E33  26456607.008 8 139030387.140 8     -2458.121          50.000    26456605.773 8 106529811.494 8     -1883.450          50.000
> 2020 05 04 02 06  0.0000000  0 15        .000000000000
G02  22640078.141 6 118974395.632 6     -1227.176          41.000    22640079.320 6  92707313.738 6      -956.244          37.000
G06  23016459.375 7 120952309.974 7     -3143.062          43.000    23016473.984 7  94248532.750 7     -2449.137          44.000
G07  20778466.531 8 109191568.253 8         5.113          51.000    20778464.547 8  85084319.066 8         3.984          51.000
G09  21646216.609 6 113751628.442 6     -2103.566          39.000    21646219.258 6  88637633.878 6     -1639.143          39.000
G30  21238030.344 8 111606670.372 8      2178.938          50.000    21238032.117 8  86966217.679 8      1697.873          50.000
R04  19529977.883 8 104582140.720 8        95.176          48.000    19529978.258 7  81341699.679 7        74.026          43.000
R14  19758789.680 8 105325559.164 8      1370.320          51.000    19758793.766 8  81919866.600 8      1065.805          51.000
R15  22260915.484 5 118955578.263 5      4349.059          35.000    22260915.406 5  92521005.990 5      3382.595          32.000
C05  39778391.500 6 207136522.159 6       -10.824          36.000    39778390.453 6 160171083.362 6        -8.735          41.000
C21  21922979.336 6 114158819.320 6       958.113          41.000
C22  22988537.156 8 119707343.707 8     -1803.484          51.000
E07  25388965.188 5 133419912.101 5     -1787.387          35.000    25388965.789 6 102230824.760 6     -1369.565          39.000
E27  24906458.133 8 130884338.548 8      2050.363          51.000    24906460.211 8 100288017.419 8      1571.070          51.000
E30  24438018.312 6 128422650.699 6      -708.977          41.000
E33  26470657.094 8 139104222.719 8     -2464.699          49.000    26470657.062 8 106586386.809 8     -1888.533          50.000
> 2020 05 04 02 06 30.0000000  0 14        .000000000000
G02  22647130.578 6 119011457.188 6     -1243.695          40.000    22647131.773 6  92736192.847 6      -969.119          39.000
G06  23034430.484 7 121046744.421 7     -3152.734          44.000    23034449.500 7  94322118.036 7     -2456.676          44.000
G07  20778485.406 8 109191667.686 8       -11.906          51.000    20778483.430 8  85084396.544 8        -9.278          51.000
G09  21658245.195 6 113814839.360 6     -2111.160          39.000    21658247.820 6  88686889.113 6     -1645.060          39.000
G30  21225633.172 8 111541524.411 8      2164.043          50.000    21225635.234 8  86915454.578 8      1686.267          50.000
R04  19529483.766 7 104579498.210 7        80.844          47.000    19529484.547 7  81339644.393 7        62.878          43.000
R14  19751154.508 8 105284857.433 8      1343.078          51.000    19751158.289 8  81888209.715 8      1044.619          51.000
C05  39778458.484 6 207136870.985 6       -12.211          36.000    39778457.500 6 160171353.076 6        -9.207          41.000
C21  21917490.172 6 114130230.931 6       947.602          41.000
C22  22998955.844 8 119761594.256 8     -1813.316          51.000
E07  25399182.484 6 133473602.575 6     -1791.980          36.000    25399185.883 6 102271964.160 6     -1373.438          37.000
E27  24894787.469 8 130823004.671 8      2038.395          51.000    24894788.328 8 100241021.373 8      1561.935          51.000
E30  24442108.562 6 128444147.510 6      -724.430          39.000
E33  26484751.000 8 139178287.804 8     -2473.121          50.000    26484752.188 8 106643137.965 8     -1894.935          51.000
> 2020 05 04 02 07  0.0000000  0 13        .000000000000
G02  22654273.797 6 119048998.474 6     -1259.043          38.000    22654274.461 5  92765445.759 5      -981.063          34.000
G06  23052451.969 7 121141444.022 7     -3160.609          42.000    23052475.609 6  94395909.937 6     -2462.812          41.000
G07  20778597.352 8 109192256.488 8       -27.531          51.000    20778595.555 8  85084855.363 8       -21.453          51.000
G09  21670315.172 6 113878269.424 6     -2117.848          37.000    21670317.188 6  88736315.149 6     -1650.268          36.000
G30  21213318.734 8 111476811.217 8      2150.219          50.000    21213320.773 8  86865028.711 8      1675.498          50.000
R04  19529065.734 7 104577263.327 7        68.098          47.000    19529066.875 7  81337906.146 7        52.965          43.000
R14  19743669.391 8 105244954.389 8      1317.125          51.000    19743672.258 8  81857174.018 8      1024.431          50.000
C05  39778527.070 6 207137228.432 6       -11.414          36.000    39778525.930 6 160171628.723 6        -9.056          41.000
C21  21912056.641 6 114101936.261 6       938.562          41.000
C22  23009428.016 8 119816121.995 8     -1821.902          51.000
E07  25409422.508 5 133527419.627 5     -1795.645          32.000
E27  24883182.062 8 130762014.617 8      2027.602          51.000    24883181.789 8 100194288.779 8      1553.629          51.000
E33  26498889.883 8 139252588.181 8     -2480.234          50.000    26498891.930 8 106700069.408 8     -1900.421          51.000
> 2020 05 04 02 07 30.0000000  0 15        .000000000000
G02  22661504.727 6 119087002.324 6     -1274.422          37.000    22661504.797 6  92795059.098 6      -993.056          36.000
G06  23070520.227 6 121236390.366 6     -3169.105          41.000    23070549.000 6  94469894.097 6     -2469.436          36.000
G07  20778799.344 8 109193318.981 8       -43.246          51.000    20778797.875 8  85085683.277 8       -33.698          51.000
G09  21682423.516 5 113941902.674 5     -2124.289          35.000    21682424.602 5  88785899.461 5     -1655.290          35.000
G30  21201084.125 8 111412516.705 8      2136.141          51.000    21201085.805 8  86814929.115 8      1664.525          51.000
R03  21863569.859 5 117037418.499 5     -2715.254          32.000
R04  19528721.203 8 104575421.478 8        54.770          48.000    19528722.938 7  81336473.598 7        42.599          43.000
R14  19736331.109 8 105205836.175 8      1290.762          51.000    19736333.445 8  81826748.744 8      1003.926          50.000
C05  39778593.945 6 207137576.261 6       -11.379          36.000    39778592.898 6 160171898.457 6        -8.965          41.000
C21  21906676.195 7 114073921.184 7       929.309          42.000
C22  23019949.977 8 119870911.556 8     -1830.711          51.000
E07  25419688.227 5 133581352.677 5     -1799.344          34.000
E27  24871639.180 8 130701354.667 8      2016.402          51.000    24871638.719 8 100147809.118 8      1545.012          51.000
E30  24450517.031 5 128488333.996 5      -752.953          34.000
E33  26513070.188 8 139327106.480 8     -2487.613          49.000    26513072.812 8 106757167.838 8     -1906.144          51.000
> 2020 05 04 02 08  0.0000000  0 15        .000000000000
G02  22668826.688 5 119125483.516 5     -1290.508          34.000    22668826.586 5  92825044.571 5     -1005.584          34.000
G06  23088637.938 6 121331596.634 6     -3177.656          41.000    23088671.289 5  94544080.807 5     -2476.090          31.000
G07  20779094.359 8 109194870.766 8       -59.570          51.000    20779093.125 8  85086892.467 8       -46.418          51.000
G09  21694574.125 6 114005754.357 6     -2131.691          37.000    21694575.375 6  88835654.044 6     -1661.058          37.000
G30  21188932.648 8 111348658.453 8      2121.723          51.000    21188933.633 8  86765169.462 8      1653.290          51.000
R03  21878805.422 5 117119017.264 5     -2723.641          32.000    21878818.852 4  91092579.914 4     -2118.393          25.000
R04  19528453.555 8 104573990.301 8        41.102          48.000    19528455.750 7  81335360.448 7        31.968          43.000
R14  19729143.133 8 105167520.504 8      1264.199          51.000    19729145.586 8  81796947.689 8       983.266          50.000
R15  22163635.344 6 118435746.770 6      4314.715          36.000    22163643.719 6  92116716.660 6      3355.889          39.000
C05  39778662.570 5 207137933.670 5       -11.828          35.000    39778661.555 6 160172174.824 6        -9.068          41.000
C21  21901352.820 6 114046202.931 6       919.484          41.000
C22  23030525.281 8 119925978.839 8     -1839.824          51.000
E07                                                                  25429968.406 5 102395946.276 5     -1381.660          33.000
E27  24860162.250 8 130641042.669 8      2004.898          51.000    24860162.055 8 100101596.029 8      1536.299          51.000
E33  26527294.477 8 139401856.866 8     -2495.035          49.000    26527297.555 8 106814444.115 8     -1911.807          51.000
> 2020 05 04 02 08 30.0000000  0 15        .000000000000
G02  22676235.570 6 119164418.469 6     -1305.922          37.000    22676235.531 6  92855383.471 6     -1017.598          36.000
G06  23106800.555 6 121427038.039 6     -3185.484          40.000    23106833.641 5  94618450.771 5     -2482.196          33.000
G07  20779478.141 8 109196889.708 8       -75.332          50.000    20779477.414 8  85088465.672 8       -58.700          50.000
G09  21706761.781 5 114069802.137 5     -2138.094          34.000    21706763.406 5  88885561.464 5     -1666.038          33.000
G30  21176859.961 8 111285216.034 8      2107.426          49.000    21176860.883 8  86715733.841 8      1642.150          48.000
R04  19528259.273 8 104572948.930 8        27.828          49.000    19528261.297 7  81334550.464 7        21.644          43.000
R14  19722102.078 8 105129987.098 8      1237.762          51.000    19722104.414 8  81767755.044 8       962.704          49.000
R15  22139435.242 6 118306430.262 6      4306.223          38.000    22139440.469 6  92016137.165 6      3349.287          38.000
C05  39778728.766 6 207138278.547 6       -11.445          36.000    39778727.734 6 160172441.131 6        -8.859          41.000
C21  21896082.086 7 114018761.086 7       909.648          42.000
C22  23041149.617 8 119981302.123 8     -1848.699          51.000
E07  25440284.641 5 133689619.199 5     -1806.922          33.000    25440274.656 5 102437436.943 5     -1385.042          31.000
E27  24848747.109 8 130581058.427 8      1993.723          49.000    24848748.320 8 100055634.077 8      1527.628          51.000
E30  24459279.883 5 128534386.586 5      -781.777          35.000
E33  26541558.305 8 139476815.559 8     -2502.324          48.000    26541561.586 8 106871880.002 8     -1917.437          51.000
> 2020 05 04 02 09  0.0000000  0 15        .000000000000
G02  22683730.914 6 119203803.495 6     -1319.422          40.000    22683730.703 6  92886073.044 6     -1028.124          39.000
G06  23125007.070 6 121522709.164 6     -3191.723          39.000    23125040.734 5  94692999.648 5     -2487.060          34.000
G07  20779950.094 8 109199372.497 8       -89.348          49.000    20779950.211 8  85090400.321 8       -69.622          49.000
G09  21718986.719 6 114134043.136 6     -2143.582          38.000    21718987.484 6  88935619.324 6     -1670.318          37.000
G30  21164864.945 7 111222188.378 7      2094.895          44.000    21164867.453 7  86666621.374 7      1632.382          44.000
R03  21909450.609 5 117283010.193 5     -2739.746          33.000
R04  19528137.859 8 104572296.136 8        16.367          49.000    19528139.180 7  81334042.745 7        12.730          43.000
R14  19715207.391 8 105093235.026 8      1213.152          51.000    19715209.602 8  81739170.085 8       943.563          49.000
R15  22115282.109 6 118177363.437 6      4298.973          39.000    22115285.781 6  91915751.844 6      3343.645          38.000
C05  39778791.953 5 207138607.113 5        -9.223          35.000    39778790.867 6 160172695.593 6        -7.485          41.000
C21  21890864.508 7 113991594.393 7       901.906          43.000
C22  23051822.695 8 120036878.873 8     -1855.699          51.000
E07  25450601.039 5 133743810.469 5     -1808.977          32.000
E27  24837393.422 8 130521401.222 8      1984.277          49.000    24837396.391 8 100009922.652 8      1520.351          51.000
E33  26555861.094 8 139551978.190 8     -2507.648          49.000    26555863.938 8 106929472.141 8     -1921.517          50.000
> 2020 05 04 02 09 30.0000000  0 15        .000000000000
G02  22691313.555 7 119243645.411 7     -1337.020          43.000    22691313.242 6  92917118.665 6     -1041.836          38.000
G06  23143258.883 6 121618615.627 6     -3201.996          39.000    23143296.734 5  94767731.775 5     -2495.050          31.000
G07  20780511.938 8 109202327.248 8      -107.602          48.000    20780512.594 8  85092702.703 8       -83.845          48.000
G09  21731249.383 5 114198485.015 5     -2152.852          35.000    21731249.812 6  88985833.857 6     -1677.544          36.000
G30  21152951.016 7 111159585.461 7      2078.441          46.000    21152954.891 7  86617839.842 7      1619.565          47.000
R03  21924830.383 5 117365369.882 5     -2751.266          31.000    21924833.148 4  91284165.253 4     -2139.873          26.000
R04  19528090.891 8 104572041.859 8          .496          50.000    19528091.773 7  81333844.974 7          .386          43.000
R14  19708461.141 8 105057274.357 8      1184.211          51.000    19708463.453 8  81711200.698 8       921.053          49.000
R15  22091177.461 6 118048559.172 6      4287.660          38.000    22091181.672 6  91815570.769 6      3334.847          39.000
C05  39778853.797 5 207138929.572 5       -11.578          35.000    39778852.766 6 160172944.913 6        -9.074          41.000
C21  21885702.242 7 113964712.621 7       889.910          44.000
C22  23062546.258 8 120092717.574 8     -1866.930          51.000
E07  25460941.508 5 133798159.739 5     -1815.059          34.000
E27  24826104.812 8 130462081.258 8      1970.477          51.000    24826108.711 8  99964469.639 8      1509.858          51.000
E33  26570204.258 8 139627351.438 8     -2517.234          48.000    26570206.016 8 106987225.643 8     -1928.745          49.000
> 2020 05 04 02 10  0.0000000  0 16        .000000000000
G02  22698988.047 7 119283970.167 7     -1351.578          44.000    22698986.898 6  92948540.552 6     -1053.181          38.000
G06  23161560.609 6 121714782.035 6     -3209.047          39.000    23161595.414 6  94842666.642 6     -2500.559          36.000
G07  20781168.844 8 109205780.743 8      -122.871          48.000    20781169.812 8  85095393.728 8       -95.744          48.000
G09  21743555.398 5 114263154.955 5     -2159.031          35.000    21743556.391 5  89036225.986 5     -1682.359          35.000
G30  21141125.117 8 111097436.009 8      2064.742          50.000    21141128.219 8  86569411.706 8      1608.890          50.000
R03  21940259.586 5 117448015.904 5     -2758.469          32.000    21940272.055 4  91348426.620 4     -2145.479          26.000
R04  19528123.609 8 104572215.265 8       -12.297          50.000    19528124.156 7  81333979.831 7        -9.564          43.000
R14  19701868.719 8 105022134.661 8      1158.219          51.000    19701871.336 8  81683869.845 8       900.837          48.000
R15  22067128.258 6 117920049.229 6      4279.293          38.000    22067133.695 6  91715618.595 6      3328.339          40.000
C05  39778919.688 5 207139272.738 5       -11.125          35.000    39778918.555 6 160173210.272 6        -8.494          41.000
C21  21880600.211 7 113938144.222 7       881.000          43.000
C22  23073325.438 8 120148845.321 8     -1875.117          51.000
E07  25471309.820 5 133852636.452 5     -1817.273          31.000    25471324.211 5 102562449.160 5     -1393.067          35.000
E27  24814886.656 8 130403127.589 8      1959.680          51.000    24814890.344 8  99919297.347 8      1501.627          51.000
E30  24473068.039 6 128606793.985 6      -824.969          38.000
E33  26584592.352 8 139702960.804 8     -2523.605          48.000    26584593.125 8 107045160.070 8     -1933.597          49.000
> 2020 05 04 02 10 30.0000000  0 15        .000000000000
G02  22706748.188 7 119324746.084 7     -1366.500          44.000    22706746.188 6  92980314.006 6     -1064.802          38.000
G06  23179905.695 6 121811175.243 6     -3216.477          39.000    23179938.398 5  94917778.158 5     -2506.348          32.000
G07  20781915.094 8 109209702.067 8      -138.379          49.000    20781916.172 8  85098449.307 8      -107.828          49.000
G09  21755899.039 5 114328022.066 5     -2165.309          35.000    21755901.164 5  89086771.846 5     -1687.253          34.000
G30  21129380.414 8 111035711.374 8      2050.559          51.000    21129382.148 8  86521314.603 8      1597.838          51.000
R04  19528230.727 8 104572787.060 8       -25.586          51.000    19528230.977 7  81334424.557 7       -19.900          44.000
R14  19695424.742 8 104987786.852 8      1131.898          51.000    19695427.711 8  81657154.923 8       880.368          48.000
R15  22043129.539 6 117791807.397 6      4270.254          38.000    22043136.234 7  91615874.934 7      3321.309          42.000
C05  39778983.828 5 207139606.918 5       -10.699          35.000    39778982.742 6 160173468.699 6        -8.473          41.000
C21  21875552.523 7 113911860.651 7       871.527          42.000
C22  23084154.156 8 120205232.256 8     -1883.734          51.000
E07  25481698.688 5 133907231.016 5     -1821.844          33.000    25481712.344 6 102604286.403 6     -1395.835          36.000
E27  24803733.055 8 130344511.894 8      1948.375          51.000    24803736.281 8  99874384.056 8      1492.896          51.000
E30  24477824.062 6 128631764.462 6      -839.258          36.000
E33  26599019.211 7 139778774.262 7     -2530.336          47.000    26599019.516 8 107103250.901 8     -1938.847          50.000
> 2020 05 04 02 11  0.0000000  0 15        .000000000000
G02  22714595.523 7 119365980.584 7     -1381.668          45.000    22714593.031 6  93012444.793 6     -1076.624          39.000
G06  23198295.141 6 121907801.255 6     -3224.230          38.000    23198323.711 5  94993071.289 5     -2512.387          33.000
G07  20782752.375 8 109214100.514 8      -154.074          49.000    20782753.367 8  85101876.666 8      -120.058          49.000
G09  21768282.180 6 114393094.777 6     -2171.781          38.000    21768284.000 6  89137477.879 6     -1692.300          38.000
G30  21117718.281 8 110974421.716 8      2036.184          51.000    21117718.875 8  86473556.456 8      1586.637          51.000
R04  19528413.883 8 104573767.456 8       -39.094          51.000    19528413.922 7  81335187.081 7       -30.406          44.000
R14  19689131.523 8 104954241.287 8      1105.121          51.000    19689134.547 8  81631063.963 8       859.539          49.000
R15  22019184.250 6 117663846.466 6      4261.102          37.000    22019191.055 6  91516349.757 6      3314.190          41.000
C05  39779048.125 6 207139941.017 6       -10.785          36.000    39779046.938 6 160173727.034 6        -8.304          41.000
C21  21870561.328 7 113885871.873 7       861.836          42.000
C22  23095033.828 8 120261886.999 8     -1892.578          51.000
E07  25492110.281 5 133961946.027 5     -1825.605          34.000    25492121.242 6 102646212.262 6     -1398.700          36.000
E27  24792645.875 8 130286244.651 8      1936.824          51.000    24792647.891 8  99829737.740 8      1484.075          51.000
E30  24482659.141 6 128657167.747 6      -853.762          37.000
E33  26613486.211 7 139854798.706 7     -2537.168          47.000    26613486.633 8 107161503.403 8     -1944.079          50.000
> 2020 05 04 02 11 30.0000000  0 14        .000000000000
G02  22722528.797 7 119407666.325 7     -1397.672          45.000    22722525.211 6  93044927.213 6     -1089.095          39.000
G06  23216727.352 5 122004651.595 5     -3232.574          35.000    23216752.562 5  95068539.016 5     -2518.898          31.000
G07  20783679.219 8 109218969.725 8      -170.723          50.000    20783679.836 8  85105670.868 8      -133.031          50.000
G09  21780703.359 6 114458367.021 6     -2179.621          38.000    21780706.055 6  89188339.406 6     -1698.406          39.000
G30  21106137.594 8 110913562.957 8      2020.828          51.000    21106137.758 8  86426134.081 8      1574.674          51.000
R04  19528672.398 8 104575152.290 8       -53.566          51.000    19528672.414 7  81336264.174 7       -41.663          44.000
R14  19682988.047 8 104921493.806 8      1077.562          51.000    19682991.094 8  81605593.724 8       838.104          49.000
R15  21995292.859 6 117536165.171 6      4251.047          38.000    21995298.461 6  91417042.073 6      3306.370          41.000
C05  39779111.344 6 207140270.808 6       -11.355          36.000    39779110.133 6 160173981.306 6        -9.110          41.000
C21  21865625.773 7 113860173.746 7       851.336          43.000
C22  23105963.578 8 120318804.045 8     -1902.176          51.000
E27  24781623.914 8 130228322.077 8      1924.332          51.000    24781625.109 8  99785355.532 8      1474.485          51.000
E30  24487575.047 6 128682997.517 6      -868.680          39.000
E33  26627992.188 8 139931026.790 8     -2544.984          48.000    26627992.938 8 107219911.940 8     -1950.062          51.000
> 2020 05 04 02 12  0.0000000  0 14        .000000000000
G02  22730547.922 7 119449806.603 7     -1411.449          43.000    22730543.469 6  93077763.777 6     -1099.831          40.000
G06  23235202.023 5 122101727.860 5     -3239.012          33.000    23235222.305 5  95144182.789 5     -2523.911          31.000
G07  20784696.477 8 109224313.226 8      -185.367          51.000    20784696.266 8  85109834.641 8      -144.442          51.000
G09  21793163.594 6 114523842.746 6     -2185.059          39.000    21793166.039 6  89239359.388 6     -1702.646          40.000
G30  21094639.336 8 110853140.903 8      2007.332          51.000    21094639.828 8  86379051.963 8      1564.155          51.000
R04  19529007.484 8 104576947.005 8       -65.926          51.000    19529007.594 7  81337660.068 7       -51.276          45.000
R14  19676995.312 8 104889550.388 8      1051.961          51.000    19676998.523 8  81580748.869 8       818.195          50.000
R15  21971456.570 6 117408772.000 6      4242.777          37.000    21971460.523 6  91317958.498 6      3299.938          40.000
C05  39779174.359 6 207140598.861 6       -10.238          36.000    39779173.133 6 160174234.934 6        -7.838          41.000
C21  21860747.641 7 113834771.921 7       842.289          44.000
C22  23116944.383 8 120375987.775 8     -1909.945          51.000
E27  24770668.484 8 130170750.241 8      1913.875          51.000    24770669.258 8  99741242.069 8      1466.476          51.000
E30  24492572.539 5 128709257.806 5      -882.145          34.000
E33  26642537.578 8 140007461.017 8     -2550.520          48.000    26642538.789 8 107278478.417 8     -1954.306          51.000
> 2020 05 04 02 12 30.0000000  0 15        .000000000000
G02  22738651.297 6 119492395.171 6     -1427.559          40.000    22738646.984 6  93110949.666 6     -1112.383          41.000
G06  23253717.852 5 122199022.607 5     -3247.055          34.000    23253731.125 5  95219996.708 5     -2530.182          35.000
G07  20785803.031 8 109230125.970 8      -201.980          51.000    20785802.219 8  85114364.072 8      -157.387          51.000
G09  21805661.672 6 114589516.888 6     -2192.617          38.000    21805662.188 6  89290533.999 6     -1708.536          38.000
G30  21083223.219 8 110793152.362 8      1992.078          50.000    21083224.477 8  86332307.647 8      1552.269          50.000
R03  22018182.203 5 117865029.775 5     -2802.695          34.000
R04  19529418.414 8 104579148.527 8       -80.668          50.000    19529418.594 7  81339372.368 7       -62.742          45.000
R14  19671152.867 8 104858407.715 8      1024.266          51.000    19671156.367 8  81556526.821 8       796.651          50.000
R15  21947675.242 5 117281666.661 5      4231.891          34.000    21947676.297 6  91219098.780 6      3291.470          38.000
C05  39779236.430 6 207140921.935 6       -11.145          36.000    39779235.195 6 160174484.755 6        -8.370          41.000
C21  21855926.266 7 113809663.191 7       831.609          45.000
C22  23127976.211 8 120433433.648 8     -1919.656          51.000
E27  24759779.242 8 130113526.366 8      1901.305          51.000    24759780.398 8  99697395.231 8      1456.904          51.000
E30  24497648.617 6 128736018.505 6      -897.070          37.000
E33  26657120.961 7 140084094.986 7     -2558.062          47.000    26657122.750 8 107337197.928 8     -1960.074          51.000
> 2020 05 04 02 13  0.0000000  0 15        .000000000000
G02  22746841.133 7 119535436.788 7     -1442.426          42.000    22746838.273 7  93144488.546 7     -1123.968          42.000
G06  23272274.961 5 122296539.920 5     -3254.398          35.000    23272281.078 6  95295984.211 6     -2535.895          37.000
G07  20787000.055 8 109236414.598 8      -217.680          51.000    20786998.641 8  85119264.322 8      -169.617          51.000
G09  21818198.516 6 114655395.908 6     -2199.426          39.000    21818196.938 6  89341868.355 6     -1713.835          39.000
G30  21071891.539 8 110733605.769 8      1977.277          51.000    21071893.312 8  86285907.724 8      1540.739          51.000
R03  22033917.469 5 117949237.191 5     -2811.902          31.000
R04  19529906.641 8 104581765.228 8       -94.316          50.000    19529907.180 7  81341407.580 7       -73.360          46.000
R14  19665462.383 8 104828074.562 8       997.422          51.000    19665466.117 8  81532934.387 8       775.773          51.000
R15  21923946.719 5 117154925.244 5      4221.770          33.000    21923947.047 6  91120471.649 6      3283.602          38.000
C05  39779298.875 5 207141247.201 5       -11.520          35.000    39779297.664 6 160174736.256 6        -8.379          41.000
C21  21851162.266 7 113784855.910 7       821.773          44.000
C22  23139060.070 8 120491148.659 8     -1928.438          51.000
E27  24748957.609 8 130056659.218 8      1889.422          51.000    24748959.156 8  99653821.718 8      1447.760          51.000
E30  24502806.969 6 128763135.886 6      -911.188          38.000
E33  26671743.469 7 140160933.881 7     -2564.906          46.000    26671745.531 8 107396074.463 8     -1965.279          51.000
> 2020 05 04 02 13 30.0000000  0 15        .000000000000
G02  22755121.109 7 119578949.954 7     -1458.699          44.000    22755119.445 6  93178394.874 6     -1136.652          39.000
G06  23290866.633 5 122394331.273 5     -3262.719          35.000    23290870.133 5  95372214.962 5     -2542.381          34.000
G07  20788291.180 8 109243197.532 8      -234.629          51.000    20788288.945 8  85124549.735 8      -182.828          51.000
G09  21830777.859 6 114721498.776 6     -2207.496          38.000    21830775.938 6  89393376.995 6     -1720.130          38.000
G30  21060648.383 8 110674521.706 8      1961.285          51.000    21060650.391 8  86239868.221 8      1528.274          51.000
R04  19530476.516 8 104584818.231 8      -109.465          49.000    19530477.430 7  81343782.126 7       -85.139          46.000
R14  19659928.039 8 104798571.311 8       969.203          51.000    19659931.578 8  81509987.430 8       753.825          51.000
R15  21900275.664 6 117028441.642 6      4210.344          37.000    21900276.445 6  91022095.542 6      3274.715          36.000
C05  39779365.344 5 207141593.908 5       -12.695          35.000    39779364.234 6 160175004.366 6        -9.497          41.000
C21  21846459.672 7 113760370.403 7       810.434          44.000
C22  23150199.188 8 120549151.824 8     -1938.613          51.000
E07  25544502.422 5 134237263.290 5     -1846.535          32.000    25544496.000 5 102857103.408 5     -1414.653          32.000
E27  24738207.539 8 130000169.647 8      1876.250          51.000    24738209.617 8  99610537.523 8      1437.649          51.000
E30  24508051.773 5 128790703.774 5      -926.836          34.000    24508055.195 5  98683780.097 5      -710.550          34.000
E33  26686407.992 7 140237995.017 7     -2572.801          45.000    26686410.289 8 107455121.321 8     -1971.385          51.000
> 2020 05 04 02 14  0.0000000  0 15        .000000000000
G02  22763482.016 7 119622887.111 7     -1470.785          44.000    22763480.469 6  93212631.599 6     -1146.066          37.000
G06  23309505.781 5 122492277.711 5     -3267.539          32.000    23309509.047 5  95448537.802 5     -2546.131          30.000
G07  20789667.484 8 109250429.143 8      -247.902          51.000    20789665.016 8  85130184.789 8      -193.171          51.000
G09  21843390.875 6 114787779.384 6     -2211.699          36.000    21843389.797 5  89445024.208 5     -1723.408          35.000
G30  21049485.172 8 110615856.012 8      1949.148          51.000    21049487.008 8  86194154.735 8      1518.817          51.000
R03  22065534.219 5 118118546.161 5     -2827.777          31.000
R04  19531119.766 8 104588262.325 8      -120.621          49.000    19531120.352 7  81346460.864 7       -93.816          46.000
R14  19654540.750 8 104769853.406 8       944.809          50.000    19654544.172 8  81487651.288 8       734.851          51.000
R15  21876655.453 6 116902238.894 6      4202.871          41.000    21876657.578 6  90923937.872 6      3268.900          38.000
C05  39779427.484 5 207141917.239 5        -9.676          35.000    39779426.344 6 160175254.407 6        -7.627          41.000
C21  21841810.984 7 113736162.929 7       802.980          45.000
C22  23161384.750 8 120607398.024 8     -1944.895          51.000
E07                                                                  25555042.586 5 102899552.916 5     -1416.114          34.000
E27  24727521.031 8 129944013.905 8      1866.891          51.000    24727523.383 8  99567509.081 8      1430.493          51.000
E33  26701104.984 7 140315231.065 7     -2576.762          44.000    26701107.867 8 107514302.207 8     -1974.468          51.000
> 2020 05 04 02 14 30.0000000  0 14        .000000000000
G02  22771927.297 6 119667269.501 6     -1487.836          41.000    22771923.586 5  93247215.278 5     -1159.350          32.000
G06  23328187.273 5 122590440.673 5     -3276.309          32.000    23328186.562 5  95525022.677 5     -2552.968          33.000
G07  20791133.266 8 109258131.111 8      -265.785          51.000    20791130.484 8  85136186.350 8      -207.105          51.000
G09  21856041.930 6 114854259.996 6     -2220.750          37.000    21856041.812 6  89496827.261 6     -1730.455          36.000
G30  21038406.109 8 110557632.813 8      1932.191          51.000    21038407.492 8  86148786.039 8      1505.607          51.000
R04  19531840.977 8 104592122.204 8      -136.859          51.000    19531841.047 7  81349462.978 7      -106.446          46.000
R14  19649305.000 8 104741945.180 8       915.582          49.000    19649308.773 8  81465944.868 8       712.119          51.000
R15  21853093.109 7 116776344.150 7      4190.070          42.000    21853096.875 6  90826019.766 6      3258.944          40.000
C05  39779489.531 5 207142239.990 5       -11.938          35.000    39779488.312 6 160175503.975 6        -9.189          41.000
C21  21837220.500 7 113712257.371 7       790.582          45.000
C22  23172621.336 8 120665909.733 8     -1956.023          51.000
E07                                                                  25565610.250 5 102942090.464 5     -1420.532          35.000
E27  24716902.836 8 129888216.395 8      1852.676          51.000    24716905.789 8  99524755.147 8      1419.607          51.000
E33  26715838.742 7 140392662.927 7     -2585.434          43.000    26715842.039 8 107573633.116 8     -1981.127          51.000
> 2020 05 04 02 15  0.0000000  0 14        .000000000000
G02  22780452.805 6 119712075.647 6     -1501.613          40.000    22780447.406 6  93282129.156 6     -1170.088          36.000
G06  23346907.375 5 122688803.133 5     -3282.809          34.000    23346904.797 5  95601669.558 5     -2558.033          33.000
G07  20792684.594 8 109266283.606 8      -280.410          51.000    20792681.383 8  85142538.946 8      -218.498          51.000
G09  21868727.141 6 114920920.408 6     -2226.238          38.000    21868726.625 6  89548770.469 6     -1734.731          39.000
G30  21027407.562 8 110499833.702 8      1918.441          51.000    21027408.375 8  86103747.782 8      1494.889          51.000
R04  19532635.898 8 104596378.763 8      -149.621          51.000    19532635.938 7  81352773.639 7      -116.372          46.000
R14  19644217.078 8 104714827.605 8       889.660          48.000    19644221.828 8  81444853.396 8       691.955          51.000
R15  21829585.688 7 116650741.457 7      4180.609          43.000    21829590.844 6  90728328.782 6      3251.582          41.000
C05  39779547.664 6 207142542.812 6       -10.551          36.000    39779546.414 6 160175738.152 6        -8.464          41.000
C21  21832684.039 7 113688635.398 7       781.789          45.000
C22  23183905.023 8 120724667.374 8     -1963.820          51.000
E07                                                                  25576193.773 4 102984733.123 4     -1422.178          27.000
E27  24706349.586 8 129832758.994 8      1841.809          51.000    24706352.492 8  99482261.822 8      1411.223          51.000
E33  26730605.852 7 140470268.981 7     -2590.805          44.000    26730608.828 8 107633097.502 8     -1985.246          49.000
> 2020 05 04 02 15 30.0000000  0 13        .000000000000
G02  22789067.930 7 119757352.784 7     -1516.586          42.000    22789063.453 6  93317410.038 6     -1181.755          39.000
G06  23365667.180 5 122787382.431 5     -3289.547          35.000    23365665.984 5  95678484.579 5     -2563.283          34.000
G07  20794330.664 8 109274934.795 8      -296.117          51.000    20794327.625 8  85149280.146 8      -230.741          51.000
G09  21881455.203 6 114987809.115 6     -2232.633          36.000    21881454.570 6  89600891.501 6     -1739.717          36.000
G30  21016499.070 8 110442508.873 8      1903.406          51.000    21016499.430 8  86059079.050 8      1483.171          51.000
R04  19533514.383 8 104601083.310 8      -163.676          51.000    19533514.469 7  81356432.723 7      -127.303          46.000
R14  19639287.023 8 104688551.479 8       862.375          48.000    19639292.453 8  81424416.411 8       670.736          51.000
R15  21806143.758 7 116525484.857 7      4169.840          44.000    21806149.258 7  90630906.950 7      3243.209          42.000
C05  39779611.289 5 207142874.356 5       -11.414          35.000    39779610.094 6 160175994.509 6        -8.476          41.000
C21  21828211.516 7 113665346.822 7       771.195          45.000
C22  23195245.562 8 120783719.303 8     -1972.754          51.000
E27  24695871.133 8 129777692.289 8      1829.645          51.000    24695873.195 8  99440067.841 8      1401.956          51.000
E33  26745415.742 7 140548096.187 7     -2597.172          45.000    26745417.430 8 107692731.355 8     -1990.113          49.000
> 2020 05 04 02 16  0.0000000  0 16        .000000000000
G02  22797767.531 7 119803069.943 7     -1531.066          44.000    22797764.164 6  93353033.772 6     -1193.039          41.000
G06  23384466.000 5 122886194.474 5     -3296.145          32.000    23384466.242 5  95755456.777 5     -2568.427          33.000
G07  20796065.797 8 109284054.481 8      -311.590          50.000    20796063.266 8  85156386.409 8      -242.797          50.000
G09  21894220.383 5 115054905.587 5     -2239.398          31.000    21894220.414 5  89653167.654 5     -1744.986          31.000
G30  21005675.227 8 110385630.116 8      1888.777          51.000    21005675.609 8  86014757.907 8      1471.775          51.000
R03  22129328.539 5 118460052.649 5     -2863.258          33.000
R04  19534471.094 8 104606207.107 8      -177.453          51.000    19534471.273 7  81360417.896 7      -138.019          47.000
R14  19634510.242 8 104663088.133 8       835.457          50.000    19634515.484 8  81404611.548 8       649.800          51.000
R15  21782762.539 7 116400548.145 7      4159.445          44.000    21782768.016 7  90533733.958 7      3235.124          43.000
