     3.02           OBSERVATION DATA    M (MIXED)           RINEX VERSION / TYPE
SAVERINEX           SC600               20200516 215931 LCL PGM / RUN BY / DATE
       G = GPS       R = GLONASS       C = COMPASS          COMMENT
       S = SBAS      J = QZSS          E = GALILEO          COMMENT
BEAN                                                        MARKER NAME
1                                                           MARKER NUMBER
GEODETIC                                                    MARKER TYPE
Unige DICCA         GTER                                    OBSERVER / AGENCY
SC60291900056       SC600               2.12(191202)        REC # / TYPE / VERS
                    HEMA45          NONE                    ANT # / TYPE
  4509407.8091   693652.4678  4442337.6214                  APPROX POSITION XYZ
        0.0000        0.0000        0.0000                  ANTENNA: DELTA H/E/N
G    8 C1C L1C D1C S1C C2Y L2Y D2Y S2Y                      SYS / # / OBS TYPES
R    8 C1C L1C D1C S1C C2P L2P D2P S2P                      SYS / # / OBS TYPES
C    8 C1I L1I D1I S1I C7I L7I D7I S7I                      SYS / # / OBS TYPES
E    8 C1C L1C D1C S1C C7Q L7Q D7Q S7Q                      SYS / # / OBS TYPES
DBHZ                                                        COMMENT
     30.000                                                 INTERVAL
  2020    05    16    19    00    0.0000000     GPS         TIME OF FIRST OBS
  2020    05    16    19    59   30.0000000     GPS         TIME OF LAST OBS
     0                                                      RCV CLOCK OFFS APPL
G L1C  0.00000                                              SYS / PHASE SHIFT
G L2Y  0.00000                                              SYS / PHASE SHIFT
R L1C  0.00000                                              SYS / PHASE SHIFT
R L2P  0.25000                                              SYS / PHASE SHIFT
C L1I  0.00000                                              SYS / PHASE SHIFT
C L7I  0.00000                                              SYS / PHASE SHIFT
E L1C  0.50000                                              SYS / PHASE SHIFT
E L7Q -0.25000                                              SYS / PHASE SHIFT
 13 R04  6 R05  1 R06 -4 R07  5 R09 -2 R10 -5 R15  0 R16 -1 GLONASS SLOT / FRQ #
    R18 -3 R19  3 R20  2 R21  4 R22 -3                      GLONASS SLOT / FRQ #
 C1C   71.950 C2C   71.950 C2P   71.950                     GLONASS COD/PHS/BIS
    18                                                      LEAP SECONDS
*** Above antenna height is from mark to ANTENNA BOTTOM.    COMMENT
    17     4        0.0000        ANT MEASURE TYPE/HEIGT    COMMENT
    0.0000    0.0000    0.0458    0.0405    0.0000          COMMENT
                    BASE STATION                            COMMENT
                                                            END OF HEADER
> 2020 05 16 19 00  0.0000000  0 17        .000000000000
G01  20444168.016 6 107434820.109 6       868.402          37.000    20444173.055 6  83715464.783 6       676.677          37.000
G03  21694460.164 8 114005164.267 8      2393.207          49.000    21694462.852 8  88835192.739 8      1864.840          49.000
G08  22061847.188 7 115935771.003 7     -2988.082          46.000    22061850.688 7  90339560.843 7     -2328.376          46.000
G11  19995569.898 8 105077422.113 8      -942.855          48.000    19995569.320 8  81878516.336 8      -734.693          48.000
G14  21909055.492 6 115132875.156 6        95.965          40.000    21909055.523 6  89713921.237 6        74.778          36.000
G22  20738376.820 8 108981002.418 8       761.285          51.000    20738373.773 8  84920191.578 8       593.209          51.000
R06  19150892.109 7 102192839.893 7       682.477          46.000
R20  21759869.781 6 116359812.931 6     -3172.926          36.000    21759871.453 7  90502089.001 7     -2467.834          42.000
R21  19252490.719 8 103023968.858 8       489.973          48.000    19252493.258 8  80129758.523 8       381.090          49.000
C05                                                                  39676753.164 6 159761847.089 6       -24.482          37.000
C19  21790056.164 8 113466572.623 8     -1021.488          51.000
C20  25637692.344 5 133502174.988 5     -3028.711          35.000
C22  22810111.383 8 118778216.709 8      2059.836          51.000
C29  25127609.219 7 130845998.867 7     -3189.559          47.000
E07  24541703.164 8 128967604.649 8      2126.125          51.000    24541707.773 8  98819276.919 8      1629.115          51.000
E08  22266014.156 7 117008768.098 7      -647.230          44.000    22266016.078 7  89656102.384 7      -496.026          43.000
E13  23687677.453 8 124479575.657 8     -1071.285          51.000    23687679.125 8  95380477.806 8      -820.849          51.000
> 2020 05 16 19 00 30.0000000  0 17        .000000000000
G01  20439232.320 6 107408877.210 6       854.828          38.000    20439235.625 6  83695249.537 6       666.100          39.000
G03  21680815.445 8 113933462.389 8      2380.438          48.000    21680818.758 8  88779321.202 8      1854.886          48.000
G08  22078922.695 8 116025503.533 8     -3000.859          48.000    22078926.641 8  90409482.275 8     -2338.332          48.000
G11  20000989.016 7 105105900.602 7      -962.156          47.000    20000988.781 7  81900707.344 7      -749.732          47.000
G14  21908546.539 6 115130199.132 6        76.156          40.000    21908547.820 6  89711836.082 6        59.346          38.000
G22  20734053.273 8 108958281.536 8       746.930          51.000    20734049.953 8  84902486.993 8       582.023          51.000
R06  19147109.570 7 102172655.556 7       656.504          46.000
R20  21777691.922 6 116455114.590 6     -3187.117          37.000    21777693.633 7  90576212.399 7     -2478.875          44.000
R21  19249785.891 7 103009494.277 7       468.438          47.000    19249788.430 8  80118500.520 8       364.340          49.000
C05                                                                  39676922.633 6 159762529.604 6       -25.895          37.000
C19  21795963.797 8 113497334.975 8     -1035.812          51.000
C20  25655134.016 5 133592999.482 5     -3032.910          35.000
C22  22798263.445 8 118716520.810 8      2046.797          51.000
C29  25145985.117 7 130941685.841 7     -3196.031          47.000
E07  24529580.578 8 128903898.873 8      2114.246          51.000    24529585.148 8  98770463.419 8      1620.019          51.000
E08  22269733.898 7 117028313.551 7      -662.184          45.000    22269734.898 6  89671078.797 6      -507.399          41.000
E13  23693802.789 8 124511764.568 8     -1081.262          51.000    23693804.750 8  95405142.005 8      -828.490          51.000
> 2020 05 16 19 01  0.0000000  0 18        .000000000000
G01  20434382.336 5 107383392.887 5       844.551          34.000    20434384.984 5  83675391.731 5       658.098          32.000
G03  21667255.516 8 113862206.220 8      2370.188          49.000    21667259.258 8  88723796.905 8      1846.899          48.000
G08  22096083.430 8 116115683.483 8     -3011.012          48.000    22096087.594 8  90479752.333 8     -2346.243          48.000
G11  20006531.648 7 105135027.550 7      -979.395          47.000    20006531.180 7  81923403.677 7      -763.165          47.000
G14  21908164.859 6 115128191.860 6        58.160          37.000    21908165.469 5  89710271.990 5        45.320          33.000
G22  20729824.414 8 108936058.378 8       734.918          51.000    20729821.102 8  84885170.259 8       572.663          51.000
R06  19143484.594 7 102153312.085 7       633.273          45.000
R07  21824971.609 6 116830759.693 6      3813.309          38.000    21824968.305 4  90868365.465 4      2965.913          28.000
R20  21795605.297 6 116550903.691 6     -3198.691          38.000    21795606.750 7  90650714.934 7     -2487.874          44.000
R21  19247213.883 7 102995732.080 7       449.445          46.000    19247216.617 8  80107796.605 8       349.569          48.000
C05                                                                  39677113.898 6 159763299.816 6       -25.252          37.000
C19  21801966.484 8 113528592.209 8     -1047.742          51.000
C20  25672613.594 5 133684024.239 5     -3035.211          35.000
C22  22786503.508 8 118655282.618 8      2036.035          51.000
C29  25164409.852 7 131037631.748 7     -3200.035          45.000
E07  24517537.859 8 128840612.537 8      2104.891          51.000    24517542.250 8  98721971.312 8      1612.859          51.000
E08  22273550.438 7 117048368.932 7      -674.625          47.000    22273550.672 6  89686445.933 6      -516.947          41.000
E13  23699996.906 8 124544315.936 8     -1088.621          51.000    23699998.953 8  95430083.937 8      -834.162          50.000
> 2020 05 16 19 01 30.0000000  0 19        .000000000000
G01  20429593.047 5 107358232.018 5       832.941          33.000    20429596.188 5  83655785.829 5       649.048          32.000
G03  21653755.172 8 113791260.049 8      2359.297          51.000    21653758.789 8  88668514.188 8      1838.413          51.000
G08  22113302.844 8 116206172.448 8     -3021.980          48.000    22113307.148 8  90550263.179 8     -2354.790          48.000
G11  20012171.680 7 105164666.530 7      -996.953          47.000    20012171.055 7  81946499.000 7      -776.847          47.000
G14  21907884.711 5 115126717.184 5        39.660          33.000    21907884.062 5  89709122.985 5        30.916          33.000
G22  20725664.039 8 108914196.327 8       722.152          51.000    20725661.250 8  84868134.902 8       562.716          51.000
G32  22351516.727 5 117458013.177 5     -1500.293          34.000
R06  19139991.188 7 102134670.483 7       609.180          46.000
R07  21803633.914 6 116716534.561 6      3801.367          40.000    21803635.156 5  90779523.905 5      2956.628          31.000
R20  21813583.688 6 116647040.340 6     -3210.902          37.000    21813585.625 7  90725487.849 7     -2497.368          45.000
R21  19244748.836 7 102982545.493 7       429.371          45.000    19244752.219 8  80097540.383 8       333.955          48.000
C05                                                                  39677301.062 6 159764053.373 6       -25.152          38.000
C19  21808038.000 8 113560207.907 8     -1060.289          51.000
C20  25690106.109 5 133775112.496 5     -3037.816          35.000
C22  22774805.672 8 118594367.877 8      2024.551          51.000
C29  25182858.070 7 131133700.164 7     -3204.820          45.000
E07  24505549.195 8 128777610.422 8      2094.844          51.000    24505553.312 8  98673696.999 8      1605.125          51.000
E08  22277438.070 8 117068797.171 8      -687.660          48.000    22277438.922 7  89702098.753 7      -526.926          42.000
E13  23706234.234 8 124577093.730 8     -1096.859          51.000    23706236.156 8  95455199.371 8      -840.433          51.000
> 2020 05 16 19 02  0.0000000  0 18        .000000000000
G01  20424870.055 6 107333413.081 6       821.695          37.000    20424872.914 6  83636446.399 6       640.282          38.000
G03  21640317.562 8 113720642.547 8      2348.473          51.000    21640320.641 8  88613487.607 8      1829.982          51.000
G08  22130583.820 8 116296985.809 8     -3032.488          48.000    22130588.141 8  90621026.781 8     -2362.978          48.000
G11  20017912.656 8 105194835.368 8     -1014.504          48.000    20017911.961 8  81970007.182 8      -790.523          48.000
G22  20721575.828 8 108892713.003 8       709.746          51.000    20721573.227 8  84851394.626 8       553.049          51.000
G32  22360121.734 6 117503260.423 6     -1517.043          39.000    22360129.555 5  91560992.139 5     -1182.108          32.000
R06  19136632.820 7 102116749.389 7       585.312          45.000
R07  21782360.641 6 116602660.492 6      3790.121          41.000    21782362.617 5  90690955.331 5      2947.875          31.000
R20  21831629.391 6 116743541.488 6     -3223.332          36.000    21831632.703 7  90800544.317 7     -2507.036          46.000
R21  19242396.055 7 102969954.441 7       409.543          46.000    19242399.445 7  80087747.355 7       318.536          47.000
C05                                                                  39677487.445 6 159764803.877 6       -24.977          37.000
C19  21814181.406 8 113592198.352 8     -1072.715          51.000
C20  25707614.031 5 133866280.377 5     -3040.359          35.000
C22  22763173.711 8 118533795.007 8      2013.324          51.000
C29  25201333.531 7 131229907.477 7     -3209.203          45.000
E07  24493618.172 8 128714911.496 8      2084.789          51.000    24493622.094 8  98625655.008 8      1597.433          51.000
E08  22281399.961 7 117089615.217 7      -700.473          46.000    22281402.234 7  89718050.281 7      -536.753          42.000
E13  23712518.094 8 124610116.057 8     -1104.879          51.000    23712520.188 8  95480502.176 8      -846.566          51.000
> 2020 05 16 19 02 30.0000000  0 19        .000000000000
G01  20420214.969 6 107308949.005 6       809.652          38.000    20420217.883 6  83617383.525 6       630.898          39.000
G03  21626944.781 8 113650366.452 8      2336.820          50.000    21626947.211 8  88558727.081 8      1820.902          50.000
G08  22147928.469 7 116388133.221 7     -3044.016          47.000    22147932.562 7  90692050.697 7     -2371.960          47.000
G11  20023756.906 8 105225545.682 8     -1032.676          50.000    20023755.945 8  81993937.279 8      -804.682          49.000
G14  21907640.781 5 115125432.366 5         2.594          35.000    21907640.305 5  89708122.964 5         2.021          32.000
G22  20717561.891 8 108871620.099 8       696.621          51.000    20717559.086 8  84834958.595 8       542.822          51.000
G32  22368832.156 6 117549037.109 6     -1534.332          37.000    22368837.312 5  91596662.444 5     -1195.574          35.000
R06  19133411.609 7 102099560.171 7       560.777          46.000
R07  21761155.219 6 116489152.424 6      3777.598          40.000    21761154.297 5  90602671.371 5      2938.132          31.000
R20  21849744.758 6 116840417.492 6     -3235.395          37.000    21849749.617 8  90875892.288 8     -2516.421          48.000
R21  19240156.797 7 102957973.087 7       389.199          46.000    19240160.039 7  80078428.546 7       302.711          46.000
C05                                                                  39677675.391 6 159765560.608 6       -25.279          37.000
C19  21820398.805 8 113624574.036 8     -1085.613          51.000
C20  25725139.508 5 133957538.159 5     -3043.867          35.000
C22  22751609.531 8 118473576.612 8      2001.406          51.000
C29  25219838.242 7 131326264.217 7     -3214.316          46.000
E07  24481747.414 8 128652528.900 8      2074.078          51.000    24481750.961 8  98577855.404 8      1589.253          51.000
E08  22285437.836 7 117110834.201 7      -713.988          46.000    22285441.312 6  89734309.048 6      -547.199          40.000
E13  23718850.828 8 124643395.176 8     -1113.621          51.000    23718853.391 8  95506001.717 8      -853.270          51.000
> 2020 05 16 19 03  0.0000000  0 20        .000000000000
G01  20415624.531 6 107284824.548 6       798.512          39.000    20415626.938 6  83598585.231 6       622.217          39.000
G03  21613633.945 8 113580416.444 8      2326.344          50.000    21613635.789 8  88504220.649 8      1812.738          51.000
G08  22165333.555 8 116479596.713 8     -3053.910          49.000    22165337.133 8  90763320.929 8     -2379.670          49.000
G11  20029701.195 8 105256781.387 8     -1049.754          51.000    20029699.820 8  82018276.765 8      -817.990          49.000
G14  21907676.062 6 115125618.371 6       -15.184          39.000    21907679.336 6  89708272.020 6       -11.831          37.000
G22  20713619.031 8 108850901.039 8       684.566          51.000    20713616.047 8  84818813.892 8       533.428          51.000
G32  22377639.930 5 117595325.635 5     -1551.160          32.000    22377641.672 5  91632731.553 5     -1208.693          31.000
R05  21563060.672 5 115266880.275 5     -3565.473          30.000
R06  19130324.539 7 102083086.261 7       537.414          46.000
R07  21740015.766 6 116375996.807 6      3766.020          40.000    21740014.141 5  90514661.541 5      2929.129          33.000
R20  21867927.977 6 116937650.930 6     -3246.867          39.000    21867932.836 7  90951518.277 7     -2525.341          47.000
R21  19238028.797 7 102946586.902 7       369.668          47.000    19238032.258 7  80069572.625 7       287.523          46.000
C05                                                                  39677861.742 6 159766311.228 6       -24.820          37.000
C19  21826686.766 8 113657317.716 8     -1097.461          51.000
C20  25742679.047 5 134048868.246 5     -3045.156          34.000
C22  22740109.500 8 118413697.574 8      1990.324          49.000
C29  25238368.852 7 131422753.155 7     -3218.336          47.000
E07  24469933.883 8 128590447.697 8      2064.520          51.000    24469936.867 8  98530286.751 8      1581.893          51.000
E08  22289548.953 7 117132437.275 7      -726.266          47.000    22289551.719 6  89750862.032 6      -556.537          39.000
E13  23725229.578 8 124676915.281 8     -1121.234          51.000    23725232.367 8  95531685.928 8      -859.077          51.000
> 2020 05 16 19 03 30.0000000  0 20        .000000000000
G01  20411101.539 6 107261054.755 6       785.852          38.000    20411102.766 6  83580063.305 6       612.352          38.000
G03  21600387.742 8 113510807.320 8      2314.430          49.000    21600389.375 8  88449979.818 8      1803.452          49.000
G08  22182801.031 8 116571388.065 8     -3065.289          49.000    22182803.727 8  90834846.637 8     -2388.537          49.000
G11  20035748.094 8 105288556.264 8     -1068.434          51.000    20035746.375 8  82043036.390 8      -832.546          49.000
G14  21907816.977 6 115126365.376 6       -34.980          40.000    21907816.836 4  89708854.072 4       -27.264          29.000
G22  20709750.008 8 108830569.384 8       671.059          51.000    20709746.867 8  84802971.050 8       522.903          51.000
G32  22386549.773 5 117642138.589 5     -1569.562          35.000    22386549.719 5  91669177.355 5     -1223.036          33.000
R05  21583104.695 5 115374014.794 5     -3576.742          32.000
R06  19127373.992 7 102067341.523 7       512.391          46.000
R07  21718946.789 6 116263210.699 6      3753.039          41.000    21718946.039 6  90426939.065 6      2919.033          38.000
R20  21886180.406 6 117035254.247 6     -3259.945          39.000    21886184.938 7  91027431.930 7     -2535.516          45.000
R21  19236015.305 8 102935811.889 8       348.703          48.000    19236018.734 7  80061192.050 7       271.211          45.000
C05                                                                  39678049.312 6 159767066.533 6       -25.397          37.000
C19  21833047.672 8 113690441.886 8     -1110.695          51.000
C20  25760233.984 5 134140283.072 5     -3049.074          32.000
C22  22728677.055 8 118354172.503 8      1977.984          50.000
C29  25256927.672 8 131519386.882 8     -3223.680          48.000
E07  24458180.398 8 128528683.018 8      2053.352          51.000    24458182.867 8  98482960.619 8      1573.341          51.000
E08  22293735.633 7 117154437.558 7      -740.184          46.000    22293737.203 6  89767719.400 6      -567.261          39.000
E13  23731656.930 8 124710690.713 8     -1130.297          51.000    23731659.914 8  95557565.789 8      -866.081          51.000
> 2020 05 16 19 04  0.0000000  0 20        .000000000000
G01  20406645.406 6 107237636.986 6       774.301          39.000    20406645.961 6  83561815.640 6       603.351          40.000
G03  21587205.422 8 113441536.353 8      2303.262          48.000    21587207.477 8  88396002.473 8      1794.749          48.000
G08  22200329.906 8 116663501.486 8     -3076.020          50.000    22200331.383 8  90906623.275 8     -2396.898          49.000
G11  20041896.789 8 105320866.516 8     -1086.184          51.000    20041894.930 8  82068213.178 8      -846.377          50.000
G14  21908064.898 7 115127669.841 7       -53.277          42.000    21908068.602 5  89709870.444 5       -41.515          34.000
G22  20705954.094 8 108810621.674 8       658.234          51.000    20705951.016 8  84787427.385 8       512.910          51.000
G32  22395558.758 6 117689470.737 6     -1587.242          38.000    22395556.406 5  91706072.566 5     -1236.806          34.000
R05  21603209.664 5 115481468.386 5     -3587.965          30.000    21603221.125 4  89819020.498 4     -2790.642          29.000
R06  19124559.164 7 102052321.850 7       488.258          46.000
R07  21697946.672 7 116150792.892 7      3740.914          42.000    21697947.211 7  90339503.048 7      2909.600          42.000
R20  21904500.562 6 117133222.539 6     -3272.047          37.000    21904504.828 7  91103629.469 7     -2544.925          43.000
R21  19234115.648 8 102925646.507 8       328.391          48.000    19234119.242 7  80053285.614 7       255.415          45.000
C05                                                                  39678237.422 6 159767823.868 6       -25.454          37.000
C19  21839480.977 8 113723941.743 8     -1123.113          51.000
C20  25777804.039 5 134231777.556 5     -3051.359          31.000
C22  22717313.125 8 118294998.679 8      1966.332          51.000
C29  25275513.516 8 131616160.594 8     -3228.430          48.000
E07  24446486.453 8 128467232.473 8      2042.852          51.000    24446488.789 8  98435875.176 8      1565.347          51.000
E08  22297996.688 7 117176830.670 7      -753.223          46.000    22297998.688 6  89784877.768 6      -577.091          40.000
E13  23738132.273 8 124744718.271 8     -1138.707          51.000    23738135.367 8  95583638.825 8      -872.492          51.000
> 2020 05 16 19 04 30.0000000  0 20        .000000000000
G01  20402257.180 6 107214577.087 6       761.012          41.000    20402258.375 6  83543846.914 6       592.996          41.000
G03  21574088.664 8 113372609.261 8      2290.242          49.000    21574091.008 8  88342293.108 8      1784.607          49.000
G08  22217920.773 8 116755939.628 8     -3088.195          50.000    22217921.461 8  90978652.928 8     -2406.389          50.000
G11  20048148.188 8 105353716.952 8     -1105.625          51.000    20048146.375 8  82093810.887 8      -861.526          50.000
G14  21908420.266 6 115129536.728 6       -73.246          41.000    21908422.672 4  89711325.167 4       -57.072          27.000
G22  20702232.078 8 108791062.304 8       644.004          51.000    20702229.273 8  84772186.327 8       501.821          51.000
G32  22404666.625 6 117737325.469 6     -1605.172          38.000    22404645.648 6  91743361.843 6     -1250.789          36.000
R05  21623373.008 5 115589317.343 5     -3598.883          30.000    21623380.734 5  89902844.601 5     -2799.134          30.000
R06  19121881.234 7 102038032.136 7       462.590          46.000
R07  21677017.305 7 116038751.364 7      3726.973          45.000    21677018.688 7  90252359.710 7      2898.757          44.000
R20  21922889.242 5 117231559.360 5     -3285.527          34.000    21922893.898 7  91180113.621 7     -2555.413          43.000
R21  19232331.609 8 102916097.731 8       306.473          50.000    19232334.578 7  80045858.748 7       238.368          44.000
C05  39678427.547 5 206615983.402 5       -33.953          34.000    39678427.008 6 159768587.157 6       -26.826          37.000
C19  21845986.953 8 113757820.886 8     -1137.133          51.000
C20  25795389.445 5 134323361.659 5     -3055.648          30.000
C22  22706018.711 8 118236181.788 8      1953.043          51.000
C29  25294126.508 7 131713077.890 7     -3234.465          47.000
E07  24434853.039 8 128406102.215 8      2030.824          51.000    24434856.055 8  98389035.150 8      1556.086          51.000
E08  22302333.391 7 117199620.846 7      -767.785          45.000    22302336.219 6  89802340.372 6      -588.336          39.000
E13  23744656.703 8 124779003.241 8     -1148.617          51.000    23744659.867 8  95609909.111 8      -880.142          51.000
> 2020 05 16 19 05  0.0000000  0 18        .000000000000
G01  20397936.914 7 107191873.137 7       750.891          42.000    20397938.312 7  83526155.510 7       585.110          42.000
G03  21561037.328 8 113304023.802 8      2280.523          50.000    21561039.258 8  88288849.957 8      1777.031          49.000
G08  22235572.578 8 116848697.891 8     -3097.289          50.000    22235573.477 8  91050932.018 8     -2413.475          50.000
G11  20054501.711 8 105387104.635 8     -1122.008          51.000    20054499.875 8  82119827.254 8      -874.292          50.000
G14  21908881.984 6 115131963.403 6       -90.430          41.000    21908882.852 5  89713216.018 5       -70.468          35.000
G22  20698583.516 8 108771888.188 8       632.660          51.000    20698580.555 8  84757245.455 8       492.982          51.000
R06  19119339.523 7 102024469.379 7       439.883          46.000
R07  21656157.602 7 115927086.057 7      3715.727          46.000    21656159.812 7  90165509.023 7      2890.016          43.000
R20  21941345.828 5 117330260.573 5     -3296.375          35.000    21941351.000 7  91256881.160 7     -2563.850          43.000
R21  19230662.586 8 102907163.973 8       287.449          51.000    19230664.484 7  80038910.263 7       223.572          44.000
C05  39678618.180 5 206616976.392 5       -34.484          34.000    39678617.391 6 159769354.143 6       -25.639          37.000
C19  21852565.055 8 113792075.039 8     -1148.086          51.000
C20  25812990.391 5 134415015.290 5     -3056.789          31.000
C22  22694792.680 8 118177719.700 8      1942.664          51.000
C29  25312765.539 7 131810134.643 7     -3237.566          46.000
E07  24423280.047 8 128345290.434 8      2021.660          50.000    24423284.398 8  98342439.136 8      1549.073          51.000
E08  22306744.844 7 117222804.217 7      -779.324          43.000    22306747.906 6  89820104.278 6      -597.312          39.000
E13  23751229.523 8 124813543.017 8     -1155.629          51.000    23751232.812 8  95636374.624 8      -885.452          51.000
> 2020 05 16 19 05 30.0000000  0 18        .000000000000
G01  20393682.203 6 107169513.857 6       739.766          41.000    20393684.211 7  83508732.724 7       576.441          42.000
G03  21548048.852 8 113235768.655 8      2270.082          49.000    21548050.469 8  88235664.187 8      1768.898          48.000
G08  22253282.391 8 116941761.418 8     -3106.781          49.000    22253283.898 8  91123448.990 8     -2420.872          49.000
G11  20060954.992 8 105421016.939 8     -1138.820          51.000    20060953.180 8  82146252.416 8      -887.392          50.000
G14  21909448.125 6 115134937.553 6      -107.344          36.000    21909449.594 5  89715533.600 5       -83.638          33.000
G22  20695005.852 8 108753086.798 8       620.926          51.000    20695002.578 8  84742595.029 8       483.841          51.000
R06  19116931.641 7 102011620.343 7       416.945          47.000
R07  21635365.508 7 115815787.163 7      3704.277          47.000    21635368.305 7  90078943.311 7      2881.108          42.000
R20  21959868.727 6 117429312.345 6     -3307.074          37.000    21959874.203 7  91333921.392 7     -2572.169          44.000
R21  19229106.539 8 102898834.923 8       267.895          51.000    19229108.383 7  80032432.089 7       208.359          45.000
C05                                                                  39678806.445 6 159770115.585 6       -25.071          37.000
C19  21859212.734 8 113826690.784 8     -1159.461          51.000
C20  25830605.086 5 134506736.471 5     -3058.266          34.000
C22  22683632.125 8 118119601.129 8      1931.973          51.000
C29  25331428.141 7 131907317.436 7     -3241.152          43.000
E07  24411765.906 8 128284786.057 8      2012.055          51.000    24411771.469 8  98296078.657 8      1541.707          51.000
E08  22311228.688 7 117246367.806 7      -791.246          44.000    22311231.586 6  89838159.513 6      -606.471          39.000
E13  23757848.266 8 124848325.671 8     -1163.082          51.000    23757851.984 8  95663026.252 8      -891.160          51.000
> 2020 05 16 19 06  0.0000000  0 18        .000000000000
G01  20389493.477 7 107147501.714 7       727.832          42.000    20389495.953 7  83491580.415 7       567.142          42.000
G03  21535123.242 7 113167846.103 7      2258.453          47.000    21535125.258 7  88182737.569 7      1759.834          47.000
G08  22271050.031 8 117035129.981 8     -3117.586          49.000    22271052.000 8  91196203.658 8     -2429.291          49.000
G11  20067508.234 8 105455455.254 8     -1156.730          50.000    20067506.648 8  82173087.465 8      -901.348          50.000
G14  21910118.570 6 115138449.635 6      -126.797          36.000    21910118.445 5  89718273.847 5       -98.809          31.000
G22  20691499.266 8 108734659.305 8       608.008          51.000    20691495.906 8  84728235.954 8       473.772          51.000
R06  19114657.625 7 101999485.890 7       392.438          47.000
R07  21614641.969 7 115704859.101 7      3691.277          46.000    21614645.375 6  89992666.009 6      2870.997          40.000
R20  21978457.477 6 117528714.442 6     -3319.207          36.000    21978462.641 7  91411234.112 7     -2581.605          43.000
R21  19227664.117 8 102891113.873 8       247.215          51.000    19227666.320 7  80026426.793 7       192.278          45.000
C05  39678995.164 5 206618940.153 5       -32.535          35.000    39678994.492 6 159770872.728 6       -25.324          37.000
C19  21865929.844 8 113861668.289 8     -1172.027          51.000
C20  25848232.008 5 134598522.674 5     -3060.770          35.000
C22  22672537.266 8 118061828.345 8      1919.910          51.000
C29  25350114.742 7 132004626.535 7     -3245.844          42.000
E07  24400311.375 8 128224591.782 8      2001.203          51.000    24400317.320 8  98249955.780 8      1533.377          51.000
E08  22315785.273 7 117270312.355 7      -804.484          42.000    22315788.297 6  89856506.612 6      -616.459          39.000
E13  23764513.461 8 124883353.084 8     -1171.719          51.000    23764517.578 8  95689865.437 8      -897.834          51.000
> 2020 05 16 19 06 30.0000000  0 18        .000000000000
G01  20385374.289 7 107125854.889 7       716.508          42.000    20385376.789 7  83474712.757 7       558.318          42.000
G03  21522264.430 8 113100274.132 8      2247.652          49.000    21522267.367 8  88130084.123 8      1751.420          49.000
G08  22288878.219 7 117128818.187 7     -3127.316          47.000    22288880.492 7  91269207.394 7     -2436.873          47.000
G11  20074164.664 8 105490436.473 8     -1173.863          49.000    20074163.555 8  82200345.543 8      -914.699          49.000
G14  21910897.086 6 115142539.244 6      -144.934          36.000    21910897.172 4  89721460.458 4      -112.935          28.000
G22  20688067.125 8 108716622.746 8       595.789          51.000    20688063.734 8  84714181.494 8       464.251          51.000
R06  19112520.938 7 101988083.637 7       369.047          47.000
R07  21593991.227 7 115594322.130 7      3679.121          46.000    21593995.594 6  89906692.858 6      2861.542          39.000
R20  21997115.008 6 117628482.970 6     -3330.457          36.000    21997119.461 7  91488831.822 7     -2590.355          42.000
R21  19226338.789 8 102884020.217 8       227.055          51.000    19226341.000 7  80020909.503 7       176.598          46.000
C05  39679185.414 5 206619930.888 5       -31.719          35.000    39679184.727 6 159771638.863 6       -25.113          37.000
C19  21872719.688 8 113897023.310 8     -1183.691          51.000
C20  25865874.258 5 134690389.548 5     -3062.340          33.000
C22  22661512.250 8 118004419.110 8      1908.660          51.000
C29  25368829.492 7 132102077.746 7     -3249.648          42.000
E07  24388919.492 8 128164725.950 8      1991.145          51.000    24388925.125 8  98204084.562 8      1525.640          51.000
E08  22320417.055 6 117294654.103 6      -816.926          40.000    22320420.805 6  89875158.143 6      -626.013          38.000
E13  23771228.625 8 124918642.805 8     -1179.676          51.000    23771232.656 8  95716905.603 8      -903.898          51.000
> 2020 05 16 19 07  0.0000000  0 18        .000000000000
G01  20381320.555 7 107104551.742 7       703.992          43.000    20381322.602 7  83458112.899 7       548.565          43.000
G03  21509468.625 8 113033030.944 8      2235.438          50.000    21509471.656 8  88077686.846 8      1741.902          50.000
G08  22306762.125 7 117222801.279 7     -3138.320          46.000    22306764.852 7  91342440.924 7     -2445.447          46.000
G11  20080920.117 8 105525937.745 8     -1192.586          50.000    20080919.141 8  82228008.874 8      -929.288          49.000
G14  21911783.328 5 115147204.409 5      -164.332          35.000    21911777.180 5  89725069.694 5      -128.051          30.000
G22  20684705.023 8 108698954.000 8       582.266          51.000    20684701.430 8  84700413.652 8       453.713          51.000
R06  19110516.875 7 101977389.693 7       343.984          46.000
R07  21573410.312 7 115484155.847 7      3665.344          46.000    21573415.016 6  89821008.040 6      2850.826          37.000
R20  22015836.641 6 117728593.797 6     -3343.109          36.000    22015840.555 7  91566695.740 7     -2600.199          42.000
R21  19225126.484 8 102877532.679 8       205.531          51.000    19225128.828 7  80015863.612 7       159.855          47.000
C05  39679373.523 5 206620909.965 5       -32.859          35.000    39679372.922 6 159772396.724 6       -25.554          37.000
C19  21879577.281 8 113932732.104 8     -1196.688          51.000
C20  25883527.750 5 134782313.275 5     -3065.809          32.000
C22  22650553.414 8 117947351.824 8      1895.949          51.000
C29  25387567.023 6 132199647.369 6     -3254.883          40.000
E07  24377585.820 8 128105167.059 8      1979.676          51.000    24377591.078 8  98158448.545 8      1516.885          51.000
E08  22325120.109 7 117319369.725 7      -830.449          42.000    22325122.961 6  89894096.106 6      -636.432          37.000
E13  23777989.617 8 124954172.567 8     -1188.844          51.000    23777993.312 8  95744129.688 8      -910.968          51.000
> 2020 05 16 19 07 30.0000000  0 18        .000000000000
G01  20377336.391 6 107083615.658 6       692.293          41.000    20377338.266 6  83441799.063 6       539.449          41.000
G03  21496739.922 8 112966139.624 8      2224.336          49.000    21496742.500 8  88025563.797 8      1733.252          49.000
G08  22324705.523 7 117317099.917 7     -3148.145          46.000    22324709.367 7  91415920.361 7     -2453.100          45.000
G11  20087779.000 8 105561981.513 8     -1210.094          50.000    20087777.852 8  82256094.929 8      -942.930          49.000
G14  21912771.141 6 115152403.805 6      -182.258          38.000    21912770.344 5  89729132.072 5      -142.022          34.000
G22  20681416.938 8 108681675.231 8       569.805          51.000    20681413.312 8  84686949.694 8       444.004          51.000
R06  19108649.711 7 101967426.494 7       320.391          45.000
R07  21552904.000 8 115374385.971 8      3652.793          48.000    21552906.805 5  89735631.600 5      2841.067          35.000
R20  22034625.984 5 117829067.852 5     -3354.207          35.000    22034629.930 7  91644842.186 7     -2608.828          43.000
R21  19224032.297 8 102871675.736 8       185.047          51.000    19224034.516 8  80011308.222 8       143.925          48.000
C05  39679563.906 5 206621901.745 5       -32.977          35.000    39679563.344 6 159773163.622 6       -25.300          37.000
C19  21886507.016 8 113968815.534 8     -1208.625          51.000
C20  25901196.211 5 134874314.468 5     -3066.590          31.000
C22  22639664.844 8 117890649.364 8      1884.398          51.000
C29  25406330.430 5 132297356.433 5     -3258.730          34.000
E07  24366314.781 8 128045938.683 8      1969.191          51.000    24366319.859 8  98113065.793 8      1508.861          51.000
E08  22329898.617 6 117344480.809 6      -843.172          40.000    22329899.398 6  89913337.035 6      -646.216          37.000
E13  23784800.906 8 124989965.098 8     -1197.090          51.000    23784804.172 8  95771555.113 8      -917.293          51.000
> 2020 05 16 19 08  0.0000000  0 18        .000000000000
G01  20373427.188 6 107063074.473 6       670.695          40.000    20373429.117 6  83425792.923 6       522.620          41.000
G03  21484083.180 8 112899627.838 8      2203.297          48.000    21484085.305 8  87973736.506 8      1716.858          48.000
G08  22342714.000 7 117411738.492 7     -3167.570          47.000    22342718.805 8  91489664.688 8     -2468.237          48.000
G11  20094746.117 8 105598594.204 8     -1237.355          50.000    20094744.898 8  82284624.297 8      -964.176          48.000
G14  21913872.898 6 115158195.919 6      -210.051          36.000    21913871.070 5  89733645.463 5      -163.670          32.000
G22  20678208.039 8 108664812.969 8       547.762          51.000    20678204.469 8  84673810.289 8       426.827          50.000
G32  22471125.781 5 118086562.486 5     -1731.281          33.000    22471130.805 5  92015497.370 5     -1349.053          32.000
R05  21766075.875 5 116352159.676 5     -3676.336          30.000    21766076.250 4  90496118.707 4     -2859.372          26.000
R06  19106924.477 7 101958220.620 7       286.824          46.000
R07  21532478.086 8 115265042.483 8      3630.238          50.000    21532478.516 6  89650586.854 6      2823.525          38.000
R20  22053487.281 5 117929931.421 5     -3376.305          33.000    22053492.602 7  91723291.574 7     -2626.015          45.000
R21  19223060.797 8 102866478.656 8       154.766          50.000    19223063.578 8  80007266.030 8       120.370          48.000
C05  39679761.711 5 206622931.842 5       -42.422          35.000    39679761.117 6 159773960.162 6       -32.374          37.000
C19  21893513.320 8 114005298.891 8     -1229.980          51.000
C22  22628851.359 8 117834339.167 8      1863.152          51.000
E07  24355111.984 8 127987068.810 8      1949.023          51.000    24355116.555 8  98067957.749 8      1493.369          50.000
E08  22334756.820 6 117370013.205 6      -865.516          37.000    22334757.836 6  89932900.883 6      -663.331          38.000
E13  23791667.445 8 125026047.645 8     -1214.988          51.000    23791670.406 8  95799202.739 8      -930.923          51.000
> 2020 05 16 19 08 30.0000000  0 17        .000000000000
G01  20369589.805 7 107042910.179 7       668.703          43.000    20369591.680 7  83410080.494 7       521.067          43.000
G03  21471494.922 7 112833477.464 7      2201.652          47.000    21471497.086 7  87922190.798 7      1715.576          47.000
G08  22360783.984 8 117506696.069 8     -3167.871          49.000    22360789.016 8  91563657.567 8     -2468.471          49.000
G11  20101817.875 8 105635756.704 8     -1245.188          50.000    20101816.781 8  82313582.071 8      -970.279          48.000
G14  21915083.016 6 115164561.925 6      -219.293          38.000    21915078.711 5  89738605.831 5      -170.887          34.000
G22  20675074.836 8 108648348.009 8       544.895          51.000    20675071.367 8  84660980.472 8       424.593          51.000
R06  19105337.602 7 101949751.941 7       272.855          46.000
R07  21512128.727 8 115156108.942 8      3626.980          50.000    21512130.172 7  89565860.876 7      2820.988          42.000
R20  22072417.250 5 118031163.278 5     -3377.711          31.000    22072424.078 7  91802027.463 7     -2627.109          46.000
R21  19222209.523 8 102861923.764 8       143.871          50.000    19222212.328 8  80003723.336 8       111.900          48.000
C05  39679963.336 5 206623981.724 5       -32.461          34.000    39679962.859 6 159774772.048 6       -25.210          37.000
C19  21900592.336 8 114042162.103 8     -1232.355          51.000
C22  22618109.430 8 117778403.209 8      1860.988          51.000
C29  25443949.992 5 132493340.341 5     -3266.859          31.000
E07  24343974.188 8 127928539.708 8      1947.930          50.000    24343978.062 8  98023110.806 8      1492.635          50.000
E08  22339691.305 6 117395947.290 6      -868.465          38.000    22339693.289 6  89952772.477 6      -665.381          38.000
E13  23798585.727 8 125062401.590 8     -1213.594          51.000    23798588.266 8  95827058.340 8      -929.947          51.000
> 2020 05 16 19 09  0.0000000  0 18        .000000000000
G01  20365810.102 7 107023048.300 7       655.633          42.000    20365811.922 7  83394603.687 7       510.880          43.000
G03  21458961.531 7 112767613.683 7      2189.316          47.000    21458963.469 7  87870868.404 7      1705.964          47.000
G08  22378900.266 8 117601894.786 8     -3178.461          49.000    22378905.305 8  91637838.327 8     -2476.726          49.000
G11  20108979.844 8 105673392.668 8     -1263.684          50.000    20108978.844 8  82342908.780 8      -984.689          48.000
G14  21916388.570 6 115171426.084 6      -237.941          37.000    21916386.906 5  89743954.559 5      -185.412          35.000
G22  20672002.617 8 108632204.458 8       531.527          51.000    20671999.469 8  84648401.106 8       414.177          51.000
G32  22490995.789 6 118190963.606 6     -1755.988          36.000    22490993.336 6  92096828.711 6     -1368.300          36.000
R06  19103874.672 7 101941943.920 7       248.074          46.000
R07  21491841.562 8 115047510.894 8      3612.945          49.000    21491844.914 7  89481395.803 7      2810.072          45.000
R20  22091402.023 5 118132685.214 5     -3389.879          33.000    22091410.102 7  91880988.917 7     -2636.572          47.000
R21  19221464.227 8 102857936.063 8       122.160          49.000    19221467.086 8  80000621.797 8        95.013          49.000
C05  39680154.258 5 206624975.700 5       -33.145          35.000    39680153.961 6 159775541.421 6       -25.904          37.000
C19  21907730.047 8 114079328.995 8     -1245.191          51.000
C22  22607424.562 8 117722767.386 8      1848.305          51.000
C29  25462784.125 5 132591427.270 5     -3271.781          31.000
E07  24332887.109 8 127870276.873 8      1936.320          51.000    24332890.602 8  97978467.894 8      1483.737          49.000
E08  22344688.328 6 117422128.646 6      -881.793          36.000    22344689.383 6  89972893.290 6      -675.959          39.000
E13  23805541.250 8 125098951.722 8     -1222.848          51.000    23805543.555 8  95855064.250 8      -936.996          51.000
> 2020 05 16 19 09 30.0000000  0 18        .000000000000
G01  20362098.562 6 107003544.903 6       644.145          41.000    20362100.617 6  83379406.237 6       501.931          41.000
G03  21446493.281 7 112702092.417 7      2178.176          47.000    21446495.109 7  87819812.915 7      1697.283          47.000
G08  22397072.461 8 117697387.697 8     -3188.109          49.000    22397077.320 8  91712248.350 8     -2484.241          49.000
G11  20116242.406 8 105711557.473 8     -1281.047          50.000    20116241.367 8  82372647.573 8      -998.218          49.000
G14  21917800.062 6 115178843.654 6      -256.359          37.000    21917798.562 5  89749734.513 5      -199.754          31.000
G22  20669002.078 8 108616437.255 8       519.156          51.000    20668999.039 8  84636114.986 8       404.537          51.000
G32  22501064.539 6 118243880.954 6     -1772.406          37.000    22501071.758 5  92138063.046 5     -1381.096          34.000
R06  19102545.570 7 101934851.332 7       224.348          46.000
R07  21471627.797 8 114939307.486 8      3600.031          48.000    21471632.680 7  89397237.637 7      2800.024          46.000
R20  22110452.672 6 118234552.321 6     -3402.020          36.000    22110460.109 7  91960218.871 7     -2646.015          45.000
R21  19220835.500 8 102854573.363 8       101.531          48.000    19220838.594 8  79998006.349 8        78.969          49.000
C05  39680345.359 5 206625970.580 5       -33.211          35.000    39680344.992 6 159776310.766 6       -25.702          37.000
C19  21914936.086 8 114116852.896 8     -1256.797          51.000
C22  22596807.789 8 117667487.147 8      1836.680          51.000
C29  25481641.664 5 132689636.379 5     -3276.535          33.000
E07  24321861.633 8 127812336.676 8      1925.750          51.000    24321864.898 8  97934072.204 8      1475.581          50.000
E08                                                                  22349758.758 6  89993304.933 6      -685.435          40.000
E13  23812544.438 8 125135753.571 8     -1231.090          51.000    23812546.812 8  95883263.032 8      -943.294          51.000
> 2020 05 16 19 10  0.0000000  0 18        .000000000000
G01  20358454.906 6 106984398.941 6       633.730          41.000    20358457.422 6  83364487.273 6       493.816          41.000
G03  21434089.625 7 112636912.339 7      2168.441          46.000    21434091.984 7  87769023.262 7      1689.695          46.000
G08  22415299.547 8 117793170.928 8     -3195.949          48.000    22415304.477 8  91786884.602 8     -2490.353          48.000
G11  20123605.086 8 105750248.490 8     -1296.859          50.000    20123603.906 8  82402796.408 8     -1010.540          49.000
G14  21919316.148 5 115186812.258 5      -273.340          35.000    21919314.805 5  89755943.728 5      -212.992          32.000
G22  20666072.789 8 108601043.993 8       508.566          51.000    20666069.797 8  84624120.241 8       396.289          51.000
R06  19101349.992 7 101928471.329 7       202.238          46.000
R07  21451488.055 8 114831499.207 8      3588.516          48.000    21451493.766 7  89313386.792 7      2791.071          47.000
R20  22129567.812 6 118336759.996 6     -3410.930          39.000    22129573.461 7  92039713.699 7     -2652.945          43.000
R21  19220323.977 8 102851834.930 8        82.461          49.000    19220326.773 8  79995876.469 8        64.136          49.000
R22  21545684.273 5 115012338.940 5      3458.801          35.000
C05  39680535.984 5 206626963.484 5       -32.141          35.000    39680535.586 6 159777078.505 6       -24.231          37.000
C19  21922209.812 8 114154730.386 8     -1266.879          51.000
C22  22586259.516 8 117612561.060 8      1826.516          51.000
C29  25500523.820 6 132787964.014 6     -3277.902          36.000
E07  24310897.523 8 127754718.104 8      1916.746          51.000    24310900.586 8  97889922.932 8      1468.732          50.000
E08                                                                  22354901.164 6  90014005.147 6      -693.573          41.000
E13  23819595.203 8 125172805.320 8     -1237.625          51.000    23819597.562 8  95911653.306 8      -948.307          51.000
> 2020 05 16 19 10 30.0000000  0 17        .000000000000
G01  20354880.977 7 106965618.103 7       619.172          42.000    20354883.672 7  83349852.858 7       482.472          42.000
G03  21421752.344 7 112572080.972 7      2154.492          45.000    21421755.242 7  87718505.339 7      1678.825          45.000
G08  22433582.414 8 117889248.734 8     -3208.109          48.000    22433587.648 7  91861750.407 7     -2499.825          47.000
G11  20131069.133 8 105789472.609 8     -1317.031          50.000    20131068.023 8  82433360.630 8     -1026.258          50.000
G14  21920938.359 5 115195308.624 5      -293.863          31.000    21920937.938 4  89762575.633 4      -228.981          28.000
G22  20663215.734 8 108586031.255 8       493.418          51.000    20663212.977 8  84612422.025 8       384.482          51.000
R06  19100289.148 7 101922810.403 7       175.977          45.000
R07  21431423.977 8 114724095.604 8      3572.660          48.000    21431430.359 7  89229850.699 7      2778.736          47.000
R20  22148747.711 6 118439314.493 6     -3425.016          39.000    22148751.562 6  92119478.296 6     -2663.901          41.000
R21  19219930.258 8 102849729.582 8        58.902          49.000    19219932.891 8  79994238.980 8        45.813          48.000
C05  39680727.617 5 206627961.158 5       -34.223          35.000    39680727.148 6 159777850.011 6       -26.505          37.000
C19  21929552.586 8 114192966.821 8     -1281.195          51.000
C22  22575781.453 8 117557996.575 8      1812.059          51.000
C29  25519430.172 6 132886415.787 6     -3284.453          38.000
E07  24299996.016 8 127697429.060 8      1903.363          51.000    24299998.812 8  97846026.158 8      1458.415          50.000
E08  22360111.742 5 117503178.241 5      -920.547          34.000    22360115.086 6  90034998.452 6      -705.309          41.000
E13  23826694.820 8 125210114.107 8     -1248.598          51.000    23826697.320 8  95940240.540 8      -956.760          51.000
> 2020 05 16 19 11  0.0000000  0 18        .000000000000
G01  20351372.820 7 106947182.995 7       607.441          43.000    20351375.438 7  83335487.861 7       473.334          43.000
G03  21409478.109 8 112507578.668 8      2143.648          48.000    21409481.000 8  87668243.827 8      1670.375          48.000
G08  22451917.266 8 117985598.549 8     -3217.145          49.000    22451922.211 8  91936828.169 8     -2506.866          49.000
G11  20138630.672 8 105829208.424 8     -1334.254          50.000    20138629.375 8  82464323.589 8     -1039.678          50.000
G14  21922665.836 5 115204355.334 5      -312.395          31.000
G22  20660427.102 8 108571378.251 8       481.324          51.000    20660424.305 8  84601004.124 8       375.058          50.000
G32  22531836.195 5 118405572.953 5     -1821.422          35.000
R06  19099359.016 7 101917847.508 7       152.914          45.000
R07  21411432.289 7 114617078.781 7      3559.691          47.000    21411439.008 7  89146615.433 7      2768.652          46.000
R20  22167987.281 6 118542193.354 6     -3436.078          38.000    22167990.156 6  92199495.125 6     -2672.508          41.000
R21  19219651.750 8 102848238.143 8        38.414          50.000    19219653.977 8  79993078.979 8        29.878          48.000
C05  39680916.281 5 206628943.594 5       -33.273          35.000    39680915.727 6 159778609.712 6       -25.820          37.000
C19  21936960.258 8 114231540.726 8     -1292.434          51.000
C22  22565369.164 8 117503774.180 8      1800.629          51.000
C29  25538357.133 6 132984970.213 6     -3287.867          41.000
E07  24289153.258 8 127640450.217 8      1893.156          51.000    24289155.734 8  97802367.095 8      1450.594          49.000
E08  22365395.773 5 117530947.609 5      -932.359          34.000    22365396.820 7  90056268.552 7      -714.429          42.000
E13  23833839.227 8 125247659.914 8     -1256.492          51.000    23833842.273 8  95969009.368 8      -962.773          51.000
> 2020 05 16 19 11 30.0000000  0 19        .000000000000
G01  20347923.867 7 106929058.657 7       607.605          42.000    20347926.281 7  83321365.010 7       473.456          43.000
G03  21397259.969 8 112443370.284 8      2143.754          48.000    21397262.477 8  87618211.348 8      1670.461          48.000
G08  22470296.961 8 118082182.137 8     -3214.973          50.000    22470301.094 8  92012088.059 8     -2505.177          50.000
G11  20146282.867 8 105869420.032 8     -1339.906          51.000    20146281.398 8  82495657.299 8     -1044.083          50.000
G14  21924482.805 5 115213934.261 5      -318.316          32.000
G22  20657700.164 8 108557048.598 8       480.672          51.000    20657697.148 8  84589838.156 8       374.550          51.000
G32  22542272.336 5 118460398.245 5     -1826.152          35.000    22542267.273 5  92306814.664 5     -1422.976          32.000
R06  19098552.555 7 101913544.573 7       141.039          45.000
R07  21391506.555 7 114510414.624 7      3558.070          47.000    21391512.719 7  89063654.489 7      2767.391          45.000
R20  22187280.258 6 118645358.525 6     -3435.238          38.000    22187281.758 6  92279734.603 6     -2671.855          40.000
R21  19219481.195 8 102847325.763 8        29.328          50.000    19219483.492 8  79992369.327 8        22.811          48.000
C05  39681095.133 5 206629875.315 5       -21.781          35.000    39681094.586 6 159779330.208 6       -17.090          37.000
C19  21944425.508 8 114270415.103 8     -1292.379          50.000
C20  26042968.156 4 135612571.344 4     -3071.328          29.000
C22  22555015.602 8 117449858.996 8      1800.359          51.000
C29  25557297.555 7 133083590.398 7     -3280.273          42.000
E07  24278362.836 8 127583746.752 8      1893.926          51.000    24278364.836 8  97758919.037 8      1451.211          49.000
E08                                                                  22370741.266 7  90077787.229 7      -714.929          42.000
E13  23841022.250 8 125285407.075 8     -1253.137          51.000    23841025.273 8  95997932.499 8      -960.279          51.000
> 2020 05 16 19 12  0.0000000  0 18        .000000000000
G01  20344550.836 7 106911332.147 7       587.016          44.000    20344553.078 7  83307552.140 7       457.415          44.000
G03  21385114.195 7 112379542.505 7      2123.961          47.000    21385116.242 8  87568475.441 8      1655.038          48.000
G08  22488737.312 8 118179083.772 8     -3232.809          50.000    22488740.125 8  92087595.771 8     -2519.072          51.000
G11  20154041.828 8 105910193.185 8     -1365.949          50.000    20154040.359 8  82527428.583 8     -1064.376          50.000
G22  20655051.180 8 108543128.083 8       459.789          51.000    20655048.375 8  84578991.004 8       358.277          51.000
G32  22552808.523 5 118515746.883 5     -1850.359          33.000    22552790.469 5  92349917.564 5     -1441.842          32.000
R06  19097886.203 7 101909988.830 7       108.832          45.000
R07  21371663.188 8 114404193.496 8      3536.031          48.000    21371667.844 7  88981038.144 7      2750.250          43.000
R20  22206642.047 5 118748895.924 5     -3454.977          35.000    22206643.008 6  92360263.545 6     -2687.207          41.000
R21  19219435.469 8 102847081.387 8         -.359          50.000    19219437.680 7  79992179.249 7         -.280          47.000
C05  39681280.688 5 206630840.787 5       -30.027          35.000    39681280.219 6 159780077.542 6       -23.485          37.000
C19  21951964.648 8 114309673.867 8     -1312.488          50.000
C20  26060732.500 4 135705070.580 4     -3082.145          28.000
C22  22544736.977 8 117396336.920 8      1780.125          51.000
C29  25576266.594 6 133182360.298 6     -3292.199          41.000
E07  24267641.641 8 127527405.803 8      1874.699          51.000    24267642.969 8  97715748.748 8      1436.452          49.000
E08  22376161.414 6 117587513.468 6      -953.961          38.000    22376163.305 7  90099619.726 7      -731.053          42.000
E13  23848260.359 8 125323441.956 8     -1269.953          51.000    23848262.805 8  96027076.106 8      -973.084          51.000
> 2020 05 16 19 12 30.0000000  0 18        .000000000000
G01  20341274.703 7 106894114.450 7       571.660          46.000    20341276.758 7  83294135.746 7       445.449          46.000
G03  21373061.805 8 112316206.136 8      2109.086          48.000    21373063.820 7  87519122.434 7      1643.444          47.000
G08  22507258.531 8 118276410.675 8     -3245.109          50.000    22507260.406 8  92163434.860 8     -2528.660          50.000
G11  20161928.523 8 105951637.982 8     -1386.484          51.000    20161927.125 8  82559723.216 8     -1080.377          50.000
G14  21928477.391 5 115234918.841 5      -366.266          33.000
G22  20652501.000 8 108529726.309 8       444.238          51.000    20652498.492 8  84568548.069 8       346.160          51.000
G32  22563464.094 5 118571727.080 5     -1870.922          33.000    22563444.156 5  92393538.405 5     -1457.861          32.000
R06  19097380.547 7 101907290.978 7        81.961          46.000
R07  21351924.094 8 114298530.103 8      3519.066          49.000    21351927.508 7  88898855.602 7      2737.055          44.000
R20  22226093.523 5 118852915.789 5     -3468.711          34.000    22226095.148 7  92441167.783 7     -2697.889          42.000
R21  19219535.969 8 102847618.919 8       -24.684          51.000    19219537.953 7  79992597.311 7       -19.201          46.000
C05  39681493.836 5 206631951.128 5       -33.098          35.000    39681493.469 6 159780936.151 6       -25.593          37.000
C19  21959598.484 8 114349424.756 8     -1327.109          50.000
C22  22534554.266 8 117343317.759 8      1765.066          51.000
C29  25595285.164 7 133281387.763 7     -3299.051          42.000
E07  24257010.688 8 127471538.520 8      1860.602          51.000    24257011.977 8  97672941.387 8      1425.632          49.000
E08  22381683.195 6 117616525.500 6      -969.348          40.000    22381683.320 6  90121849.676 6      -742.906          41.000
E13  23855573.812 8 125361874.928 8     -1281.547          51.000    23855576.180 8  96056524.723 8      -981.950          51.000
> 2020 05 16 19 13  0.0000000  0 17        .000000000000
G01  20338027.398 7 106877048.199 7       560.191          46.000    20338028.969 7  83280837.376 7       436.513          46.000
G03  21361034.805 8 112253003.521 8      2098.348          48.000    21361037.227 8  87469873.650 8      1635.076          48.000
G08  22525791.906 8 118373802.653 8     -3253.664          50.000    22525793.688 8  92239324.671 8     -2535.326          50.000
G11  20169874.562 8 105993394.301 8     -1403.250          51.000    20169872.977 8  82592260.594 8     -1093.442          49.000
G22  20649981.305 8 108516484.607 8       432.551          51.000    20649978.781 8  84558229.870 8       337.053          51.000
R06  19096967.281 7 101905085.977 7        59.047          46.000
R07  21332221.883 8 114193062.043 8      3506.055          50.000    21332225.062 7  88816824.970 7      2726.934          45.000
R20  22245566.383 5 118957052.076 5     -3479.199          33.000    22245569.562 7  92522162.673 7     -2706.044          43.000
R21  19219714.641 8 102848574.846 8       -45.129          50.000    19219716.445 7  79993340.777 7       -35.103          46.000
R22  21429821.891 5 114393783.466 5      3413.273          34.000
C05  39681666.664 5 206632850.556 5       -32.766          35.000    39681666.172 6 159781631.643 6       -25.270          37.000
C19  21967258.133 8 114389311.326 8     -1337.922          50.000
C22  22524399.844 8 117290447.056 8      1753.719          51.000
C29  25614284.867 7 133380316.468 7     -3302.047          43.000
E07  24246402.000 8 127415787.630 8      1850.312          51.000    24246403.734 8  97630223.214 8      1417.658          50.000
E08  22387234.484 6 117645696.943 6      -981.160          39.000    22387234.500 6  90144201.821 6      -751.747          41.000
E13  23862894.828 8 125400347.969 8     -1289.234          51.000    23862897.188 8  96086004.042 8      -987.822          51.000
> 2020 05 16 19 13 30.0000000  0 16        .000000000000
G01  20334877.711 7 106860495.499 7       548.070          47.000    20334878.664 7  83267939.175 7       427.068          47.000
