     3.02           OBSERVATION DATA    M (MIXED)           RINEX VERSION / TYPE
SAVERINEX           SC600               20200504 195931 LCL PGM / RUN BY / DATE
       G = GPS       R = GLONASS       C = COMPASS          COMMENT
       S = SBAS      J = QZSS          E = GALILEO          COMMENT
BEAN                                                        MARKER NAME
1                                                           MARKER NUMBER
GEODETIC                                                    MARKER TYPE
Unige DICCA         GTER                                    OBSERVER / AGENCY
SC60291900056       SC600               2.12(191226)        REC # / TYPE / VERS
                    HEMA45          NONE                    ANT # / TYPE
  4509407.8091   693652.4678  4442337.6214                  APPROX POSITION XYZ
        0.0000        0.0000        0.0000                  ANTENNA: DELTA H/E/N
G    8 C1C L1C D1C S1C C2Y L2Y D2Y S2Y                      SYS / # / OBS TYPES
R    8 C1C L1C D1C S1C C2P L2P D2P S2P                      SYS / # / OBS TYPES
C    8 C1I L1I D1I S1I C7I L7I D7I S7I                      SYS / # / OBS TYPES
E    8 C1C L1C D1C S1C C7Q L7Q D7Q S7Q                      SYS / # / OBS TYPES
DBHZ                                                        COMMENT
     30.000                                                 INTERVAL
  2020    05    04    17    00    0.0000000     GPS         TIME OF FIRST OBS
  2020    05    04    17    59   30.0000000     GPS         TIME OF LAST OBS
     0                                                      RCV CLOCK OFFS APPL
G L1C  0.00000                                              SYS / PHASE SHIFT
G L2Y  0.00000                                              SYS / PHASE SHIFT
R L1C  0.00000                                              SYS / PHASE SHIFT
R L2P  0.25000                                              SYS / PHASE SHIFT
C L1I  0.00000                                              SYS / PHASE SHIFT
C L7I  0.00000                                              SYS / PHASE SHIFT
E L1C  0.50000                                              SYS / PHASE SHIFT
E L7Q -0.25000                                              SYS / PHASE SHIFT
 13 R01  1 R02 -4 R06 -4 R07  5 R08  6 R10 -5 R11  0 R12 -1 GLONASS SLOT / FRQ #
    R13 -2 R14 -7 R21  4 R22 -3 R23  3                      GLONASS SLOT / FRQ #
 C1C   71.950 C2C   71.950 C2P   71.950                     GLONASS COD/PHS/BIS
    18                                                      LEAP SECONDS
*** Above antenna height is from mark to ANTENNA BOTTOM.    COMMENT
    17     4        0.0000        ANT MEASURE TYPE/HEIGT    COMMENT
    0.0000    0.0000    0.0458    0.0405    0.0000          COMMENT
                    BASE STATION                            COMMENT
                                                            END OF HEADER
> 2020 05 04 17 00  0.0000000  0 17        .000000000000
G10  20917737.766 8 109923463.539 8       -28.953          51.000    20917738.578 8  85654692.356 8       -22.561          51.000
G16  22122900.453 8 116256606.873 8     -3025.992          51.000    22122899.828 7  90589527.714 7     -2357.919          46.000
G20  21838682.328 5 114763048.446 5     -2247.250          32.000
G21  24869700.672 5 130691196.401 5     -2603.941          34.000
G26  24276562.375 5 127574188.746 5     -3702.645          31.000    24276558.484 5  99408482.036 5     -2885.190          30.000
G27  20278434.164 8 106563896.422 8       -40.828          51.000    20278435.445 8  83036790.618 8       -31.814          51.000
R01  21168613.867 8 113158440.083 8      3438.742          49.000    21168619.141 6  88012141.839 6      2674.580          41.000
R07  22846626.961 5 122299794.374 5     -3035.484          34.000
R08  20579107.617 5 110200156.990 5       346.988          31.000    20579107.531 6  85711224.970 6       269.883          37.000
R23  19895539.875 8 106427714.420 8      -998.422          50.000    19895545.547 7  82777140.510 7      -776.550          43.000
C05  39617464.602 5 206298533.810 5       -13.129          35.000    39617467.352 6 159523124.080 6       -10.327          37.000
C14  25289649.648 5 131689824.087 5     -2417.414          35.000    25289645.812 6 101830930.253 6     -1869.745          38.000
C27  21583194.750 8 112389370.716 8       450.242          49.000
C28  23297326.539 5 121315286.598 5     -2007.043          32.000
E11  22864806.227 8 120155386.770 8      -764.371          51.000    22864804.219 8  92067075.505 8      -585.723          51.000
E25  25763154.680 8 135386289.253 8     -2614.484          49.000    25763160.445 8 103737549.468 8     -2003.276          51.000
E36  24301298.461 5 127704180.523 5      1374.914          35.000
> 2020 05 04 17 00 30.0000000  0 17        .000000000000
G10  20917955.617 8 109924608.631 8       -47.355          51.000    20917956.117 8  85655584.656 8       -36.900          51.000
G16  22140206.664 8 116347551.366 8     -3036.883          51.000    22140206.039 7  90660393.516 7     -2366.402          47.000
G20  21851544.219 5 114830648.129 5     -2259.777          35.000
G21  24884565.211 5 130769308.688 5     -2603.254          34.000
G26  24297704.430 5 127685297.667 5     -3703.344          30.000    24297702.664 4  99495028.679 4     -2885.722          29.000
G27  20278706.211 8 106565326.153 8       -54.516          51.000    20278707.656 8  83037904.672 8       -42.480          51.000
R01  21149359.680 8 113055512.365 8      3423.082          48.000    21149364.141 6  87932087.002 6      2662.400          40.000
R07  22863687.484 5 122391124.074 5     -3053.203          33.000
R08  20577235.633 5 110190140.495 5       320.422          31.000    20577235.992 6  85703434.334 6       249.211          37.000
R23  19901166.031 8 106457810.662 8     -1008.047          51.000    19901171.594 7  82800548.678 7      -784.039          42.000
C05  39617538.547 5 206298918.858 5       -12.703          35.000    39617541.414 6 159523422.586 6        -9.678          36.000
C14  25303608.445 5 131762512.372 5     -2428.098          34.000    25303605.523 6 101887137.411 6     -1877.765          38.000
C27  21580623.500 8 112375980.932 8       442.461          50.000
C28  23308905.133 6 121375584.233 6     -2012.988          37.000
E11  22869182.945 8 120178386.072 8      -768.840          51.000    22869180.891 8  92084698.341 8      -589.174          51.000
E25  25778099.539 8 135464827.128 8     -2621.418          48.000    25778106.094 8 103797727.831 8     -2008.604          51.000
E36  24293456.781 5 127662977.263 5      1371.742          33.000
> 2020 05 04 17 01  0.0000000  0 16        .000000000000
G10  20918283.109 8 109926330.004 8       -66.551          51.000    20918283.648 8  85656926.004 8       -51.858          51.000
G16  22157578.977 8 116438843.477 8     -3048.301          51.000    22157578.492 7  90731530.174 7     -2375.299          47.000
G21  24899428.656 5 130847414.275 5     -2603.242          32.000
G26  24318855.547 5 127796445.762 5     -3705.008          32.000    24318861.859 5  99581654.194 5     -2887.028          31.000
G27  20279060.969 8 106567190.287 8       -68.926          51.000    20279062.555 8  83039357.220 8       -53.708          51.000
R01  21130197.922 7 112953083.090 7      3406.336          46.000    21130202.297 6  87852419.797 6      2649.372          39.000
R07  22880849.992 5 122482999.905 5     -3071.094          34.000    22880849.625 5  95264543.526 5     -2388.628          31.000
R14  21511102.719 5 114666271.282 5     -2182.297          31.000    21511090.680 5  89184845.454 5     -1697.342          31.000
R23  19906849.930 8 106488216.448 8     -1018.145          51.000    19906855.602 7  82824197.615 7      -791.890          43.000
C05  39617614.461 5 206299313.827 5       -12.527          35.000    39617617.047 6 159523727.263 6       -10.055          37.000
C14  25317630.859 5 131835532.522 5     -2438.996          33.000    25317629.172 6 101943601.183 6     -1886.053          37.000
C27  21578101.609 8 112362848.430 8       433.938          49.000
C28  23320522.523 6 121436071.180 6     -2018.793          38.000
E11  22873588.648 8 120201537.603 8      -773.992          51.000    22873586.633 8  92102437.815 8      -593.008          51.000
E25  25793089.578 8 135543601.419 8     -2629.352          49.000    25793096.250 8 103858087.332 8     -2014.665          51.000
E36  24285641.492 5 127621906.271 5      1366.918          34.000
> 2020 05 04 17 01 30.0000000  0 13        .000000000000
G10  20918709.062 8 109928569.447 8       -81.359          51.000    20918710.195 8  85658671.038 8       -63.397          51.000
G16  22175006.062 8 116530423.219 8     -3055.539          51.000    22175005.742 7  90802890.978 7     -2380.940          47.000
G20  21877529.492 4 114967206.440 4     -2283.090          28.000
G27  20279487.641 8 106569431.775 8       -78.977          51.000    20279489.242 8  83041103.814 8       -61.540          51.000
R01  21111118.266 7 112851097.837 7      3393.926          44.000    21111124.195 6  87773097.970 6      2639.723          38.000
R07  22898104.609 5 122575359.568 5     -3084.500          35.000    22898104.750 5  95336378.811 5     -2399.056          33.000
R23  19912580.594 8 106518872.904 8     -1024.113          51.000    19912586.570 7  82848041.484 7      -796.533          43.000
C05                                                                  39617683.289 6 159523993.856 6        -7.050          36.000
C14  25331705.969 5 131908825.279 5     -2445.953          31.000    25331705.086 6 102000275.794 6     -1891.245          37.000
C27  21575618.039 8 112349916.507 8       429.707          48.000
C28  23332165.508 4 121496708.012 4     -2020.875          28.000
E11  22878012.250 8 120224783.326 8      -774.508          51.000    22878010.344 8  92120249.478 8      -593.433          51.000
E25  25808113.891 8 135622552.410 8     -2632.785          50.000    25808119.336 8 103918582.190 8     -2017.317          51.000
> 2020 05 04 17 02  0.0000000  0 13        .000000000000
G10  20919249.148 8 109931408.806 8      -105.812          51.000    20919250.641 8  85660883.528 8       -82.448          51.000
G16  22192503.023 8 116622369.910 8     -3072.027          51.000    22192502.719 7  90874537.710 7     -2393.788          46.000
G20  21890622.734 5 115035996.889 5     -2301.164          32.000
G27  20280002.000 8 106572133.541 8       -98.676          51.000    20280003.289 8  83043209.076 8       -76.890          51.000
R01  21092138.617 7 112749644.398 7      3371.863          45.000    21092144.883 6  87694189.764 6      2622.563          38.000
R07  22915465.352 5 122668282.575 5     -3106.895          30.000    22915464.953 4  95408652.231 4     -2416.477          29.000
R14  21535891.891 5 114798435.612 5     -2227.141          33.000    21535908.617 5  89287692.045 5     -1732.217          33.000
R23  19918373.922 8 106549863.885 8     -1039.645          51.000    19918379.836 7  82872145.569 7      -808.615          43.000
C05  39617753.148 5 206300035.607 5       -13.473          35.000    39617755.594 6 159524285.386 6       -10.829          36.000
C14  25345848.492 5 131982470.102 5     -2461.312          33.000    25345848.344 6 102057222.660 6     -1903.593          37.000
C27  21573188.711 8 112337267.326 8       415.824          49.000
E11  22882469.414 8 120248205.348 8      -784.492          51.000    22882467.562 8  92138196.206 8      -601.110          51.000
E25  25823187.523 8 135701760.443 8     -2645.461          51.000    25823190.578 8 103979273.997 8     -2026.970          49.000
> 2020 05 04 17 02 30.0000000  0 15        .000000000000
G10  20919913.086 8 109934899.109 8      -123.371          51.000    20919915.125 8  85663603.240 8       -96.133          51.000
G16  22210079.117 8 116714732.624 8     -3081.785          50.000    22210078.805 7  90946508.620 7     -2401.394          46.000
G20  21903788.953 5 115105187.811 5     -2313.633          33.000
G27  20280613.867 8 106575347.765 8      -111.852          51.000    20280614.938 8  83045713.671 8       -87.157          51.000
R01  21073269.844 7 112648779.422 7      3356.250          45.000    21073275.867 6  87615739.316 6      2610.420          39.000
R07  22932942.383 4 122761835.575 4     -3123.922          28.000
R08  20571293.617 6 110158328.522 6       210.664          38.000    20571295.578 6  85678714.213 6       163.847          40.000
R14  21548491.688 6 114865609.687 6     -2247.457          39.000
R23  19924239.797 8 106581242.006 8     -1048.441          51.000    19924245.469 7  82896550.743 7      -815.457          43.000
C05  39617841.477 5 206300495.916 5       -12.750          35.000    39617843.953 6 159524641.304 6       -10.013          37.000
C14  25360068.352 5 132056516.107 5     -2471.570          32.000    25360068.633 6 102114479.668 6     -1910.822          37.000
C27  21570823.742 8 112324952.456 8       408.703          49.000
C28  23355582.422 5 121618658.342 5     -2037.082          34.000
E11  22886969.820 8 120271854.942 8      -788.262          51.000    22886968.062 8  92156317.322 8      -604.077          51.000
E25  25838319.266 8 135781275.088 8     -2651.828          51.000    25838319.883 8 104040200.726 8     -2031.899          48.000
> 2020 05 04 17 03  0.0000000  0 14        .000000000000
G10  20920676.094 8 109938908.917 8      -143.621          51.000    20920678.828 8  85666727.762 8      -111.913          51.000
G16  22227708.852 8 116807377.849 8     -3093.949          49.000    22227708.422 7  91018699.655 7     -2410.870          45.000
G21  24958856.039 5 131159688.841 5     -2602.488          32.000
G27  20281298.383 8 106578944.195 8      -127.465          51.000    20281299.617 8  83048516.076 8       -99.323          51.000
R01  21054487.031 7 112548373.898 7      3337.746          46.000    21054493.406 6  87537646.226 6      2596.028          41.000
R08  20570200.297 5 110152453.282 5       181.387          30.000    20570200.305 6  85674144.594 6       141.088          39.000
R14  21561201.148 5 114933374.979 5     -2269.703          35.000
R23  19930153.367 8 106612874.175 8     -1059.906          51.000    19930158.547 7  82921153.529 7      -824.372          43.000
C05  39617920.992 5 206300909.748 5       -14.219          35.000    39617923.484 6 159524961.320 6       -11.001          37.000
C14  25374339.898 5 132130831.390 5     -2483.402          32.000    25374340.656 6 102171944.953 6     -1919.947          37.000
C27  21568498.289 8 112312842.753 8       398.969          50.000
C28  23367342.508 5 121679889.478 5     -2044.863          33.000
E11  22891488.539 8 120295600.995 8      -794.488          51.000    22891486.914 8  92174512.343 8      -608.707          51.000
E25  25853483.523 8 135860963.454 8     -2660.352          50.000    25853482.844 7 104101260.553 7     -2038.409          47.000
> 2020 05 04 17 03 30.0000000  0 16        .000000000000
G10  20921541.516 8 109943455.841 8      -161.008          51.000    20921544.141 8  85670270.814 8      -125.461          51.000
G16  22245395.180 8 116900320.919 8     -3103.504          49.000    22245394.664 7  91091122.778 7     -2418.315          44.000
G21  24973703.188 5 131237708.746 5     -2600.348          33.000
G27  20282059.133 8 106582941.599 8      -140.387          51.000    20282060.562 8  83051630.920 8      -109.392          51.000
R01  21035794.789 7 112448450.355 7      3322.176          46.000    21035801.266 6  87459927.978 6      2583.914          41.000
R07  22968152.320 5 122950278.518 5     -3158.902          35.000    22968151.875 4  95628017.343 4     -2456.924          28.000
R08  20569249.586 5 110147372.240 5       155.723          35.000    20569251.047 6  85670192.618 6       121.112          37.000
R14  21574022.914 5 115001745.965 5     -2289.898          34.000
R23  19936117.781 8 106644778.815 8     -1068.535          51.000    19936122.773 7  82945968.235 7      -831.083          43.000
R24  20005045.477 5 106975982.394 5      1286.191          32.000
C05  39617994.875 5 206301294.025 5       -12.879          34.000    39617997.484 6 159525259.246 6       -10.080          37.000
C14  25388666.414 5 132205431.882 5     -2492.477          31.000    25388666.688 5 102229630.770 5     -1926.800          35.000
C27  21566215.891 8 112300956.798 8       391.980          50.000
C28  23379121.875 6 121741273.049 6     -2048.902          36.000
E11  22896028.961 8 120319461.368 8      -797.805          51.000    22896027.438 8  92192794.961 8      -611.266          51.000
E25  25868683.703 8 135940841.769 8     -2666.410          50.000    25868682.961 7 104162465.936 7     -2043.028          47.000
> 2020 05 04 17 04  0.0000000  0 17        .000000000000
G10  20922518.062 8 109948586.714 8      -180.984          51.000    20922520.422 8  85674268.906 8      -141.027          51.000
G16  22263146.695 8 116993606.592 8     -3115.539          48.000    22263146.008 7  91163812.857 7     -2427.693          44.000
G21  24988550.188 5 131315730.976 5     -2600.531          33.000
G27  20282905.305 8 106587387.998 8      -155.941          51.000    20282906.930 8  83055095.636 8      -121.513          51.000
R01  21017201.688 7 112349061.146 7      3303.855          44.000    21017208.875 6  87382625.343 6      2569.671          41.000
R07  22985907.797 5 123045313.529 5     -3177.500          32.000    22985907.328 5  95701933.420 5     -2471.392          31.000
R08  20568453.578 5 110143115.198 5       127.492          34.000    20568459.703 5  85666897.405 5        99.155          34.000
R14  21586968.570 5 115070767.320 5     -2312.238          32.000
R23  19942141.891 8 106677004.078 8     -1079.781          51.000    19942146.969 7  82971032.322 7      -839.833          43.000
R24  19997856.180 4 106937523.786 4      1274.801          28.000
C05  39618072.570 5 206301698.778 5       -13.934          35.000    39618074.922 6 159525570.437 6       -10.705          37.000
C14                                                                  25403055.742 5 102287571.807 5     -1935.466          31.000
C27  21563985.477 8 112289342.114 8       382.387          50.000
C28  23390947.633 6 121802855.464 6     -2056.289          37.000
E11  22900600.086 8 120343483.244 8      -803.438          51.000    22900598.688 8  92211201.329 8      -615.693          51.000
E25  25883928.641 8 136020955.375 8     -2674.574          48.000    25883928.633 7 104223851.617 7     -2049.313          47.000
E36  24239261.992 5 127378216.018 5      1340.398          33.000
> 2020 05 04 17 04 30.0000000  0 15        .000000000000
G10  20923600.094 8 109954271.697 8      -198.488          51.000    20923602.492 8  85678698.770 8      -154.666          51.000
G16  22280957.250 7 117087202.956 7     -3124.617          47.000    22280956.625 7  91236745.033 7     -2434.770          44.000
G21  25003391.812 5 131393725.769 5     -2599.160          31.000
G27  20283831.469 8 106592254.700 8      -168.855          51.000    20283833.008 8  83058887.863 8      -131.576          51.000
R01  20998703.219 7 112250180.896 7      3287.812          42.000    20998710.625 6  87305718.476 6      2557.188          40.000
R07  23003753.820 5 123140849.206 5     -3192.246          32.000    23003755.672 4  95776238.814 4     -2482.858          29.000
R08  20567825.211 5 110139691.005 5       100.938          30.000    20567823.719 5  85664234.002 5        78.498          30.000
R23  19948220.375 8 106709520.395 8     -1088.371          51.000    19948225.523 7  82996322.767 7      -846.511          43.000
C05  39618147.961 5 206302091.906 5       -12.410          35.000    39618150.195 6 159525874.468 6       -10.104          36.000
C14                                                                  25417502.328 4 102345749.155 4     -1943.368          27.000
C27  21561801.469 8 112277970.231 8       375.359          49.000
C28  23402806.633 6 121864607.685 6     -2060.805          37.000
E11  22905196.367 8 120367637.152 8      -806.965          51.000    22905194.930 8  92229708.871 8      -618.443          51.000
E25  25899212.125 7 136101273.108 7     -2680.387          46.000    25899213.500 7 104285393.708 7     -2053.764          47.000
E36  24231610.320 5 127337973.462 5      1338.316          33.000
> 2020 05 04 17 05  0.0000000  0 12        .000000000000
G10  20924799.836 8 109960576.011 8      -227.438          51.000    20924802.344 8  85683611.232 8      -177.224          51.000
G16  22298838.594 7 117181173.244 7     -3145.578          46.000    22298838.688 7  91309968.605 7     -2451.103          44.000
G27  20284850.273 8 106597608.123 8      -193.496          51.000    20284851.391 8  83063059.378 8      -150.776          51.000
R01  20980313.891 7 112151880.510 7      3259.906          46.000    20980321.289 6  87229262.626 6      2535.483          40.000
R08  20567341.945 5 110137193.306 5        63.309          35.000    20567346.359 5  85662267.593 5        49.234          30.000
R14  21613240.922 6 115210719.172 6     -2362.090          38.000    21613238.273 4  89608364.838 4     -1837.187          27.000
R23  19954365.797 8 106742394.692 8     -1108.852          51.000    19954371.219 7  83021891.648 7      -862.440          43.000
C05  39618233.820 5 206302539.581 5       -22.359          35.000    39618235.922 6 159526220.650 6       -17.568          36.000
C27  21559676.734 8 112266906.980 8       356.715          50.000
C28  23414711.070 6 121926594.710 6     -2077.078          37.000
E11  22909830.328 8 120391988.758 8      -822.168          51.000    22909828.789 8  92248367.884 8      -629.940          51.000
E25  25914546.164 7 136181858.754 7     -2697.605          44.000    25914549.562 8 104347141.095 8     -2067.023          48.000
> 2020 05 04 17 05 30.0000000  0 12        .000000000000
G10  20926088.391 8 109967347.221 8      -230.484          51.000    20926090.812 8  85688887.500 8      -179.598          51.000
G16  22316761.438 7 117275362.957 7     -3140.230          46.000    22316762.750 7  91383363.191 7     -2446.930          44.000
G27  20285932.898 8 106603297.084 8      -192.160          51.000    20285933.820 8  83067492.341 8      -149.735          51.000
R01  20962006.164 8 112054009.471 8      3258.270          48.000    20962012.508 6  87153140.734 6      2534.210          41.000
R14  21626529.312 6 115281560.438 6     -2366.941          41.000    21626527.141 4  89663433.959 4     -1840.957          28.000
R23  19960549.367 8 106775472.250 8     -1102.852          51.000    19960554.750 7  83047618.609 7      -857.773          43.000
C05  39618301.367 5 206302890.466 5        -7.035          34.000    39618303.203 6 159526490.742 6        -5.745          36.000
C27  21557582.766 8 112256002.453 8       363.906          50.000
C28  23426632.312 5 121988665.917 5     -2067.750          32.000
E11  22914473.000 8 120416385.928 8      -811.121          51.000    22914471.492 8  92267061.817 8      -621.475          51.000
E25  25929902.141 7 136262558.509 7     -2688.688          43.000    25929907.453 8 104408975.953 8     -2060.220          49.000
E36  24216404.766 5 127258059.327 5      1335.008          34.000
> 2020 05 04 17 06  0.0000000  0 12        .000000000000
G10  20927518.664 8 109974863.690 8      -259.043          51.000    20927521.047 8  85694744.500 8      -201.849          51.000
G16  22334779.141 7 117370048.512 7     -3160.414          46.000    22334781.273 7  91457144.129 7     -2462.660          45.000
G27  20287132.445 8 106609601.225 8      -216.383          51.000    20287133.656 8  83072404.657 8      -168.610          51.000
R01  20943832.211 8 111956856.126 8      3230.457          49.000    20943837.836 6  87077577.074 6      2512.578          40.000
R08  20566856.258 5 110134558.872 5        14.004          33.000    20566853.070 6  85660211.258 6        10.889          36.000
R14  21639967.688 7 115353203.261 7     -2397.336          43.000
R23  19966824.297 8 106809037.822 8     -1122.926          51.000    19966829.445 7  83073725.165 7      -873.387          43.000
C05  39618403.703 5 206303424.464 5       -16.707          35.000    39618405.391 6 159526902.472 6       -12.934          37.000
C27  21555572.406 8 112245533.807 8       345.570          50.000
C28  23438623.195 4 122051061.153 4     -2082.730          29.000
E11  22919177.391 8 120441107.539 8      -825.395          51.000    22919175.969 8  92286004.349 8      -632.415          51.000
E25  25945333.695 7 136343649.521 7     -2705.625          44.000    25945339.734 8 104471110.607 8     -2073.144          49.000
> 2020 05 04 17 06 30.0000000  0 11        .000000000000
G10  20929029.172 8 109982801.860 8      -274.414          51.000    20929031.469 8  85700930.095 8      -213.829          51.000
G16  22352829.805 7 117464903.986 7     -3167.527          47.000    22352831.898 7  91531057.447 7     -2468.203          43.000
G27  20288387.617 8 106616198.104 8      -227.551          51.000    20288389.062 8  83077545.071 8      -177.312          51.000
R01  20925731.508 8 111860095.688 8      3215.953          49.000    20925737.109 6  87002319.020 6      2501.300          40.000
R14  21653494.070 7 115425316.490 7     -2414.457          42.000
R23  19973128.719 8 106842762.137 8     -1129.637          51.000    19973133.859 7  83099955.184 7      -878.609          42.000
C05                                                                  39618480.727 6 159527204.413 6       -10.678          36.000
C27  21553584.266 8 112235181.461 8       340.375          51.000
C28  23450626.859 5 122113532.670 5     -2086.184          35.000
E11  22923882.023 8 120465830.366 8      -826.766          51.000    22923880.664 8  92304947.812 8      -633.514          51.000
E25  25960778.469 7 136424806.813 7     -2709.180          46.000    25960784.414 8 104533296.017 8     -2075.805          49.000
> 2020 05 04 17 07  0.0000000  0 12        .000000000000
G10  20930645.617 8 109991296.712 8      -292.715          51.000    20930647.633 8  85707549.452 8      -228.089          51.000
G16  22370938.430 8 117560062.350 8     -3177.152          48.000    22370940.070 7  91605206.772 7     -2475.703          43.000
G27  20289724.531 8 106623223.986 8      -241.660          51.000    20289725.844 8  83083019.781 8      -188.307          51.000
R01  20907730.969 8 111763870.368 8      3198.180          49.000    20907736.312 6  86927477.156 6      2487.476          39.000
R14  21667133.188 6 115498033.952 6     -2434.043          41.000
R23  19979488.742 8 106876783.793 8     -1139.293          51.000    19979494.016 7  83126416.454 7      -886.117          42.000
R24  19955864.367 5 106712955.069 5      1220.398          31.000
C05  39618553.711 5 206304205.025 5       -13.254          35.000    39618555.328 6 159527504.437 6       -10.107          36.000
C27  21551644.570 8 112225080.519 8       332.270          51.000
C28  23462664.148 5 122176179.177 5     -2091.934          33.000
E11  22928612.703 8 120490690.007 8      -831.223          51.000    22928611.352 8  92323996.102 8      -636.959          51.000
E25  25976261.398 7 136506164.102 7     -2715.500          47.000    25976266.945 8 104595634.672 8     -2080.729          50.000
> 2020 05 04 17 07 30.0000000  0 14        .000000000000
G10  20932354.094 8 110000275.838 8      -303.844          51.000    20932356.328 8  85714546.190 8      -236.761          51.000
G11  22618462.203 5 118860875.217 5      3007.504          35.000
G16  22389090.812 8 117655449.612 8     -3179.797          48.000    22389091.820 7  91679534.456 7     -2477.764          43.000
G20  22039625.734 4 115818986.423 4     -2435.281          29.000
G27  20291129.633 8 106630607.745 8      -248.625          51.000    20291130.500 8  83088773.371 8      -193.734          51.000
R01  20889816.961 8 111668111.257 8      3187.707          48.000    20889822.539 6  86852997.975 6      2479.334          40.000
R08  20567225.539 5 110136545.160 5       -57.555          32.000    20567228.125 6  85661782.904 6       -44.768          37.000
R14  21680870.883 6 115571279.015 6     -2446.523          38.000    21680878.008 4  89888741.527 4     -1902.849          28.000
R23  19985890.656 8 106911029.560 8     -1141.707          51.000    19985895.859 7  83153052.030 7      -887.997          42.000
C05  39618613.594 5 206304517.021 5        -6.301          34.000    39618615.148 6 159527745.678 6        -4.362          37.000
C27  21549739.641 8 112215160.501 8       331.129          51.000
C28  23474711.820 5 122238928.929 5     -2089.508          35.000
E11  22933355.711 8 120515614.499 8      -828.539          51.000    22933354.297 8  92343094.076 8      -634.786          51.000
E25  25991768.141 8 136587647.651 8     -2714.590          48.000    25991773.281 8 104658070.063 8     -2080.007          50.000
> 2020 05 04 17 08  0.0000000  0 13        .000000000000
G10  20934208.602 8 110010021.827 8      -324.738          51.000    20934210.844 8  85722140.467 8      -253.043          51.000
G11  22601379.789 5 118771052.204 5      2998.633          30.000
G16  22407339.852 8 117751345.883 8     -3192.184          49.000    22407340.953 7  91754258.775 7     -2487.416          44.000
G27  20292656.758 8 106638633.241 8      -265.352          51.000    20292657.453 8  83095027.005 8      -206.767          51.000
G32  24667631.688 6 129629283.141 6      3016.328          40.000    24667637.492 6 101009845.573 6      2350.389          39.000
R01  20872044.750 8 111573110.465 8      3167.078          48.000    20872050.602 6  86779108.531 6      2463.286          41.000
R08  20567688.047 5 110139021.887 5       -86.684          32.000    20567689.750 6  85663709.322 6       -67.418          36.000
R23  19992388.461 8 106945787.885 8     -1154.066          51.000    19992393.633 6  83180086.264 6      -897.607          41.000
C05  39618712.672 5 206305033.089 5        -7.512          35.000    39618714.320 6 159528145.155 6        -6.225          36.000
C27  21547923.289 8 112205702.729 8       320.309          51.000
C28  23486831.656 5 122302062.722 5     -2098.293          34.000
E11  22938164.953 8 120540886.942 8      -835.387          51.000    22938163.523 8  92362458.671 8      -640.051          51.000
E25  26007352.141 8 136669538.829 8     -2723.699          48.000    26007356.969 8 104720817.800 8     -2086.939          51.000
> 2020 05 04 17 08 30.0000000  0 15        .000000000000
G10  20936134.961 8 110020145.499 8      -349.949          51.000    20936137.344 8  85730029.039 8      -272.688          51.000
G16  22425611.219 8 117847360.187 8     -3208.555          49.000    22425612.562 7  91829075.062 7     -2500.176          43.000
G27  20294232.195 8 106646912.575 8      -286.398          51.000    20294233.164 8  83101478.424 8      -223.168          51.000
G32  24650436.078 6 129538925.462 6      3008.551          38.000    24650441.250 6 100939437.080 6      2344.328          39.000
R01  20854341.625 8 111478477.017 8      3142.102          48.000    20854347.727 6  86705504.775 6      2443.857          41.000
R07  23149905.711 5 123923249.994 5     -3325.719          32.000    23149916.047 4  96384791.232 4     -2586.670          27.000
R08  20568269.492 6 110142137.992 6      -121.035          38.000    20568271.305 5  85666132.921 5       -94.145          35.000
R23  19998908.094 8 106980663.647 8     -1170.785          51.000    19998913.180 6  83207211.847 6      -910.614          40.000
R24  19935554.648 4 106604344.974 4      1191.609          29.000    19935540.453 4  82914449.885 4       926.807          27.000
C05  39618777.219 5 206305369.003 5       -14.715          35.000    39618778.977 6 159528405.259 6       -11.055          36.000
C14  25535200.758 5 132968467.890 5     -2594.301          30.000    25535198.352 5 102819655.660 5     -2005.815          33.000
C27  21546121.805 8 112196322.858 8       305.258          50.000
C28  23498953.164 6 122365195.188 6     -2110.488          38.000
E11  22942966.383 8 120566118.718 8      -846.289          51.000    22942965.055 8  92381792.096 8      -648.512          51.000
E25  26022939.023 7 136751447.183 7     -2736.719          47.000    26022943.562 8 104783578.678 8     -2096.880          50.000
> 2020 05 04 17 09  0.0000000  0 15        .000000000000
G10  20938189.016 8 110030939.440 8      -367.219          51.000    20938191.578 8  85738439.911 8      -286.144          51.000
G16  22443960.312 8 117943783.354 8     -3217.141          50.000    22443961.641 7  91904209.962 7     -2506.863          44.000
G27  20295911.961 8 106655739.616 8      -299.715          51.000    20295913.359 8  83108356.613 8      -233.544          51.000
G32  24633270.984 6 129448718.986 6      3008.090          40.000    24633274.242 6 100869146.451 6      2343.972          40.000
R01  20836763.852 8 111384513.510 8      3124.695          48.000    20836770.125 7  86632422.107 7      2430.322          42.000
R07  23168594.766 5 124023273.270 5     -3339.824          33.000    23168600.383 4  96462587.126 4     -2597.641          26.000
R08  20569027.695 6 110146192.082 6      -146.762          37.000    20569030.992 6  85669286.177 6      -114.145          36.000
R14  21722836.945 6 115794935.411 6     -2514.031          36.000    21722855.359 5  90062772.131 5     -1955.358          34.000
R23  20005505.297 8 107015955.510 8     -1179.578          51.000    20005510.508 6  83234661.070 6      -917.450          39.000
C05  39618863.086 5 206305815.691 5       -13.086          34.000    39618864.703 6 159528750.696 6       -10.161          36.000
C14  25550175.219 4 133046466.993 4     -2602.551          27.000    25550172.055 5 102879952.523 5     -2011.929          33.000
C27  21544390.805 8 112187312.166 8       297.902          50.000
C28  23511132.000 6 122428616.816 6     -2115.363          38.000
E11  22947815.789 8 120591603.046 8      -849.973          51.000    22947814.609 8  92401319.029 8      -651.314          51.000
E25  26038584.242 7 136833664.045 7     -2741.895          47.000    26038588.609 8 104846575.959 8     -2100.977          50.000
> 2020 05 04 17 09 30.0000000  0 16        .000000000000
G10  20940337.148 8 110042227.145 8      -384.746          51.000    20940339.562 8  85747235.522 8      -299.802          51.000
G16  22462353.039 8 118040436.692 8     -3225.875          49.000    22462354.109 7  91979524.213 7     -2513.672          44.000
G27  20297662.648 8 106664939.148 8      -313.184          51.000    20297664.031 8  83115525.058 8      -244.039          51.000
G32  24616101.961 7 129358490.886 7      3007.828          44.000    24616104.648 7 100798839.011 7      2343.765          44.000
R01  20819278.367 7 111291044.927 7      3107.094          47.000    20819284.133 6  86559724.359 6      2416.632          41.000
R07  23187359.203 4 124123704.199 4     -3355.117          29.000    23187360.812 4  96540700.048 4     -2609.539          29.000
R08  20569927.484 6 110151005.274 6      -173.730          38.000    20569927.391 5  85673029.714 5      -135.124          32.000
R14  21737036.422 5 115870637.493 5     -2532.262          35.000    21737055.406 5  90121651.529 5     -1969.543          33.000
R23  20012146.766 8 107051484.410 8     -1188.500          51.000    20012152.391 6  83262294.646 6      -924.389          38.000
R24  19922278.180 5 106533376.723 5      1175.648          34.000    19922266.305 4  82859250.465 4       914.399          28.000
C05  39618936.672 5 206306198.644 5       -11.551          35.000    39618938.234 6 159529046.847 6        -9.475          36.000
C14  25565193.227 4 133124669.314 4     -2610.629          28.000    25565189.250 5 102940423.533 5     -2018.873          32.000
C27  21542697.484 8 112178497.069 8       290.273          51.000
C28  23523332.625 6 122492153.303 6     -2119.871          36.000
E11  22952679.727 8 120617163.908 8      -853.754          51.000    22952678.719 8  92420904.605 8      -654.175          51.000
E25  26054253.703 7 136916011.698 7     -2747.398          45.000    26054258.523 8 104909673.452 8     -2105.173          49.000
> 2020 05 04 17 10  0.0000000  0 14        .000000000000
G10  20942629.453 8 110054272.626 8      -422.156          51.000    20942631.812 8  85756621.625 8      -328.953          51.000
G16  22480839.359 8 118137582.478 8     -3254.434          49.000    22480839.938 7  92055222.199 7     -2535.922          44.000
G27  20299534.688 8 106674776.536 8      -346.484          51.000    20299535.875 8  83123190.525 8      -269.988          51.000
G32  24598979.797 7 129268508.991 7      2987.344          44.000    24598983.016 7 100728723.392 7      2327.806          44.000
R01  20801936.836 7 111198344.598 7      3069.055          45.000    20801941.945 6  86487624.162 6      2387.043          40.000
R08  20571018.797 6 110156847.001 6      -220.227          39.000    20571018.914 5  85677573.328 5      -171.284          32.000
R14  21751382.742 6 115947129.275 6     -2570.660          37.000    21751403.227 5  90181145.094 5     -1999.402          34.000
R23  20018883.594 8 107087520.476 8     -1217.816          50.000    20018888.773 6  83290322.680 6      -947.191          37.000
C05  39619048.391 5 206306780.209 5       -30.453          35.000    39619050.180 6 159529496.523 6       -23.666          36.000
C14  25580304.609 4 133203357.073 4     -2638.855          28.000    25580300.398 5 103001269.870 5     -2040.751          31.000
C27  21541092.602 8 112170140.554 8       263.004          51.000
C28  23535604.977 5 122556066.931 5     -2145.203          31.000
E11  22957608.594 8 120643066.047 8      -877.117          51.000    22957607.766 8  92440751.687 8      -672.071          51.000
E25  26069997.141 6 136998752.942 6     -2772.531          41.000    26070003.039 8 104973072.528 8     -2124.347          48.000
> 2020 05 04 17 10 30.0000000  0 14        .000000000000
G10  20944979.352 8 110066620.299 8      -428.895          51.000    20944981.523 8  85766243.195 8      -334.204          51.000
G16  22499332.203 8 118234763.249 8     -3252.062          49.000    22499332.398 7  92130947.418 7     -2534.078          43.000
G27  20301441.625 8 106684797.488 8      -349.281          51.000    20301442.422 8  83130999.041 8      -272.170          51.000
G32  24581817.922 7 129178321.366 7      2997.293          43.000    24581822.477 7 100658447.443 7      2335.553          43.000
R01  20784653.703 7 111105954.014 7      3062.176          43.000    20784657.695 6  86415764.836 6      2381.695          41.000
R08  20572215.516 6 110163253.807 6      -235.715          37.000    20572213.984 4  85682556.405 4      -183.334          26.000
R14  21765792.422 6 116023945.461 6     -2578.387          38.000    21765812.250 5  90240890.987 5     -2005.412          33.000
R23  20025628.805 8 107123600.576 8     -1215.781          50.000    20025633.250 6  83318384.969 6      -945.608          37.000
C05  39619111.844 5 206307110.792 5       -18.887          35.000    39619113.383 6 159529751.344 6       -14.384          36.000
C27  21539489.609 8 112161792.580 8       265.953          51.000
C28  23547860.961 5 122619906.890 5     -2139.105          32.000
E09  25309679.391 6 133003263.799 6      3004.508          41.000    25309684.391 6 101911604.508 6      2302.075          40.000
E11  22962515.844 8 120668854.436 8      -869.980          51.000    22962515.078 8  92460511.597 8      -666.543          51.000
E25  26085727.898 6 137081431.006 6     -2767.012          38.000    26085734.945 7 105036423.223 7     -2120.369          46.000
> 2020 05 04 17 11  0.0000000  0 16        .000000000000
G10  20947453.688 8 110079622.132 8      -442.820          51.000    20947455.844 8  85776374.495 8      -345.052          51.000
G11  22499320.492 5 118234735.858 5      2964.578          34.000
G16  22517898.086 8 118332329.002 8     -3256.871          49.000    22517897.781 7  92206972.627 7     -2537.825          42.000
G27  20303450.781 8 106695355.275 8      -359.152          51.000    20303451.125 8  83139225.874 8      -279.862          51.000
G32  24564684.281 7 129088283.806 7      3000.410          43.000    24564689.945 7 100588288.379 7      2337.982          43.000
R01  20767495.672 7 111014235.892 7      3047.547          43.000    20767500.297 6  86344428.482 6      2370.314          41.000
R08  20573584.031 5 110170584.554 5      -257.969          34.000    20573584.242 4  85688258.297 4      -200.630          24.000
R14  21780330.711 6 116101439.826 6     -2592.746          40.000    21780349.844 5  90301164.404 5     -2016.580          31.000
R23  20032448.820 7 107160083.730 7     -1221.090          46.000    20032453.867 6  83346760.755 6      -949.737          37.000
C05  39619193.977 5 206307538.888 5       -14.445          35.000    39619195.414 6 159530081.623 6       -10.998          36.000
C14                                                                  25610608.875 4 103123308.199 4     -2042.047          29.000
C27  21537955.758 8 112153803.302 8       261.895          51.000
C28  23560173.070 5 122684022.245 5     -2140.270          34.000
E09  25292501.758 6 132913000.149 6      3008.227          41.000    25292508.234 6 101842441.546 6      2304.831          41.000
E11  22967468.539 8 120694881.741 8      -869.879          51.000    22967467.766 8  92480454.578 8      -666.507          51.000
E25  26101514.281 6 137164396.733 6     -2769.055          37.000    26101520.883 7 105099994.270 7     -2121.510          44.000
> 2020 05 04 17 11 30.0000000  0 16        .000000000000
G10  20950041.742 8 110093222.061 8      -460.191          51.000    20950043.805 8  85786971.846 8      -358.591          51.000
G11  22482418.969 5 118145895.680 5      2959.953          33.000
G16  22536525.914 8 118430221.945 8     -3265.473          48.000    22536525.234 7  92283252.792 7     -2544.524          42.000
G27  20305551.656 8 106706395.215 8      -372.848          51.000    20305551.984 8  83147828.410 8      -290.531          51.000
G32  24547568.859 7 128998344.025 7      2999.488          42.000    24547575.633 7 100518205.531 7      2337.267          42.000
R01  20750453.484 7 110923138.103 7      3029.375          46.000    20750459.062 6  86273574.648 6      2356.181          41.000
R08  20575114.820 6 110178782.610 6      -284.605          37.000    20575120.219 5  85694634.846 5      -221.357          31.000
R14  21794984.922 6 116179552.596 6     -2610.789          38.000    21795004.859 4  90361940.725 4     -2030.617          26.000
R23  20039333.469 7 107196914.339 7     -1230.449          45.000    20039339.078 6  83375406.772 6      -957.016          36.000
C05  39619284.211 5 206308008.879 5       -13.230          34.000    39619285.789 6 159530446.044 6       -10.019          36.000
C14                                                                  25625861.180 4 103184723.523 4     -2049.275          28.000
C27  21536480.391 8 112146118.664 8       254.090          51.000
C28  23572528.734 5 122748358.569 5     -2144.879          33.000
E09  25275339.828 7 132822815.047 7      3007.969          42.000    25275346.867 6 101773338.777 6      2304.643          41.000
E11  22972456.172 8 120721092.631 8      -873.688          50.000    22972455.367 8  92500538.229 8      -669.446          51.000
E25  26117345.664 6 137247592.792 6     -2773.461          36.000    26117350.430 6 105163741.878 6     -2125.269          41.000
> 2020 05 04 17 12  0.0000000  0 14        .000000000000
G10  20952734.117 8 110107370.638 8      -479.820          51.000    20952736.156 8  85797996.708 8      -373.886          51.000
G11  22465542.320 5 118057229.589 5      2955.254          33.000
G16  22555206.289 7 118528390.424 7     -3275.898          47.000    22555205.336 7  92359747.646 7     -2552.651          42.000
G27  20307735.172 8 106717869.218 8      -388.750          51.000    20307735.789 8  83156769.170 8      -302.922          51.000
G32  24530463.500 7 128908456.323 7      2996.391          43.000    24530470.594 7 100448163.281 7      2334.853          43.000
R01  20733519.703 7 110832615.037 7      3008.746          47.000    20733525.789 6  86203167.868 6      2340.139          41.000
R14  21809745.562 6 116258230.793 6     -2631.047          39.000    21809741.883 4  90423034.500 4     -2046.373          26.000
R23  20046273.992 7 107234042.579 7     -1241.441          44.000    20046280.219 6  83404284.299 6      -965.566          36.000
C05  39619373.438 5 206308473.572 5       -14.539          35.000    39619375.219 6 159530805.380 6       -11.276          36.000
C27  21535054.211 8 112138691.049 8       244.258          51.000
C28  23584916.930 5 122812867.369 5     -2152.117          32.000
E09  25258184.062 7 132732661.801 7      3005.289          42.000    25258190.906 6 101704260.415 6      2302.844          41.000
E11  22977469.500 8 120747438.287 8      -879.695          49.000    22977468.625 8  92520725.141 8      -674.037          51.000
E25  26133211.852 6 137330968.802 6     -2781.410          36.000    26133215.023 6 105227627.267 6     -2131.061          39.000
> 2020 05 04 17 12 30.0000000  0 14        .000000000000
G10  20955520.828 8 110122015.463 8      -497.066          51.000    20955522.938 8  85809408.269 8      -387.324          51.000
G11  22448688.930 5 117968649.220 5      2949.789          34.000
G16  22573929.367 8 118626780.304 8     -3283.875          50.000    22573928.219 7  92436415.026 7     -2558.864          43.000
G27  20309991.602 8 106729726.212 8      -402.289          51.000    20309992.391 8  83166008.362 8      -313.472          51.000
G32  24513359.086 7 128818572.192 7      2995.508          44.000    24513366.172 7 100378123.805 7      2334.165          44.000
R01  20716683.922 7 110742618.266 7      2990.410          46.000    20716690.711 6  86133170.462 6      2325.878          40.000
R14  21824602.672 7 116337417.820 7     -2648.402          42.000    21824608.594 5  90484624.268 5     -2059.872          35.000
R23  20053260.602 6 107271416.231 6     -1250.535          41.000    20053266.836 5  83433352.711 5      -972.635          34.000
C05  39619451.852 5 206308881.902 5       -13.828          35.000    39619453.578 6 159531121.115 6       -10.367          37.000
C27  21533667.578 8 112131470.030 8       236.676          51.000
C28  23597329.789 4 122877486.722 4     -2156.859          29.000
E09  25241024.578 6 132642490.870 6      3005.168          41.000    25241031.328 6 101635168.478 6      2302.880          41.000
E11  22982498.633 8 120773867.085 8      -882.949          50.000    22982497.891 8  92540975.752 8      -676.528          51.000
E25  26149102.789 5 137414471.095 5     -2785.863          35.000    26149105.359 6 105291609.443 6     -2134.766          39.000
> 2020 05 04 17 13  0.0000000  0 14        .000000000000
G10  20958416.711 8 110137233.899 8      -515.777          51.000    20958418.594 8  85821266.793 8      -401.904          51.000
G11  22431865.461 5 117880241.908 5      2945.309          32.000
G16  22592709.414 8 118725467.250 8     -3293.434          51.000    22592707.898 7  92513313.877 7     -2566.315          44.000
G27  20312335.945 8 106742044.952 8      -417.352          51.000    20312336.773 8  83175607.374 8      -325.209          51.000
G32  24496270.836 7 128728772.858 7      2993.020          45.000    24496277.414 7 100308150.420 7      2332.226          45.000
R01  20699961.719 7 110653231.221 7      2970.410          46.000    20699969.344 6  86063647.280 6      2310.322          40.000
R07  23321179.250 4 124840067.790 4     -3462.527          29.000
R14  21839569.297 6 116417189.404 6     -2667.699          39.000    21839578.156 6  90546668.728 6     -2074.883          37.000
R23  20060307.836 6 107309115.092 6     -1261.082          38.000    20060313.641 5  83462674.068 5      -980.842          33.000
C05  39619534.359 5 206309311.442 5       -13.734          35.000    39619536.133 6 159531453.267 6       -10.506          37.000
C27  21532335.539 8 112124533.791 8       227.484          51.000
E09  25223876.953 6 132552382.446 6      3003.551          40.000    25223883.805 6 101566124.463 6      2301.308          41.000
E11  22987558.508 8 120800457.161 8      -887.777          50.000    22987557.945 8  92561349.949 8      -680.293          51.000
E25  26165032.477 5 137498175.961 5     -2792.215          35.000    26165035.906 6 105355746.873 6     -2139.690          40.000
> 2020 05 04 17 13 30.0000000  0 14        .000000000000
G10  20961447.398 8 110153160.916 8      -533.707          51.000    20961449.430 8  85833677.460 8      -415.876          51.000
G16  22611571.484 8 118824584.419 8     -3302.145          51.000    22611569.625 7  92590547.976 7     -2573.103          45.000
G27  20314794.008 8 106754961.780 8      -431.664          51.000    20314794.773 8  83185672.427 8      -336.362          51.000
G32  24479225.273 7 128639197.196 7      2990.902          45.000    24479230.688 7 100238351.351 7      2330.576          45.000
R01  20683380.352 7 110564595.759 7      2950.957          46.000    20683388.234 6  85994708.632 6      2295.192          41.000
R08  20582778.695 5 110219837.920 5      -394.355          32.000    20582781.445 5  85726545.817 5      -306.721          35.000
R14  21854669.062 5 116497678.955 5     -2685.809          35.000    21854678.148 5  90609271.592 5     -2088.968          34.000
R23  20067442.656 6 107347277.631 6     -1270.805          41.000    20067447.547 5  83492356.150 5      -988.398          34.000
C05  39619646.812 5 206309896.787 5       -12.758          34.000    39619648.438 6 159531905.941 6       -10.315          37.000
C27  21531083.992 8 112118017.551 8       218.980          51.000
C28  23622299.070 5 123007501.210 5     -2169.047          33.000
E09  25206767.594 6 132462474.398 6      3002.512          40.000    25206774.961 7 101497233.946 7      2300.602          42.000
E11  22992675.031 8 120827344.296 8      -892.316          49.000    22992674.484 8  92581951.760 8      -683.765          51.000
E25  26181026.367 6 137582217.314 6     -2797.953          39.000    26181030.352 6 105420142.122 6     -2143.955          41.000
> 2020 05 04 17 14  0.0000000  0 15        .000000000000
G10  20964526.180 8 110169340.375 8      -551.371          51.000    20964528.305 8  85846284.826 8      -429.640          51.000
G11  22398307.609 5 117703873.142 5      2935.594          32.000
G16  22630428.047 8 118923673.504 8     -3310.453          51.000    22630425.875 7  92667760.186 7     -2579.577          45.000
G27  20317279.227 8 106768021.929 8      -445.645          51.000    20317279.984 8  83195849.143 8      -347.255          51.000
G32  24462136.578 7 128549392.856 7      2989.375          46.000    24462140.336 7 100168374.069 7      2329.386          46.000
R01  20666854.055 8 110476252.801 8      2931.805          48.000    20666862.039 7  85925997.521 7      2280.296          42.000
R08  20585032.453 6 110231960.980 6      -420.883          38.000    20585039.305 5  85735974.886 5      -327.359          33.000
R14  21869815.148 5 116578420.798 5     -2703.852          35.000    21869820.922 5  90672070.758 5     -2103.002          32.000
R23  20074577.000 6 107385440.695 6     -1279.988          36.000    20074582.492 5  83522038.559 5      -995.546          33.000
C05  39619702.492 5 206310186.936 5       -12.191          34.000    39619704.141 6 159532130.309 6        -9.826          37.000
C27  21529826.602 8 112111470.796 8       210.832          51.000
C28  23634788.227 5 123072544.373 5     -2173.828          35.000
E09  25189610.453 6 132372313.467 6      3001.586          41.000    25189618.156 7 101428149.673 7      2299.797          43.000
E11  22997761.516 8 120854073.116 8      -896.449          50.000    22997760.891 8  92602432.262 8      -686.836          51.000
E25  26196997.180 6 137666137.918 6     -2803.277          41.000    26197001.234 7 105484444.869 7     -2148.038          43.000
> 2020 05 04 17 14 30.0000000  0 14        .000000000000
G10  20967765.305 8 110186362.438 8      -572.527          51.000    20967767.375 8  85859548.793 8      -446.125          51.000
G16  22649391.125 8 119023323.392 8     -3322.070          51.000    22649388.633 7  92745409.384 7     -2588.629          44.000
G27  20319904.445 8 106781817.028 8      -463.176          51.000    20319905.320 8  83206598.575 8      -360.919          51.000
G32  24445117.719 8 128459954.069 8      2983.996          48.000    24445118.891 7 100098681.678 7      2325.198          43.000
R01  20650495.875 8 110388807.684 8      2908.836          49.000    20650503.305 7  85857984.690 7      2262.431          42.000
R08  20587508.789 5 110245181.900 5      -451.039          31.000    20587514.992 5  85746269.298 5      -350.796          35.000
R14  21885120.672 5 116660010.698 5     -2724.762          35.000    21885126.273 5  90735529.413 5     -2119.262          33.000
R23  20081824.336 6 107424206.041 6     -1293.043          40.000    20081830.055 5  83552189.421 5     -1005.697          33.000
C05  39619813.992 5 206310767.760 5       -15.727          34.000    39619815.742 6 159532579.397 6       -11.847          37.000
C27  21528675.961 8 112105479.960 8       199.195          51.000
C28  23647366.320 6 123138055.065 6     -2182.988          36.000
E09  25172518.578 6 132282492.762 6      2997.289          41.000    25172526.180 7 101359326.121 7      2296.537          43.000
E11  23002930.312 8 120881234.600 8      -903.824          50.000    23002929.617 8  92623244.301 8      -692.457          51.000
E25  26213056.781 7 137750526.957 7     -2811.840          42.000    26213061.078 7 105549106.532 7     -2154.581          44.000
> 2020 05 04 17 15  0.0000000  0 13        .000000000000
G10  20971076.055 8 110203760.115 8      -589.129          51.000    20971078.086 8  85873105.419 8      -459.061          51.000
G16  22668371.273 8 119123064.968 8     -3329.207          51.000    22668368.852 7  92823130.039 7     -2594.187          44.000
G27  20322580.914 8 106795881.381 8      -476.387          51.000    20322581.969 8  83217557.799 8      -371.210          51.000
G32  24428080.336 8 128370417.653 8      2983.074          48.000    24428078.211 7 100028913.252 7      2324.480          42.000
R01  20634217.547 8 110301790.206 8      2890.316          48.000    20634224.602 7  85790304.469 7      2248.024          42.000
R08  20590101.945 6 110259067.742 6      -476.910          36.000    20590107.461 5  85757069.344 5      -370.930          34.000
R23  20089094.508 6 107463099.180 6     -1301.625          39.000    20089101.883 5  83582439.647 5     -1012.378          31.000
C05  39619892.609 5 206311177.262 5       -14.141          35.000    39619894.445 6 159532896.049 6       -10.620          37.000
C27  21527543.586 8 112099583.778 8       191.945          51.000
C28  23659948.148 5 123203570.849 5     -2187.789          35.000
E09  25155403.461 7 132192548.172 7      2997.020          42.000    25155410.836 7 101290407.634 7      2296.549          43.000
E11  23008092.703 8 120908362.561 8      -906.676          50.000    23008091.875 8  92644030.661 8      -694.750          51.000
E25  26229115.844 6 137834916.379 6     -2816.012          41.000    26229121.312 7 105613768.472 7     -2157.711          45.000
> 2020 05 04 17 15 30.0000000  0 14        .000000000000
G10  20974500.688 8 110221756.626 8      -607.082          51.000    20974502.773 8  85887128.686 8      -473.051          51.000
G16  22687410.625 8 119223119.797 8     -3337.629          50.000    22687408.828 7  92901094.792 7     -2600.750          44.000
G27  20325351.359 8 106810439.685 8      -490.719          51.000    20325352.422 8  83228901.934 8      -382.375          51.000
G32  24411067.375 8 128281010.892 8      2980.891          49.000    24411063.883 7  99959245.806 7      2322.778          44.000
R01  20618062.438 7 110215432.070 7      2870.426          47.000    20618069.117 6  85723137.051 6      2232.553          41.000
R08  20592858.156 6 110273824.784 6      -503.766          36.000    20592864.031 5  85768547.118 5      -391.815          34.000
R14  21915983.016 5 116824530.674 5     -2758.691          34.000    21915989.500 5  90863546.430 5     -2145.649          33.000
R23  20096431.750 7 107502348.656 7     -1311.383          43.000    20096438.805 4  83612967.041 4     -1019.961          29.000
C05                                                                  39619983.000 6 159533253.143 6       -10.530          37.000
C27  21526472.188 8 112094005.109 8       183.422          51.000
C28  23672573.172 5 123269314.022 5     -2191.812          31.000
E09  25138307.836 7 132102705.915 7      2995.777          42.000    25138315.242 7 101221567.583 7      2295.472          42.000
E11  23013291.297 8 120935681.122 8      -910.949          50.000    23013290.312 8  92664963.051 8      -698.021          51.000
E25  26245216.656 6 137919528.303 6     -2821.305          39.000    26245224.227 7 105678600.957 7     -2161.803          46.000
> 2020 05 04 17 16  0.0000000  0 15        .000000000000
G10  20978013.203 8 110240214.622 8      -624.234          51.000    20978015.062 8  85901511.528 8      -486.416          51.000
G16  22706482.945 8 119323348.929 8     -3345.082          49.000    22706482.062 7  92979195.377 7     -2606.557          44.000
G27  20328189.812 8 106825356.049 8      -504.438          51.000    20328190.695 8  83240525.063 8      -393.068          51.000
G32  24394053.602 8 128191600.492 8      2979.184          48.000    24394050.406 7  99889575.516 7      2321.448          47.000
R01  20602005.617 7 110129598.464 7      2851.125          47.000    20602011.938 6  85656377.587 6      2217.542          41.000
R08  20595751.969 5 110289313.783 5      -529.957          34.000    20595755.500 5  85780594.104 5      -412.186          32.000
R14  21931559.195 6 116907538.283 6     -2775.555          41.000    21931562.836 5  90928107.822 5     -2158.768          32.000
R23  20103809.914 7 107541815.681 7     -1320.512          44.000    20103815.445 4  83643663.636 4     -1027.068          27.000
R24  19841332.344 5 106100452.621 5      1049.918          33.000    19841318.195 4  82522564.302 4       816.606          27.000
C05  39620053.195 5 206312013.129 5       -12.699          35.000    39620055.344 6 159533544.177 6        -9.666          37.000
C27  21525436.047 8 112088609.442 8       175.594          51.000
C28  23685218.008 5 123335149.161 5     -2197.445          30.000
E09  25121205.766 7 132012831.699 7      2994.961          42.000    25121213.219 6 101152703.036 6      2294.915          41.000
E11  23018500.227 8 120963053.876 8      -914.617          49.000    23018499.055 8  92685936.971 8      -700.849          51.000
E25  26261333.406 6 138004224.512 6     -2825.574          38.000    26261343.094 7 105743498.012 7     -2165.182          46.000
> 2020 05 04 17 16 30.0000000  0 14        .000000000000
G10  20981638.906 8 110259267.675 8      -644.879          51.000    20981640.781 8  85916358.061 8      -502.503          51.000
G16  22725613.516 8 119423884.157 8     -3356.125          48.000    22725613.594 7  93057534.469 7     -2615.162          44.000
G27  20331121.977 8 106840765.448 8      -521.793          51.000    20331122.836 8  83252532.368 8      -406.592          51.000
G32  24377065.242 7 128102323.911 7      2973.754          46.000    24377063.812 7  99820009.493 7      2317.217          46.000
