     3.02           OBSERVATION DATA    M (MIXED)           RINEX VERSION / TYPE
SAVERINEX           SC600               20200503 045930 LCL PGM / RUN BY / DATE
       G = GPS       R = GLONASS       C = COMPASS          COMMENT
       S = SBAS      J = QZSS          E = GALILEO          COMMENT
BEAN                                                        MARKER NAME
1                                                           MARKER NUMBER
GEODETIC                                                    MARKER TYPE
Unige DICCA         GTER                                    OBSERVER / AGENCY
SC60291900056       SC600               2.12(191226)        REC # / TYPE / VERS
                    HEMA45          NONE                    ANT # / TYPE
  4509407.8091   693652.4678  4442337.6214                  APPROX POSITION XYZ
        0.0000        0.0000        0.0000                  ANTENNA: DELTA H/E/N
G    8 C1C L1C D1C S1C C2Y L2Y D2Y S2Y                      SYS / # / OBS TYPES
R    8 C1C L1C D1C S1C C2P L2P D2P S2P                      SYS / # / OBS TYPES
C    8 C1I L1I D1I S1I C7I L7I D7I S7I                      SYS / # / OBS TYPES
E    8 C1C L1C D1C S1C C7Q L7Q D7Q S7Q                      SYS / # / OBS TYPES
DBHZ                                                        COMMENT
     30.000                                                 INTERVAL
  2020    05    03    02    00    0.0000000     GPS         TIME OF FIRST OBS
  2020    05    03    02    59   30.0000000     GPS         TIME OF LAST OBS
     0                                                      RCV CLOCK OFFS APPL
G L1C  0.00000                                              SYS / PHASE SHIFT
G L2Y  0.00000                                              SYS / PHASE SHIFT
R L1C  0.00000                                              SYS / PHASE SHIFT
R L2P  0.25000                                              SYS / PHASE SHIFT
C L1I  0.00000                                              SYS / PHASE SHIFT
C L7I  0.00000                                              SYS / PHASE SHIFT
E L1C  0.50000                                              SYS / PHASE SHIFT
E L7Q -0.25000                                              SYS / PHASE SHIFT
 12 R01  1 R02 -4 R03  5 R08  6 R10 -5 R11  0 R12 -1 R13 -2 GLONASS SLOT / FRQ #
    R14 -7 R17  4 R18 -3 R23  3                             GLONASS SLOT / FRQ #
 C1C   71.950 C2C   71.950 C2P   71.950                     GLONASS COD/PHS/BIS
    18                                                      LEAP SECONDS
*** Above antenna height is from mark to ANTENNA BOTTOM.    COMMENT
    17     4        0.0000        ANT MEASURE TYPE/HEIGT    COMMENT
    0.0000    0.0000    0.0458    0.0405    0.0000          COMMENT
                    BASE STATION                            COMMENT
                                                            END OF HEADER
> 2020 05 03 02 00  0.0000000  0 16        .000000000000
G02  22517101.188 6 118328181.696 6      -899.516          39.000    22517095.789 4  92203742.511 4      -700.921          28.000
G04  24145451.133 5 126885202.328 5     -2962.586          32.000
G06  22662180.039 8 119090551.199 8     -2945.023          49.000    22662182.586 8  92797852.572 8     -2294.823          49.000
G07  20797503.805 8 109291600.196 8       332.535          51.000    20797503.258 8  85162282.858 8       259.118          51.000
G09  21413946.984 6 112531133.956 6     -1958.035          37.000    21413946.406 6  87686581.523 6     -1525.742          37.000
G30  21505595.141 8 113012717.048 8      2454.609          49.000    21505596.617 8  88061885.706 8      1912.683          49.000
R02  21383336.594 5 114105587.003 5     -2480.512          35.000
R03  19563722.383 6 104726121.503 6       441.574          38.000    19563726.117 5  81453655.966 5       343.447          33.000
R13  19917668.070 7 106359244.018 7      1883.066          43.000    19917670.578 7  82723825.102 7      1464.607          44.000
R14  22844495.461 6 121774060.283 6      4479.547          40.000    22844500.656 4  94713141.920 4      3484.089          29.000
C05  39775220.602 6 207120010.952 6       -11.918          37.000    39775218.688 6 160158316.628 6        -9.527          41.000
C21  23121177.758 8 120398071.231 8     -1931.871          50.000
C26  22104480.219 8 115103908.700 8      1641.379          51.000
E01  25167636.922 6 132256818.185 6      1290.422          40.000    25167639.047 7 101339658.498 7       988.795          45.000
E04  23705192.609 8 124571740.814 8      -592.367          51.000    23705192.742 8  95451022.884 8      -453.901          51.000
E31  26794612.070 7 140806633.083 7      3108.645          43.000
> 2020 05 03 02 00 30.0000000  0 17        .000000000000
G02  22522285.367 6 118355427.254 6      -917.363          36.000
G04  24162370.914 5 126974112.504 5     -2965.246          32.000
G06  22679024.797 8 119179071.207 8     -2956.891          48.000    22679026.797 8  92866829.207 8     -2304.071          48.000
G07  20795653.234 8 109281876.320 8       315.188          51.000    20795652.898 8  85154705.804 8       245.601          50.000
G09  21425146.688 6 112589986.186 6     -1966.016          37.000    21425144.078 6  87732440.387 6     -1531.963          38.000
G30  21491621.625 8 112939285.966 8      2440.492          51.000    21491622.641 8  88004666.697 8      1901.682          51.000
R02  21397303.969 5 114180144.098 5     -2490.578          35.000
R03  19561285.148 6 104713072.779 6       427.773          39.000    19561287.211 5  81443506.976 5       332.713          32.000
R12  21127332.844 5 112858409.463 5     -2437.016          34.000
R13  19907161.922 7 106303142.366 7      1856.438          42.000    19907164.680 7  82680190.510 7      1443.899          44.000
R14  22819303.242 6 121639762.047 6      4473.266          39.000    22819305.648 5  94608687.726 5      3479.210          30.000
C05  39775292.773 6 207120386.096 6       -13.332          37.000    39775290.898 6 160158607.458 6       -10.092          41.000
C21  23132333.016 8 120456159.093 8     -1941.227          50.000
C26  22095067.938 8 115054897.448 8      1625.555          51.000
E01  25160308.219 5 132218317.175 5      1275.871          35.000    25160313.156 7 101310157.773 7       977.517          43.000
E04  23708591.633 8 124589602.680 8      -598.887          51.000    23708591.672 8  95464709.252 8      -458.887          51.000
E31  26776875.812 7 140713426.028 7      3104.828          43.000    26776879.359 6 107819396.005 6      2378.892          36.000
> 2020 05 03 02 01  0.0000000  0 18        .000000000000
G02  22527568.750 6 118383195.174 6      -932.922          38.000    22527572.906 5  92246618.280 5      -726.949          30.000
G04  24179304.719 5 127063095.245 5     -2965.684          34.000    24179310.203 5  99010213.616 5     -2310.919          32.000
G06  22695934.156 7 119267932.358 7     -2966.266          47.000    22695935.492 8  92936071.672 8     -2311.376          48.000
G07  20793900.070 8 109272665.254 8       299.871          50.000    20793900.094 8  85147528.343 8       233.666          50.000
G09  21436392.359 5 112649002.580 5     -1972.902          31.000    21436390.812 5  87778436.513 5     -1537.330          31.000
G30  21477728.164 8 112866272.876 8      2428.156          51.000    21477729.211 8  87947773.390 8      1892.070          51.000
R02  21411327.195 6 114254997.195 6     -2498.707          40.000    21411331.148 4  88864974.584 4     -1943.442          25.000
R03  19558921.812 6 104700420.601 6       416.285          40.000    19558922.906 5  81433666.397 5       323.780          32.000
R12  21141083.148 5 112931867.314 5     -2458.500          35.000
R13  19896802.508 6 106247824.742 6      1832.406          41.000    19896805.359 7  82637165.708 7      1425.205          44.000
R14  22794144.414 6 121505645.448 6      4468.766          40.000    22794144.203 5  94504374.796 5      3475.707          30.000
C05  39775369.195 6 207120783.931 6       -11.910          37.000    39775367.266 6 160158915.123 6        -9.463          41.000
C21  23143539.812 8 120514515.677 8     -1948.355          50.000
C26  22085745.539 8 115006354.854 8      1611.617          51.000
E01  25153062.820 6 132180248.772 6      1263.184          40.000    25153068.172 7 101280988.450 7       967.798          42.000
E04  23712026.984 8 124607654.886 8      -603.430          51.000    23712026.812 8  95478541.457 8      -462.365          51.000
E09  22807571.820 5 119854622.808 5      1572.527          33.000
E31  26759160.719 7 140620331.314 7      3102.629          43.000    26759163.258 6 107748063.710 6      2377.414          38.000
> 2020 05 03 02 01 30.0000000  0 18        .000000000000
G02  22532957.539 6 118411515.117 6      -948.602          37.000    22532964.453 5  92268685.742 5      -739.170          34.000
G04  24196257.859 5 127152179.556 5     -2965.902          34.000
G06  22712913.688 8 119357162.316 8     -2975.996          48.000    22712913.906 8  93005601.496 8     -2318.958          48.000
G07  20792250.297 8 109263997.178 8       284.277          50.000    20792250.273 8  85140773.997 8       221.515          50.000
G09  21447690.289 5 112708374.422 5     -1979.766          33.000    21447691.234 5  87824708.662 5     -1542.671          34.000
G30  21463920.500 8 112793709.809 8      2415.648          51.000    21463921.680 8  87891230.762 8      1882.323          51.000
R02  21425414.414 5 114330176.914 5     -2507.211          34.000
R03  19556637.789 6 104688197.304 6       404.812          40.000    19556638.094 5  81424159.391 5       314.854          32.000
R12  21154967.719 4 113006039.755 4     -2479.023          28.000
R13  19886595.906 6 106193324.557 6      1807.391          40.000    19886599.125 7  82594776.673 7      1405.748          44.000
R14  22769025.523 6 121371744.929 6      4464.176          39.000    22769024.453 5  94400229.952 5      3472.137          33.000
C05  39775455.625 6 207121233.779 6       -11.383          37.000    39775453.625 6 160159262.964 6        -8.844          41.000
C21  23154804.039 8 120573171.057 8     -1955.750          50.000
C26  22076519.250 8 114958312.356 8      1597.453          51.000
E01  25145907.195 7 132142644.672 7      1250.184          42.000    25145911.992 7 101252174.810 7       957.957          44.000
E04  23715504.336 8 124625928.069 8      -608.289          51.000    23715504.062 8  95492542.986 8      -466.074          51.000
E11                                                                  25929761.008 5 104408402.816 5     -2192.743          34.000
E31  26741473.492 7 140527381.491 7      3100.332          43.000    26741474.086 6 107676842.399 6      2375.567          40.000
> 2020 05 03 02 02  0.0000000  0 16        .000000000000
G02  22538436.922 6 118440305.691 6      -967.535          36.000    22538440.969 5  92291119.970 5      -753.920          34.000
G06  22729947.688 7 119446678.087 7     -2988.402          47.000    22729946.859 7  93075354.010 7     -2328.628          47.000
G07  20790688.773 8 109255792.107 8       265.918          50.000    20790688.664 8  85134380.435 8       207.209          50.000
G09  21459026.945 6 112767951.444 6     -1988.742          36.000    21459028.617 6  87871132.369 6     -1549.672          36.000
G30  21450183.273 8 112721518.415 8      2400.312          51.000    21450184.688 8  87834977.745 8      1870.373          51.000
R02  21439547.211 6 114405601.826 6     -2517.840          39.000
R03  19554418.984 6 104676322.699 6       390.094          39.000    19554418.781 5  81414923.593 5       303.406          32.000
R13  19876527.383 6 106139562.340 6      1779.914          40.000    19876531.289 7  82552961.627 7      1384.381          45.000
R14  22743932.477 6 121237983.464 6      4456.699          38.000    22743931.828 5  94296193.281 5      3466.322          34.000
C05  39775536.695 6 207121656.383 6       -13.195          37.000    39775534.812 6 160159589.753 6       -10.457          41.000
C21  23166110.750 8 120632045.797 8     -1966.004          50.000
C26  22067373.797 8 114910691.873 8      1580.570          51.000
E01  25138825.188 7 132105425.763 7      1234.430          42.000    25138830.547 7 101223656.459 7       945.781          45.000
E04  23719008.367 8 124644342.391 8      -616.035          51.000    23719008.266 8  95506652.649 8      -472.027          51.000
E11  25946119.969 5 136347768.242 5     -2868.094          32.000    25946125.008 5 104474291.836 5     -2197.475          35.000
E31  26723798.891 7 140434498.483 7      3095.133          42.000    26723799.172 7 107605672.326 7      2371.565          43.000
> 2020 05 03 02 02 30.0000000  0 16        .000000000000
G02  22544002.367 5 118469531.278 5      -982.906          35.000    22544004.195 5  92313907.992 5      -765.895          33.000
G06  22747032.516 7 119536461.466 7     -2997.938          45.000    22747031.789 7  93145315.049 7     -2336.055          45.000
G07  20789212.453 8 109248033.920 8       250.516          51.000    20789212.117 8  85128335.076 8       195.207          50.000
G09  21470398.938 6 112827710.368 6     -1996.008          40.000    21470401.328 6  87917697.752 6     -1555.331          40.000
G30  21436513.820 8 112649685.013 8      2387.809          51.000    21436515.703 8  87779003.683 8      1860.630          51.000
R02  21453725.156 5 114481256.404 5     -2526.281          30.000    21453734.492 4  89040936.283 4     -1964.895          27.000
R03  19552262.391 6 104664782.516 6       378.320          40.000    19552263.047 5  81405947.885 5       294.249          33.000
R13  19866595.117 6 106086525.172 6      1754.953          41.000    19866599.148 7  82511710.499 7      1364.964          45.000
R14  22718863.672 6 121104349.546 6      4451.402          37.000    22718862.766 5  94192255.818 5      3462.202          34.000
C05  39775609.711 6 207122036.676 6       -12.543          37.000    39775607.852 6 160159883.831 6        -9.895          41.000
C21  23177456.414 8 120691124.656 8     -1973.438          49.000
C26  22058306.375 8 114863479.480 8      1566.168          50.000
E01  25131813.555 7 132068577.960 7      1221.418          42.000    25131818.547 7 101195422.451 7       935.877          42.000
E04  23722536.359 8 124662882.700 8      -620.824          51.000    23722536.414 8  95520858.854 8      -475.711          51.000
E11  25962494.930 5 136433832.134 5     -2870.949          32.000    25962505.406 5 104540250.239 5     -2199.588          33.000
E31  26706133.891 6 140341669.074 6      3092.609          39.000    26706134.625 7 107534543.332 7      2369.677          44.000
> 2020 05 03 02 03  0.0000000  0 15        .000000000000
G02  22549663.609 5 118499278.215 5     -1000.805          35.000    22549664.766 5  92337106.464 5      -779.842          30.000
G06  22764177.062 7 119626559.313 7     -3009.188          44.000    22764177.828 7  93215521.172 7     -2344.821          44.000
G07  20787830.742 8 109240772.582 8       233.172          51.000    20787830.109 8  85122676.895 8       181.692          51.000
G09  21481815.000 6 112887699.998 6     -2004.047          39.000    21481818.953 6  87964442.929 6     -1561.598          39.000
G30  21422921.977 8 112578261.032 8      2373.320          51.000    21422924.344 8  87723348.641 8      1849.341          51.000
R02  21467955.242 5 114557191.075 5     -2536.156          32.000
R03  19550179.109 6 104653628.753 6       364.934          41.000    19550180.922 5  81397272.701 5       283.837          35.000
R13  19856808.641 6 106034266.129 6      1728.371          40.000    19856812.727 7  82471064.601 7      1344.289          45.000
R14  22693827.648 5 120970897.670 5      4444.770          32.000    22693827.430 5  94088459.930 5      3457.043          33.000
C05  39775684.008 6 207122424.132 6       -13.695          37.000    39775682.258 6 160160183.414 6       -10.451          41.000
C21  23188850.758 8 120750456.778 8     -1982.516          50.000
C26  22049327.391 8 114816725.663 8      1550.223          51.000
E01  25124882.641 7 132032152.271 7      1206.637          44.000    25124885.586 6 101167511.845 6       924.509          41.000
E04  23726097.852 8 124681599.029 8      -627.309          51.000    23726098.094 8  95535199.934 8      -480.626          51.000
E31  26688488.844 6 140248945.177 6      3088.250          37.000    26688490.133 7 107463495.150 7      2366.486          45.000
> 2020 05 03 02 03 30.0000000  0 14        .000000000000
G02  22555412.789 5 118529489.845 5     -1012.309          32.000    22555413.203 4  92360648.858 4      -788.824          27.000
G04  24264107.562 5 127508745.882 5     -2969.582          34.000
G06  22781374.359 7 119716931.959 7     -3014.520          45.000    22781376.883 7  93285941.410 7     -2348.976          45.000
G07  20786536.656 8 109233971.045 8       221.816          51.000    20786535.586 8  85117377.018 8       172.844          51.000
G09  21493268.180 6 112947882.976 6     -2006.734          37.000    21493270.180 6  88011338.754 6     -1563.689          37.000
G30  21409401.281 8 112507211.244 8      2364.766          51.000    21409403.953 8  87667985.143 8      1842.675          51.000
R03  19548161.078 7 104642825.187 7       356.988          42.000    19548164.422 6  81388869.920 6       277.655          37.000
R13  19847161.117 6 105982750.172 6      1707.305          40.000    19847165.523 7  82430996.644 7      1327.904          45.000
C05  39775752.797 6 207122782.337 6        -8.859          37.000    39775751.047 6 160160460.409 6        -6.745          41.000
C21  23200286.531 8 120810005.567 8     -1985.984          49.000
C26  22040430.391 8 114770395.116 8      1539.980          51.000
E01  25118025.281 7 131996112.950 7      1197.699          45.000    25118026.625 6 101139897.273 6       917.783          41.000
E04  23729685.961 8 124700454.692 8      -627.961          51.000    23729686.258 8  95549647.778 8      -481.183          51.000
E31  26670857.555 6 140156292.027 6      3090.246          36.000    26670859.102 7 107392501.126 7      2367.704          46.000
> 2020 05 03 02 04  0.0000000  0 15        .000000000000
G04  24281088.547 5 127597980.695 5     -2976.887          33.000
G06  22798629.445 7 119807606.467 7     -3028.160          45.000    22798633.312 7  93356596.850 7     -2359.605          44.000
G07  20785335.734 8 109227659.075 8       201.379          51.000    20785334.195 8  85112458.610 8       156.919          51.000
G09  21504763.648 6 113008288.603 6     -2018.387          39.000    21504764.930 6  88058408.097 6     -1572.766          38.000
G30  21395957.820 8 112436567.266 8      2347.215          51.000    21395960.328 8  87612937.859 8      1828.999          51.000
R02  21496564.344 6 114709785.209 6     -2553.594          37.000
R03  19546214.211 7 104632403.873 7       340.105          42.000    19546218.008 6  81380764.435 6       264.526          38.000
R12  21226150.836 5 113386248.900 5     -2588.719          31.000
R13  19837658.867 6 105932009.170 6      1677.496          37.000    19837663.289 7  82391531.400 7      1304.716          45.000
C05  39775821.680 6 207123141.119 6       -12.875          37.000    39775819.938 6 160160737.860 6       -10.040          41.000
C21  23211769.125 8 120869800.612 8     -1998.102          48.000
C26  22031620.656 8 114724518.816 8      1520.754          51.000
E01  25111247.047 7 131960491.112 7      1179.562          42.000    25111247.570 6 101112602.699 6       903.860          39.000
E04  23733306.359 8 124719480.004 8      -637.898          51.000    23733306.625 8  95564225.606 8      -488.785          51.000
E31  26653246.719 6 140063741.633 6      3082.789          36.000    26653247.516 7 107321585.887 7      2361.757          47.000
> 2020 05 03 02 04 30.0000000  0 15        .000000000000
G06  22815944.133 7 119898594.040 7     -3039.664          43.000    22815948.922 7  93427496.252 7     -2368.569          43.000
G07  20784230.531 8 109221850.331 8       183.762          51.000    20784228.805 8  85107932.338 8       143.191          51.000
G09  21516303.055 5 113068935.756 5     -2027.465          30.000    21516305.938 5  88105674.827 5     -1579.849          32.000
G30  21382594.945 8 112366344.727 8      2332.172          51.000    21382596.438 8  87558218.990 8      1817.277          51.000
R02  21510942.000 5 114786496.827 5     -2564.422          33.000    21510945.094 5  89278416.203 5     -1994.550          31.000
R03  19544342.336 7 104622380.325 7       326.016          42.000    19544345.953 6  81372968.312 6       253.565          40.000
R12  21240744.328 6 113464210.850 6     -2611.473          36.000
R13  19828305.047 6 105882060.330 6      1650.363          39.000    19828308.906 7  82352682.256 7      1283.613          44.000
C05  39775893.336 6 207123514.616 6       -14.402          37.000    39775891.656 7 160161026.664 7       -11.176          42.000
C21  23223301.562 8 120929855.774 8     -2007.664          48.000
C26  22022900.922 8 114679111.808 8      1504.270          51.000
E01  25104550.734 7 131925301.920 7      1164.309          43.000    25104549.445 6 101085639.655 6       892.136          37.000
E04  23736961.680 8 124738689.188 8      -644.914          51.000    23736962.062 8  95578944.334 8      -494.149          51.000
E11  26028231.945 6 136779287.340 6     -2888.023          36.000
E31  26635657.594 6 139971310.078 6      3077.395          38.000    26635658.641 7 107250761.728 7      2358.090          47.000
> 2020 05 03 02 05  0.0000000  0 17        .000000000000
G02  22573233.305 5 118623141.148 5     -1061.938          30.000
G04  24315091.258 5 127776654.621 5     -2975.457          32.000
G06  22833323.984 6 119989926.408 6     -3044.754          40.000    22833329.930 6  93498664.360 6     -2372.532          40.000
G07  20783227.594 8 109216579.199 8       172.059          51.000    20783225.375 8  85103824.982 8       134.075          51.000
G09  21527893.477 5 113129843.929 5     -2029.934          32.000    21527899.125 5  88153144.894 5     -1581.769          31.000
G30  21369319.508 8 112296579.831 8      2323.227          51.000    21369319.633 8  87503856.765 8      1810.309          51.000
R02  21525388.008 6 114863555.361 6     -2568.527          37.000    21525386.539 5  89338350.651 5     -1997.747          34.000
R03  19542551.508 7 104612791.391 7       317.863          42.000    19542555.203 6  81365510.230 6       247.227          40.000
R12  21255462.617 6 113542856.371 6     -2627.625          38.000
R13  19819107.070 6 105832941.211 6      1628.867          41.000    19819110.141 7  82314478.494 7      1266.897          44.000
C05  39775974.555 6 207123936.735 6        -9.387          37.000    39775972.883 6 160161353.452 6        -7.331          41.000
C21  23234890.734 8 120990205.293 8     -2011.262          49.000
C26  22014278.258 8 114634209.663 8      1493.621          51.000
E01  25097943.539 7 131890581.213 7      1154.949          44.000    25097940.828 6 101059035.493 6       885.114          38.000
E04  23740658.680 8 124758117.172 8      -645.902          51.000    23740659.375 8  95593830.705 8      -494.849          51.000
E11  26044729.836 6 136865983.663 6     -2887.289          37.000    26044730.281 5 104871334.958 5     -2211.680          34.000
E31  26618098.039 6 139879034.149 6      3078.648          40.000    26618099.258 7 107180056.838 7      2359.012          47.000
> 2020 05 03 02 05 30.0000000  0 15        .000000000000
G06  22850753.578 6 120081520.965 6     -3058.148          41.000    22850760.406 6  93570036.821 6     -2382.970          41.000
G07  20782311.680 8 109211765.872 8       152.332          51.000    20782308.766 8  85100074.347 8       118.700          51.000
G09  21539520.414 5 113190945.389 5     -2040.172          35.000    21539525.977 5  88200756.431 5     -1589.741          35.000
G30  21356116.391 8 112227194.577 8      2306.020          51.000    21356115.883 8  87449790.364 8      1796.898          51.000
R03  19540826.703 7 104603556.960 7       301.324          43.000    19540830.328 6  81358327.896 6       234.363          40.000
R12  21270293.469 5 113622100.674 5     -2651.457          33.000
R13  19810049.914 7 105784573.015 7      1599.309          44.000    19810052.414 7  82276858.838 7      1243.910          43.000
R14  22569158.594 4 120306313.469 4      4414.074          28.000    22569156.938 4  93571573.039 4      3433.172          25.000
C05  39776050.047 6 207124329.174 6       -12.867          37.000    39776048.336 6 160161657.318 6       -10.134          41.000
C21  23246522.070 8 121050770.088 8     -2022.992          50.000
C26  22005737.383 8 114589734.623 8      1474.883          51.000
E01  25091410.789 7 131856250.399 7      1137.336          45.000    25091408.984 7 101032730.115 7       871.423          42.000
E04  23744382.195 8 124777684.525 8      -655.023          51.000    23744383.078 8  95608823.876 8      -501.898          51.000
E11  26061242.977 6 136952760.310 6     -2894.320          36.000    26061241.867 6 104937826.210 6     -2217.762          36.000
E31  26600552.633 6 139786836.328 6      3071.293          41.000    26600554.500 7 107109411.782 7      2353.457          46.000
> 2020 05 03 02 06  0.0000000  0 15        .000000000000
G06  22868238.680 7 120173404.375 7     -3067.340          44.000    22868245.406 7  93641634.297 7     -2390.135          44.000
G07  20781488.367 8 109207439.297 8       136.320          51.000    20781485.570 8  85096703.008 8       106.224          51.000
G09  21551189.086 5 113252265.436 5     -2046.945          34.000    21551191.109 5  88248538.386 5     -1595.019          35.000
G30  21342991.305 8 112158219.981 8      2292.520          51.000    21342990.859 8  87396043.938 8      1786.379          51.000
R03  19539173.703 7 104594708.693 7       288.684          43.000    19539177.203 6  81351445.884 6       224.532          40.000
R12  21285242.477 5 113701970.698 5     -2672.324          30.000
R13  19801139.195 7 105736987.266 7      1573.348          45.000    19801140.594 7  82239847.739 7      1223.715          42.000
R14  22544336.047 5 120173996.013 5      4407.422          34.000
C05  39776125.375 6 207124721.790 6       -12.547          37.000    39776123.695 7 160161960.910 7        -9.944          42.000
C21  23258200.203 8 121111579.151 8     -2030.844          48.000
C26  21997284.266 8 114545716.998 8      1459.828          51.000
E01  25084958.320 7 131822340.028 7      1123.598          43.000    25084958.406 7 101006746.865 7       860.846          44.000
E04  23748137.922 8 124797420.953 8      -660.426          51.000    23748138.531 8  95623946.589 8      -506.058          51.000
E11  26077775.805 6 137039644.675 6     -2897.797          36.000    26077773.711 6 105004399.964 6     -2220.085          38.000
E31  26583027.273 6 139694748.151 6      3067.926          41.000    26583030.469 7 107038850.723 7      2350.769          46.000
> 2020 05 03 02 06 30.0000000  0 16        .000000000000
G02  22591903.852 5 118721247.593 5     -1113.797          31.000    22591895.797 5  92510038.894 5      -867.894          32.000
G06  22885780.203 7 120265582.606 7     -3077.188          45.000    22885785.906 7  93713461.482 7     -2397.808          45.000
G07  20780759.281 8 109203608.299 8       119.770          51.000    20780756.711 8  85093717.833 8        93.327          51.000
G09  21562901.102 6 113313812.419 6     -2055.129          36.000    21562902.750 6  88296497.084 6     -1601.402          36.000
G30  21329946.125 8 112089666.458 8      2278.492          51.000    21329946.195 8  87342625.608 8      1775.445          51.000
R02  21568994.555 5 115096304.406 5     -2599.473          33.000    21568989.406 4  89519316.839 4     -2021.806          24.000
R03  19537595.609 7 104586256.846 7       275.387          46.000    19537597.648 6  81344872.207 6       214.190          40.000
R13  19792376.977 7 105690195.379 7      1546.977          44.000    19792377.938 7  82203454.096 7      1203.204          43.000
R14  22519554.305 5 120041889.211 5      4399.941          31.000
C05  39776202.359 6 207125122.953 6       -13.039          37.000    39776200.742 7 160162271.119 7       -10.140          42.000
C21  23269926.078 7 121172641.244 7     -2039.199          46.000
C26  21988920.984 8 114502166.728 8      1444.227          51.000
E01  25078586.859 6 131788859.976 6      1109.320          40.000    25078589.203 7 100981093.356 7       849.909          44.000
E04  23751927.656 8 124817335.556 8      -666.402          51.000    23751927.938 8  95639205.827 8      -510.602          51.000
E11  26094330.234 5 137126630.715 5     -2901.344          33.000    26094327.617 6 105071061.591 6     -2223.203          39.000
E31  26565524.422 7 139602780.545 7      3064.035          42.000    26565529.062 7 106968382.087 7      2347.665          46.000
> 2020 05 03 02 07  0.0000000  0 15        .000000000000
G06  22903371.945 7 120358024.322 7     -3085.234          45.000    22903376.000 7  93785493.972 7     -2404.079          46.000
G07  20780119.016 8 109200243.940 8       104.730          51.000    20780116.336 8  85091096.249 8        81.608          51.000
G09  21574651.219 6 113375557.223 6     -2061.090          39.000    21574652.906 6  88344609.848 6     -1606.041          39.000
G30  21316975.914 8 112021507.203 8      2265.758          51.000    21316976.406 8  87289514.488 8      1765.526          51.000
R02  21583641.625 4 115174446.668 4     -2606.812          29.000    21583640.586 4  89580121.350 4     -2027.521          25.000
R03  19536086.070 7 104578173.980 7       263.680          46.000    19536086.930 6  81338585.528 6       205.081          39.000
R13  19783757.961 7 105644170.900 7      1521.859          43.000    19783759.273 7  82167657.322 7      1183.668          43.000
R14  22494811.602 5 119909986.032 5      4394.828          32.000
C05  39776275.648 6 207125504.756 6       -12.039          36.000    39776274.031 7 160162566.341 7        -9.340          42.000
C21  23281695.172 7 121233928.045 7     -2046.203          47.000
C26  21980642.203 8 114459056.801 8      1430.098          51.000
E01  25072292.094 6 131755783.087 6      1096.176          40.000    25072295.852 7 100955748.674 7       840.014          44.000
E04  23755745.969 8 124837400.205 8      -670.926          51.000    23755746.172 8  95654580.031 8      -514.062          51.000
E11                                                                  26110897.523 6 105137787.758 6     -2224.808          40.000
E31  26548040.141 7 139510907.283 7      3061.242          44.000    26548044.953 7 106897985.686 7      2345.657          45.000
> 2020 05 03 02 07 30.0000000  0 14        .000000000000
G02  22604799.812 5 118789026.155 5     -1145.531          30.000    22604801.367 4  92562881.838 4      -892.622          28.000
G06  22921015.250 7 120450736.578 7     -3095.141          44.000    22921017.359 7  93857737.286 7     -2411.798          44.000
G07  20779569.445 8 109197355.756 8        87.992          51.000    20779566.836 8  85088845.712 8        68.565          51.000
G09  21586440.727 6 113437509.115 6     -2069.098          40.000    21586441.891 6  88392884.084 6     -1612.284          40.000
G30  21304082.867 8 111953753.651 8      2251.352          51.000    21304083.750 8  87236719.527 8      1754.303          51.000
R03  19534647.883 7 104570471.185 7       250.012          47.000    19534647.773 6  81332594.490 6       194.454          41.000
R13  19775284.758 7 105598925.430 7      1494.785          42.000    19775286.352 7  82132466.395 7      1162.611          44.000
C05  39776347.070 6 207125877.144 6       -12.410          37.000    39776345.508 6 160162854.305 6        -9.817          41.000
C21  23293509.992 8 121295449.326 8     -2054.945          48.000
C26  21972450.008 8 114416398.219 8      1414.039          51.000
E01  25066074.719 5 131723120.252 5      1081.555          34.000    25066080.578 7 100930721.293 7       828.718          43.000
E04  23759594.680 8 124857625.138 8      -677.301          51.000    23759594.945 8  95670077.041 8      -518.950          51.000
E11                                                                  26127484.719 6 105204584.657 6     -2227.825          39.000
E31  26530576.789 7 139419140.344 7      3056.707          44.000    26530580.805 7 106827670.780 7      2342.071          45.000
> 2020 05 03 02 08  0.0000000  0 16        .000000000000
G06  22938709.125 6 120543715.098 6     -3102.949          41.000    22938709.586 6  93930188.087 6     -2417.883          41.000
G07  20779110.133 8 109194941.945 8        73.383          51.000    20779107.781 8  85086964.826 8        57.181          51.000
G09  21598269.156 7 113499666.188 7     -2074.668          42.000    21598270.422 6  88441318.085 6     -1616.627          39.000
G30  21291266.953 8 111886406.007 8      2238.926          51.000    21291268.242 8  87184240.875 8      1744.621          51.000
R02  21613055.352 5 115331407.031 5     -2623.824          34.000    21613055.016 4  89702201.594 4     -2040.752          25.000
R03  19533279.906 7 104563148.901 7       238.645          47.000    19533279.648 6  81326899.359 6       185.612          40.000
R13  19766957.523 6 105554460.116 6      1470.062          41.000    19766959.688 7  82097882.244 7      1143.382          44.000
R14  22445417.414 4 119646727.691 4      4381.621          28.000
C05  39776416.672 6 207126238.912 6       -10.855          37.000    39776414.984 6 160163134.048 6        -8.678          41.000
C21  23305369.711 8 121357203.586 8     -2061.543          49.000
C24  25121621.570 6 130814873.509 6      3365.797          38.000
C26  21964344.172 8 114374190.616 8      1400.281          51.000
E01  25059935.297 5 131690850.118 5      1069.230          34.000    25059943.367 7 100906010.906 7       818.999          42.000
E04  23763473.586 8 124878009.169 8      -681.305          51.000    23763473.812 8  95685695.960 8      -521.997          51.000
E11                                                                  26144088.633 6 105271449.721 6     -2229.216          39.000
E31  26513134.156 7 139327480.401 7      3054.434          45.000    26513137.258 7 106757437.866 7      2340.335          44.000
> 2020 05 03 02 08 30.0000000  0 16        .000000000000
G02  22618063.023 5 118858730.862 5     -1178.117          33.000    22618060.844 5  92617181.405 5      -918.013          33.000
G06  22956455.258 5 120636972.428 5     -3114.035          35.000    22956455.469 5  94002856.210 5     -2426.518          35.000
G07  20778744.086 8 109193018.050 8        55.102          51.000    20778741.898 8  85085465.683 8        42.933          51.000
G09  21610139.125 6 113562043.405 6     -2083.754          38.000    21610140.367 5  88489923.529 5     -1623.710          34.000
G30  21278531.555 8 111819481.378 8      2222.883          51.000    21278532.789 8  87132091.841 8      1732.120          51.000
R03  19531986.023 8 104556224.059 8       223.340          48.000    19531985.328 6  81321513.381 6       173.709          41.000
R13  19758779.680 6 105510792.365 6      1441.301          41.000    19758781.891 7  82063918.419 7      1121.012          44.000
R14  22420786.617 5 119515436.517 5      4371.727          34.000    22420791.133 5  92956429.676 5      3400.235          30.000
C05  39776487.109 6 207126605.632 6       -13.008          37.000    39776485.438 6 160163417.618 6       -10.143          41.000
C21  23317277.164 8 121419206.146 8     -2071.770          50.000
C24  25102247.266 6 130713991.815 6      3359.480          37.000
C26  21956328.375 8 114332450.611 8      1382.672          51.000
E01  25053880.484 6 131659031.430 6      1052.641          38.000    25053888.844 7 100881630.284 7       806.491          42.000
E04  23767385.719 8 124898568.190 8      -689.078          51.000    23767385.875 8  95701448.968 8      -527.995          51.000
E11                                                                  26160712.344 6 105338393.342 6     -2233.503          38.000
E31  26495715.484 7 139235945.209 7      3048.203          46.000    26495717.617 7 106687300.529 7      2335.609          43.000
> 2020 05 03 02 09  0.0000000  0 17        .000000000000
G02  22624831.859 5 118894294.261 5     -1193.004          34.000    22624832.766 5  92644895.462 5      -929.623          35.000
G06  22974251.586 5 120730503.317 5     -3121.379          35.000    22974254.945 6  94075737.585 6     -2432.240          36.000
G07  20778470.789 8 109191581.242 8        40.664          51.000    20778468.453 8  85084346.089 8        31.686          51.000
G09  21622050.406 6 113624637.742 6     -2089.238          38.000    21622054.648 5  88538698.170 5     -1627.978          34.000
G30  21265876.367 8 111752978.886 8      2210.539          51.000    21265877.422 8  87080271.728 8      1722.501          51.000
R02  21642684.703 5 115489498.318 5     -2642.406          33.000    21642681.461 4  89825164.015 4     -2055.202          25.000
R03  19530766.023 7 104549695.554 7       211.910          46.000    19530765.797 7  81316435.689 7       164.822          42.000
R13  19750751.305 7 105467921.864 7      1416.520          42.000    19750753.648 7  82030574.698 7      1101.740          45.000
R14  22396196.047 5 119384364.406 5      4366.211          34.000    22396203.797 5  92854484.729 5      3395.945          33.000
C05  39776558.141 6 207126975.022 6       -11.465          37.000    39776556.406 6 160163703.254 6        -8.799          41.000
C21  23329231.312 8 121481454.458 8     -2078.184          49.000
C24  25082900.938 6 130613248.010 6      3356.461          37.000
C26  21948401.992 8 114291176.820 8      1368.949          51.000
E01  25047908.062 6 131627641.636 6      1040.105          40.000    25047917.367 6 100857578.397 6       797.120          41.000
E04  23771330.719 8 124919300.038 8      -693.008          51.000    23771330.914 8  95717334.397 8      -530.985          51.000
E11  26177367.289 5 137562986.786 5     -2915.758          33.000    26177355.320 6 105405412.211 6     -2234.553          37.000
E31  26478320.586 7 139144534.409 7      3045.848          46.000    26478321.898 7 106617258.511 7      2333.834          43.000
> 2020 05 03 02 09 30.0000000  0 17        .000000000000
G02  22631690.102 6 118930332.612 6     -1208.961          36.000    22631689.883 6  92672977.319 6      -942.047          36.000
G06  22992099.602 6 120824297.204 6     -3130.539          40.000    22992106.578 6  94148823.809 6     -2439.381          40.000
G07  20778288.625 8 109190623.222 8        24.227          51.000    20778286.266 8  85083599.577 8        18.878          51.000
G09  21634001.164 6 113687440.794 6     -2096.305          36.000    21634005.023 5  88587635.573 5     -1633.490          34.000
G30  21253300.047 8 111686892.206 8      2196.090          51.000    21253301.266 8  87028775.606 8      1711.239          51.000
R02  21657548.805 4 115568829.027 4     -2652.484          29.000
R03  19529618.031 7 104543556.817 7       198.289          45.000    19529619.148 7  81311661.123 7       154.225          42.000
R13  19742870.977 7 105425842.528 7      1389.492          42.000    19742873.758 7  81997846.352 7      1080.716          44.000
R14  22371644.484 5 119253512.137 5      4358.133          34.000    22371656.438 5  92752710.831 5      3389.662          34.000
C05  39776628.164 6 207127339.571 6       -11.953          36.000    39776626.383 7 160163985.137 7        -9.080          42.000
C21  23341231.016 8 121543940.641 8     -2086.605          48.000
C24  25063580.258 5 130512636.418 5      3351.484          32.000
C26  21940563.859 8 114250362.627 8      1352.988          51.000
E01  25042016.242 7 131596674.002 7      1025.477          42.000    25042024.625 6 100833850.025 6       785.904          36.000
E04  23775307.180 8 124940197.175 8      -699.121          51.000    23775307.398 8  95733346.482 8      -535.672          51.000
E11  26194029.922 5 137650551.526 5     -2919.711          34.000    26194015.828 6 105472498.835 6     -2236.972          36.000
E31  26460948.234 7 139053242.331 7      3041.316          45.000    26460948.367 7 106547307.498 7      2330.434          42.000
> 2020 05 03 02 10  0.0000000  0 18        .000000000000
G02  22638636.102 6 118966829.893 6     -1223.680          41.000    22638636.477 6  92701416.773 6      -953.514          37.000
G06  23009995.602 7 120918339.490 7     -3138.480          42.000    23010007.055 7  94222103.541 7     -2445.569          42.000
G07  20778195.125 8 109190131.843 8         8.965          51.000    20778193.000 8  85083216.667 8         6.983          51.000
G09  21645989.734 6 113750440.240 6     -2102.660          40.000    21645992.945 6  88636726.047 6     -1638.436          39.000
G30  21240800.805 8 111621211.171 8      2182.984          51.000    21240802.383 8  86977595.558 8      1701.027          51.000
R02  21672482.070 5 115648508.350 5     -2659.516          35.000
R03  19528541.617 7 104537797.396 7       186.109          46.000    19528543.578 7  81307181.545 7       144.752          43.000
R12  21408968.633 5 114362780.255 5     -2831.578          30.000
R13  19735136.977 7 105384543.504 7      1363.922          42.000    19735139.422 7  81965724.878 7      1060.828          44.000
R14  22347134.742 5 119122872.525 5      4351.520          33.000    22347148.969 5  92651102.236 5      3384.518          34.000
C05  39776695.000 6 207127687.863 6       -11.152          37.000    39776693.312 7 160164254.470 7        -8.376          42.000
C21  23353274.289 8 121606652.989 8     -2093.828          48.000
C24  25044282.117 5 130412147.591 5      3348.094          32.000
C26  21932811.961 8 114209997.472 8      1338.375          51.000
E01  25036203.055 7 131566117.908 7      1012.176          42.000    25036204.453 5 100810436.945 5       775.168          31.000
E04  23779312.883 8 124961248.218 8      -703.859          51.000    23779313.008 8  95749476.499 8      -539.327          51.000
E11  26210706.867 5 137738180.146 5     -2921.590          35.000    26210690.992 5 105539642.829 5     -2238.621          35.000
E31  26443596.461 7 138962059.409 7      3038.035          44.000    26443595.742 7 106477440.138 7      2327.950          42.000
> 2020 05 03 02 10 30.0000000  0 16        .000000000000
G02  22645675.547 6 119003820.521 6     -1240.508          40.000    22645675.461 6  92730240.591 6      -966.629          36.000
G06  23027945.344 7 121012663.081 7     -3147.977          43.000    23027961.242 7  94295602.476 7     -2452.969          43.000
G07  20778197.148 8 109190142.684 8        -7.820          51.000    20778195.031 8  85083225.114 8        -6.094          51.000
G09  21658022.266 6 113813671.431 6     -2110.293          39.000    21658024.852 6  88685997.089 6     -1644.381          38.000
G30  21228386.094 8 111555973.182 8      2168.055          51.000    21228387.773 8  86926760.741 8      1689.393          51.000
R02  21687468.586 5 115728476.457 5     -2669.680          31.000    21687490.594 4  90011133.546 4     -2076.418          25.000
R03  19527544.141 7 104532455.265 7       171.988          47.000    19527545.820 7  81303026.541 7       133.769          44.000
R13  19727556.516 7 105344064.036 7      1336.484          42.000    19727559.062 7  81934240.858 7      1039.488          45.000
C05  39776765.578 6 207128055.636 6       -11.867          37.000    39776763.961 6 160164538.847 6        -9.062          41.000
C21  23365367.320 7 121669626.874 7     -2102.645          47.000
C24  25025015.477 6 130311819.182 6      3342.281          37.000
C26  21925153.406 8 114170117.958 8      1322.102          51.000
E01  25030474.914 7 131536010.255 7       997.102          42.000    25030470.820 5 100787337.481 5       763.989          31.000
E04  23783354.758 8 124982489.387 8      -710.320          51.000    23783354.992 8  95765752.188 8      -544.304          51.000
E11  26227403.805 5 137825917.551 5     -2925.801          34.000    26227387.172 5 105606870.150 5     -2241.210          33.000
E31  26426272.508 7 138871023.674 7      3032.883          44.000    26426272.859 7 106407685.537 7      2323.954          44.000
> 2020 05 03 02 11  0.0000000  0 16        .000000000000
G02  22652803.016 6 119041278.711 6     -1256.789          39.000    22652801.734 6  92759428.708 6      -979.316          36.000
G06  23045943.383 7 121107240.751 7     -3157.367          42.000    23045963.758 6  94369299.375 6     -2460.283          41.000
G07  20778289.938 8 109190631.074 8       -24.559          51.000    20778288.000 8  85083605.710 8       -19.137          51.000
G09  21670093.852 6 113877109.539 6     -2118.516          38.000    21670095.773 6  88735429.363 6     -1650.788          38.000
G30  21216051.734 8 111491155.334 8      2153.098          51.000    21216053.250 8  86876253.326 8      1677.738          51.000
R03  19526620.531 7 104527506.738 7       157.934          47.000    19526621.570 7  81299177.681 7       122.837          45.000
R13  19720125.250 7 105304381.184 7      1309.070          42.000    19720127.586 7  81903376.416 7      1018.166          44.000
R14  22298267.820 4 118862292.056 4      4333.098          28.000    22298269.961 5  92448474.030 5      3370.187          33.000
C05  39776835.289 6 207128418.947 6       -12.613          37.000    39776833.688 6 160164819.782 6        -9.620          41.000
C21  23377505.508 7 121732838.136 7     -2111.566          45.000
C24  25005775.344 6 130211629.106 6      3336.977          40.000
C26  21917583.945 8 114130701.008 8      1305.750          51.000
E01  25024826.992 7 131506327.605 7       981.926          42.000    25024822.859 5 100764590.753 5       752.331          31.000
E04  23787428.328 8 125003896.572 8      -716.656          51.000    23787428.883 8  95782155.090 8      -549.120          51.000
E11                                                                  26244098.992 5 105674160.677 5     -2243.910          32.000
E31  26408972.367 7 138780112.871 7      3027.797          45.000    26408974.703 7 106338026.609 7      2320.084          47.000
> 2020 05 03 02 11 30.0000000  0 16        .000000000000
G02  22660018.359 6 119079201.744 6     -1270.539          37.000    22660017.133 5  92788979.065 5      -990.030          34.000
G06  23063988.617 6 121202068.079 6     -3163.559          40.000    23064012.703 6  94443190.864 6     -2465.108          38.000
G07  20778473.148 8 109191595.019 8       -38.605          51.000    20778471.586 8  85084356.850 8       -30.079          51.000
G09  21682204.047 5 113940752.530 5     -2123.238          34.000    21682205.047 5  88785021.248 5     -1654.474          34.000
G30  21203797.461 8 111426757.569 8      2141.047          51.000    21203798.797 8  86826073.263 8      1668.351          51.000
R02  21717594.891 5 115889203.557 5     -2685.840          32.000
R03  19525770.539 8 104522951.849 8       146.699          48.000    19525771.195 7  81295634.979 7       114.099          45.000
R12  21457204.953 5 114620513.446 5     -2891.070          32.000
R13  19712843.117 7 105265494.871 7      1284.367          42.000    19712845.359 7  81873131.485 7       998.952          45.000
C05  39776904.055 6 207128776.430 6       -10.918          36.000    39776902.312 6 160165096.207 6        -7.911          41.000
C21  23389689.703 8 121796285.129 8     -2117.352          48.000
C24  24986561.539 6 130111578.073 6      3334.199          40.000
C26  21910103.609 8 114091746.139 8      1292.207          51.000
E01  25019260.312 7 131477069.541 7       969.707          43.000    25019254.797 5 100742171.174 5       743.390          30.000
E04  23791533.258 8 125025468.598 8      -720.301          51.000    23791534.008 8  95798684.299 8      -551.868          51.000
E31  26391696.086 7 138689327.592 7      3025.609          46.000    26391700.422 8 106268463.842 8      2318.306          49.000
> 2020 05 03 02 12  0.0000000  0 16        .000000000000
G02  22667318.195 5 119117569.992 5     -1287.496          32.000    22667317.711 5  92818876.519 5     -1003.247          33.000
G06  23082077.352 6 121297124.253 6     -3173.828          38.000    23082100.359 6  94517260.693 6     -2473.110          37.000
G07  20778743.281 8 109193016.282 8       -56.289          51.000    20778742.070 8  85085464.340 8       -43.862          51.000
G09  21694350.156 6 114004581.668 6     -2131.656          37.000    21694351.273 6  88834758.291 6     -1661.028          37.000
G30  21191620.039 8 111362763.482 8      2125.105          51.000    21191621.016 8  86776207.758 8      1655.926          51.000
R03  19524990.312 8 104518773.628 8       131.516          48.000    19524990.633 7  81292385.264 7       102.290          44.000
R12  21473498.820 5 114707549.165 5     -2912.609          31.000
R13  19705707.008 6 105227388.401 6      1256.023          41.000    19705709.609 7  81843493.127 7       976.910          44.000
C05  39776968.211 6 207129110.501 6       -12.023          36.000    39776966.453 6 160165354.547 6        -9.294          41.000
C21  23401916.570 8 121859949.936 8     -2127.043          48.000
C24  24967371.008 6 130011650.502 6      3327.305          40.000
C26  21902708.906 8 114053236.600 8      1274.859          51.000
E01  25013771.367 6 131448219.065 6       953.504          41.000
E04  23795666.180 8 125047187.854 8      -727.762          51.000    23795666.953 8  95815326.324 8      -557.606          51.000
E09  22615292.023 5 118844171.325 5      1490.270          35.000
E31  26374440.562 7 138598652.052 7      3019.219          46.000    26374446.398 8 106198985.155 8      2313.571          51.000
> 2020 05 03 02 12 30.0000000  0 16        .000000000000
G02  22674713.945 6 119156437.205 6     -1302.090          37.000    22674713.891 6  92849162.680 6     -1014.615          37.000
G06  23100219.867 6 121392461.714 6     -3181.160          38.000    23100235.641 6  94591549.797 6     -2478.823          38.000
G07  20779110.688 8 109194949.230 8       -71.414          50.000    20779109.984 8  85086970.507 8       -55.650          50.000
G09  21706542.055 5 114068651.897 5     -2138.352          33.000    21706544.023 5  88884683.177 5     -1666.245          32.000
G30  21179530.078 8 111299229.846 8      2111.574          49.000    21179530.969 8  86726701.073 8      1645.383          49.000
R03  19524290.672 8 104515029.832 8       119.164          48.000    19524290.703 7  81289473.425 7        92.683          45.000
R12  21489908.727 5 114795225.294 5     -2930.324          32.000
R13  19698727.641 7 105190119.744 7      1229.898          42.000    19698730.477 7  81814506.427 7       956.591          43.000
R14  22225280.695 6 118473313.237 6      4310.395          36.000    22225284.352 4  92145896.592 4      3352.532          28.000
C05  39777038.391 6 207129476.235 6       -11.309          37.000    39777036.711 6 160165637.372 6        -8.920          41.000
C21  23414194.867 7 121923887.282 7     -2134.305          47.000
C24  24948214.203 6 129911903.323 6      3323.328          40.000
C26  21895410.352 8 114015228.202 8      1260.078          51.000
E01  25008369.523 6 131419832.464 6       939.871          41.000    25008364.977 5 100698314.268 5       719.865          34.000
E04  23799837.719 8 125069109.958 8      -732.707          51.000    23799838.531 8  95832123.783 8      -561.410          51.000
E31  26357216.609 7 138508143.681 7      3015.387          44.000    26357223.664 8 106129634.571 8      2310.611          51.000
> 2020 05 03 02 13  0.0000000  0 17        .000000000000
G02  22682194.734 6 119195746.748 6     -1317.750          39.000    22682194.570 6  92879793.446 6     -1026.818          39.000
G06  23118405.188 6 121488022.074 6     -3189.281          38.000    23118412.984 6  94666012.414 6     -2485.157          38.000
G07  20779564.836 8 109197338.621 8       -87.559          49.000    20779565.039 8  85088832.382 8       -68.227          49.000
G09  21718769.461 6 114132902.296 6     -2145.016          37.000    21718771.617 6  88934752.229 6     -1671.438          38.000
G30  21167516.383 7 111236102.632 7      2097.301          45.000    21167518.570 7  86677511.036 7      1634.257          45.000
R02  21763137.000 5 116132275.908 5     -2713.781          31.000    21763143.672 4  90325124.236 4     -2110.716          26.000
R03  19523661.617 8 104511665.393 8       105.590          48.000    19523661.820 7  81286856.639 7        82.125          45.000
R12  21506422.016 5 114883421.643 5     -2948.430          33.000    21506419.195 4  89353790.292 4     -2293.223          28.000
R13  19691895.102 7 105153634.192 7      1202.809          42.000    19691897.758 7  81786128.799 7       935.521          43.000
R14  22201046.219 6 118344123.663 6      4302.434          38.000    22201044.930 4  92045380.881 4      3346.337          28.000
C05  39777104.078 6 207129818.739 6       -11.246          36.000    39777102.508 6 160165902.212 6        -8.669          41.000
C21  23426514.859 7 121988041.960 7     -2142.398          47.000
C24  24929081.367 6 129812283.623 6      3318.160          37.000
C26  21888197.453 8 113977666.921 8      1244.320          51.000
E01  25003045.664 6 131391855.181 6       925.352          39.000    25003041.906 5 100676877.145 5       709.089          32.000
E04  23804037.406 8 125091179.709 8      -738.426          51.000    23804038.266 8  95849034.357 8      -565.747          51.000
E31  26340014.008 7 138417749.106 7      3010.879          44.000    26340022.211 8 106060371.154 8      2307.160          51.000
> 2020 05 03 02 13 30.0000000  0 16        .000000000000
G02  22689769.719 7 119235548.061 7     -1334.148          42.000    22689769.227 6  92910807.420 6     -1039.596          38.000
G06  23136642.789 6 121583853.396 6     -3197.656          38.000    23136643.891 6  94740686.156 6     -2491.680          37.000
G07  20780115.422 8 109200234.482 8      -104.102          49.000    20780116.312 8  85091088.871 8       -81.118          49.000
G09  21731041.398 6 114197393.033 6     -2152.730          36.000    21731043.148 5  88985004.847 5     -1677.449          35.000
G30  21155589.391 7 111173434.379 7      2082.105          45.000    21155593.617 7  86628678.581 7      1622.417          46.000
R03  19523113.133 7 104508733.485 7        91.434          47.000    19523113.953 7  81284576.256 7        71.115          45.000
R12  21523038.078 5 114972185.042 5     -2968.496          33.000    21523049.781 4  89422848.612 4     -2308.830          29.000
R13  19685219.008 7 105117985.610 7      1175.250          43.000    19685221.938 7  81758402.150 7       914.083          44.000
R14  22176865.039 6 118215218.722 6      4292.957          41.000    22176865.336 5  91945121.499 5      3338.970          33.000
C05  39777175.062 6 207130188.783 6       -11.848          36.000    39777173.562 6 160166188.357 6        -9.122          41.000
C21  23438886.672 7 122052464.375 7     -2150.988          46.000
C24  24909983.609 6 129712844.140 6      3311.867          36.000
C26  21881079.859 8 113940604.315 8      1228.012          51.000
E01  24997809.406 6 131364339.154 6       910.336          39.000    24997804.820 5 100655803.423 5       697.874          33.000
E04  23808275.070 8 125113448.486 8      -744.652          51.000    23808275.766 8  95866097.444 8      -570.617          51.000
E31  26322843.602 7 138327521.533 7      3005.613          44.000    26322852.188 8 105991235.699 8      2303.023          51.000
> 2020 05 03 02 14  0.0000000  0 17        .000000000000
G02  22697424.797 7 119275770.416 7     -1348.059          44.000    22697423.594 6  92942149.504 6     -1050.438          39.000
G06  23154919.008 6 121679883.842 6     -3204.324          37.000    23154915.477 6  94815515.057 6     -2496.876          38.000
G07  20780749.445 8 109203567.229 8      -118.535          48.000    20780750.539 8  85093685.800 8       -92.365          48.000
G09  21743344.836 5 114262049.848 5     -2158.109          35.000    21743346.594 5  89035386.755 5     -1681.638          35.000
G30  21143738.938 8 111111157.279 8      2069.117          50.000    21143742.758 8  86580150.957 8      1612.299          50.000
R03  19522632.812 8 104506165.014 8        79.426          48.000    19522634.188 7  81282578.546 7        61.776          45.000
R12  21539759.633 6 115061517.209 6     -2986.047          36.000    21539769.633 4  89492340.409 4     -2322.481          27.000
R13  19678686.711 7 105083104.500 7      1149.711          42.000    19678689.875 7  81731272.426 7       894.220          43.000
R14  22152725.180 7 118086532.340 7      4285.617          43.000    22152726.430 5  91845032.139 5      3333.258          34.000
C05  39777238.289 6 207130517.085 6       -10.195          36.000    39777236.812 6 160166442.997 6        -7.923          41.000
C21  23451296.453 7 122117085.986 7     -2157.348          45.000
C24  24890909.266 6 129613518.478 6      3308.500          38.000
C26  21874044.734 8 113903972.902 8      1213.691          51.000
E01  24992648.062 6 131337216.391 6       897.594          40.000    24992643.461 6 100635021.055 6       687.539          36.000
E04  23812537.609 8 125135847.551 8      -748.902          51.000    23812538.242 8  95883260.364 8      -573.780          51.000
E11  26344684.086 5 138442248.200 5     -2943.004          32.000
E31  26305693.195 7 138237393.974 7      3002.355          45.000    26305700.945 8 105922176.889 8      2300.632          50.000
> 2020 05 03 02 14 30.0000000  0 18        .000000000000
G02  22705168.070 7 119316457.484 7     -1362.609          45.000    22705165.945 6  92973853.723 6     -1061.770          38.000
G06  23173241.438 6 121776155.558 6     -3211.789          39.000    23173234.094 6  94890531.936 6     -2502.693          38.000
G07  20781475.289 8 109207381.694 8      -133.918          48.000    20781476.531 8  85096658.117 8      -104.352          48.000
G09  21755688.711 5 114326917.071 5     -2164.910          35.000    21755691.602 5  89085932.698 5     -1686.943          35.000
G30  21131972.352 8 111049317.874 8      2055.211          51.000    21131974.891 8  86531964.418 8      1601.463          51.000
R02  21809127.609 5 116377699.924 5     -2738.969          31.000
R03  19522229.508 8 104504007.731 8        66.250          48.000    19522231.094 7  81280900.643 7        51.528          45.000
R12  21556586.906 5 115151405.694 5     -3003.840          35.000    21556594.133 4  89562225.671 4     -2336.317          27.000
R13  19672306.914 7 105049038.626 7      1123.020          42.000    19672310.516 7  81704776.762 7       873.460          44.000
R14  22128635.188 6 117958114.235 6      4277.184          41.000    22128635.664 5  91745151.395 5      3326.698          35.000
C05  39777302.406 6 207130850.611 6        -9.977          36.000    39777300.930 6 160166700.917 6        -7.929          41.000
C21  23463753.406 7 122181951.379 7     -2164.949          46.000
C24  24871867.453 6 129514353.528 6      3304.211          38.000
C26  21867101.125 8 113867818.297 8      1198.316          51.000
E01  24987568.539 6 131310532.753 6       883.227          38.000    24987568.133 6 100614575.184 6       676.896          39.000
E04  23816833.617 8 125158422.317 8      -754.230          51.000    23816834.250 8  95900557.902 8      -577.938          51.000
