     3.02           OBSERVATION DATA    M (MIXED)           RINEX VERSION / TYPE
SAVERINEX           SC600               20200508 125930 LCL PGM / RUN BY / DATE
       G = GPS       R = GLONASS       C = COMPASS          COMMENT
       S = SBAS      J = QZSS          E = GALILEO          COMMENT
BEAN                                                        MARKER NAME
1                                                           MARKER NUMBER
GEODETIC                                                    MARKER TYPE
Unige DICCA         GTER                                    OBSERVER / AGENCY
SC60291900056       SC600               2.12(191226)        REC # / TYPE / VERS
                    HEMA45          NONE                    ANT # / TYPE
  4509407.8091   693652.4678  4442337.6214                  APPROX POSITION XYZ
        0.0000        0.0000        0.0000                  ANTENNA: DELTA H/E/N
G    8 C1C L1C D1C S1C C2Y L2Y D2Y S2Y                      SYS / # / OBS TYPES
R    8 C1C L1C D1C S1C C2P L2P D2P S2P                      SYS / # / OBS TYPES
C    4 C1I L1I D1I S1I                                      SYS / # / OBS TYPES
E    8 C1C L1C D1C S1C C7Q L7Q D7Q S7Q                      SYS / # / OBS TYPES
DBHZ                                                        COMMENT
     30.000                                                 INTERVAL
  2020    05    08    10    00    0.0000000     GPS         TIME OF FIRST OBS
  2020    05    08    10    59   30.0000000     GPS         TIME OF LAST OBS
     0                                                      RCV CLOCK OFFS APPL
G L1C  0.00000                                              SYS / PHASE SHIFT
G L2Y  0.00000                                              SYS / PHASE SHIFT
R L1C  0.00000                                              SYS / PHASE SHIFT
R L2P  0.25000                                              SYS / PHASE SHIFT
C L1I  0.00000                                              SYS / PHASE SHIFT
E L1C  0.50000                                              SYS / PHASE SHIFT
E L7Q -0.25000                                              SYS / PHASE SHIFT
 12 R01  1 R02 -4 R03  5 R04  6 R10 -5 R11  0 R12 -1 R13 -2 GLONASS SLOT / FRQ #
    R14 -7 R17  4 R22 -3 R23  3                             GLONASS SLOT / FRQ #
 C1C   71.950 C2C   71.950 C2P   71.950                     GLONASS COD/PHS/BIS
    18                                                      LEAP SECONDS
*** Above antenna height is from mark to ANTENNA BOTTOM.    COMMENT
    17     4        0.0000        ANT MEASURE TYPE/HEIGT    COMMENT
    0.0000    0.0000    0.0458    0.0405    0.0000          COMMENT
                    BASE STATION                            COMMENT
                                                            END OF HEADER
> 2020 05 08 10 00  0.0000000  0 15        .000000000000
G12  20545799.078 8 107968903.278 8     -1374.531          51.000    20545797.953 8  84131605.158 8     -1071.066          51.000
G24  22422162.617 8 117829246.785 8     -3091.609          49.000    22422164.570 8  91815012.655 8     -2409.049          49.000
G25  20224191.969 6 106278866.433 6       547.902          36.000    20224197.312 5  82814710.598 5       426.934          32.000
G29  21816303.797 8 114645433.747 8      2878.887          51.000    21816301.930 8  89334124.500 8      2243.288          51.000
G32  22215060.688 5 116740949.444 5      -734.473          34.000
R14  19486170.625 8 103872258.667 8      -177.504          51.000    19486172.898 8  80789531.014 8      -138.059          49.000
R17  21498393.047 8 115042220.252 8      4082.473          48.000    21498397.148 7  89477296.957 7      3175.257          44.000
R23  20903772.383 4 111821074.708 4     -2631.344          28.000
R24  19677049.734 8 105222086.069 8       625.523          50.000    19677051.883 7  81839462.640 7       486.518          47.000
C27  22422706.164 6 116760960.019 6      -996.977          40.000
C30  22439915.992 8 116850611.079 8      2158.430          51.000
E13  24434207.969 8 128402652.695 8       984.227          48.000    24434206.562 7  98386468.202 7       754.151          44.000
E19  27745254.289 5 145802292.276 5     -2843.375          33.000
E21  23700559.602 8 124547261.699 8      -483.754          51.000    23700561.508 8  95432335.750 8      -370.687          51.000
E26  25314612.438 7 133029205.182 7      3064.074          45.000    25314616.180 7 101931461.763 7      2347.734          45.000
> 2020 05 08 10 00 30.0000000  0 15        .000000000000
G02  22943437.664 5 120568571.911 5       364.633          32.000
G06  23606408.719 5 124052519.018 5     -1006.230          32.000    23606408.828 5  96664323.129 5      -784.085          34.000
G12  20553648.492 8 108010152.266 8     -1384.371          51.000    20553647.547 8  84163747.209 8     -1078.731          51.000
G24  22439811.961 8 117921993.465 8     -3100.426          48.000    22439812.539 8  91887282.755 8     -2415.916          48.000
G25  20221072.656 5 106262473.710 5       536.012          35.000    20221076.031 5  82801937.001 5       417.675          34.000
G29  21799878.250 8 114559117.821 8      2866.551          50.000    21799875.648 8  89266865.360 8      2233.676          50.000
R14  19487184.227 8 103877662.035 8      -191.797          51.000    19487187.016 8  80793733.618 8      -149.175          50.000
R17  21475513.406 8 114919789.437 8      4070.395          48.000    21475516.688 7  89382073.018 7      3165.865          42.000
R24  19673592.125 8 105203598.040 8       597.938          51.000    19673594.648 8  81825083.065 8       465.062          48.000
C27  22428470.141 6 116790973.426 6     -1012.574          40.000
C30  22427492.227 8 116785919.987 8      2145.395          51.000
E13  24428604.500 7 128373207.595 7       969.668          47.000    24428604.617 7  98363906.387 7       743.100          46.000
E19  27761466.938 5 145887485.141 5     -2845.844          33.000
E21  23703312.391 8 124561727.526 8      -489.602          51.000    23703314.250 8  95443419.949 8      -375.131          51.000
E26  25297106.312 7 132937211.562 7      3059.746          45.000    25297110.773 7 101860973.141 7      2344.603          44.000
> 2020 05 08 10 01  0.0000000  0 15        .000000000000
G02  22941398.047 5 120557854.985 5       351.523          32.000
G06  23612201.117 5 124082951.937 5     -1021.516          34.000    23612201.484 5  96688038.564 5      -795.992          35.000
G12  20561572.016 8 108051790.801 8     -1390.367          51.000    20561571.227 8  84196192.811 8     -1083.403          51.000
G24  22457529.406 7 118015100.629 7     -3105.625          45.000    22457529.742 7  91959833.758 7     -2419.971          45.000
G25  20218036.227 6 106246519.627 6       528.355          37.000    20218038.977 6  82789505.333 6       411.709          36.000
G29  21783540.836 8 114473266.437 8      2858.035          49.000    21783538.008 8  89199968.218 8      2227.043          49.000
R14  19488295.875 8 103883589.369 8      -202.238          51.000    19488298.914 8  80798343.748 8      -157.296          49.000
R17  21452721.812 8 114797824.797 8      4061.852          51.000    21452723.281 7  89287211.670 7      3159.221          42.000
R24  19670307.664 8 105186035.259 8       574.230          49.000    19670310.180 8  81811423.095 8       446.624          48.000
C27  22434342.477 6 116821553.357 6     -1024.609          39.000
C30  22415161.617 8 116721715.288 8      2135.992          50.000
E13  24423101.641 7 128344291.911 7       959.047          46.000    24423103.219 7  98341750.228 7       734.881          46.000
E19  27777708.117 5 145972841.199 5     -2843.320          33.000
E21  23706116.680 8 124576463.000 8      -491.582          51.000    23706118.422 8  95454710.760 8      -376.667          51.000
E26  25279643.062 7 132845441.718 7      3059.363          44.000    25279647.867 6 101790656.011 6      2343.951          41.000
> 2020 05 08 10 01 30.0000000  0 15        .000000000000
G06  23618096.852 5 124113931.885 5     -1041.035          33.000    23618100.883 5  96712178.765 5      -811.193          32.000
G12  20569546.836 8 108093698.444 8     -1400.723          51.000    20569546.109 8  84228848.119 8     -1091.469          51.000
G24  22475291.445 7 118108447.184 7     -3114.906          43.000    22475293.102 7  92032571.351 7     -2427.200          43.000
G25  20215061.273 6 106230885.147 6       516.516          39.000    20215065.133 6  82777322.611 6       402.480          39.000
G29  21767269.719 8 114387762.256 8      2845.055          50.000    21767267.539 8  89133341.622 8      2216.926          50.000
G32  22228073.609 6 116809328.758 6      -788.016          36.000
R14  19489483.469 8 103889920.630 8      -217.082          51.000    19489486.188 8  80803268.056 8      -168.839          49.000
R17  21429995.602 8 114676208.607 8      4048.695          51.000    21429996.594 7  89192621.377 7      3148.988          43.000
R24  19667173.578 8 105169276.799 8       545.832          49.000    19667176.359 8  81798388.729 8       424.536          48.000
C27  22440301.656 6 116852580.596 6     -1041.012          40.000
C30  22402902.023 8 116657880.162 8      2122.359          49.000
E13  24417677.031 7 128315787.126 7       943.980          46.000    24417679.586 7  98319908.879 7       723.283          47.000
E19  27793954.742 5 146058211.595 5     -2845.383          32.000    27793965.891 5 111914774.268 5     -2180.088          34.000
E21  23708949.664 8 124591349.071 8      -498.023          51.000    23708951.258 8  95466116.969 8      -381.584          51.000
E26  25262199.930 6 132753778.296 6      3054.324          41.000    25262205.188 5 101720420.404 5      2340.563          34.000
> 2020 05 08 10 02  0.0000000  0 14        .000000000000
G12  20577587.375 8 108135951.498 8     -1415.285          51.000    20577586.672 8  84261772.572 8     -1102.820          51.000
G24  22493114.180 7 118202108.158 7     -3128.398          46.000    22493116.523 7  92105553.954 7     -2437.713          46.000
G25  20212162.234 6 106215647.420 6       500.340          40.000    20212166.422 6  82765449.048 6       389.875          40.000
G29  21751080.062 8 114302684.353 8      2827.750          51.000    21751078.938 8  89067047.181 8      2203.442          51.000
G32  22232642.727 6 116833330.856 6      -811.555          37.000
R14  19490762.086 8 103896735.304 8      -236.375          51.000    19490764.422 8  80808568.365 8      -183.847          49.000
R17  21407349.461 8 114555023.410 8      4031.141          50.000    21407350.492 7  89098366.291 7      3135.335          44.000
R24  19664204.531 8 105153401.595 8       513.293          49.000    19664207.367 7  81786041.343 7       399.228          47.000
C27  22446359.586 6 116884130.215 6     -1061.309          38.000
C30  22390728.734 8 116594492.434 8      2104.363          51.000
E13  24412345.555 7 128287771.048 7       924.625          46.000    24412349.039 8  98298442.023 8       708.410          49.000
E19                                                                  27810230.523 5 111980267.018 5     -2185.320          35.000
E21  23711825.906 8 124606463.169 8      -508.699          51.000    23711827.484 8  95477697.905 8      -389.794          51.000
E26  25244791.625 6 132662300.335 6      3045.133          39.000    25244791.297 5 101650319.245 5      2333.071          31.000
> 2020 05 08 10 02 30.0000000  0 14        .000000000000
G06  23630242.211 5 124177760.092 5     -1083.367          31.000
G12  20585694.484 8 108178554.111 8     -1424.547          51.000    20585693.688 8  84294969.420 8     -1110.037          51.000
G24  22510998.242 8 118296087.563 8     -3136.641          49.000    22511000.234 8  92178784.615 8     -2444.139          48.000
G25  20209339.320 6 106200811.411 6       489.340          38.000    20209342.344 6  82753888.463 6       381.304          38.000
G29  21734972.977 8 114218039.138 8      2815.602          51.000    21734972.578 8  89001089.889 8      2193.975          51.000
R14  19492132.211 8 103904039.086 8      -250.238          51.000    19492134.930 8  80814249.070 8      -194.630          49.000
R17  21384785.031 8 114434278.277 8      4018.863          50.000    21384786.336 7  89004453.442 7      3125.783          45.000
R24  19661402.078 8 105138414.974 8       486.141          49.000    19661404.734 7  81774385.063 7       378.109          47.000
C27  22452519.133 6 116916205.769 6     -1076.605          41.000
C30  22378642.961 8 116531558.358 8      2091.582          51.000
E13  24407108.477 7 128260249.283 7       910.590          47.000    24407112.555 8  98277353.923 8       697.677          49.000
E19                                                                  27826515.367 5 112045841.146 5     -2186.161          35.000
E21  23714746.352 8 124621810.394 8      -514.090          51.000    23714748.062 8  95489457.458 8      -393.907          51.000
E26  25227420.203 6 132571014.664 6      3041.051          37.000    25227418.141 6 101580373.126 6      2330.234          39.000
> 2020 05 08 10 03  0.0000000  0 16        .000000000000
G02  22934201.648 5 120520042.865 5       280.453          34.000
G06  23636432.188 5 124210285.842 5     -1099.543          32.000
G12  20593806.281 8 108221181.337 8     -1432.188          51.000    20593805.297 8  84328185.428 8     -1115.990          51.000
G24  22528880.984 8 118390058.312 8     -3143.066          50.000    22528882.492 8  92252008.498 8     -2449.146          50.000
G25  20206530.539 6 106186052.667 6       479.734          37.000    20206532.547 6  82742388.131 6       373.816          37.000
G29  21718886.766 8 114133504.049 8      2805.117          51.000    21718886.805 8  88935218.396 8      2185.806          51.000
R14  19493532.383 8 103911504.071 8      -262.539          51.000    19493535.539 8  80820055.155 8      -204.197          49.000
R17  21362241.742 8 114313646.692 8      4008.133          50.000    21362243.539 7  88910628.876 7      3117.437          46.000
R23  20994392.211 5 112305816.812 5     -2757.863          32.000
R24  19658704.039 8 105123987.302 8       460.574          49.000    19658706.812 7  81763163.541 7       358.224          47.000
C27  22458717.547 6 116948484.564 6     -1089.980          40.000
C30  22366582.750 8 116468757.766 8      2080.371          51.000
E13  24401903.914 7 128232898.125 7       898.102          47.000    24401908.227 8  98256396.514 8       688.138          49.000
E19                                                                  27842758.539 5 112111246.545 5     -2185.912          34.000
E21  23717649.516 8 124637066.625 8      -517.801          51.000    23717651.195 8  95501147.280 8      -396.750          51.000
E26                                                                  25210024.539 7 101510327.193 7      2328.288          43.000
> 2020 05 08 10 03 30.0000000  0 15        .000000000000
G02  22932657.656 5 120511966.078 5       260.188          34.000
G06  23642789.164 5 124243694.435 5     -1122.562          31.000
G12  20602032.078 8 108264407.753 8     -1445.395          51.000    20602030.859 8  84361868.333 8     -1126.281          51.000
G24  22546871.477 8 118484595.410 8     -3155.105          51.000    22546872.844 8  92325673.703 8     -2458.527          51.000
G25  20203846.422 6 106171946.602 6       465.121          40.000    20203848.141 6  82731396.404 6       362.432          39.000
G29  21702931.047 8 114049656.166 8      2788.973          51.000    21702931.320 8  88869882.367 8      2173.225          51.000
R14  19495072.508 8 103919714.811 8      -280.527          51.000    19495075.742 8  80826441.268 8      -218.188          49.000
R17  21339830.188 8 114193718.456 8      3991.371          49.000    21339832.578 7  88817351.355 7      3104.400          47.000
R24  19656220.219 8 105110704.066 8       429.391          50.000    19656222.781 7  81752832.137 7       333.970          46.000
C27  22465064.648 6 116981535.363 6     -1108.988          41.000
C30  22354657.781 8 116406662.082 8      2063.578          51.000
E13  24396840.836 7 128206293.484 7       879.797          46.000    24396845.422 8  98236011.128 8       674.181          49.000
E19                                                                  27859069.141 5 112176922.467 5     -2189.265          34.000
E21  23720644.867 8 124652807.375 8      -527.289          51.000    23720646.562 8  95513208.357 8      -404.063          51.000
E26  25192706.031 5 132388563.002 5      3030.426          35.000    25192715.805 7 101440623.689 7      2321.973          46.000
> 2020 05 08 10 04  0.0000000  0 15        .000000000000
G02  22931204.156 5 120504335.230 5       248.926          33.000    22931197.914 4  93899421.311 4       193.968          29.000
G12  20610294.297 8 108307825.908 8     -1449.070          51.000    20610292.938 8  84395700.644 8     -1129.146          51.000
G24  22564891.891 8 118579290.035 8     -3157.652          51.000    22564893.062 8  92399461.691 8     -2460.508          51.000
G25  20201209.633 6 106158086.979 6       459.398          41.000    20201210.945 6  82720596.668 6       357.973          41.000
G29  21687028.906 8 113966090.563 8      2782.230          50.000    21687029.039 8  88804766.298 8      2167.972          50.000
R14  19496675.562 8 103928259.932 8      -288.949          51.000    19496678.609 8  80833087.467 8      -224.738          49.000
R17  21317474.172 8 114074083.734 8      3984.270          50.000    21317476.344 7  88724302.131 7      3098.876          47.000
R23  21025581.398 5 112472667.815 5     -2795.664          30.000
R24  19653873.312 8 105098152.072 8       407.691          51.000    19653875.469 7  81743069.489 7       317.093          46.000
C27  22471482.539 7 117014954.193 7     -1118.832          42.000
C30  22342791.281 8 116344869.970 8      2056.016          51.000
E13  24391842.875 7 128180029.679 7       871.090          47.000    24391847.367 8  98215886.902 8       667.452          48.000
E19                                                                  27875369.828 5 112242555.952 5     -2186.259          32.000
E21  23723655.008 8 124668626.543 8      -527.270          51.000    23723657.031 8  95525329.518 8      -404.003          51.000
E26  25175404.234 6 132297636.511 6      3031.488          41.000    25175414.477 8 101370952.732 8      2322.814          48.000
> 2020 05 08 10 04 30.0000000  0 13        .000000000000
G12  20618591.820 8 108351429.947 8     -1464.039          51.000    20618590.391 8  84429677.797 8     -1140.813          51.000
G24  22582940.758 8 118674135.615 8     -3171.469          50.000    22582941.992 8  92473367.317 8     -2471.274          50.000
G25  20198618.000 6 106144468.619 6       442.234          38.000    20198619.258 6  82709984.957 6       344.598          38.000
G29  21671179.625 8 113882803.868 8      2764.027          49.000    21671178.992 8  88739867.562 8      2153.784          49.000
R14  19498340.672 8 103937135.452 8      -309.000          51.000    19498343.680 8  80839990.641 8      -240.333          49.000
R17  21295172.453 8 113954740.903 8      3965.457          49.000    21295174.445 7  88631479.974 7      3084.244          47.000
R24  19651662.148 8 105086326.229 8       374.363          51.000    19651664.109 7  81733871.642 7       291.171          46.000
C27  22477969.836 7 117048734.582 7     -1139.512          43.000
C30  22330982.508 8 116283377.655 8      2037.219          51.000
E13  24386908.992 7 128154102.211 7       851.070          47.000    24386914.039 8  98196020.387 8       652.149          48.000
E19                                                                  27891659.570 5 112308152.498 5     -2191.297          31.000
E21  23726679.180 8 124684519.248 8      -538.621          51.000    23726681.383 8  95537507.032 8      -412.665          51.000
E26  25158110.859 7 132206749.233 7      3021.500          45.000    25158120.109 8 101301311.838 8      2315.020          49.000
> 2020 05 08 10 05  0.0000000  0 13        .000000000000
G12  20626963.875 8 108395425.818 8     -1469.504          50.000    20626962.438 8  84463960.290 8     -1145.068          50.000
G24  22601056.898 8 118769336.969 8     -3175.785          49.000    22601058.234 8  92547550.192 8     -2474.638          49.000
G25  20196111.047 6 106131298.230 6       435.211          38.000    20196112.672 6  82699722.366 6       339.125          38.000
G29  21655422.953 8 113800004.500 8      2755.332          49.000    21655420.891 8  88675348.596 8      2147.012          49.000
R14  19500107.266 8 103946551.815 8      -319.371          51.000    19500110.398 8  80847314.469 8      -248.400          49.000
R17  21272964.492 7 113835904.513 7      3956.324          47.000    21272967.156 7  88539051.711 7      3077.141          46.000
R24  19649625.961 8 105075437.128 8       351.008          51.000    19649627.883 7  81725402.383 7       273.006          46.000
C27  22484565.766 7 117083080.016 7     -1150.805          44.000
C30  22319270.961 8 116222391.261 8      2027.992          51.000
E13  24382078.445 7 128128718.396 7       840.727          47.000    24382083.664 7  98176570.468 7       644.091          46.000
E19                                                                  27907976.578 5 112373855.937 5     -2188.959          31.000
E21  23729756.758 8 124700692.426 8      -540.133          51.000    23729758.945 8  95549899.463 8      -413.913          51.000
E26  25140864.555 7 132116109.784 7      3020.660          46.000    25140872.570 8 101231860.859 8      2314.589          49.000
> 2020 05 08 10 05 30.0000000  0 14        .000000000000
G12  20635364.945 8 108439573.904 8     -1476.859          49.000    20635363.453 8  84498361.380 8     -1150.800          49.000
G24  22619194.570 7 118864654.370 7     -3181.852          45.000    22619196.680 7  92621823.490 7     -2479.365          45.000
G25  20193644.656 7 106118337.229 7       425.734          42.000    20193646.219 7  82689622.853 7       331.741          42.000
G29  21639714.289 8 113717455.534 8      2744.770          51.000    21639711.125 8  88611024.781 8      2138.784          50.000
G32  22267559.055 5 117016825.053 5      -936.684          35.000
R14  19501930.023 8 103956267.869 8      -331.711          51.000    19501932.984 8  80854871.390 8      -257.997          49.000
R17  21250805.758 7 113717335.464 7      3944.918          46.000    21250809.695 7  88446831.348 7      3068.266          46.000
R24  19647719.680 8 105065242.122 8       325.465          51.000    19647721.188 7  81717472.944 7       253.139          46.000
C27  22491224.328 7 117117752.629 7     -1163.938          44.000
C30  22307611.125 8 116161675.527 8      2016.582          51.000
E13  24377306.461 7 128103640.156 7       828.023          47.000    24377310.852 7  98157354.670 7       634.382          45.000
E19                                                                  27924274.625 4 112439481.938 4     -2188.352          29.000
E21  23732842.344 8 124716907.638 8      -544.043          51.000    23732844.453 8  95562324.088 8      -416.864          51.000
E26  25123619.867 7 132025481.347 7      3017.980          47.000    25123626.734 8 101162418.316 8      2312.446          48.000
> 2020 05 08 10 06  0.0000000  0 14        .000000000000
G02  22926323.234 5 120478664.908 5       176.969          35.000
G12  20643844.773 8 108484135.830 8     -1490.668          48.000    20643843.320 8  84533084.945 8     -1161.562          48.000
G24  22637403.375 7 118960347.868 7     -3194.301          44.000    22637406.812 7  92696389.832 7     -2489.066          44.000
G25  20191268.477 7 106105848.299 7       409.961          43.000    20191270.289 7  82679891.170 7       319.447          43.000
G29  21624103.938 8 113635421.113 8      2727.484          51.000    21624101.430 8  88547101.909 8      2125.316          51.000
G32  22272978.688 4 117045306.698 4      -959.250          29.000
R14  19503859.203 8 103966551.095 8      -350.605          51.000    19503862.242 8  80862869.446 8      -272.693          49.000
R17  21228748.562 7 113599304.918 7      3926.941          46.000    21228753.148 7  88355029.810 7      3054.288          46.000
R24  19645992.867 8 105056008.077 8       293.402          51.000    19645993.945 7  81710290.938 7       228.202          46.000
C27  22497995.789 7 117153011.245 7     -1183.457          44.000
C30  22296053.406 8 116101491.973 8      1998.793          50.000
E13  24372642.484 7 128079130.678 7       808.926          45.000    24372646.539 7  98138574.686 7       619.976          43.000
E21  23735985.930 8 124733427.730 8      -554.160          51.000    23735988.047 8  95574982.333 8      -424.631          51.000
E26  25106427.273 7 131935128.428 7      3008.734          47.000    25106432.664 7 101093186.882 7      2305.328          47.000
> 2020 05 08 10 06 30.0000000  0 14        .000000000000
G02  22925355.531 5 120473568.319 5       163.379          35.000    22925360.797 5  93875503.876 5       127.311          35.000
G12  20652374.906 8 108528962.070 8     -1497.242          48.000    20652373.602 8  84568014.481 8     -1166.682          49.000
G24  22655655.398 7 119056267.348 7     -3199.734          45.000    22655659.195 7  92771132.260 7     -2493.303          45.000
G25  20188953.406 7 106093682.543 7       401.516          43.000    20188955.953 7  82670411.337 7       312.869          43.000
G29  21608563.586 8 113553753.877 8      2717.461          51.000    21608562.258 8  88483465.127 8      2117.502          51.000
G32  22278494.070 5 117074289.679 5      -974.266          34.000
R14  19505866.672 8 103977251.398 8      -362.352          51.000    19505869.359 8  80871191.904 8      -281.829          48.000
R17  21206765.141 8 113481665.183 8      3916.125          48.000    21206769.781 7  88263532.257 7      3045.875          46.000
R24  19644417.492 8 105047583.912 8       268.723          51.000    19644418.586 7  81703738.828 7       209.007          47.000
C27  22504850.984 7 117188707.041 7     -1195.707          42.000
C30  22284569.594 8 116041694.413 8      1988.164          50.000
E13  24368058.062 7 128055041.685 7       797.387          45.000    24368061.891 7  98120116.991 7       610.946          42.000
E21  23739159.312 8 124750104.146 8      -557.082          51.000    23739161.336 8  95587760.362 8      -426.867          51.000
E26  25089258.664 7 131844904.106 7      3006.672          47.000    25089262.398 7 101024054.005 7      2303.787          46.000
> 2020 05 08 10 07  0.0000000  0 14        .000000000000
G12  20660971.641 8 108574137.930 8     -1517.887          49.000    20660970.477 8  84603216.441 8     -1182.769          49.000
G24  22673967.008 7 119152497.252 7     -3218.980          46.000    22673969.750 7  92846116.487 7     -2508.303          45.000
G25  20186716.008 7 106081926.133 7       378.844          42.000    20186718.812 7  82661250.516 7       295.203          42.000
G29  21593109.484 8 113472541.794 8      2693.219          51.000    21593109.641 8  88420182.961 8      2098.612          50.000
G32  22284122.289 5 117103922.162 5     -1004.664          35.000    22284134.836 4  91249806.879 4      -782.855          29.000
R14  19507968.867 8 103988457.107 8      -388.316          51.000    19507971.164 8  80879907.452 8      -302.024          48.000
R17  21184872.109 8 113364507.968 8      3890.773          48.000    21184876.375 7  88172409.983 7      3026.157          46.000
R24  19643009.570 8 105040056.985 8       229.582          51.000    19643010.867 7  81697884.557 7       178.564          47.000
C27  22511805.344 6 117224923.879 6     -1222.016          39.000
C30  22273176.672 8 115982369.326 8      1963.316          51.000
E13  24363570.688 7 128031459.932 7       771.191          45.000    24363573.367 7  98102047.885 7       590.922          42.000
E21  23742378.953 8 124767023.223 8      -574.254          51.000    23742380.820 8  95600724.320 8      -439.980          51.000
E26  25072130.602 7 131754896.348 7      2990.312          46.000    25072132.898 7 100955087.057 7      2291.299          45.000
E27  26761943.258 5 140634925.374 5     -2181.066          34.000
> 2020 05 08 10 07 30.0000000  0 14        .000000000000
G02  22923708.336 6 120464908.493 6       146.059          37.000    22923701.250 5  93868743.049 5       113.803          31.000
G06  23697272.820 5 124529993.062 5     -1249.363          35.000    23697280.008 5  97036390.679 5      -973.527          34.000
G12  20669597.984 8 108619468.923 8     -1499.059          49.000    20669596.859 8  84638539.301 8     -1168.098          49.000
G24  22692301.234 7 119248842.354 7     -3198.742          47.000    22692303.922 7  92921190.522 7     -2492.526          46.000
G25  20184519.625 7 106070385.372 7       395.566          43.000    20184521.766 7  82652257.733 7       308.231          43.000
G29  21577704.469 8 113391592.612 8      2708.352          48.000    21577706.406 8  88357105.638 8      2110.401          48.000
R14  19510129.164 8 103999972.393 8      -374.199          50.000    19510131.312 8  80888863.783 8      -291.044          48.000
R17  21163032.273 7 113247639.645 7      3905.730          46.000    21163036.750 7  88081512.404 7      3037.787          45.000
R24  19641732.836 8 105033230.146 8       230.781          51.000    19641734.164 7  81692574.779 7       179.500          47.000
C27  22518822.734 6 117261468.409 6     -1208.965          37.000
C30  22261838.430 8 115923325.942 8      1977.867          51.000
E13  24359142.898 7 128008192.113 7       784.879          44.000    24359144.367 6  98084219.298 6       601.461          41.000
E21  23745608.039 8 124783991.438 8      -551.836          51.000    23745609.797 8  95613725.929 8      -422.820          51.000
E26  25055006.438 7 131664913.257 7      3013.500          46.000    25055008.836 7 100886139.032 7      2309.066          46.000
> 2020 05 08 10 08  0.0000000  0 14        .000000000000
G02  22923007.320 5 120461236.285 5       108.488          31.000
G06  23704539.266 6 124568173.992 6     -1288.004          36.000    23704545.719 6  97066141.979 6     -1003.645          36.000
G12  20678264.344 8 108665010.092 8     -1528.918          49.000    20678263.219 8  84674025.946 8     -1191.365          49.000
G24  22710667.516 7 119345356.571 7     -3227.301          45.000    22710670.734 7  92996396.382 7     -2514.780          45.000
G25  20182375.188 7 106059116.253 7       363.672          43.000    20182377.164 7  82643476.592 7       283.378          43.000
G29  21562360.672 8 113310963.982 8      2674.945          49.000    21562362.922 8  88294278.092 8      2084.373          49.000
R14  19512358.469 8 104011855.404 8      -409.652          50.000    19512360.875 8  80898106.121 8      -318.618          48.000
R17  21141256.305 7 113131121.397 7      3870.551          43.000    21141262.727 7  87990887.096 7      3010.428          45.000
R24  19640597.445 8 105027160.399 8       182.277          51.000    19640599.281 7  81687853.875 7       141.771          47.000
C27  22525912.227 5 117298394.645 5     -1244.672          31.000
C30  22250565.312 8 115864621.025 8      1943.941          51.000
E13  24354785.758 7 127985294.720 7       749.793          46.000    24354786.664 7  98066674.534 7       574.526          43.000
E21  23748857.133 8 124801065.081 8      -578.148          51.000    23748858.898 8  95626808.323 8      -443.024          51.000
E26  25037898.523 8 131575012.751 8      2988.008          48.000    25037901.688 8 100817254.254 8      2289.495          48.000
> 2020 05 08 10 08 30.0000000  0 15        .000000000000
G02  22922429.156 6 120458201.687 6        89.820          36.000    22922425.961 4  93863533.160 4        69.969          29.000
G06  23711937.672 5 124607050.896 5     -1308.332          34.000    23711943.430 5  97096435.644 5     -1019.480          35.000
G12  20687011.352 8 108710975.245 8     -1539.637          49.000    20687010.102 8  84709842.945 8     -1199.717          49.000
G24  22729106.156 7 119442252.325 7     -3236.547          44.000    22729110.055 7  93071899.547 7     -2521.985          44.000
G25  20180323.523 7 106048333.075 7       350.836          44.000    20180325.562 7  82635074.125 7       273.379          44.000
G29  21547120.031 8 113230871.735 8      2660.398          50.000    21547120.352 8  88231868.593 8      2073.041          50.000
G32  22301606.086 5 117195776.025 5     -1052.480          34.000
R14  19514697.516 8 104024324.049 8      -425.762          50.000    19514699.883 8  80907803.953 8      -331.148          48.000
R17  21119587.953 7 113015175.009 7      3854.836          42.000    21119595.453 7  87900706.588 7      2998.206          44.000
R24  19639644.562 8 105022065.288 8       153.152          51.000    19639646.695 7  81683891.011 7       119.118          47.000
C27  22533118.445 6 117335913.487 6     -1260.773          36.000
C30  22239398.031 8 115806468.070 8      1928.777          51.000
E13  24350540.422 7 127962982.624 7       733.480          47.000    24350541.477 7  98049578.248 7       562.029          45.000
E21  23752167.148 8 124818458.676 8      -585.543          51.000    23752168.742 8  95640135.880 8      -448.687          51.000
E26  25020848.133 8 131485410.924 8      2981.312          49.000    25020851.898 8 100748598.307 8      2284.406          50.000
> 2020 05 08 10 09  0.0000000  0 13        .000000000000
G12  20695833.086 8 108757333.770 8     -1549.023          49.000    20695831.609 8  84745966.464 8     -1207.031          49.000
G24  22747611.242 7 119539498.253 7     -3244.520          43.000    22747615.516 7  93147675.622 7     -2528.194          43.000
G25  20178358.578 7 106038006.199 7       339.543          44.000    20178360.617 7  82627027.200 7       264.579          45.000
G29  21531976.477 8 113151287.728 8      2647.152          51.000    21531974.922 8  88169855.163 8      2062.719          51.000
G32  22307671.938 5 117227655.931 5     -1070.422          35.000
R14  19517141.102 8 104037349.159 8      -440.637          51.000    19517143.445 8  80917934.583 8      -342.714          48.000
R17  21098022.531 7 112899774.041 7      3840.410          44.000    21098029.805 7  87810950.316 7      2986.986          44.000
R24  19638867.961 8 105017914.617 8       125.434          51.000    19638870.500 7  81680662.732 7        97.559          47.000
C27  22540431.570 4 117373994.255 4     -1276.012          27.000
C30  22228331.281 8 115748838.868 8      1915.039          51.000
E13  24346400.867 8 127941226.572 8       718.730          49.000    24346402.102 7  98032908.014 7       550.760          45.000
E21  23755532.438 8 124836142.728 8      -591.531          51.000    23755533.969 8  95653685.993 8      -453.272          51.000
E26  25003849.672 8 131396079.907 8      2975.945          51.000    25003853.477 8 100680149.878 8      2280.291          50.000
> 2020 05 08 10 09 30.0000000  0 13        .000000000000
G02  22921578.438 5 120453710.163 5        59.613          33.000    22921578.742 4  93860018.962 4        46.443          29.000
G12  20704677.992 8 108803814.417 8     -1553.480          49.000    20704676.328 8  84782185.121 8     -1210.504          49.000
G24  22766130.922 7 119636822.618 7     -3247.320          43.000    22766135.969 7  93223512.796 7     -2530.379          43.000
G25  20176428.711 7 106027865.189 7       332.789          44.000    20176430.562 7  82619125.123 7       259.316          44.000
G29  21516878.406 8 113071943.143 8      2638.863          51.000    21516876.562 8  88108028.258 8      2056.260          51.000
G32  22313812.977 5 117259871.380 5     -1083.754          34.000
R14  19519637.828 8 104050657.401 8      -450.414          51.000    19519640.125 8  80928285.417 8      -350.322          48.000
R17  21076508.797 8 112784646.998 8      3830.742          48.000    21076515.484 7  87721407.077 7      2979.466          44.000
R24  19638216.742 8 105014432.715 8       102.938          50.000    19638219.594 7  81677954.602 7        80.062          46.000
C30  22217313.844 8 115691466.610 8      1906.152          51.000
E13  24342315.836 8 127919756.617 8       708.789          49.000    24342316.750 7  98016457.001 7       543.146          46.000
E21  23758901.539 8 124853847.107 8      -592.566          51.000    23758903.258 8  95667251.664 8      -454.074          51.000
E26  24986851.797 8 131306751.165 8      2975.500          51.000    24986855.328 8 100611703.192 8      2279.887          51.000
> 2020 05 08 10 10  0.0000000  0 14        .000000000000
G06  23734788.266 5 124727145.807 5     -1338.289          32.000
G12  20713599.188 8 108850696.113 8     -1543.566          48.000    20713597.352 8  84818716.310 8     -1202.779          49.000
G24  22784719.078 7 119734503.610 7     -3236.133          44.000    22784724.203 7  93299627.880 7     -2521.662          44.000
G25  20174587.430 7 106018189.660 7       340.582          43.000    20174589.055 7  82611585.728 7       265.389          43.000
G29  21501878.766 8 112993118.955 8      2644.617          51.000    21501877.547 8  88046606.815 8      2060.741          51.000
G32  22320076.781 5 117292807.402 5     -1082.254          31.000
R14  19522241.133 8 104064533.116 8      -445.707          51.000    19522243.445 8  80939077.642 8      -346.661          49.000
R17  21055100.852 8 112670082.082 8      3835.688          50.000    21055106.086 7  87632301.048 7      2983.312          44.000
R24  19637743.578 8 105011903.988 8        94.695          51.000    19637746.508 7  81675987.818 7        73.652          47.000
C27  22555310.477 5 117451407.567 5     -1282.047          33.000
C30  22206398.992 8 115634629.484 8      1911.191          51.000
E13  24338338.336 8 127898852.758 8       713.293          48.000    24338339.125 7  98000439.782 7       546.492          46.000
E21  23762327.727 8 124871851.587 8      -579.277          51.000    23762329.672 8  95681047.295 8      -443.868          51.000
E26  24969907.836 8 131217706.139 8      2989.309          51.000    24969911.008 8 100543473.896 8      2290.473          50.000
> 2020 05 08 10 10 30.0000000  0 12        .000000000000
G06  23742559.031 6 124767969.830 6     -1379.371          37.000    23742558.922 6  97221795.273 6     -1074.832          36.000
G12  20722510.234 8 108897524.686 8     -1574.684          48.000    20722508.141 8  84855206.095 8     -1227.026          48.000
G24  22803288.562 7 119832085.357 7     -3265.754          45.000    22803293.594 7  93375665.601 7     -2544.743          45.000
G25  20172748.477 7 106008526.666 7       307.309          43.000    20172749.984 7  82604056.086 7       239.458          43.000
G29  21486891.516 8 112914363.902 8      2609.336          50.000    21486891.523 8  87985239.195 8      2033.246          50.000
R14  19524864.641 8 104078517.852 8      -482.902          51.000    19524867.102 8  80949954.637 8      -375.591          49.000
R17  21033712.656 8 112555622.080 8      3798.586          51.000    21033716.062 7  87543276.624 7      2954.456          44.000
R24  19637362.781 8 105009867.079 8        44.824          50.000    19637365.938 7  81674403.560 7        34.863          47.000
C30  22195500.609 8 115577879.835 8      1875.598          51.000
E13  24334382.195 7 127878062.560 7       676.391          47.000    24334383.023 7  97984509.646 7       518.285          46.000
E21  23765724.805 8 124889703.522 8      -607.273          51.000    23765726.922 8  95694726.033 8      -465.307          51.000
E26  24952931.734 8 131128493.747 8      2961.762          51.000    24952934.430 8 100475116.357 8      2269.480          50.000
> 2020 05 08 10 11  0.0000000  0 15        .000000000000
G06  23750483.992 6 124809606.515 6     -1396.926          38.000    23750485.492 6  97254239.431 6     -1088.514          36.000
G12  20731524.484 7 108944895.634 7     -1583.711          46.000    20731522.523 7  84892118.502 7     -1234.060          46.000
G24  22821952.633 7 119930163.240 7     -3273.195          45.000    22821957.289 7  93452089.942 7     -2550.542          45.000
G25  20171025.227 7 105999472.404 7       295.785          42.000    20171026.641 7  82597000.815 7       230.482          42.000
G29  21472031.531 8 112836275.673 8      2596.156          51.000    21472032.062 8  87924391.217 8      2022.979          51.000
G32  22332848.156 5 117359918.305 5     -1140.504          32.000
R14  19527622.117 8 104093217.147 8      -497.539          51.000    19527624.602 8  80961387.418 8      -386.978          49.000
R17  21012458.031 8 112441877.952 8      3783.859          51.000    21012459.656 7  87454809.003 7      2943.005          45.000
R23  21256130.500 5 113705977.138 5     -3071.336          30.000
R24  19637187.141 8 105008928.289 8        17.285          51.000    19637189.930 7  81673673.400 7        13.444          46.000
C27  22570417.719 5 117530068.847 5     -1332.988          35.000
C30  22184732.281 8 115521809.564 8      1861.879          50.000
E13  24330561.156 7 127857982.641 7       661.738          46.000    24330561.820 7  97969123.764 7       507.025          45.000
E21  23769206.281 8 124907999.341 8      -612.977          51.000    23769208.578 8  95708744.892 8      -469.683          51.000
E26  24936037.203 8 131039712.014 8      2956.434          51.000    24936039.281 7 100407088.831 7      2265.331          47.000
> 2020 05 08 10 11 30.0000000  0 16        .000000000000
G02  22921008.867 5 120450738.987 5       -10.074          35.000
G06  23758512.680 5 124851793.991 5     -1415.039          35.000    23758513.375 5  97287112.779 5     -1102.631          35.000
G12  20740592.469 7 108992548.421 7     -1592.445          47.000    20740591.055 7  84929250.518 7     -1240.866          47.000
G24  22840661.320 7 120028475.467 7     -3280.250          47.000    22840665.359 7  93528696.848 7     -2556.039          47.000
G25  20169368.500 7 105990766.686 7       285.109          43.000    20169369.906 7  82590217.135 7       222.163          43.000
G29  21457249.836 8 112758595.631 8      2583.184          51.000    21457249.844 8  87863861.320 8      2012.870          51.000
G32  22339409.891 5 117394405.286 5     -1158.117          32.000
R14  19530464.172 8 104108368.072 8      -511.875          51.000    19530467.102 8  80973171.430 8      -398.125          49.000
R17  20991287.758 8 112328588.428 8      3769.516          51.000    20991288.898 7  87366694.973 7      2931.849          47.000
R23  21273412.266 5 113798429.304 5     -3090.750          32.000
R24  19637167.438 8 105008822.520 8        -9.602          51.000    19637170.352 8  81673591.121 8        -7.468          48.000
C27  22578138.875 6 117570281.522 6     -1347.379          36.000
C30  22174044.812 8 115466161.989 8      1848.539          49.000
E13  24326825.688 7 127838353.284 7       647.680          44.000    24326825.844 7  97954083.088 7       496.208          42.000
E21  23772722.672 8 124926479.151 8      -618.316          51.000    23772725.180 8  95722904.714 8      -473.724          51.000
E26  24919175.047 8 130951102.694 8      2951.512          50.000    24919175.797 7 100339193.403 7      2261.470          45.000
> 2020 05 08 10 12  0.0000000  0 13        .000000000000
G02  22921140.031 5 120451415.914 5       -39.137          32.000
G12  20749730.117 7 109040566.836 7     -1613.383          47.000    20749728.828 7  84966667.457 7     -1257.181          47.000
G24  22859430.656 8 120127104.705 8     -3299.414          48.000    22859433.195 8  93605550.756 8     -2570.972          49.000
G25  20167794.336 7 105982494.565 7       261.926          44.000    20167795.945 7  82583771.292 7       204.098          44.000
G29  21442562.273 8 112681410.171 8      2558.117          51.000    21442561.312 8  87803716.847 8      1993.338          51.000
R14  19533407.547 8 104124057.511 8      -538.598          51.000    19533410.414 8  80985374.315 8      -418.909          49.000
R17  20970218.922 8 112215843.885 8      3742.449          51.000    20970220.094 7  87279004.804 7      2910.794          47.000
R24  19637319.805 8 105009635.598 8       -49.082          51.000    19637322.680 7  81674223.536 7       -38.172          47.000
C27  22585964.008 6 117611024.231 6     -1373.496          41.000
C30  22163454.961 8 115411022.333 8      1822.984          50.000
E13  24323192.078 7 127819259.847 7       620.941          42.000    24323191.445 6  97939453.024 6       475.667          41.000
E21  23776290.375 8 124945228.076 8      -636.004          51.000    23776292.773 8  95737270.760 8      -487.337          51.000
E26  24902361.477 8 130862752.528 8      2934.117          48.000    24902360.195 7 100271496.572 7      2248.190          44.000
> 2020 05 08 10 12 30.0000000  0 14        .000000000000
G02  22921317.406 6 120452366.427 6       -42.582          38.000    22921309.734 4  93858930.210 4       -33.181          29.000
G06  23774863.359 6 124937751.523 6     -1448.762          37.000    23774865.789 5  97354091.388 5     -1128.908          35.000
G12  20758874.047 8 109088617.941 8     -1608.734          48.000    20758872.672 8  85004109.855 8     -1253.559          48.000
G24  22878196.648 8 120225716.785 8     -3293.242          48.000    22878196.156 8  93682391.246 8     -2566.166          48.000
G25  20166239.734 7 105974323.829 7       264.188          44.000    20166241.547 7  82577404.485 7       205.860          44.000
G29  21427905.586 8 112604388.701 8      2558.301          51.000    21427904.047 8  87743700.160 8      1993.484          51.000
R14  19536388.812 8 104139949.503 8      -539.648          51.000    19536391.672 8  80997734.725 8      -419.727          49.000
R17  20949188.336 8 112103309.844 8      3741.039          48.000    20949190.508 7  87191478.350 7      2909.697          47.000
R24  19637580.367 8 105011028.993 8       -62.723          51.000    19637583.000 7  81675307.289 7       -48.784          47.000
C27  22593827.461 7 117651966.558 7     -1374.496          43.000
C30  22152900.344 8 115356062.600 8      1822.594          51.000
E13  24319595.898 6 127800370.630 6       620.105          37.000    24319597.547 6  97924979.460 6       474.814          40.000
E21  23779846.195 8 124963914.320 8      -628.254          51.000    23779848.344 8  95751588.777 8      -481.395          51.000
E26  24885534.500 8 130774331.293 8      2942.059          49.000    24885532.328 7 100203745.254 7      2254.388          45.000
> 2020 05 08 10 13  0.0000000  0 14        .000000000000
G02  22921620.094 6 120453965.664 6       -62.391          37.000
G06  23783198.945 6 124981548.410 6     -1469.297          36.000    23783201.969 5  97388218.722 5     -1144.913          35.000
G12  20768095.422 7 109137076.047 7     -1620.383          46.000    20768094.062 7  85041869.418 7     -1262.639          47.000
G24  22897030.125 8 120324685.695 8     -3303.176          48.000    22897025.672 7  93759509.728 7     -2573.909          47.000
G25  20164775.680 7 105966629.302 7       250.383          45.000    20164777.586 7  82571408.766 7       195.103          45.000
G29  21413351.070 8 112527907.434 8      2542.223          50.000    21413350.055 8  87684104.371 8      1980.953          50.000
R14  19539479.336 8 104156425.023 8      -557.117          51.000    19539482.258 8  81010548.990 8      -433.313          49.000
R17  20928268.445 7 111991371.645 7      3723.055          47.000    20928272.297 7  87104415.303 7      2895.712          47.000
R24  19638020.781 8 105013383.811 8       -92.691          51.000    19638023.461 8  81677138.822 8       -72.093          48.000
C27  22601799.328 7 117693478.226 7     -1391.418          43.000
C30  22142452.383 8 115301655.327 8      1806.227          51.000
E13  24316110.156 6 127782060.747 6       602.469          40.000    24316115.086 6  97910949.853 6       461.644          39.000
E21  23783461.406 8 124982912.928 8      -636.660          51.000    23783463.539 8  95766146.146 8      -487.869          51.000
E26  24868766.461 8 130686215.549 8      2933.965          51.000    24868765.445 8 100136228.025 8      2248.022          48.000
> 2020 05 08 10 13 30.0000000  0 14        .000000000000
G02  22922023.195 5 120456087.833 5       -79.199          35.000
G06  23791636.484 5 125025891.995 5     -1486.930          35.000    23791643.586 5  97422772.137 5     -1158.640          35.000
G12  20777370.023 7 109185814.092 7     -1628.820          47.000    20777368.719 7  85079847.117 7     -1269.211          47.000
G24  22915906.742 7 120423882.977 7     -3309.965          47.000    22915902.312 7  93836806.212 7     -2579.196          47.000
G25  20163378.195 7 105959284.915 7       239.352          46.000    20163380.070 7  82565685.851 7       186.505          46.000
G29  21398875.781 8 112451841.940 8      2529.051          51.000    21398875.570 8  87624832.543 8      1970.689          51.000
R14  19542655.648 8 104173357.043 8      -571.590          51.000    19542658.773 8  81023718.310 8      -444.570          50.000
R17  20907437.578 8 111879904.495 8      3708.086          49.000    20907441.898 7  87017718.657 7      2884.070          46.000
R24  19638617.086 8 105016570.757 8      -119.625          51.000    19638619.562 8  81679617.558 8       -93.039          48.000
C27  22609856.227 7 117735432.684 7     -1405.512          44.000
C30  22132086.805 8 115247676.560 8      1792.516          51.000
E13  24312712.633 7 127764204.385 7       588.125          44.000    24312717.180 6  97897267.684 6       450.641          40.000
E21  23787112.008 8 125002097.987 8      -642.160          51.000    23787114.211 8  95780846.377 8      -492.033          51.000
E26  24852033.375 8 130598281.021 8      2928.570          51.000    24852034.133 8 100068849.622 8      2243.972          50.000
> 2020 05 08 10 14  0.0000000  0 15        .000000000000
G02  22922525.859 5 120458733.811 5      -103.105          34.000    22922525.703 5  93863889.842 5       -80.333          35.000
G06  23800178.180 6 125070781.473 6     -1511.531          36.000    23800186.688 5  97457750.967 5     -1177.814          35.000
G12  20786697.812 8 109234831.667 8     -1644.648          48.000    20786696.359 8  85118042.638 8     -1281.544          48.000
G24  22934826.320 7 120523307.630 7     -3323.996          47.000    22934823.836 7  93914279.920 7     -2590.130          47.000
G25  20162047.555 7 105952291.325 7       221.102          47.000    20162049.039 7  82560236.296 7       172.287          47.000
G29  21384480.531 8 112376194.218 8      2508.418          51.000    21384480.703 8  87565886.249 8      1954.608          51.000
G32  22373719.586 5 117574692.782 5     -1252.930          35.000
R14  19545917.758 8 104190746.994 8      -593.617          51.000    19545921.047 8  81037243.809 8      -461.702          50.000
R17  20886696.820 8 111768912.991 8      3685.480          50.000    20886700.383 7  86931391.952 7      2866.485          46.000
R24  19639368.625 8 105020590.125 8      -154.141          51.000    19639371.258 8  81682743.750 8      -119.887          49.000
C27  22617998.195 7 117777829.111 7     -1426.766          45.000
C30  22121803.531 8 115194128.066 8      1771.645          51.000
E13  24309402.117 7 127746802.579 7       566.309          45.000    24309405.188 7  97883933.854 7       433.850          43.000
E21  23790798.266 8 125021470.532 8      -655.102          51.000    23790800.422 8  95795690.265 8      -501.952          51.000
E26  24835335.305 8 130510530.301 8      2915.664          51.000    24835337.758 8 100001612.068 8      2234.095          51.000
> 2020 05 08 10 14 30.0000000  0 16        .000000000000
G02  22923148.797 5 120462009.124 5      -100.758          35.000    22923150.391 5  93866442.129 5       -78.513          33.000
G06  23808844.164 6 125116321.169 6     -1509.742          37.000    23808851.750 6  97493236.407 6     -1176.429          37.000
G12  20796098.805 7 109284234.022 7     -1634.195          47.000    20796097.023 7  85156537.989 7     -1273.399          47.000
G24  22953808.953 7 120623063.663 7     -3311.598          47.000    22953808.148 7  93992011.903 7     -2580.466          47.000
G25  20160803.820 7 105945754.331 7       229.359          47.000    20160804.945 7  82555142.536 7       178.722          47.000
G29  21370185.406 8 112301071.067 8      2514.281          51.000    21370185.891 8  87507348.714 8      1959.180          51.000
G32  22380909.984 5 117612474.622 5     -1250.723          35.000    22380924.969 5  91646150.236 5      -974.589          31.000
R14  19549286.141 8 104208702.804 8      -588.707          51.000    19549289.445 8  81051209.438 8      -457.883          50.000
R17  20866065.836 8 111658508.379 8      3689.621          50.000    20866068.773 7  86845521.706 7      2869.705          47.000
R24  19640296.117 8 105025548.814 8      -161.613          51.000    19640298.367 8  81686600.502 8      -125.699          48.000
C27  22626244.500 7 117820770.712 7     -1421.617          44.000
C30  22111622.711 8 115141115.681 8      1777.023          50.000
E13  24306198.086 8 127729961.465 8       571.109          48.000    24306201.484 7  97871029.668 7       437.651          46.000
E21  23794540.469 8 125041136.550 8      -641.332          51.000    23794542.609 8  95810759.024 8      -491.437          51.000
E26  24818692.664 8 130423070.946 8      2929.535          51.000    24818696.398 8  99934597.757 8      2244.718          51.000
E27  26949589.742 5 141621049.910 5     -2198.805          34.000
> 2020 05 08 10 15  0.0000000  0 14        .000000000000
G02  22923825.289 6 120465563.909 6      -121.551          38.000    22923823.680 5  93869225.999 5       -94.718          32.000
G06  23817567.039 5 125162159.352 5     -1531.383          35.000    23817573.273 6  97528954.458 6     -1193.285          36.000
G12  20805506.148 7 109333670.073 7     -1646.965          45.000    20805504.250 7  85195059.589 7     -1283.349          45.000
G24  22972787.781 7 120722799.140 7     -3322.500          47.000    22972788.398 7  94069727.850 7     -2588.961          47.000
G25  20159580.180 7 105939323.620 7       214.180          47.000    20159581.375 7  82550131.586 7       166.893          47.000
G29  21355923.758 8 112226123.953 8      2496.809          51.000    21355924.547 8  87448948.388 8      1945.568          51.000
R14  19552694.305 8 104226870.185 8      -607.543          50.000    19552697.617 8  81065339.612 8      -472.533          50.000
R17  20845478.555 8 111548337.725 8      3670.062          50.000    20845480.812 7  86759833.438 7      2854.493          46.000
R24  19641331.945 8 105031089.448 8      -192.785          50.000    19641334.289 8  81690909.890 8      -149.944          48.000
C27  22634528.109 7 117863908.767 7     -1439.555          43.000
C30  22101478.094 8 115088293.348 8      1759.148          49.000
E13  24303034.047 8 127713331.162 8       552.410          48.000    24303037.391 7  97858286.965 7       423.290          46.000
E21  23798272.117 8 125060745.992 8      -651.188          51.000    23798274.109 8  95825784.435 8      -498.953          51.000
E26  24802039.039 8 130335554.563 8      2919.660          51.000    24802043.477 8  99867539.739 8      2237.106          51.000
> 2020 05 08 10 15 30.0000000  0 14        .000000000000
G02  22924612.273 5 120469696.892 5      -148.391          32.000    22924610.688 4  93872446.426 4      -115.638          27.000
G06  23826403.211 6 125208593.544 6     -1558.945          36.000    23826408.453 6  97565136.901 6     -1214.766          36.000
G12  20814976.664 7 109383438.204 7     -1665.508          46.000    20814974.984 7  85233839.934 7     -1297.798          45.000
G24  22991819.688 8 120822811.379 8     -3339.395          48.000    22991820.625 8  94147659.440 8     -2602.126          48.000
G25  20158433.703 8 105933298.293 8       193.070          48.000    20158435.117 8  82545436.519 8       150.447          48.000
G29  21341752.711 8 112151653.486 8      2473.266          51.000    21341753.555 8  87390919.476 8      1927.220          51.000
R14  19556198.898 8 104245553.161 8      -632.516          49.000    19556202.375 8  81079870.812 8      -491.957          50.000
R17  20824992.234 8 111438709.291 8      3644.035          50.000    20824993.812 7  86674566.886 7      2834.253          45.000
R24  19642533.570 8 105037515.821 8      -230.148          49.000    19642536.008 8  81695908.166 8      -179.004          48.000
C27  22642906.117 7 117907538.064 7     -1463.363          43.000
C30  22091427.414 8 115035958.418 8      1735.203          50.000
E13  24299966.883 7 127697210.976 7       527.633          47.000    24299969.844 7  97845935.135 7       404.236          47.000
E21  23802050.023 8 125080598.192 8      -666.930          51.000    23802051.891 8  95840995.863 8      -511.069          51.000
E26  24785431.305 8 130248282.013 8      2903.824          49.000    24785436.273 8  99800668.553 8      2225.029          51.000
> 2020 05 08 10 16  0.0000000  0 15        .000000000000
G02  22925509.781 6 120474347.511 6      -164.152          37.000
G06  23835352.539 6 125255621.539 6     -1574.953          37.000    23835356.953 6  97601782.079 6     -1227.239          38.000
G12  20824510.188 7 109433537.208 7     -1672.898          44.000    20824509.156 7  85272878.085 7     -1303.557          44.000
G24  23010904.125 8 120923097.865 8     -3345.039          49.000    23010904.805 8  94225804.708 8     -2606.527          49.000
G25  20157364.195 8 105927677.617 8       183.172          48.000    20157365.750 8  82541056.795 8       142.731          48.000
G29  21327672.195 8 112077660.331 8      2460.984          51.000    21327672.797 8  87333262.511 8      1917.650          51.000
R14  19559800.406 8 104264751.907 8      -646.102          50.000    19559804.172 8  81094803.188 8      -502.523          51.000
R17  20804607.234 8 111329626.044 8      3629.504          50.000    20804608.711 7  86589724.363 7      2822.947          44.000
R23  21433483.336 5 114654659.029 5     -3250.406          32.000
R24  19643900.211 8 105044826.301 8      -255.863          48.000    19643903.047 8  81701594.083 8      -199.005          48.000
C27  22651378.289 7 117951656.341 7     -1476.387          42.000
C30  22081470.891 8 114984111.173 8      1722.605          51.000
E13  24296996.547 7 127681600.511 7       514.309          46.000    24296999.484 7  97833973.887 7       394.126          46.000
E21  23805874.180 8 125100692.752 8      -671.320          51.000    23805876.172 8  95856392.987 8      -514.385          51.000
E26  24768869.727 8 130161254.466 8      2899.414          48.000    24768875.328 8  99733985.114 8      2221.560          51.000
> 2020 05 08 10 16 30.0000000  0 16        .000000000000
G02  22926525.281 6 120479660.622 6      -179.105          37.000    22926514.539 5  93880243.863 5      -139.563          32.000
G06  23844419.430 6 125303265.817 6     -1590.445          38.000    23844422.484 6  97638907.467 6     -1239.308          37.000
G12  20834110.922 7 109483989.890 7     -1679.539          44.000    20834110.453 7  85312191.821 7     -1308.735          44.000
G24  23030045.109 8 121023680.720 8     -3349.645          51.000    23030045.516 8  94304180.898 8     -2610.116          50.000
