     3.02           OBSERVATION DATA    M (MIXED)           RINEX VERSION / TYPE
SAVERINEX           SC600               20200516 135931 LCL PGM / RUN BY / DATE
       G = GPS       R = GLONASS       C = COMPASS          COMMENT
       S = SBAS      J = QZSS          E = GALILEO          COMMENT
BEAN                                                        MARKER NAME
1                                                           MARKER NUMBER
GEODETIC                                                    MARKER TYPE
Unige DICCA         GTER                                    OBSERVER / AGENCY
SC60291900056       SC600               2.12(191202)        REC # / TYPE / VERS
                    HEMA45          NONE                    ANT # / TYPE
  4509407.8091   693652.4678  4442337.6214                  APPROX POSITION XYZ
        0.0000        0.0000        0.0000                  ANTENNA: DELTA H/E/N
G    8 C1C L1C D1C S1C C2Y L2Y D2Y S2Y                      SYS / # / OBS TYPES
R    8 C1C L1C D1C S1C C2P L2P D2P S2P                      SYS / # / OBS TYPES
C    8 C1I L1I D1I S1I C7I L7I D7I S7I                      SYS / # / OBS TYPES
E    8 C1C L1C D1C S1C C7Q L7Q D7Q S7Q                      SYS / # / OBS TYPES
DBHZ                                                        COMMENT
     30.000                                                 INTERVAL
  2020    05    16    11    00    0.0000000     GPS         TIME OF FIRST OBS
  2020    05    16    11    59   30.0000000     GPS         TIME OF LAST OBS
     0                                                      RCV CLOCK OFFS APPL
G L1C  0.00000                                              SYS / PHASE SHIFT
G L2Y  0.00000                                              SYS / PHASE SHIFT
R L1C  0.00000                                              SYS / PHASE SHIFT
R L2P  0.25000                                              SYS / PHASE SHIFT
C L1I  0.00000                                              SYS / PHASE SHIFT
C L7I  0.00000                                              SYS / PHASE SHIFT
E L1C  0.50000                                              SYS / PHASE SHIFT
E L7Q -0.25000                                              SYS / PHASE SHIFT
 12 R02 -4 R03  5 R04  6 R05  1 R10 -5 R12 -1 R13 -2 R14 -7 GLONASS SLOT / FRQ #
    R15  0 R17  4 R18 -3 R23  3                             GLONASS SLOT / FRQ #
 C1C   71.950 C2C   71.950 C2P   71.950                     GLONASS COD/PHS/BIS
    18                                                      LEAP SECONDS
*** Above antenna height is from mark to ANTENNA BOTTOM.    COMMENT
    17     4        0.0000        ANT MEASURE TYPE/HEIGT    COMMENT
    0.0000    0.0000    0.0458    0.0405    0.0000          COMMENT
                    BASE STATION                            COMMENT
                                                            END OF HEADER
> 2020 05 16 11 00  0.0000000  0 13        .000000000000
G02  24145683.648 5 126886422.300 5     -2454.285          35.000
G14  23591139.914 6 123972268.450 6     -2048.793          39.000    23591143.445 6  96601788.316 6     -1596.465          37.000
G18  23527331.789 6 123636939.513 6      3677.473          37.000    23527325.695 5  96340461.381 5      2865.578          34.000
G25  20785603.289 8 109229080.177 8     -1573.320          51.000    20785605.289 8  85113563.211 8     -1225.961          51.000
G29  20208454.617 8 106196153.687 8        47.336          51.000    20208454.734 8  82750255.664 8        36.885          51.000
R14  21149109.227 8 112736623.513 8     -3008.617          51.000    21149112.094 7  87684060.272 7     -2340.036          46.000
R15  19189631.875 8 102543569.630 8       486.793          51.000    19189635.398 8  79756113.487 8       378.617          50.000
R17  19077036.250 8 102085146.731 8       170.492          51.000    19077038.039 8  79399542.731 8       132.605          48.000
R18  21274030.859 8 113562332.774 8      3647.988          50.000    21274033.984 7  88326229.725 7      2837.324          46.000
C27  21478582.391 8 111844585.948 8       -68.188          51.000
C30  23476383.664 8 122247806.488 8      2666.301          49.000
E02  24035070.016 8 126305123.814 8     -1314.340          51.000    24035071.906 8  96779285.493 8     -1007.068          51.000
E36  24196502.758 6 127153495.703 6     -1089.293          38.000    24196504.602 7  97429274.648 7      -834.464          42.000
> 2020 05 16 11 00 30.0000000  0 14        .000000000000
G02  24159778.344 5 126960487.668 5     -2469.422          33.000
G12  22823073.047 5 119936047.437 5     -2793.234          32.000    22823071.133 5  93456661.690 5     -2176.546          32.000
G14  23602921.391 6 124034182.406 6     -2064.906          38.000    23602924.555 5  96650032.914 5     -1609.015          34.000
G18  23506403.453 6 123526954.689 6      3668.812          37.000    23506396.398 6  96254758.939 6      2858.818          36.000
G25  20794668.562 8 109276719.167 8     -1588.477          51.000    20794670.977 8  85150684.490 8     -1237.774          51.000
G29  20208280.828 8 106195239.528 8        27.766          51.000    20208281.016 8  82749543.329 8        21.636          51.000
R14  21166133.055 8 112827370.435 8     -3026.797          50.000    21166135.836 7  87754641.185 7     -2354.175          47.000
R15  19187007.047 8 102529544.036 8       462.758          50.000    19187010.578 8  79745204.686 8       359.923          49.000
R17  19076203.172 8 102080688.229 8       141.168          50.000    19076204.984 8  79396075.011 8       109.797          48.000
R18  21253621.844 8 113453388.295 8      3629.422          49.000    21253625.359 7  88241495.126 7      2822.884          47.000
C27  21479070.117 8 111847125.449 8       -86.984          51.000
C30  23461101.859 8 122168226.342 8      2653.109          50.000
E02  24042648.039 8 126344947.722 8     -1326.363          51.000    24042649.930 8  96809799.895 8     -1016.325          51.000
E36  24202809.328 6 127186640.123 6     -1106.312          41.000    24202811.141 7  97454670.961 7      -847.529          42.000
> 2020 05 16 11 01  0.0000000  0 14        .000000000000
G02  24173896.445 5 127034679.744 5     -2478.656          31.000
G12  22839023.203 5 120019879.112 5     -2797.844          31.000    22839026.273 5  93521985.051 5     -2180.138          30.000
G14  23614731.086 6 124096245.596 6     -2075.207          36.000    23614733.727 5  96698393.754 5     -1617.051          34.000
G18  23485463.031 6 123416906.703 6      3665.445          37.000    23485456.617 6  96169007.315 6      2856.194          36.000
G25  20803758.414 8 109324486.403 8     -1598.078          51.000    20803760.867 8  85187905.709 8     -1245.256          51.000
G29  20208157.016 8 106194588.912 8        13.523          51.000    20208157.328 8  82749036.364 8        10.538          51.000
R14  21183196.922 8 112918332.479 8     -3039.500          50.000    21183200.609 8  87825389.399 8     -2364.059          48.000
R15  19184455.766 8 102515910.150 8       444.094          50.000    19184459.180 8  79734600.566 8       345.406          49.000
R17  19075472.914 8 102076780.088 8       117.230          50.000    19075474.664 7  79393035.348 7        91.179          47.000
R18  21233257.438 8 113344679.639 8      3615.828          51.000    21233260.750 8  88156943.986 8      2812.311          48.000
C27  21479604.508 8 111849908.309 8      -100.543          51.000
C30  23445834.227 8 122088718.478 8      2645.309          50.000
E02  24050233.688 8 126384811.446 8     -1333.199          51.000    24050235.680 8  96840344.810 8     -1021.566          51.000
E36  24209153.016 6 127219974.350 6     -1118.172          41.000    24209155.180 7  97480212.803 7      -856.661          42.000
> 2020 05 16 11 01 30.0000000  0 12        .000000000000
G14  23626612.328 5 124158683.238 5     -2086.270          35.000    23626613.891 6  96747046.402 6     -1625.668          36.000
G18  23464554.547 5 123307026.457 5      3661.344          35.000    23464548.234 5  96083386.388 5      2852.998          34.000
G25  20812916.086 8 109372609.639 8     -1608.695          51.000    20812918.492 8  85225404.316 8     -1253.529          51.000
G29  20208126.555 8 106194428.952 8        -1.512          51.000    20208126.664 8  82748911.717 8        -1.178          51.000
R14  21200344.797 8 113009739.256 8     -3052.906          51.000    21200348.766 8  87896483.543 8     -2374.486          49.000
R15  19182021.023 8 102502901.682 8       424.504          48.000    19182024.703 8  79724482.883 8       330.167          48.000
R17  19074888.641 8 102073653.731 8        92.562          51.000    19074890.383 8  79390603.734 8        71.993          48.000
R18  21212981.594 8 113236441.508 8      3601.500          51.000    21212984.141 8  88072758.821 8      2801.170          48.000
C27  21480228.805 8 111853159.782 8      -114.809          51.000
C30  23430623.812 8 122009509.988 8      2636.594          51.000
E02  24057870.516 8 126424943.195 8     -1340.867          51.000    24057872.484 8  96871095.094 8     -1027.406          51.000
E36  24215576.227 7 127253725.380 7     -1130.484          44.000    24215578.094 6  97506074.009 6      -866.488          40.000
> 2020 05 16 11 02  0.0000000  0 12        .000000000000
G14  23638554.266 5 124221440.147 5     -2098.641          35.000    23638554.531 5  96795947.874 5     -1635.304          33.000
G18  23443668.594 4 123197309.632 4      3654.172          28.000    23443661.953 4  95997857.875 4      2847.416          29.000
G25  20822131.328 8 109421035.864 8     -1620.480          51.000    20822133.656 8  85263139.036 8     -1262.712          51.000
G29  20208179.273 8 106194706.114 8       -17.742          51.000    20208179.266 8  82749127.696 8       -13.825          51.000
R14  21217566.008 8 113101535.747 8     -3067.605          51.000    21217569.961 8  87967880.799 8     -2385.918          50.000
R15  19179693.625 8 102490467.027 8       403.641          49.000    19179697.586 8  79714811.477 8       313.946          48.000
R17  19074440.336 8 102071254.572 8        66.652          50.000    19074442.180 8  79388737.733 8        51.841          48.000
R18  21192784.383 8 113128622.732 8      3585.605          51.000    21192786.312 8  87988899.837 8      2788.804          49.000
C27  21480932.922 8 111856826.930 8      -130.328          51.000
C30  23415461.070 8 121930549.682 8      2626.680          51.000
E02  24065548.305 8 126465290.513 8     -1349.742          51.000    24065550.297 8  96902010.550 8     -1034.227          51.000
E36  24222068.000 7 127287839.397 7     -1144.363          44.000    24222068.562 6  97532213.283 6      -877.014          38.000
> 2020 05 16 11 02 30.0000000  0 11        .000000000000
G14  23650563.914 6 124284551.948 6     -2108.820          37.000    23650561.734 5  96845125.876 5     -1643.240          35.000
G25  20831411.430 8 109469803.068 8     -1630.266          51.000    20831413.664 8  85301139.453 8     -1270.337          51.000
G29  20208322.445 8 106195457.954 8       -32.141          51.000    20208322.508 8  82749713.559 8       -25.045          51.000
R14  21234866.773 8 113193759.531 8     -3080.340          50.000    21234871.016 8  88039610.359 8     -2395.820          48.000
R15  19177481.781 8 102478646.798 8       384.539          49.000    19177485.375 7  79705617.984 7       299.086          47.000
R17  19074134.969 8 102069620.796 8        42.590          50.000    19074136.758 7  79387467.006 7        33.122          47.000
R18  21172673.312 8 113021265.278 8      3571.699          50.000    21172675.055 8  87905399.635 8      2777.988          49.000
C27  21481724.109 8 111860946.958 8      -144.027          51.000
C30  23400353.453 8 121851876.648 8      2618.570          51.000
E02  24073274.133 8 126505891.854 8     -1356.719          51.000    24073276.289 8  96933120.646 8     -1039.624          51.000
E36  24228635.547 7 127322353.395 7     -1156.324          42.000    24228636.156 6  97558659.080 6      -885.991          37.000
> 2020 05 16 11 03  0.0000000  0 14        .000000000000
G14  23662608.836 6 124347848.712 6     -2131.488          36.000    23662605.297 5  96894448.000 5     -1660.897          34.000
G18  23401944.562 5 122978055.032 5      3635.523          31.000
G21  23385066.656 6 122889351.149 6      3378.730          37.000    23385070.953 5  95757955.183 5      2632.777          31.000
G25  20840724.516 8 109518743.726 8     -1652.906          50.000    20840726.891 8  85339275.027 8     -1287.979          50.000
G29  20208523.930 8 106196516.533 8       -58.973          51.000    20208523.828 8  82750538.428 8       -45.953          51.000
R14  21252215.547 8 113286239.349 8     -3105.809          51.000    21252219.719 8  88111539.072 8     -2415.629          48.000
R15  19175353.094 8 102467272.901 8       352.805          49.000    19175356.883 7  79696771.609 7       274.404          47.000
R17  19073940.727 8 102068580.917 8         5.836          50.000    19073942.297 7  79386658.205 7         4.539          47.000
R18  21152617.211 8 112914202.191 8      3544.973          48.000    21152618.508 8  87822128.369 8      2757.204          49.000
C27  21482570.344 8 111865353.385 8      -170.059          51.000
C28  24339314.336 5 126741173.547 5     -2759.965          31.000
C30  23385268.766 8 121773326.238 8      2597.836          51.000
E02  24081016.883 8 126546580.149 8     -1376.348          51.000    24081018.883 8  96964297.374 8     -1054.610          51.000
E36  24235247.117 7 127357099.056 7     -1180.766          45.000    24235248.859 5  97585282.367 5      -904.737          35.000
> 2020 05 16 11 03 30.0000000  0 14        .000000000000
G14  23674767.391 6 124411741.542 6     -2129.836          37.000    23674762.773 5  96944234.537 5     -1659.619          32.000
G18  23381167.672 5 122868857.176 5      3643.086          34.000    23381168.828 5  95741982.064 5      2838.777          33.000
G21  23365752.711 6 122787857.131 6      3384.801          36.000
G25  20850149.359 8 109568271.317 8     -1651.129          50.000    20850151.734 8  85377867.939 8     -1286.594          50.000
G29  20208862.312 8 106198294.782 8       -61.746          51.000    20208862.055 8  82751924.059 8       -48.117          51.000
R14  21269691.430 8 113379393.517 8     -3106.680          51.000    21269694.891 7  88183992.306 7     -2416.306          47.000
R15  19173387.203 8 102456767.684 8       345.281          50.000    19173390.914 7  79688600.874 7       268.552          47.000
R17  19073936.109 8 102068555.557 8        -6.363          51.000    19073937.578 7  79386638.503 7        -4.949          47.000
R18  21132695.641 7 112807856.256 7      3542.488          47.000    21132696.242 8  87739414.911 8      2755.269          48.000
C27  21483550.109 8 111870455.534 8      -172.289          51.000
C28  24355191.312 4 126823870.361 4     -2752.832          28.000
C30  23370286.156 8 121695309.596 8      2601.020          51.000
E02  24088855.195 8 126587769.427 8     -1371.824          51.000    24088857.266 8  96995857.978 8     -1051.171          51.000
E36  24241981.203 7 127392488.976 7     -1180.984          45.000    24241982.266 5  97612399.219 5      -904.674          33.000
> 2020 05 16 11 04  0.0000000  0 13        .000000000000
G14  23686961.773 6 124475822.430 6     -2141.988          39.000    23686956.453 5  96994167.658 5     -1669.082          35.000
G18  23360393.211 6 122759668.772 6      3636.688          38.000    23360391.352 6  95656900.221 6      2833.782          38.000
G21  23346447.070 5 122686407.540 5      3377.852          35.000
G25  20859608.727 8 109617980.275 8     -1662.816          50.000    20859610.633 8  85416602.184 8     -1295.701          50.000
G29  20209260.383 8 106200386.615 8       -77.738          51.000    20209260.367 8  82753554.040 8       -60.575          51.000
R14  21287216.305 8 113472809.453 8     -3121.078          49.000    21287219.508 8  88256649.084 8     -2427.508          48.000
R15  19171507.406 8 102446720.955 8       324.324          51.000    19171511.164 7  79680786.738 7       252.252          47.000
R17  19074043.945 8 102069130.714 8       -32.016          50.000    19074044.727 7  79387085.839 7       -24.901          46.000
R18  21112831.094 7 112701818.905 7      3526.656          42.000    21112831.977 8  87656941.456 8      2742.955          48.000
C27  21484586.273 8 111875850.992 8      -187.445          51.000
C30  23355328.883 8 121617426.154 8      2591.152          50.000
E02  24096711.641 8 126629054.605 8     -1380.570          51.000    24096713.836 8  97027492.046 8     -1057.834          51.000
E36  24248760.812 7 127428116.647 7     -1194.461          45.000    24248762.594 5  97639698.270 5      -914.904          35.000
> 2020 05 16 11 04 30.0000000  0 14        .000000000000
G12  22951634.914 5 120611658.214 5     -2836.797          32.000
G14  23699218.398 6 124540229.807 6     -2151.992          41.000    23699212.859 5  97044355.169 5     -1676.874          30.000
G18  23339645.391 6 122650633.106 6      3632.156          38.000    23339642.789 6  95571937.403 6      2830.255          38.000
G21  23327176.461 5 122585143.091 5      3372.367          34.000
G25  20869129.430 8 109668011.294 8     -1673.047          51.000    20869130.844 8  85455587.358 8     -1303.673          51.000
G29  20209744.750 8 106202931.561 8       -92.176          51.000    20209744.648 8  82755537.123 8       -71.822          51.000
R14  21304816.219 8 113566628.614 8     -3133.883          48.000    21304819.742 7  88329619.490 7     -2437.467          47.000
R15  19169740.375 8 102437277.750 8       304.945          51.000    19169744.125 7  79673442.019 7       237.180          47.000
R17  19074290.164 8 102070449.025 8       -56.188          50.000    19074291.250 7  79388111.213 7       -43.701          47.000
R18  21093045.961 6 112596236.196 6      3511.930          40.000    21093053.320 8  87574821.375 8      2731.492          48.000
C27  21485705.422 8 111881678.750 8      -201.324          51.000
C30  23340423.969 8 121539816.733 8      2582.633          48.000
E02  24104613.484 8 126670576.793 8     -1387.859          51.000    24104615.508 8  97059307.737 8     -1063.380          51.000
E36  24255612.352 7 127464121.881 7     -1206.184          45.000    24255616.602 6  97667286.681 6      -924.269          36.000
> 2020 05 16 11 05  0.0000000  0 14        .000000000000
G14  23711537.094 6 124604963.023 6     -2166.023          41.000    23711531.125 5  97094796.586 5     -1687.810          32.000
G18  23318927.180 6 122541755.461 6      3623.441          37.000    23318924.133 5  95487097.725 5      2823.467          34.000
G21  23307943.812 5 122484075.085 5      3362.859          35.000
G25  20878711.906 8 109718366.517 8     -1686.934          51.000    20878712.625 8  85494825.138 8     -1314.494          51.000
G29  20210315.922 8 106205931.809 8      -110.645          51.000    20210315.281 8  82757874.986 8       -86.217          51.000
R14  21322491.391 7 113660852.115 7     -3150.520          47.000    21322495.422 7  88402904.433 7     -2450.404          45.000
R15  19168086.914 8 102428442.263 8       281.305          51.000    19168090.680 7  79666569.935 7       218.793          47.000
R17  19074675.719 8 102072511.825 8       -84.168          50.000    19074676.742 7  79389715.606 7       -65.464          46.000
R18  21073353.242 7 112491112.710 7      3493.270          47.000    21073360.852 8  87493058.645 8      2716.987          48.000
C27  21486907.773 8 111887940.430 8      -218.961          51.000
C28  24402929.648 4 127072459.658 4     -2775.480          28.000
C30  23325572.047 8 121462484.800 8      2570.090          48.000
E02  24112560.969 8 126712338.611 8     -1399.020          51.000    24112562.836 8  97091307.046 8     -1071.988          51.000
E36  24262535.719 7 127500505.912 7     -1222.047          44.000    24262540.500 5  97695165.295 5      -936.212          35.000
> 2020 05 16 11 05 30.0000000  0 15        .000000000000
G12  22984083.828 5 120782162.820 5     -2844.516          35.000    22984079.984 5  94115964.605 5     -2216.506          35.000
G14  23723914.578 6 124670006.208 6     -2170.445          41.000    23723908.648 5  97145479.581 5     -1691.256          35.000
G18  23298237.352 6 122433025.313 6      3624.641          38.000    23298233.789 6  95402372.974 6      2824.395          37.000
G21  23288746.109 5 122383189.556 5      3362.430          32.000
G25  20888353.391 8 109769032.138 8     -1691.070          51.000    20888353.531 8  85534304.805 8     -1317.717          51.000
G29  20210970.891 8 106209372.862 8      -119.180          51.000    20210970.117 8  82760556.324 8       -92.867          51.000
R14  21340240.258 7 113755464.694 7     -3157.293          47.000    21340244.320 7  88476491.980 7     -2455.675          45.000
R15  19166545.344 8 102420202.539 8       267.594          51.000    19166548.945 7  79660161.264 7       208.128          47.000
R17  19075197.445 8 102075304.332 8      -102.316          51.000    19075198.422 7  79391887.576 7       -79.576          46.000
R18  21053745.297 8 112386437.884 8      3484.629          49.000    21053751.953 7  87411644.934 7      2710.267          47.000
C27  21488190.766 8 111894621.871 8      -226.812          51.000
C28  24418906.953 5 127155656.077 5     -2773.832          33.000
C30  23310772.109 8 121385418.013 8      2567.367          50.000
E02  24120551.312 8 126754326.776 8     -1400.520          51.000    24120553.312 8  97123479.774 8     -1073.152          51.000
E36  24269528.711 7 127537254.091 7     -1228.293          45.000    24269534.016 6  97723322.960 6      -941.013          37.000
> 2020 05 16 11 06  0.0000000  0 15        .000000000000
G12  23000354.305 6 120867673.889 6     -2854.410          37.000    23000346.633 5  94182596.418 5     -2224.219          32.000
G14  23736351.227 7 124735360.272 7     -2184.527          42.000    23736345.891 5  97196404.792 5     -1702.229          34.000
G18  23277576.477 6 122324448.954 6      3615.648          37.000    23277573.023 6  95317768.069 6      2817.388          37.000
G21  23269584.523 5 122282490.457 5      3351.836          31.000
G25  20898054.281 8 109820011.276 8     -1705.516          49.000    20898054.695 8  85574028.752 8     -1328.976          49.000
G29  20211710.211 8 106213257.131 8      -137.930          51.000    20211709.438 8  82763583.027 8      -107.478          51.000
R14  21358063.289 8 113850468.604 8     -3174.379          48.000    21358066.664 7  88550383.788 7     -2468.967          45.000
R15  19165115.906 8 102412563.724 8       243.570          51.000    19165119.688 7  79654219.931 7       189.444          47.000
R17  19075856.133 8 102078828.595 8      -130.648          51.000    19075856.961 7  79394628.682 7      -101.615          46.000
R18  21034222.117 8 112282217.916 8      3465.371          51.000    21034227.438 7  87330585.001 7      2695.289          45.000
C27  21489554.883 8 111901725.722 8      -244.840          51.000
C28  24434917.844 5 127239024.000 5     -2782.344          35.000
C30  23296025.227 8 121308620.842 8      2554.324          51.000
E02  24128585.227 8 126796544.915 8     -1412.121          51.000    24128587.289 8  97155828.704 8     -1082.012          51.000
E36  24276591.320 7 127574368.625 7     -1244.238          44.000    24276597.023 6  97751761.376 6      -953.458          38.000
> 2020 05 16 11 06 30.0000000  0 15        .000000000000
G12  23016662.547 5 120953385.822 5     -2859.344          33.000    23016652.867 5  94249384.803 5     -2228.057          31.000
G14  23748854.438 7 124801064.293 7     -2194.746          42.000    23748849.805 5  97247602.645 5     -1710.198          35.000
G18  23256952.758 5 122216071.404 5      3610.434          34.000    23256949.195 5  95233318.003 5      2813.313          31.000
G21  23250466.766 5 122182027.499 5      3346.398          31.000
G25  20907822.688 8 109871345.706 8     -1715.848          49.000    20907823.602 8  85614029.585 8     -1337.024          49.000
G29  20212541.641 8 106217625.972 8      -152.578          51.000    20212540.727 8  82766987.309 8      -118.892          51.000
R14  21375967.328 8 113945904.539 8     -3187.227          50.000    21375970.953 7  88624611.643 7     -2478.957          47.000
R15  19163807.305 8 102405570.437 8       223.461          51.000    19163810.711 7  79648780.694 7       173.803          47.000
R17  19076659.117 8 102083126.584 8      -154.895          51.000    19076660.016 7  79397971.575 7      -120.474          45.000
R18  21014792.875 8 112178498.320 8      3450.180          51.000    21014795.125 7  87249914.302 7      2683.476          42.000
C27  21491007.930 8 111909292.779 8      -258.742          51.000
C28  24450965.719 5 127322590.946 5     -2787.848          34.000
C30  23281338.539 8 121232136.030 8      2545.340          51.000
E02  24136671.023 8 126839035.241 8     -1419.711          51.000    24136672.625 8  97188386.205 8     -1087.777          51.000
E36  24283731.391 7 127611890.374 7     -1256.320          44.000    24283735.820 6  97780511.779 6      -962.554          38.000
> 2020 05 16 11 07  0.0000000  0 16        .000000000000
G02  24347965.844 5 127949423.504 5     -2600.309          31.000
G12  23032998.586 6 121039231.991 6     -2863.281          37.000    23032988.750 4  94316277.680 4     -2231.131          27.000
G14  23761411.211 7 124867048.941 7     -2203.926          43.000    23761406.883 6  97299019.261 6     -1717.342          37.000
G18  23236343.750 5 122107818.123 5      3606.145          34.000    23236347.859 4  95148969.359 4      2809.977          27.000
G21  23231381.375 6 122081732.997 6      3340.680          36.000
G25  20917646.008 8 109922968.678 8     -1725.332          49.000    20917647.484 8  85654255.259 8     -1344.415          49.000
G29  20213452.477 8 106222412.006 8      -166.188          51.000    20213451.375 8  82770716.682 8      -129.497          51.000
R14  21393938.836 8 114041703.619 8     -3199.113          48.000    21393943.719 8  88699122.006 8     -2488.202          48.000
R15  19162607.203 8 102399156.587 8       204.383          51.000    19162610.469 8  79643792.138 8       158.964          48.000
R17  19077593.719 8 102088129.430 8      -178.223          51.000    19077595.109 7  79401862.704 7      -138.615          46.000
R18  20995445.391 8 112075214.023 8      3435.789          51.000    20995445.016 7  87169582.178 7      2672.283          43.000
C27  21492537.336 8 111917256.509 8      -271.812          51.000
C28  24467039.617 6 127406289.334 6     -2792.008          37.000
C30  23266698.359 8 121155898.842 8      2537.332          49.000
E02  24144795.734 8 126881731.542 8     -1426.402          51.000    24144797.125 8  97221101.536 8     -1092.982          51.000
E36  24290936.359 7 127649751.711 7     -1267.410          45.000    24290940.461 6  97809522.385 6      -971.106          40.000
> 2020 05 16 11 07 30.0000000  0 15        .000000000000
G12  23049366.180 5 121125242.401 5     -2870.195          32.000
G14  23774026.742 7 124933343.405 7     -2215.742          43.000    23774023.500 6  97350677.221 6     -1726.552          38.000
G18  23215779.781 6 121999745.401 6      3598.797          37.000    23215783.523 6  95064756.860 6      2804.257          36.000
G21  23212335.219 6 121981642.209 6      3332.418          37.000
G25  20927530.141 8 109974911.409 8     -1737.391          49.000    20927532.070 8  85694730.110 8     -1353.811          50.000
G29  20214448.422 8 106227645.562 8      -182.543          51.000    20214447.297 8  82774794.806 8      -142.241          51.000
R14  21411982.930 7 114137896.575 7     -3213.602          45.000    21411989.828 8  88773938.737 8     -2499.468          50.000
R15  19161521.688 8 102393355.921 8       182.488          51.000    19161525.141 8  79639280.490 8       141.935          49.000
R17  19078665.828 8 102093867.751 8      -204.184          51.000    19078667.461 7  79406325.858 7      -158.809          45.000
R18  20976185.875 8 111972400.085 8      3418.617          51.000    20976185.047 7  87089615.819 7      2658.924          45.000
C27  21494148.680 8 111925647.224 8      -287.426          51.000
C28  24483145.211 6 127490148.568 6     -2798.887          36.000
C30  23252110.445 8 121079941.520 8      2526.637          48.000
E02  24152965.664 8 126924665.428 8     -1435.680          51.000    24152967.125 8  97253998.912 8     -1100.096          51.000
E36  24298211.602 7 127687982.877 7     -1281.094          43.000    24298216.438 6  97838816.375 6      -981.590          41.000
> 2020 05 16 11 08  0.0000000  0 15        .000000000000
G12  23065767.125 5 121211426.081 5     -2875.137          30.000
G14  23786702.648 7 124999954.023 7     -2225.445          44.000    23786700.062 6  97402581.536 6     -1734.113          39.000
G18  23195250.359 6 121891854.314 6      3593.582          39.000    23195253.070 6  94980685.859 6      2800.194          38.000
G21  23193329.555 6 121881766.532 6      3325.906          38.000
G25  20937476.961 8 110027182.759 8     -1747.688          49.000    20937479.391 8  85735461.027 8     -1361.834          49.000
G29  20215531.031 8 106233335.033 8      -197.059          51.000    20215529.789 8  82779228.176 8      -153.552          51.000
R14  21430103.523 7 114234490.978 7     -3226.242          47.000    21430111.156 8  88849067.718 8     -2509.299          51.000
R15  19160553.195 8 102388179.499 8       162.273          51.000    19160556.500 8  79635254.390 8       126.216          49.000
R17  19079877.062 8 102100349.661 8      -228.289          51.000    19079878.367 7  79411367.344 7      -177.558          45.000
R18  20957015.586 8 111870068.307 8      3403.270          50.000    20957016.234 7  87010024.442 7      2646.987          47.000
C27  21495843.688 8 111934473.196 8      -301.227          51.000
C28  24499283.398 5 127574176.092 5     -2803.496          35.000
C30  23237578.031 8 121004274.159 8      2517.734          48.000
E02  24161182.555 8 126967846.295 8     -1443.242          51.000    24161184.344 8  97287085.517 8     -1105.870          51.000
E36  24305558.688 6 127726591.759 6     -1293.203          41.000    24305563.234 6  97868399.814 6      -990.767          41.000
> 2020 05 16 11 08 30.0000000  0 14        .000000000000
G14  23799439.320 7 125066884.079 7     -2237.953          45.000    23799437.180 6  97454734.821 6     -1743.857          38.000
G18  23174756.109 6 121784153.801 6      3585.340          40.000    23174757.781 6  94896763.408 6      2793.774          39.000
G21  23174366.727 6 121782114.802 6      3316.594          40.000    23174357.000 4  94895112.687 4      2584.365          27.000
G25  20947487.539 8 110079788.458 8     -1760.398          50.000    20947490.500 8  85776452.445 8     -1371.739          49.000
G29  20216701.398 8 106239485.708 8      -214.137          51.000    20216700.102 8  82784020.904 8      -166.860          51.000
R14  21448301.227 7 114331491.470 7     -3241.508          47.000    21448308.422 8  88924512.547 8     -2521.173          50.000
R15  19159702.891 8 102383635.011 8       139.527          51.000    19159705.891 8  79631719.783 8       108.521          49.000
R17  19081228.156 8 102107579.986 8      -254.973          51.000    19081229.852 7  79416990.957 7      -198.309          46.000
R18  20937935.672 8 111768227.380 8      3384.945          48.000    20937938.906 8  86930814.816 8      2632.735          48.000
C27  21497623.445 8 111943739.636 8      -317.633          51.000
C28  24515454.492 5 127658376.216 5     -2811.230          34.000
C30  23223103.617 8 120928903.823 8      2505.961          50.000
E02  24169447.656 8 127011280.357 8     -1453.488          51.000    24169449.781 8  97320366.132 8     -1113.742          51.000
E36  24312978.914 7 127765583.298 7     -1307.812          42.000    24312982.594 6  97898276.415 6     -1001.863          41.000
> 2020 05 16 11 09  0.0000000  0 15        .000000000000
G14  23812231.234 7 125134104.979 7     -2244.516          46.000    23812229.742 6  97507114.717 6     -1748.976          38.000
G18  23154293.188 7 121676621.027 7      3582.621          42.000    23154293.898 6  94812971.648 6      2791.659          38.000
G21  23155442.211 6 121682664.253 6      3312.777          41.000    23155433.430 5  94817618.867 5      2581.388          31.000
G25  20957556.930 8 110132702.519 8     -1767.938          50.000    20957559.633 8  85817684.152 8     -1377.617          50.000
G29  20217954.477 8 106246070.943 8      -225.742          51.000    20217953.281 8  82789152.245 8      -175.903          51.000
R14  21466569.977 7 114428870.205 7     -3251.223          46.000    21466576.453 7  89000251.543 7     -2528.729          47.000
R15  19158966.445 8 102379697.776 8       122.145          50.000    19158969.148 8  79628657.513 8        95.001          50.000
R17  19082714.180 8 102115531.185 8      -276.055          51.000    19082715.516 7  79423175.243 7      -214.709          45.000
R18  20918943.203 8 111666854.106 8      3372.281          49.000    20918949.211 8  86851968.934 8      2622.885          48.000
R24  21780726.992 4 116471314.829 4     -3671.137          29.000
C27  21499482.617 8 111953420.184 8      -328.652          51.000
C28  24531653.344 5 127742721.711 5     -2813.145          31.000
C30  23208682.203 8 120853806.065 8      2499.695          50.000
E02  24177756.258 8 127054942.055 8     -1458.199          51.000    24177758.430 8  97353821.192 8     -1117.342          51.000
E36  24320466.711 6 127804930.484 6     -1316.297          40.000    24320470.406 6  97928425.516 6     -1008.642          41.000
> 2020 05 16 11 09 30.0000000  0 13        .000000000000
G14  23825074.102 7 125201594.504 7     -2252.809          46.000    23825073.250 6  97559703.945 6     -1755.435          37.000
G18  23133858.625 7 121569239.483 7      3578.383          42.000    23133859.773 5  94729297.682 5      2788.350          33.000
G21  23136552.469 6 121583397.845 6      3306.965          38.000    23136545.219 5  94740268.425 5      2576.862          31.000
G25  20967681.398 8 110185905.075 8     -1776.824          50.000    20967683.570 8  85859140.676 8     -1384.538          50.000
G29  20219286.430 8 106253070.090 8      -238.715          51.000    20219285.258 8  82794606.123 8      -186.012          51.000
R14  21484905.523 7 114526605.927 7     -3262.301          46.000    21484911.250 7  89076268.169 7     -2537.348          45.000
R15  19158339.812 8 102376349.741 8       103.207          50.000    19158342.820 8  79626053.468 8        80.272          50.000
R17  19084330.930 8 102124181.991 8      -298.652          50.000    19084331.992 7  79429903.658 7      -232.285          47.000
R18  20900036.438 8 111565931.137 8      3357.973          51.000    20900043.391 8  86773473.318 8      2611.760          48.000
C27  21501417.688 8 111963494.706 8      -340.953          51.000
C30  23194309.891 8 120778962.528 8      2491.895          51.000
E02  24186104.453 8 127098812.063 8     -1464.430          51.000    24186106.930 8  97387435.856 8     -1122.024          51.000
E36  24328017.977 6 127844612.522 6     -1326.645          39.000    24328021.578 6  97958831.243 6     -1016.589          41.000
> 2020 05 16 11 10  0.0000000  0 14        .000000000000
G02  24438081.539 5 128422946.970 5     -2660.082          31.000
G14  23837973.133 7 125269379.937 7     -2265.785          44.000    23837973.242 6  97612523.736 6     -1765.547          40.000
G18  23113458.578 7 121462041.986 7      3568.879          42.000    23113461.383 5  94645767.157 5      2780.948          34.000
G21  23117703.523 6 121484347.934 6      3296.359          38.000    23117698.953 4  94663086.686 4      2568.589          26.000
G25  20977866.219 8 110239425.810 8     -1790.648          49.000    20977868.242 8  85900845.132 8     -1395.310          49.000
G29  20220702.602 8 106260512.334 8      -256.820          51.000    20220701.297 8  82800405.264 8      -200.120          51.000
R14  21503312.742 7 114624727.453 7     -3278.586          46.000    21503317.828 7  89152584.798 7     -2550.017          46.000
R15  19157829.867 8 102373622.838 8        79.184          51.000    19157832.414 8  79623932.559 8        61.590          49.000
R17  19086083.727 8 102133561.728 8      -326.191          50.000    19086085.031 8  79437199.001 8      -253.707          48.000
R18  20881221.242 8 111465491.576 8      3338.520          51.000    20881227.633 7  86695353.699 7      2596.626          46.000
C27  21503433.609 8 111973991.967 8      -358.340          51.000
C30  23179992.070 8 120704403.953 8      2479.145          51.000
E02  24194497.961 8 127142920.499 8     -1475.609          51.000    24194500.688 8  97421233.215 8     -1130.647          51.000
E36  24335639.000 6 127884658.245 6     -1342.355          39.000    24335641.422 6  97989515.593 6     -1028.328          41.000
> 2020 05 16 11 10 30.0000000  0 13        .000000000000
G14  23850937.180 7 125337507.377 7     -2274.449          44.000    23850938.391 6  97665610.016 6     -1772.298          41.000
G18  23093103.734 7 121355080.350 7      3563.352          45.000    23093107.625 4  94562420.419 4      2776.641          28.000
G21  23098905.609 6 121385566.074 6      3289.957          37.000    23098902.242 5  94586113.826 5      2563.591          31.000
G25  20988120.852 8 110293313.284 8     -1800.543          48.000    20988122.828 8  85942835.356 8     -1403.020          48.000
G29  20222212.219 8 106268445.642 8      -270.766          51.000    20222210.797 8  82806587.064 8      -210.986          51.000
R14  21521800.703 7 114723282.752 7     -3290.523          45.000    21521806.609 8  89229238.852 8     -2559.296          48.000
R15  19157445.711 8 102371568.301 8        59.129          51.000    19157447.750 8  79622334.603 8        45.989          49.000
R17  19087981.812 8 102143718.663 8      -349.641          49.000    19087983.203 8  79445098.833 8      -271.943          48.000
R18  20862506.781 8 111365587.648 8      3323.078          51.000    20862511.836 7  86617650.698 7      2584.619          45.000
C27  21505540.102 8 111984959.578 8      -371.559          51.000
C30  23165737.727 8 120630179.789 8      2470.391          49.000
E02  24202946.250 8 127187316.421 8     -1482.781          51.000    24202948.664 8  97455250.870 8     -1136.136          51.000
E36  24343337.539 6 127925115.224 6     -1353.387          40.000    24343339.195 6  98020515.070 6     -1036.993          41.000
> 2020 05 16 11 11  0.0000000  0 13        .000000000000
G14  23863948.602 7 125405884.018 7     -2283.734          43.000    23863950.820 6  97718890.463 6     -1779.533          40.000
G18  23072777.586 7 121248267.215 7      3557.523          46.000    23072785.258 4  94479189.039 4      2772.084          29.000
G21  23080142.055 5 121286965.194 5      3283.152          35.000    23080139.211 5  94509281.992 5      2558.297          31.000
G25  20998428.023 8 110347476.991 8     -1810.516          48.000    20998429.930 8  85985040.834 8     -1410.791          48.000
G29  20223797.977 8 106276778.886 8      -284.824          51.000    20223796.766 8  82813080.503 8      -221.941          51.000
R14  21540352.000 7 114822178.511 7     -3302.605          42.000    21540359.969 8  89306157.760 8     -2568.690          50.000
R15  19157169.969 8 102370095.802 8        38.934          51.000    19157172.148 8  79621189.310 8        30.282          49.000
R17  19090008.008 8 102154559.364 8      -373.203          50.000    19090009.055 8  79453530.469 8      -290.269          48.000
R18  20843875.547 8 111266130.302 8      3307.379          49.000    20843879.172 7  86540295.021 7      2572.406          44.000
C27  21507719.359 8 111996307.293 8      -385.035          51.000
C30  23151529.633 7 120556201.717 7      2461.344          47.000
E02  24211432.102 8 127231909.775 8     -1490.180          51.000    24211434.289 8  97489419.793 8     -1141.784          51.000
E36  24351096.180 6 127965892.002 6     -1364.766          39.000    24351097.906 7  98051759.605 7     -1046.053          42.000
> 2020 05 16 11 11 30.0000000  0 13        .000000000000
G14  23877015.258 7 125474550.563 7     -2293.547          43.000    23877018.109 6  97772396.824 6     -1787.182          39.000
G18  23052488.711 7 121141648.784 7      3550.930          47.000    23052496.719 5  94396109.704 5      2766.958          31.000
G25  21008795.625 7 110401959.826 7     -1821.266          46.000    21008797.633 7  86027494.989 7     -1419.168          47.000
G29  20225467.852 8 106285554.595 8      -299.648          51.000    20225466.719 8  82819918.714 8      -233.492          51.000
R14  21558974.680 7 114921457.084 7     -3315.348          42.000    21558984.734 8  89383374.388 8     -2578.604          50.000
R15  19157011.867 8 102369250.956 8        17.852          51.000    19157013.969 8  79620532.219 8        13.885          49.000
R17  19092169.562 8 102166126.570 8      -397.535          50.000    19092170.844 8  79462527.205 8      -309.194          48.000
R18  20825334.602 7 111167166.008 7      3290.801          45.000    20825339.117 7  86463322.836 7      2559.512          45.000
C27  21509979.570 8 112008077.087 8      -399.176          51.000
C28  24613064.555 5 128166685.659 5     -2837.758          32.000
C30  23137377.211 7 120482513.538 7      2451.605          47.000
E02  24219963.828 8 127276743.993 8     -1498.375          50.000    24219965.852 8  97523773.267 8     -1148.040          51.000
E36  24358924.148 6 128007030.562 6     -1377.012          38.000    24358926.492 7  98083281.353 7     -1055.346          43.000
> 2020 05 16 11 12  0.0000000  0 15        .000000000000
G14  23890134.672 7 125543494.516 7     -2302.895          45.000    23890137.844 6  97826119.336 6     -1794.463          39.000
G18  23032235.656 7 121035218.632 7      3544.320          47.000    23032241.758 6  94313177.100 6      2761.808          36.000
G21  23042741.102 4 121090421.007 4      3267.352          29.000
G25  21019221.961 7 110456752.190 7     -1831.535          47.000    21019223.922 7  86070190.299 7     -1427.170          47.000
G29  20227220.078 8 106294762.123 8      -314.273          51.000    20227218.703 8  82827093.397 8      -244.888          51.000
R14  21577669.070 7 115021107.329 7     -3327.887          43.000    21577678.852 8  89460880.217 8     -2588.353          49.000
R15  19156969.320 8 102369025.803 8        -2.953          51.000    19156971.695 8  79620357.075 8        -2.300          48.000
R17  19094465.219 8 102178409.120 8      -421.547          49.000    19094466.258 8  79472080.281 8      -327.870          49.000
R18  20806884.711 7 111068687.812 7      3274.301          47.000    20806890.773 7  86386728.684 7      2546.681          46.000
R24  21905272.977 5 117137338.299 5     -3728.523          30.000
C27  21512318.719 8 112020258.814 8      -412.992          51.000
C28  24629428.414 5 128251899.028 5     -2842.051          30.000
C30  23123280.906 8 120409106.961 8      2442.023          50.000
E02  24228539.812 8 127321809.866 8     -1506.109          51.000    24228541.422 8  97558304.239 8     -1154.029          51.000
E36  24366819.383 6 128048520.394 6     -1389.027          39.000    24366822.461 7  98115072.190 7     -1064.116          42.000
> 2020 05 16 11 12 30.0000000  0 12        .000000000000
G14  23903307.727 7 125612719.204 7     -2311.570          45.000    23903310.805 6  97880060.622 6     -1801.224          38.000
G18  23012020.141 7 120928985.771 7      3538.375          45.000    23012024.492 6  94230398.273 6      2757.175          37.000
G25  21029708.469 8 110511859.833 8     -1841.477          49.000    21029710.180 8  86113131.330 8     -1434.917          49.000
G29  20229055.383 8 106304406.732 8      -328.223          51.000    20229054.141 8  82834608.687 8      -255.758          51.000
R14  21596435.383 8 115121133.868 8     -3339.902          48.000    21596442.977 7  89538678.628 7     -2597.702          47.000
R15  19157044.469 8 102369427.895 8       -23.242          51.000    19157046.898 8  79620669.806 8       -18.080          49.000
R17  19096894.750 8 102191411.744 8      -444.797          49.000    19096896.422 8  79482193.429 8      -345.953          49.000
R18  20788529.906 8 110970704.726 8      3258.352          51.000    20788534.812 7  86310519.644 7      2534.273          45.000
C27  21514737.977 8 112032857.635 8      -426.238          51.000
C30  23109240.938 8 120335989.081 8      2432.934          51.000
E02  24237161.266 8 127367113.647 8     -1513.438          51.000    24237162.078 8  97593017.514 8     -1159.653          51.000
E36  24374782.156 5 128090344.103 5     -1399.621          33.000    24374785.594 7  98147135.813 7     -1072.799          43.000
> 2020 05 16 11 13  0.0000000  0 13        .000000000000
G14  23916532.742 7 125682217.394 7     -2321.461          44.000    23916535.945 6  97934215.011 6     -1808.934          38.000
G18  22991841.523 7 120822948.685 7      3530.863          44.000    22991844.914 6  94147771.956 6      2751.322          40.000
G21  23005515.320 5 120894802.460 5      3252.359          33.000
G25  21040254.258 8 110567277.997 8     -1852.746          49.000    21040255.945 8  86156314.291 8     -1443.701          49.000
G29  20230972.570 8 106314482.814 8      -343.254          51.000    20230971.492 8  82842460.159 8      -267.474          51.000
R14  21615271.859 8 115221530.538 8     -3352.938          51.000    21615276.352 7  89616764.859 7     -2607.843          46.000
R15  19157236.469 8 102370454.253 8       -44.816          51.000    19157238.922 8  79621468.062 8       -34.857          48.000
R17  19099457.812 8 102205128.027 8      -469.375          48.000    19099459.641 8  79492861.631 8      -365.072          48.000
R18  20770268.234 8 110873214.477 8      3241.262          51.000    20770271.430 7  86234693.924 7      2520.984          45.000
C27  21517236.188 8 112045868.209 8      -440.742          51.000
C30  23095255.477 8 120263156.452 8      2422.672          51.000
E02  24245826.484 8 127412651.062 8     -1522.008          50.000    24245827.086 8  97627909.792 8     -1166.157          50.000
E36  24382812.320 6 128132540.105 6     -1412.332          37.000    24382815.383 7  98179467.815 7     -1082.206          44.000
> 2020 05 16 11 13 30.0000000  0 14        .000000000000
G14  23929811.188 7 125751995.503 7     -2330.738          44.000    23929814.352 6  97988587.535 6     -1816.160          38.000
G18  22971701.852 7 120717119.291 7      3524.109          44.000    22971705.617 6  94065307.456 6      2746.056          40.000
G21  22986971.789 5 120797324.837 5      3244.434          32.000
G25  21050860.781 8 110623015.385 8     -1863.273          49.000    21050862.508 8  86199745.961 8     -1451.904          49.000
G29  20232973.547 8 106324998.317 8      -357.801          51.000    20232972.430 8  82850654.033 8      -278.806          51.000
R14  21634178.812 8 115322304.818 8     -3365.461          51.000    21634180.539 7  89695144.734 7     -2617.584          44.000
R15  19157547.312 8 102372115.297 8       -65.938          51.000    19157549.508 7  79622759.961 7       -51.285          47.000
R17  19102155.508 8 102219566.067 8      -493.270          49.000    19102157.969 8  79504091.195 8      -383.654          49.000
R18  20752100.688 8 110776229.000 8      3224.379          51.000    20752102.828 7  86159260.808 7      2507.850          46.000
C27  21519814.945 8 112059298.545 8      -454.652          51.000
C28  24678674.000 5 128508331.111 5     -2857.418          30.000
C30  23081325.938 8 120190619.002 8      2412.879          51.000
E02  24254537.391 8 127458431.258 8     -1530.008          50.000    24254538.727 8  97662988.098 8     -1172.392          50.000
E36  24390910.641 6 128175094.292 6     -1424.707          39.000    24390913.242 7  98212074.189 7     -1091.413          44.000
> 2020 05 16 11 14  0.0000000  0 14        .000000000000
G14  23943140.203 7 125822039.478 7     -2338.746          44.000    23943142.672 6  98043167.232 6     -1822.400          37.000
G18  22951599.836 7 120611489.193 7      3518.320          44.000    22951604.633 7  93982998.268 7      2741.548          42.000
G21  22968469.688 5 120700093.186 5      3238.309          31.000
G25  21061525.984 8 110679060.363 8     -1872.664          50.000    21061527.281 8  86243417.322 8     -1459.222          50.000
G29  20235055.812 8 106335941.043 8      -371.320          51.000    20235054.812 8  82859180.861 8      -289.337          51.000
R14  21653153.391 8 115423443.609 8     -3376.773          51.000    21653153.133 7  89773808.151 7     -2626.379          43.000
R15  19157975.227 8 102374401.110 8       -86.031          51.000    19157976.961 7  79624537.793 7       -66.913          46.000
R17  19104985.680 8 102234712.388 8      -516.195          49.000    19104988.688 8  79515871.661 8      -401.485          48.000
R18  20734024.875 8 110679738.859 8      3208.539          50.000    20734027.297 7  86084212.937 7      2495.530          46.000
C27  21522472.422 8 112073136.616 8      -467.484          51.000
C28  24695156.000 4 128594163.897 4     -2861.117          29.000
C30  23067450.461 8 120118366.522 8      2404.195          50.000
E02  24263292.703 8 127504443.127 8     -1537.004          50.000    24263294.516 8  97698243.930 8     -1177.671          50.000
E36  24399074.750 5 128218002.860 5     -1435.340          32.000    24399075.828 7  98244945.278 7     -1099.680          43.000
> 2020 05 16 11 14 30.0000000  0 13        .000000000000
G14  23956520.320 7 125892353.333 7     -2348.855          42.000    23956522.078 6  98097957.189 6     -1830.280          38.000
G18  22931538.547 7 120506068.204 7      3510.004          44.000    22931543.570 7  93900852.043 7      2735.071          42.000
G21  22950012.508 4 120603129.007 4      3228.480          28.000
G25  21072250.891 8 110735419.492 8     -1884.418          48.000    21072251.930 8  86287333.490 8     -1468.378          48.000
G29  20237220.703 8 106347317.027 8      -387.027          51.000    20237219.578 8  82868045.266 8      -301.580          51.000
R14  21672196.164 8 115524952.008 8     -3390.355          50.000    21672196.977 7  89852759.075 7     -2636.943          46.000
R15  19158521.703 8 102377319.935 8      -108.492          51.000    19158523.016 7  79626807.962 7       -84.386          46.000
R17  19107949.578 8 102250572.465 8      -541.020          49.000    19107952.523 8  79528207.250 8      -420.793          48.000
R18  20716043.336 8 110583753.962 8      3190.516          50.000    20716046.281 7  86009558.033 7      2481.515          46.000
C27  21525209.188 8 112087388.235 8      -482.590          51.000
C30  23053630.969 8 120046406.808 8      2393.270          50.000
E02  24272093.578 8 127550693.669 8     -1546.180          50.000    24272095.914 8  97733682.644 8     -1184.756          50.000
E36  24407304.484 6 128261249.364 6     -1448.258          36.000    24407305.711 7  98278085.356 7     -1109.641          43.000
> 2020 05 16 11 15  0.0000000  0 13        .000000000000
G14  23969951.688 7 125962936.506 7     -2357.102          42.000    23969952.648 6  98152956.990 6     -1836.706          36.000
G18  22911518.500 7 120400861.578 7      3503.207          45.000    22911523.117 6  93818872.854 6      2729.775          41.000
G21  22931601.273 5 120506379.852 5      3221.539          32.000
G25  21083035.672 7 110792094.809 7     -1894.441          47.000    21083037.250 7  86331496.012 7     -1476.188          47.000
G29  20239468.258 8 106359127.540 8      -400.781          51.000    20239467.016 8  82877248.263 8      -312.297          51.000
R14  21691306.773 7 115626830.699 7     -3402.020          46.000    21691310.555 7  89931998.027 7     -2646.015          46.000
R15  19159187.375 8 102380875.495 8      -129.016          51.000    19159188.180 7  79629573.369 7      -100.349          46.000
R17  19111046.695 8 102267146.909 8      -564.254          50.000    19111050.078 8  79541098.500 8      -438.864          48.000
R18  20698157.703 8 110488279.104 8      3174.156          51.000    20698160.453 7  85935299.814 7      2468.788          47.000
C27  21528026.039 8 112102054.800 8      -495.707          51.000
C30  23039867.797 8 119974743.126 8      2383.984          50.000
E02  24280940.602 8 127597185.358 8     -1553.504          51.000    24280943.289 8  97769306.090 8     -1190.335          50.000
E36  24415600.828 6 128304852.149 6     -1459.078          38.000    24415604.086 7  98311495.218 7     -1117.926          44.000
> 2020 05 16 11 15 30.0000000  0 13        .000000000000
G14  23983432.516 6 126033780.463 6     -2365.887          40.000    23983432.805 6  98208159.989 6     -1843.551          37.000
G18  22891538.742 7 120295866.228 7      3496.512          44.000    22891542.078 6  93737058.316 6      2724.555          40.000
G21  22913236.180 5 120409869.178 5      3213.234          32.000
G25  21093879.328 7 110849079.931 7     -1904.191          46.000    21093881.359 7  86375899.986 7     -1483.786          46.000
G29  20241797.094 8 106371365.642 8      -414.668          51.000    20241795.883 8  82886784.443 8      -323.118          51.000
R14  21710485.555 7 115729072.014 7     -3413.742          46.000    21710491.820 7  90011519.053 7     -2655.130          47.000
R15  19159971.367 8 102385063.101 8      -149.812          51.000    19159971.758 7  79632830.391 7      -116.521          47.000
R17  19114276.195 8 102284427.952 8      -587.480          50.000    19114279.297 7  79554539.300 7      -456.929          46.000
R18  20680367.203 8 110393310.565 8      3157.410          51.000    20680369.461 7  85861435.403 7      2455.763          47.000
C27  21530921.250 8 112117129.453 8      -508.984          51.000
C30  23026161.102 8 119903370.528 8      2374.465          51.000
E02  24289832.961 8 127643912.353 8     -1561.141          51.000    24289835.047 8  97805109.859 8     -1196.172          50.000
E36                                                                  24423967.844 7  98345169.322 7     -1126.747          43.000
> 2020 05 16 11 16  0.0000000  0 16        .000000000000
G02  24623928.664 4 129399618.302 4     -2765.945          29.000
G14  23996963.109 6 126104885.799 6     -2375.109          39.000    23996962.742 6  98263566.704 6     -1850.735          38.000
G18  22871600.000 7 120191088.593 7      3488.477          43.000    22871602.180 6  93655413.433 6      2718.293          38.000
G21  22894918.047 5 120313608.306 5      3204.684          30.000
G25  21104782.633 7 110906378.038 7     -1915.570          45.000    21104784.844 7  86420547.897 7     -1492.652          45.000
G29  20244207.688 8 106384033.406 8      -429.953          51.000    20244206.625 8  82896655.411 8      -335.028          51.000
R14  21729733.805 8 115831677.662 8     -3426.695          48.000    21729740.406 7  90091323.356 7     -2665.211          46.000
R15  19160874.297 8 102389887.533 8      -171.855          50.000    19160874.484 8  79636582.731 8      -133.665          48.000
R17  19117638.016 8 102302417.444 8      -611.961          51.000    19117640.891 7  79568531.131 7      -475.970          46.000
R18  20662672.586 8 110298854.407 8      3139.508          50.000    20662674.508 7  85787969.513 7      2441.839          47.000
C27  21533895.305 8 112132614.674 8      -523.445          51.000
C28  24761306.266 5 128938610.197 5     -2880.465          32.000
C30  23012511.875 8 119832293.344 8      2363.789          51.000
E02  24298770.805 8 127690878.273 8     -1570.027          51.000    24298772.016 8  97841096.705 8     -1202.903          50.000
E30  22310910.016 6 117244625.921 6       881.637          40.000    22310911.883 6  89836795.132 6       675.770          38.000
E36  24432393.078 5 128393094.099 5     -1482.941          35.000    24432395.883 7  98379109.300 7     -1136.085          43.000
> 2020 05 16 11 16 30.0000000  0 14        .000000000000
G14  24010539.352 6 126176229.174 6     -2381.582          40.000    24010538.430 6  98319158.910 6     -1855.781          38.000
G18  22851698.992 7 120086511.147 7      3482.957          43.000    22851700.703 5  93573924.584 5      2713.992          35.000
G25  21115741.711 7 110963968.390 7     -1924.164          47.000    21115744.102 7  86465423.498 7     -1499.349          47.000
G29  20246695.992 8 106397109.833 8      -442.355          51.000    20246694.820 8  82906844.837 8      -344.693          51.000
R14  21749046.289 7 115934625.329 7     -3437.016          46.000    21749052.516 7  90171393.662 7     -2673.237          45.000
R15  19161892.375 8 102395329.284 8      -191.336          51.000    19161893.266 8  79640815.199 8      -148.817          48.000
R17  19121128.016 8 102321092.797 8      -633.582          51.000    19121130.945 7  79583056.452 7      -492.783          45.000
R18  20645070.375 8 110204892.156 8      3124.066          51.000    20645071.828 7  85714887.823 7      2429.829          46.000
C27  21536944.297 8 112148489.347 8      -535.281          51.000
C28  24777901.719 5 129025026.766 5     -2881.953          32.000
C30  22998916.062 8 119761492.315 8      2355.789          51.000
E02  24307750.094 8 127738062.870 8     -1576.078          51.000    24307750.516 8  97877251.100 8     -1207.575          51.000
E30  22305892.445 6 117218255.514 6       876.031          40.000    22305894.453 6  89816589.277 6       671.047          39.000
E36  24440881.984 6 128437714.015 6     -1492.367          39.000    24440886.625 7  98413298.527 7     -1143.499          43.000
> 2020 05 16 11 17  0.0000000  0 15        .000000000000
G02  24655582.969 5 129565936.395 5     -2773.707          31.000
G14  24024125.016 7 126247620.817 7     -2381.215          42.000    24024123.938 6  98374788.758 6     -1855.489          39.000
G18  22831801.039 7 119981949.872 7      3484.316          43.000    22831802.703 5  93492448.350 5      2715.055          34.000
G25  21126720.820 7 111021663.699 7     -1925.598          47.000    21126723.211 7  86510380.884 7     -1500.466          47.000
G29  20249226.312 8 106410406.956 8      -447.645          51.000    20249225.016 8  82917206.236 8      -348.814          51.000
R14  21768386.766 7 116037723.287 7     -3439.773          47.000    21768393.547 7  90251580.962 7     -2675.376          47.000
R15  19162990.711 8 102401199.646 8      -203.500          51.000    19162991.875 8  79645381.029 8      -158.278          48.000
R17  19124710.359 8 102340261.743 8      -647.867          51.000    19124712.469 7  79597965.624 7      -503.897          45.000
R18  20627525.242 8 110111236.331 8      3116.066          49.000    20627526.344 7  85642044.478 7      2423.610          46.000
C27  21540031.891 8 112164567.159 8      -540.039          51.000
C28  24794481.430 5 129111366.335 5     -2877.500          30.000
C30  22985337.414 8 119690783.094 8      2354.777          51.000
E02  24316735.445 8 127785279.220 8     -1575.203          51.000    24316735.492 8  97913429.844 8     -1206.941          51.000
E30  22300880.867 7 117191914.144 7       876.922          42.000    22300881.984 6  89796405.624 6       672.041          39.000
