     3.04           OBSERVATION DATA    M (MIXED)           RINEX VERSION / TYPE
Convert 2.6.2       NovAtel             20200515 152841 UTC PGM / RUN BY / DATE 
Rinex Version 3.04 Observation File                         COMMENT             
                                                            MARKER NAME         
                                                            MARKER NUMBER       
                                                            MARKER TYPE         
                                                            OBSERVER / AGENCY   
                    NovAtel GPSCard                         REC # / TYPE / VERS 
                                                            ANT # / TYPE        
        0.0000        0.0000        0.0000                  APPROX POSITION XYZ 
        0.0000        0.0000        0.0000                  ANTENNA: DELTA H/E/N
G    8 C1C L1C D1C S1C C2W L2W D2W S2W                      SYS / # / OBS TYPES 
R    8 C1C L1C D1C S1C C2P L2P D2P S2P                      SYS / # / OBS TYPES 
E    8 C1C L1C D1C S1C C7Q L7Q D7Q S7Q                      SYS / # / OBS TYPES 
C    8 C2I L2I D2I S2I C7I L7I D7I S7I                      SYS / # / OBS TYPES 
DBHZ                                                        SIGNAL STRENGTH UNIT
    30.000                                                  INTERVAL            
  2020    05    08    04    00    0.0000000     GPS         TIME OF FIRST OBS   
  2020    05    08    04    59   30.0000000     GPS         TIME OF LAST OBS    
G L1C  0.00000  08 G30 G13 G28 G05 G07 G15 G24 G17          SYS / PHASE SHIFT   
G L2W  0.00000  06 G30 G28 G05 G07 G13 G17                  SYS / PHASE SHIFT   
R L1C  0.00000  06 R11 R12 R08 R01 R10 R02                  SYS / PHASE SHIFT   
R L2P  0.25000  05 R11 R12 R08 R01 R02                      SYS / PHASE SHIFT   
E L1C  0.50000  05 E02 E08 E27 E30 E07                      SYS / PHASE SHIFT   
E L7Q -0.25000  05 E02 E08 E27 E30 E07                      SYS / PHASE SHIFT   
C L2I  0.00000  03 C23 C05 C25                              SYS / PHASE SHIFT   
C L7I  0.00000  01 C05                                      SYS / PHASE SHIFT   
  6 R11  0 R12 -1 R08  6 R01  1 R10 -7 R02 -4               GLONASS SLOT / FRQ #
 C1C  -71.950 C2C  -71.950 C2P  -71.950                     GLONASS COD/PHS/BIS 
     0     0     0     0GPS                                 LEAP SECONDS        
                                                            END OF HEADER       
> 2020 05 08 04 00  0.0000000  0 15      -0.000000000000
G30  20939554.734 8 110038121.503 8     -1594.113          51.000    20939555.555 8  85744032.805 8     -1242.167          51.000  
G13  20828404.742 5 109454024.41025      1632.707          30.000                                                                  
G28  21235580.398 8 111593741.522 8      1502.984          49.000    21235578.859 7  86956192.710 7      1171.157          46.000  
G05  21048209.609 8 110609078.733 8     -1789.117          51.000    21048207.898 8  86188887.602 8     -1394.118          51.000  
R11  19228437.977 8 102750535.883 8      -618.234          51.000    19228441.148 7  79917125.339 7      -480.849          47.000  
R12  20637239.453 8 110240053.684 8      3036.684          50.000    20637240.766 7  85742256.727 7      2361.865          43.000  
R08  22232903.844 7 119055807.957 7     -3653.660          44.000    22232909.953 7  92598962.572 7     -2841.739          43.000  
R01  19434731.297 8 103889394.630 8     -1351.562          48.000    19434734.336 7  80802854.873 7     -1051.215          43.000  
E02  25940667.383 5 136319125.297 5     -2324.977          34.000    25940670.266 5 104452329.932 5     -1781.147          31.000  
E08  23918895.664 7 125694636.473 7     -2266.871          46.000    23918898.102 8  96311560.642 8     -1737.056          48.000  
E27  25332587.586 8 133123688.195 8      2710.574          51.000    25332589.711 8 102003879.655 8      2076.950          51.000  
E30  22350503.156 8 117452686.493 8       218.125          51.000    22350503.953 8  89996218.771 8       167.195          51.000  
E07  23372715.195 8 122824454.374 8      -154.867          51.000    23372717.531 8  94112246.754 8      -118.611          51.000  
C23  21859473.023 8 113828017.258 8      -327.453          51.000                                                                  
C05                                                                  39790062.578 6 160218079.347 6         6.159          40.000  
> 2020 05 08 04 00 30.0000000  0 15      -0.000000000000
G30  20948681.891 8 110086085.343 8     -1599.379          51.000    20948682.625 8  85781407.200 8     -1246.270          51.000  
G07  23209884.086 5 121968736.535 5     -2681.867          35.000                                                                  
G28  21227045.453 8 111548890.618 8      1491.160          49.000    21227044.477 7  86921243.946 7      1161.943          47.000  
G05  21058469.391 8 110662993.185 8     -1801.168          51.000    21058467.797 8  86230898.852 8     -1403.508          51.000  
R11  19231968.094 8 102769399.691 8      -635.270          51.000    19231971.367 7  79931797.214 7      -494.099          47.000  
R12  20620227.297 8 110149180.751 8      3025.500          51.000    20620228.672 7  85671577.780 7      2353.167          45.000  
R08  22253400.969 7 119165558.609 7     -3658.898          45.000    22253404.414 6  92684324.086 6     -2845.813          41.000  
R01  19442372.062 8 103930238.964 8     -1367.215          48.000    19442375.492 7  80834622.651 7     -1063.393          43.000  
E02  25953956.656 5 136388961.942 5     -2326.742          31.000    25953960.352 5 104505843.447 5     -1783.293          31.000  
E08  23931850.805 7 125762717.107 7     -2267.652          45.000    23931853.961 8  96363726.298 8     -1737.538          48.000  
E27  25317131.805 8 133042464.601 8      2708.418          51.000    25317134.250 8 101941643.403 8      2075.282          51.000  
E30  22349293.602 8 117446330.651 8       209.672          51.000    22349294.688 8  89991348.718 8       160.658          51.000  
E07  23373622.383 8 122829221.694 8      -158.906          51.000    23373624.977 8  94115899.618 8      -121.753          51.000  
C23  21861393.672 8 113838018.721 8      -335.367          51.000                                                                  
C05  39790015.125 6 207197049.849 6        13.551          36.000    39790013.211 6 160217880.427 6        10.176          39.000  
> 2020 05 08 04 01  0.0000000  0 16      -0.000000000000
G30  20957865.227 8 110134344.584 8     -1612.867          51.000    20957866.188 8  85819011.792 8     -1256.780          51.000  
G07  23225230.766 5 122049382.524 5     -2689.148          34.000    23225234.031 5  95103476.352 5     -2095.441          30.000  
G28  21218604.930 8 111504535.827 8      1470.793          49.000    21218604.383 8  86886681.767 8      1146.073          48.000  
G05  21068824.078 8 110717408.531 8     -1821.602          51.000    21068822.797 8  86273300.408 8     -1419.430          51.000  
R11  19235620.188 8 102788914.994 8      -660.699          51.000    19235622.812 7  79946975.785 7      -513.877          46.000  
R12  20603305.953 8 110058788.269 8      3005.680          51.000    20603308.281 8  85601272.508 8      2337.751          48.000  
R08  22273953.250 7 119275606.387 7     -3672.637          45.000    22273954.328 6  92769916.746 6     -2856.499          41.000  
R10  22533044.766 4 120113405.660 4     -3944.199          29.000                                                                  
R01  19450128.008 7 103971699.544 7     -1391.629          47.000    19450131.797 7  80866869.766 7     -1082.378          44.000  
E02                                                                  25967288.688 5 104559512.873 5     -1790.971          30.000  
E08  23944836.266 7 125830955.475 7     -2276.695          46.000    23944839.617 7  96416012.784 7     -1744.488          47.000  
E27  25301714.625 8 132961444.363 8      2697.816          51.000    25301717.039 8 101879562.953 8      2067.195          51.000  
E30  22348158.906 8 117440368.641 8       192.754          51.000    22348159.852 8  89986780.435 8       147.686          51.000  
E07  23374579.102 8 122834248.770 8      -171.391          51.000    23374581.594 8  94119751.519 8      -131.325          51.000  
C23  21863386.328 8 113848395.747 8      -351.605          51.000                                                                  
C05  39789961.750 6 207196771.741 6        10.660          36.000    39789959.781 6 160217665.346 6         7.893          40.000  
> 2020 05 08 04 01 30.0000000  0 14      -0.000000000000
G30  20967151.008 8 110183141.776 8     -1629.730          51.000    20967152.234 8  85857035.588 8     -1269.920          51.000  
G28  21210305.758 8 111460922.674 8      1447.219          50.000    21210305.398 8  86852697.476 8      1127.703          48.000  
G05  21079320.203 8 110772567.415 8     -1845.199          51.000    21079319.109 8  86316281.343 8     -1437.818          51.000  
R11  19239440.289 8 102809328.138 8      -689.461          51.000    19239442.867 7  79962852.676 7      -536.247          47.000  
R12  20586521.820 8 109969126.410 8      2982.359          51.000    20586524.711 8  85531535.514 8      2319.613          49.000  
R08  22294606.141 7 119386197.723 7     -3689.602          44.000    22294606.695 6  92855932.213 6     -2869.691          41.000  
R10  22555306.406 4 120232052.73224     -3956.270          29.000                                                                  
R01  19458045.445 7 104014024.738 7     -1419.203          46.000    19458049.844 7  80899789.346 7     -1103.825          43.000  
E08  23957898.469 7 125899595.147 7     -2288.840          47.000    23957901.250 7  96468606.767 7     -1753.772          46.000  
E27  25286382.664 8 132880872.694 8      2684.023          51.000    25286384.641 8 101817826.218 8      2056.680          51.000  
E30  22347145.789 8 117435044.128 8       172.703          51.000    22347146.000 8  89982700.607 8       132.370          51.000  
E07  23375631.859 8 122839780.179 8      -186.988          51.000    23375634.062 8  94123989.870 8      -143.235          51.000  
C23  21865497.523 8 113859389.186 8      -370.938          51.000                                                                  
C05  39789950.750 6 207196714.98026         3.863          36.000    39789948.773 6 160217621.058 6         3.018          40.000  
> 2020 05 08 04 02  0.0000000  0 15      -0.000000000000
G30  20976419.656 8 110231848.914 8     -1630.184          51.000    20976420.938 8  85894989.194 8     -1270.273          51.000  
G07  23256003.555 6 122211092.479 6     -2693.191          36.000    23255991.094 4  95229395.325 4     -2098.588          24.000  
G28  21202028.727 8 111417425.804 8      1439.723          51.000    21202028.516 7  86818803.805 7      1121.862          47.000  
G05  21089838.086 8 110827841.053 8     -1852.488          50.000    21089837.508 8  86359351.700 8     -1443.498          50.000  
R11  19243308.797 8 102829999.785 8      -701.660          51.000    19243311.484 7  79978930.653 7      -545.736          47.000  
R12  20569755.781 8 109879560.071 8      2975.598          51.000    20569758.914 8  85461872.819 8      2314.351          49.000  
R08  22315240.523 7 119496692.191 7     -3689.957          43.000    22315240.586 6  92941872.363 6     -2869.967          40.000  
R01  19466005.250 7 104056576.181 7     -1430.414          46.000    19466010.406 7  80932884.915 7     -1112.544          43.000  
E02  25994088.375 5 136599857.803 5     -2349.090          35.000                                                                  
E08  23970917.836 8 125968009.166 8     -2284.855          49.000    23970919.680 7  96521027.887 7     -1750.761          46.000  
E27  25271016.609 8 132800124.322 8      2686.398          49.000    25271018.148 8 101755954.097 8      2058.365          51.000  
E30  22346134.633 8 117429730.204 8       168.848          51.000    22346134.766 8  89978628.905 8       129.326          51.000  
E07  23376661.484 8 122845189.951 8      -186.543          51.000    23376663.312 8  94128135.020 8      -142.933          51.000  
C23  21867607.641 8 113870377.196 8      -374.312          51.000                                                                  
C05                                                                  39789861.008 6 160217267.418 6        10.575          39.000  
> 2020 05 08 04 02 30.0000000  0 15      -0.000000000000
G30  20985790.805 8 110281094.852 8     -1645.496          51.000    20985792.047 8  85933362.646 8     -1282.205          51.000  
G28  21193893.898 8 111374676.927 8      1417.539          51.000    21193893.992 7  86785493.006 7      1104.576          46.000  
G05  21100497.125 8 110883858.218 8     -1874.531          49.000    21100497.320 8  86403001.417 8     -1460.674          50.000  
R11  19247345.289 8 102851569.119 8      -728.785          51.000    19247347.734 7  79995706.804 7      -566.833          47.000  
R12  20553127.766 8 109790732.114 8      2953.758          51.000    20553130.867 8  85392784.375 8      2297.365          49.000  
R08  22335975.109 6 119607729.993 6     -3705.055          40.000    22335975.875 6  93028235.090 6     -2881.710          40.000  
R01  19474127.766 8 104099995.123 8     -1456.492          48.000    19474133.102 7  80966655.181 7     -1132.828          43.000  
E02  26007555.078 6 136670623.481 6     -2361.586          36.000                                                                  
E08  23984013.945 8 126036827.499 8     -2295.730          49.000    23984015.383 8  96573758.760 8     -1759.037          48.000  
E27  25255736.250 7 132719830.806 7      2673.770          47.000    25255737.953 8 101694430.477 8      2048.833          51.000  
E30  22345245.125 8 117425056.751 8       150.121          51.000    22345245.852 8  89975047.971 8       115.046          51.000  
E07  23377787.836 8 122851108.974 8      -200.836          51.000    23377789.453 8  94132670.371 8      -153.819          51.000  
C23  21869836.406 8 113881983.380 8      -392.188          51.000                                                                  
C05  39789818.273 6 207196024.441 6         9.113          36.000    39789816.297 6 160217087.415 6         7.132          40.000  
C25  24514233.695 5 127652030.094 5     -2753.926          31.000                                                                  
> 2020 05 08 04 03  0.0000000  0 14      -0.000000000000
G30  20995222.656 8 110330659.805 8     -1657.621          51.000    20995224.031 8  85971984.705 8     -1291.653          51.000  
G28  21185860.219 8 111332459.167 8      1398.121          51.000    21185860.305 7  86752596.054 7      1089.445          46.000  
G05  21111255.906 8 110940398.809 8     -1893.656          49.000    21111256.469 8  86447059.021 8     -1475.577          49.000  
R11  19251507.633 8 102873811.986 8      -752.820          51.000    19251510.430 7  80013006.831 7      -585.527          47.000  
R12  20536595.312 8 109702422.658 8      2934.875          49.000    20536599.477 7  85324099.184 7      2282.678          47.000  
R08  22356767.789 6 119719086.250 6     -3717.117          39.000    22356770.375 6  93114845.518 6     -2891.092          41.000  
R01  19482370.945 8 104144059.147 8     -1479.707          48.000    19482375.930 7  81000927.173 7     -1150.886          42.000  
E02  26021065.188 5 136741620.393 5     -2370.359          34.000    26021066.773 5 104776053.588 5     -1816.340          30.000  
E08  23997145.203 8 126105831.464 8     -2303.309          49.000    23997146.828 8  96626631.890 8     -1764.871          48.000  
E27  25240500.672 7 132639775.121 7      2664.469          46.000    25240503.102 8 101633089.075 8      2041.607          50.000  
E30  22344435.930 8 117420805.171 8       134.531          51.000    22344436.961 8  89971790.283 8       103.097          51.000  
E07  23378969.617 8 122857319.530 8      -212.004          51.000    23378971.062 8  94137429.111 8      -162.481          51.000  
C23  21872142.227 8 113893990.491 8      -407.043          51.000                                                                  
C05  39789775.266 6 207195799.969 6         7.527          36.000    39789773.227 6 160216913.846 6         5.534          40.000  
> 2020 05 08 04 03 30.0000000  0 15      -0.000000000000
G30  21004722.883 8 110380583.920 8     -1664.879          51.000    21004724.430 8  86010886.623 8     -1297.309          51.000  
G13  20764509.797 4 109118247.44824      1567.121          29.000                                                                  
G28  21177935.617 8 111290815.570 8      1383.773          49.000    21177935.578 7  86720146.522 7      1078.268          45.000  
G05  21122122.336 8 110997502.709 8     -1907.637          50.000    21122122.625 8  86491555.572 8     -1486.468          51.000  
R11  19255803.742 8 102896768.914 8      -771.766          50.000    19255806.289 7  80030862.206 7      -600.262          47.000  
R12  20520166.867 8 109614675.794 8      2920.762          48.000    20520172.055 7  85255851.590 7      2271.704          45.000  
R08  22377628.594 6 119830801.930 6     -3724.492          41.000    22377632.734 7  93201735.434 7     -2896.831          43.000  
R01  19490742.641 8 104188810.056 8     -1497.812          49.000    19490747.258 7  81035733.395 7     -1164.965          42.000  
E02  26034626.703 5 136812885.443 5     -2374.805          33.000    26034630.133 5 104830663.247 5     -1819.483          32.000  
E08  24010319.562 8 126175062.266 8     -2306.277          49.000    24010321.578 8  96679678.832 8     -1767.071          49.000  
E27  25225319.500 8 132559999.990 8      2659.730          48.000    25225321.938 8 101571962.652 8      2037.968          50.000  
E30  22343714.742 8 117417016.634 8       123.879          51.000    22343715.891 8  89968887.362 8        94.917          51.000  
E07  23380214.961 8 122863863.768 8      -218.492          51.000    23380216.398 8  94142443.517 8      -167.374          51.000  
C23  21874532.633 8 113906438.732 8      -417.090          51.000                                                                  
C05  39789741.703 6 207195625.935 6        10.285          36.000    39789739.625 6 160216778.463 6         7.793          40.000  
> 2020 05 08 04 04  0.0000000  0 15      -0.000000000000
G30  21014243.625 8 110430615.781 8     -1676.836          51.000    21014245.227 8  86049872.465 8     -1306.626          51.000  
G28  21170072.680 8 111249497.427 8      1364.484          48.000    21170072.516 7  86687950.582 7      1063.235          46.000  
G05  21133048.477 8 111054918.544 8     -1926.211          51.000    21133048.242 8  86536295.189 8     -1500.944          51.000  
R11  19260185.281 8 102920183.365 8      -795.484          51.000    19260188.062 7  80049073.444 7      -618.710          47.000  
R12  20503798.078 8 109527239.486 8      2901.883          51.000    20503801.539 7  85187845.632 7      2257.023          44.000  
R08  22398510.656 7 119942619.618 7     -3736.418          43.000    22398514.148 7  93288704.686 7     -2906.104          43.000  
R01  19499195.242 8 104233992.957 8     -1520.730          49.000    19499199.203 7  81070875.655 7     -1182.788          43.000  
E02                                                                  26048197.172 5 104885286.063 5     -1826.571          33.000  
E08  24023489.328 8 126244269.536 8     -2313.879          49.000    24023491.938 8  96732707.738 8     -1772.967          50.000  
E27  25210145.305 8 132480256.636 8      2650.281          49.000    25210147.227 8 101510860.610 8      2030.688          49.000  
E30  22343033.828 8 117413440.754 8       108.352          51.000    22343035.773 8  89966147.404 8        82.981          51.000  
E07  23381476.305 8 122870492.267 8      -229.719          51.000    23381477.875 8  94147522.504 8      -176.000          51.000  
C23  21876960.031 8 113919079.427 8      -431.805          51.000                                                                  
C05  39789670.086 6 207195252.680 6         8.410          36.000    39789667.930 6 160216489.780 6         6.703          40.000  
C25  24561952.055 5 127900514.846 5     -2767.840          32.000                                                                  
> 2020 05 08 04 04 30.0000000  0 14      -0.000000000000
G30  21023865.047 8 110481176.720 8     -1702.906          51.000    21023866.562 8  86089270.581 8     -1326.940          51.000  
G28  21162352.352 8 111208928.646 8      1331.172          48.000    21162352.359 7  86656338.543 7      1037.277          47.000  
G05  21144114.133 8 111113066.604 8     -1959.199          51.000    21144113.297 8  86581605.376 8     -1526.649          51.000  
R11  19264733.023 8 102944483.644 8      -833.555          50.000    19264735.531 7  80067973.658 7      -648.320          47.000  
R12  20487569.742 8 109440545.138 8      2868.480          51.000    20487572.703 7  85120416.745 7      2231.041          47.000  
R08  22419492.844 7 120054967.825 7     -3762.598          44.000    22419494.188 7  93376086.595 7     -2926.469          43.000  
R01  19507808.750 8 104280037.902 8     -1558.133          49.000    19507812.617 7  81106688.380 7     -1211.884          43.000  
E02                                                                  26061848.070 5 104940245.679 5     -1844.200          33.000  
E08  24036734.820 8 126313875.632 8     -2335.527          48.000    24036738.078 8  96786042.251 8     -1789.573          49.000  
E27  25195057.945 8 132400969.161 8      2626.582          50.000    25195059.641 8 101450107.873 8      2012.634          49.000  
E30  22342473.828 8 117410499.941 8        78.707          51.000    22342476.680 8  89963894.054 8        60.389          51.000  
E07  23382834.078 8 122877628.423 8      -255.027          51.000    23382835.953 8  94152990.460 8      -195.423          51.000  
C23  21879504.609 8 113932330.535 8      -460.539          51.000                                                                  
C05  39789640.766 6 207195100.060 6        -7.562          36.000    39789638.609 6 160216371.745 6        -5.555          40.000  
> 2020 05 08 04 05  0.0000000  0 14      -0.000000000000
G30  21033525.352 8 110531942.366 8     -1680.000          50.000    21033526.727 8  86128828.215 8     -1309.091          51.000  
G28  21154713.617 8 111168787.557 8      1346.562          49.000    21154714.000 8  86625059.782 8      1049.273          48.000  
G05  21155257.461 8 111171622.710 8     -1943.023          51.000    21155256.086 8  86627233.499 8     -1514.048          51.000  
R11  19269384.367 8 102969339.020 8      -821.750          50.000    19269386.555 7  80087305.599 7      -639.139          47.000  
R12  20471419.523 8 109354266.476 8      2884.977          51.000    20471422.688 8  85053311.131 8      2243.871          49.000  
R08  22440511.961 7 120167515.861 7     -3738.867          43.000    22440511.750 7  93463623.903 7     -2908.008          43.000  
R01  19516521.859 8 104326615.566 8     -1545.480          49.000    19516525.781 7  81142915.432 7     -1202.041          43.000  
E02                                                                  26075520.641 5 104995293.412 5     -1824.496          33.000  
E08  24049994.383 8 126383557.318 8     -2308.480          48.000    24049998.242 8  96839434.692 8     -1768.843          49.000  
E27  25179996.016 8 132321815.864 8      2651.840          50.000    25179997.594 8 101389457.958 8      2031.829          49.000  
E30  22341973.281 8 117407870.884 8        98.035          51.000    22341976.438 8  89961879.571 8        75.100          51.000  
E07  23384227.117 8 122884949.875 8      -231.629          51.000    23384229.234 8  94158600.406 8      -177.473          51.000  
C23  21882104.844 8 113945871.123 8      -440.656          51.000                                                                  
C05                                                                  39789590.289 6 160216177.024 6        19.525          40.000  
> 2020 05 08 04 05 30.0000000  0 14      -0.000000000000
G30  21043266.914 8 110583135.049 8     -1708.672          51.000    21043268.141 8  86168718.591 8     -1331.433          51.000  
G28  21147199.352 8 111129299.576 8      1310.152          50.000    21147199.820 8  86594289.943 8      1020.898          48.000  
G05  21166520.430 8 111230808.422 8     -1978.559          51.000    21166518.797 8  86673352.225 8     -1541.734          51.000  
R11  19274181.914 8 102994974.894 8      -862.648          49.000    19274183.938 8  80107244.596 8      -670.949          48.000  
R12  20455388.977 8 109268633.035 8      2848.656          50.000    20455392.969 8  84986707.358 8      2215.622          49.000  
R08  22461609.750 7 120280489.565 7     -3767.961          43.000    22461608.859 7  93551492.297 7     -2930.640          43.000  
R01  19525377.070 8 104373953.015 8     -1585.758          49.000    19525380.867 7  81179733.450 7     -1233.367          42.000  
E02                                                                  26089256.391 5 105050622.423 5     -1844.194          32.000  
E08  24063310.922 8 126453537.909 8     -2332.812          48.000    24063314.555 8  96893056.161 8     -1787.550          48.000  
E27  25165002.211 8 132243021.754 8      2625.219          50.000    25165003.836 8 101329083.243 8      2011.580          49.000  
E30  22341574.742 8 117405776.909 8        65.711          51.000    22341577.883 8  89960275.087 8        50.350          51.000  
E07  23385698.180 8 122892680.941 8      -259.703          51.000    23385700.562 8  94164524.208 8      -198.999          51.000  
C23  21884802.875 8 113959921.883 8      -472.102          51.000                                                                  
C05  39789567.492 6 207194718.900 6         7.016          36.000    39789565.445 6 160216076.970 6         5.437          40.000  
> 2020 05 08 04 06  0.0000000  0 14      -0.000000000000
G30  21053038.258 8 110634484.192 8     -1709.840          50.000    21053039.695 8  86208730.890 8     -1332.343          50.000  
G28  21139758.500 8 111090196.582 8      1301.262          51.000    21139758.719 8  86563820.066 8      1013.967          48.000  
G05  21177851.508 8 111290352.872 8     -1986.457          51.000    21177849.992 8  86719750.492 8     -1547.889          51.000  
R11  19279073.938 8 103021115.646 8      -875.426          49.000    19279075.984 8  80127576.275 8      -680.890          48.000  
R12  20439425.898 7 109183373.124 7      2840.059          47.000    20439432.039 7  84920394.029 7      2208.932          47.000  
R08  22482734.859 7 120393612.354 7     -3768.859          43.000    22482733.930 7  93639476.670 7     -2931.336          43.000  
R10  22756577.594 5 121304963.52625     -3985.883          31.000                                                                  
R01  19534322.984 8 104421776.394 8     -1597.824          48.000    19534326.992 6  81216929.375 6     -1242.752          40.000  
E08  24076633.031 8 126523547.862 8     -2329.855          48.000    24076635.539 7  96946700.076 7     -1785.155          46.000  
E27  25150025.742 8 132164318.861 8      2626.156          51.000    25150027.586 8 101268778.431 8      2012.290          49.000  
E30  22341226.930 8 117403948.420 8        60.758          51.000    22341230.117 8  89958874.028 8        46.627          51.000  
E07  23387196.039 8 122900553.053 8      -260.441          51.000    23387198.594 8  94170556.074 8      -199.571          51.000  
C23  21887547.578 8 113974215.132 8      -476.168          51.000                                                                  
C05  39789514.953 6 207194444.357 6        15.438          36.000    39789512.906 6 160215865.415 6        12.194          40.000  
> 2020 05 08 04 06 30.0000000  0 14      -0.000000000000
G30  21062830.250 8 110685941.455 8     -1729.742          50.000    21062831.828 8  86248827.454 8     -1347.851          50.000  
G28  21132382.336 8 111051432.988 8      1273.941          51.000    21132382.312 8  86533614.653 8       992.682          49.000  
G05  21189241.422 8 111350207.436 8     -2012.918          51.000    21189240.312 8  86766390.404 8     -1568.508          51.000  
R11  19284051.000 8 103047711.582 8      -906.820          49.000    19284053.109 8  80148261.977 8      -705.305          48.000  
R12  20423525.961 8 109098440.729 8      2812.875          51.000    20423531.922 7  84854335.484 7      2187.792          47.000  
R08  22503877.922 7 120506834.282 7     -3788.453          42.000    22503877.750 7  93727538.143 7     -2946.575          43.000  
R10  22779029.141 5 121424632.795 5     -4000.758          33.000                                                                  
R01  19543350.781 8 104470037.217 8     -1628.785          48.000    19543354.867 6  81254465.520 6     -1266.836          39.000  
E08  24089952.289 8 126593539.947 8     -2345.289          49.000    24089952.352 7  97000330.353 7     -1797.077          45.000  
E27  25135057.938 8 132085661.562 8      2608.680          51.000    25135059.570 8 101208508.560 8      1998.803          48.000  
E30  22340920.820 8 117402338.091 8        37.594          51.000    22340923.805 8  89957640.139 8        28.782          51.000  
E07  23388711.961 8 122908519.887 8      -279.699          51.000    23388714.633 8  94176660.529 8      -214.282          51.000  
C23  21890329.945 8 113988703.412 8      -498.641          51.000                                                                  
C05  39789425.711 6 207193980.219 6         5.539          36.000    39789423.867 6 160215506.454 6         4.899          40.000  
> 2020 05 08 04 07  0.0000000  0 15      -0.000000000000
G30  21072733.055 8 110737980.709 8     -1728.035          48.000    21072734.250 8  86289377.533 8     -1346.521          48.000  
G07  23411129.117 5 123026317.001 5     -2725.863          33.000                                                                  
G28  21125161.219 8 111013484.963 8      1267.281          50.000    21125161.164 8  86504044.770 8       987.492          49.000  
G05  21200780.023 8 111410845.132 8     -2018.230          51.000    21200779.602 8  86813640.545 8     -1572.648          50.000  
R11  19289203.109 8 103075243.508 8      -916.984          50.000    19289205.508 8  80169675.696 8      -713.210          48.000  
R12  20407779.516 8 109014320.760 8      2806.645          51.000    20407783.898 7  84788908.882 7      2182.949          46.000  
R08  22525129.109 6 120620637.586 6     -3786.605          41.000    22525129.547 6  93816051.799 6     -2945.138          40.000  
R10  22801555.312 5 121544712.287 5     -3992.941          32.000                                                                  
R01  19552551.203 8 104519218.562 8     -1638.371          48.000    19552555.492 6  81292717.622 6     -1274.292          40.000  
E08  24103358.859 8 126663989.081 8     -2339.871          50.000    24103357.461 7  97054310.817 7     -1792.841          47.000  
E27  25120189.289 8 132007526.357 8      2611.852          50.000    25120190.180 8 101148638.762 8      2001.236          48.000  
E30  22340746.484 8 117401420.769 8        35.090          51.000    22340749.109 8  89956937.258 8        26.890          51.000  
E07  23390336.453 8 122917057.298 8      -278.070          51.000    23390339.367 8  94183202.172 8      -213.034          51.000  
C23  21893239.812 8 114003856.647 8      -500.270          51.000                                                                  
C05  39789390.352 6 207193796.343 6        17.250          36.000    39789388.648 6 160215364.269 6        13.372          40.000  
> 2020 05 08 04 07 30.0000000  0 16      -0.000000000000
G30  21082670.195 8 110790200.679 8     -1747.793          48.000    21082671.039 7  86330068.439 7     -1361.917          47.000  
G07  23426742.430 6 123108369.673 6     -2739.270          37.000    23426741.531 4  95928598.124 4     -2134.506          28.000  
G28  21118019.227 8 110975954.092 8      1240.059          50.000    21118019.148 8  86474799.940 8       966.277          48.000  
G05  21212391.203 8 111471864.764 8     -2044.395          50.000    21212391.234 8  86861188.308 8     -1593.035          50.000  
R11  19294454.070 8 103103302.890 8      -948.344          50.000    19294456.367 8  80191499.669 8      -737.601          48.000  
R12  20392109.461 8 108930608.515 8      2779.387          51.000    20392112.453 7  84723799.390 7      2161.746          47.000  
R08  22546412.664 7 120734612.826 7     -3806.238          42.000    22546411.367 6  93904699.170 6     -2960.408          37.000  
R10  22824082.383 5 121664793.993 5     -4006.836          34.000                                                                  
R01  19561848.000 8 104568912.735 8     -1669.168          49.000    19561852.438 7  81331368.609 7     -1298.242          42.000  
E08  24116776.336 8 126734494.927 8     -2355.336          51.000    24116774.492 7  97108334.738 7     -1804.778          47.000  
E27  25105343.766 8 131929514.562 8      2594.145          49.000    25105344.195 8 101088863.505 8      1987.647          48.000  
E30  22340627.859 8 117400796.125 8        11.805          51.000    22340630.227 8  89956458.629 8         9.042          51.000  
E07  23391993.516 8 122925765.949 8      -297.324          51.000    23391996.984 8  94189875.032 8      -227.826          51.000  
C23  21896201.469 8 114019277.606 8      -522.562          51.000                                                                  
C05  39789332.781 6 207193496.615 6         7.645          36.000    39789331.164 6 160215132.484 6         6.050          40.000  
C25  24674156.398 5 128484827.31025     -2798.340          30.000                                                                  
> 2020 05 08 04 08  0.0000000  0 16      -0.000000000000
G30  21092668.398 8 110842741.686 8     -1754.449          48.000    21092669.242 8  86371009.488 8     -1367.104          48.000  
G07  23442380.508 6 123190549.376 6     -2738.711          37.000    23442375.211 5  95992634.276 5     -2134.061          35.000  
G28  21110983.695 8 110938983.365 8      1225.316          49.000    21110983.484 7  86445991.557 7       954.792          46.000  
G05  21224101.938 8 111533405.802 8     -2057.742          50.000    21224101.789 8  86909142.383 8     -1603.433          51.000  
R11  19299830.289 8 103132031.619 8      -966.449          51.000    19299832.570 8  80213844.234 8      -751.683          49.000  
R12  20376542.742 8 108847449.985 8      2765.043          51.000    20376544.742 8  84659120.543 8      2150.589          48.000  
R08  22567755.328 7 120848901.716 7     -3812.543          44.000    22567751.102 6  93993590.441 6     -2965.315          37.000  
R10  22846636.336 5 121785018.143 5     -4006.922          33.000                                                                  
R01  19571267.789 8 104619263.661 8     -1686.953          49.000    19571272.258 7  81370530.421 7     -1312.075          44.000  
E08  24130231.359 8 126805198.842 8     -2357.758          51.000    24130229.047 7  97162510.418 7     -1806.601          47.000  
E27  25090548.688 8 131851769.173 8      2589.406          48.000    25090549.328 8 101029292.365 8      1984.089          48.000  
E30  22340592.016 8 117400605.458 8         1.406          51.000    22340594.125 8  89956312.532 8         1.110          51.000  
E07  23393710.258 8 122934788.188 8      -303.648          51.000    23393714.227 8  94196788.155 8      -232.639          51.000  
C23  21899241.172 8 114035105.747 8      -532.066          51.000                                                                  
C05  39789279.977 5 207193221.494 5        11.328          35.000    39789278.258 6 160214919.714 6         8.726          40.000  
C25  24690294.516 5 128568779.710 5     -2799.023          33.000                                                                  
> 2020 05 08 04 08 30.0000000  0 17      -0.000000000000
G30  21102717.305 7 110895548.629 7     -1765.324          47.000    21102718.039 7  86412157.759 7     -1375.578          47.000  
G15  22424850.508 5 117843403.640 5      2889.078          35.000                                                                  
G07  23458033.102 6 123272800.978 6     -2743.867          37.000    23458026.406 5  96056726.403 5     -2138.079          33.000  
G28  21104044.523 8 110902520.075 8      1206.355          49.000    21104044.320 7  86417578.544 7       940.014          44.000  
G05  21235901.742 8 111595413.154 8     -2075.426          51.000    21235901.062 8  86957459.815 8     -1617.215          51.000  
R11  19305321.039 8 103161372.900 8      -988.828          51.000    19305323.750 8  80236665.241 8      -769.086          49.000  
R12  20361068.617 8 108764792.537 8      2746.137          50.000    20361071.266 8  84594831.414 8      2135.885          49.000  
R08  22589146.172 7 120963447.759 7     -3823.113          45.000    22589142.664 6  94082681.698 6     -2973.536          40.000  
R10  22869206.234 5 121905327.478 5     -4012.434          30.000                                                                  
R01  19580799.820 8 104670216.255 8     -1709.133          49.000    19580804.258 7  81410160.199 7     -1329.326          45.000  
E08  24143713.289 8 126876046.820 8     -2364.715          50.000    24143710.891 7  97216796.474 7     -1811.970          46.000  
E27  25075794.398 8 131774237.735 8      2580.059          49.000    25075795.594 8 100969885.135 8      1977.013          49.000  
E30  22340628.297 8 117400794.645 8       -13.332          51.000    22340630.180 8  89956457.493 8       -10.230          51.000  
E07  23395476.672 8 122944070.890 8      -314.434          51.000    23395480.914 8  94203900.863 8      -240.969          51.000  
C23  21902348.539 8 114051286.872 8      -545.922          51.000                                                                  
C05  39789221.883 6 207192918.850 6        10.227          36.000    39789219.969 6 160214684.910 6         7.485          40.000  
C25  24706441.031 4 128652823.316 4     -2803.516          29.000                                                                  
> 2020 05 08 04 09  0.0000000  0 16      -0.000000000000
G30  21112836.422 7 110948724.377 7     -1775.562          44.000    21112836.953 7  86453593.412 7     -1383.553          44.000  
G15  22408382.781 5 117756891.723 5      2882.977          34.000                                                                  
G07  23473718.242 5 123355227.592 5     -2747.219          32.000    23473713.125 5  96120954.896 5     -2140.691          32.000  
G28  21097222.234 8 110866669.646 8      1187.969          49.000    21097222.102 7  86389643.152 7       925.690          44.000  
G05  21247809.773 8 111657988.557 8     -2092.059          51.000    21247808.219 8  87006219.865 8     -1630.176          51.000  
R11  19310945.891 8 103191430.631 8     -1010.613          51.000    19310948.398 8  80260043.440 8      -786.036          49.000  
R12  20345707.570 8 108682743.750 8      2728.051          50.000    20345711.836 8  84531015.617 8      2121.815          48.000  
R08  22610605.055 7 121078354.910 7     -3832.938          46.000    22610602.992 7  94172053.874 7     -2981.174          42.000  
R10  22891811.453 5 122025824.684 5     -4016.824          31.000                                                                  
R01  19590463.898 7 104721875.236 7     -1730.477          46.000    19590468.141 7  81450339.435 7     -1345.927          45.000  
E08  24157241.844 8 126947142.695 8     -2370.723          48.000    24157240.008 7  97271272.485 7     -1816.577          46.000  
E27  25061101.195 8 131697025.686 8      2571.590          49.000    25061103.000 8 100910722.635 8      1970.512          49.000  
E30  22340756.578 8 117401467.482 8       -27.203          51.000    22340758.133 8  89956973.043 8       -20.823          51.000  
E07  23397312.734 8 122953718.894 8      -324.457          51.000    23397316.930 8  94211293.479 8      -248.607          51.000  
C23  21905543.492 8 114067923.270 8      -558.961          51.000                                                                  
C05  39789178.102 6 207192691.57726         9.441          36.000    39789176.125 6 160214507.949 6         7.506          39.000  
> 2020 05 08 04 09 30.0000000  0 17      -0.000000000000
G30  21123014.289 7 111002208.991 7     -1788.203          44.000    21123014.781 7  86495269.763 7     -1393.402          43.000  
G15  22391960.203 5 117670548.468 5      2872.809          33.000                                                                  
G07  23489426.797 5 123437756.31325     -2754.125          33.000                                                                  
G28  21090506.320 8 110831374.890 8      1166.863          51.000    21090505.109 7  86362140.771 7       909.244          42.000  
G05  21259814.492 8 111721071.629 8     -2111.504          51.000    21259811.984 8  87055375.502 8     -1645.328          51.000  
R11  19316693.180 8 103222142.983 8     -1034.887          51.000    19316695.836 8  80283930.810 8      -804.912          50.000  
R12  20330451.297 8 108601246.179 8      2707.133          51.000    20330455.273 7  84467628.652 7      2105.548          46.000  
R08  22632119.906 7 121193561.757 7     -3845.480          44.000    22632118.820 7  94261659.162 7     -2990.933          43.000  
R10  22914440.203 5 122146447.622 5     -4023.035          31.000                                                                  
R01  19600248.133 7 104774180.855 7     -1754.637          44.000    19600253.016 7  81491021.607 7     -1364.718          45.000  
E08  24170805.727 7 127018427.654 7     -2379.598          46.000    24170805.430 7  97325893.368 7     -1823.251          47.000  
E27  25046458.156 8 131620075.781 8      2560.297          50.000    25046460.539 8 100851761.003 8      1961.871          51.000  
E30  22340965.656 8 117402565.027 8       -43.906          51.000    22340966.906 8  89957814.014 8       -33.648          51.000  
E07  23399207.289 8 122963674.284 8      -337.207          51.000    23399211.312 8  94218921.634 8      -258.383          51.000  
C23  21908814.305 8 114084955.963 8      -574.637          51.000                                                                  
C05  39789137.438 5 207192479.264 5         6.543          35.000    39789135.375 6 160214344.155 6         5.093          39.000  
C25  24738798.906 5 128821424.135 5     -2815.316          32.000                                                                  
> 2020 05 08 04 10  0.0000000  0 16      -0.000000000000
G30  21133223.531 7 111055858.769 7     -1793.918          45.000    21133224.016 7  86537074.791 7     -1397.859          45.000  
G15  22375552.055 5 117584331.082 5      2869.156          33.000                                                                  
G28  21083869.477 8 110796494.449 8      1153.180          51.000    21083866.734 7  86334961.248 7       898.585          42.000  
G05  21271888.281 8 111784518.218 8     -2123.531          51.000    21271885.195 8  87104814.394 8     -1654.700          51.000  
R11  19322535.680 8 103253362.979 8     -1051.824          51.000    19322538.258 8  80308213.021 8      -818.086          49.000  
R12  20315271.961 8 108520156.332 8      2693.492          51.000    20315274.602 7  84404558.832 7      2094.942          45.000  
R08  22653662.773 6 121308920.735 6     -3850.465          40.000    22653662.266 7  94351382.786 7     -2994.807          42.000  
R10  22937065.289 5 122267048.577 5     -4022.293          31.000                                                                  
R01  19610126.398 7 104826987.464 7     -1771.117          46.000    19610131.617 7  81532093.429 7     -1377.536          43.000  
E08  24184378.703 7 127089758.708 7     -2380.996          47.000    24184380.086 7  97380549.585 7     -1824.473          47.000  
E27  25031838.367 8 131543246.775 8      2556.336          51.000    25031841.094 8 100792892.003 8      1958.725          51.000  
E30  22341228.164 8 117403944.292 8       -53.250          51.000    22341229.422 8  89958870.859 8       -40.814          51.000  
E07  23401133.297 8 122973795.182 8      -342.730          51.000    23401137.234 8  94226676.590 8      -262.576          51.000  
C23  21912134.125 8 114102242.808 8      -583.051          51.000                                                                  
C05  39789072.789 5 207192142.307 5        10.566          35.000    39789070.773 6 160214084.318 6         8.397          39.000  
C25  24755010.250 5 128905783.714 5     -2814.285          34.000                                                                  
> 2020 05 08 04 10 30.0000000  0 16      -0.000000000000
G30  21143492.164 7 111109820.291 7     -1810.504          46.000    21143492.586 7  86579122.716 7     -1410.783          46.000  
G28  21077339.742 8 110762177.461 8      1127.824          51.000    21077336.211 7  86308220.794 7       878.824          43.000  
G05  21284058.734 8 111848474.219 8     -2146.969          51.000    21284055.773 8  87154650.235 8     -1672.963          51.000  
R11  19328500.859 8 103285239.007 8     -1080.160          51.000    19328503.141 8  80333005.485 8      -840.125          49.000  
R12  20300196.883 8 108439626.802 8      2668.242          51.000    20300199.359 7  84341924.769 7      2075.297          46.000  
R08  22675259.930 6 121424580.391 6     -3866.980          36.000    22675260.938 7  94441340.329 7     -3007.649          42.000  
R10  22959713.422 5 122387774.656 5     -4032.539          31.000                                                                  
R01  19620126.906 7 104880445.166 7     -1799.430          47.000    19620131.836 7  81573671.611 7     -1399.557          42.000  
E02  26228457.539 5 137831478.269 5     -2478.539          31.000                                                                  
E08  24197989.305 8 127161283.646 8     -2394.066          48.000    24197991.164 7  97435354.368 7     -1834.404          46.000  
E27  25017270.219 8 131466687.939 8      2540.770          51.000    25017272.742 8 100734230.010 8      1946.917          51.000  
E30  22341572.445 8 117405752.914 8       -74.035          51.000    22341573.891 8  89960256.683 8       -56.782          51.000  
E07  23403119.109 8 122984230.199 8      -359.789          51.000    23403123.172 8  94234672.244 8      -275.668          51.000  
C23  21915530.539 8 114119929.471 8      -602.754          51.000                                                                  
C05                                                                  39789010.594 6 160213841.978 6         2.685          39.000  
C25  24771241.062 5 128990279.019 5     -2825.496          35.000                                                                  
> 2020 05 08 04 11  0.0000000  0 16      -0.000000000000
G30  21153830.500 7 111164148.505 7     -1816.555          45.000    21153830.922 7  86621456.364 7     -1415.498          45.000  
G28  21070927.953 8 110728481.224 8      1113.051          51.000    21070924.102 7  86281964.021 7       867.313          45.000  
G05  21296336.227 8 111912994.413 8     -2159.809          51.000    21296334.102 8  87204925.685 8     -1682.971          51.000  
R11  19334599.164 8 103317825.882 8     -1097.773          51.000    19334601.461 8  80358350.835 8      -853.824          50.000  
R12  20285236.586 8 108359716.352 8      2653.574          51.000    20285240.406 8  84279772.142 8      2063.888          48.000  
R08  22696922.781 6 121540595.914 6     -3872.633          39.000    22696925.930 6  94531574.618 6     -3012.048          41.000  
R10  22982395.383 4 122508679.895 4     -4032.582          28.000                                                                  
R01  19630259.719 8 104934610.305 8     -1816.926          49.000    19630264.375 6  81615799.975 6     -1413.165          41.000  
E02  26242596.688 5 137905775.293 5     -2480.945          32.000                                                                  
E08  24211648.148 8 127233058.365 8     -2396.285          50.000    24211649.664 7  97490350.572 7     -1836.161          47.000  
E27  25002764.562 8 131390456.762 8      2535.867          51.000    25002766.633 8 100675819.097 8      1943.137          51.000  
E30  22342008.922 8 117408046.643 8       -84.180          51.000    22342010.555 8  89962014.212 8       -64.477          51.000  
E07  23405175.734 8 122995036.200 8      -366.039          51.000    23405179.781 8  94242952.147 8      -280.460          51.000  
C23  21919014.133 8 114138070.703 8      -612.027          51.000                                                                  
C05  39788967.336 5 207191593.007 5         6.688          35.000    39788965.422 6 160213660.296 6         5.322          40.000  
C25  24787504.641 4 129074964.252 4     -2825.562          29.000                                                                  
> 2020 05 08 04 11 30.0000000  0 13      -0.000000000000
G30  21164223.898 7 111218766.390 7     -1832.812          44.000    21164224.336 7  86664015.747 7     -1428.166          44.000  
G28  21064619.703 8 110695331.190 8      1088.570          51.000    21064616.047 7  86256132.841 7       848.237          46.000  
G05  21308706.352 8 111978001.154 8     -2182.293          51.000    21308704.680 8  87255580.267 8     -1700.489          51.000  
R11  19340815.594 8 103351044.590 8     -1125.277          51.000    19340817.727 8  80384187.608 8      -875.216          49.000  
R12  20270378.938 8 108280349.834 8      2628.973          51.000    20270383.133 8  84218042.585 8      2044.757          49.000  
R08  22718639.250 6 121656888.192 6     -3888.574          41.000    22718642.430 6  94622024.091 6     -3024.450          40.000  
R01  19640510.617 8 104989405.360 8     -1844.480          49.000    19640515.141 7  81658418.283 7     -1434.599          42.000  
E08  24225340.375 8 127305006.880 8     -2408.594          51.000    24225341.773 8  97545479.896 8     -1845.499          48.000  
E27  24988307.125 8 131314478.851 8      2521.035          51.000    24988308.836 8 100617602.260 8      1931.650          51.000  
E30  22342523.078 8 117410749.399 8      -104.363          51.000    22342524.727 8  89964085.153 8       -79.892          51.000  
E07  23407288.789 8 123006138.178 8      -382.367          51.000    23407292.375 8  94251458.844 8      -292.980          51.000  
C23  21922570.734 8 114156590.581 8      -630.840          51.000                                                                  
C05  39788922.867 5 207191361.665 5         0.465          35.000    39788921.055 6 160213481.392 6         0.272          39.000  
> 2020 05 08 04 12  0.0000000  0 14      -0.000000000000
G30  21174659.664 7 111273606.840 7     -1821.137          44.000    21174660.188 7  86706748.546 7     -1419.068          44.000  
G28  21058402.844 8 110662662.564 8      1091.531          51.000    21058399.734 8  86230676.757 8       850.544          48.000  
G05  21321156.297 8 112043426.287 8     -2177.109          51.000    21321154.609 8  87306560.885 8     -1696.449          51.000  
R11  19347137.266 8 103384825.641 8     -1124.469          51.000    19347139.414 8  80410461.750 8      -874.587          50.000  
R12  20255611.805 8 108201462.134 8      2632.348          51.000    20255615.398 8  84156685.481 8      2047.379          49.000  
R08  22740394.844 6 121773388.200 6     -3875.844          41.000    22740397.242 6  94712635.124 6     -3014.546          38.000  
R01  19650866.594 8 105044762.406 8     -1843.734          49.000    19650871.445 7  81701473.706 7     -1434.019          44.000  
E02  26270978.867 5 138054924.045 5     -2479.906          32.000                                                                  
E08  24239052.922 8 127377062.987 8     -2393.012          51.000    24239054.156 8  97600691.660 8     -1833.709          49.000  
E27  24973885.531 8 131238689.639 8      2533.793          51.000    24973886.875 8 100559530.003 8      1941.509          51.000  
E30  22343102.383 8 117413794.899 8       -96.559          51.000    22343104.148 8  89966418.711 8       -74.010          51.000  
E07  23409445.641 8 123017470.898 8      -371.000          51.000    23409448.617 8  94260142.353 8      -284.267          51.000  
C23  21926187.250 8 114175422.892 8      -622.422          51.000                                                                  
C05  39788866.680 5 207191068.815 5        21.246          35.000    39788864.859 6 160213254.890 6        16.689          40.000  
> 2020 05 08 04 12 30.0000000  0 14      -0.000000000000
G30  21185141.570 7 111328690.181 7     -1853.172          43.000    21185142.469 7  86749670.604 7     -1444.031          43.000  
G15  22294160.758 6 117156617.00926      2823.004          38.000                                                                  
G28  21052281.906 8 110630498.278 8      1050.609          51.000    21052279.562 8  86205613.661 8       818.657          48.000  
G05  21333689.461 8 112109289.073 8     -2215.750          51.000    21333687.930 8  87357882.539 8     -1726.559          51.000  
R11  19353567.766 8 103419189.024 8     -1168.387          51.000    19353570.070 8  80437188.820 8      -908.745          49.000  
R12  20240938.266 8 108123076.844 8      2591.016          51.000    20240941.273 7  84095719.185 7      2015.238          47.000  
R08  22762192.742 6 121890115.346 6     -3908.145          41.000    22762194.586 6  94803422.851 6     -3039.672          38.000  
R01  19661331.734 8 105100703.194 8     -1887.801          48.000    19661336.750 7  81744983.206 7     -1468.290          45.000  
E08  24252789.688 8 127449247.984 8     -2421.305          49.000    24252790.609 8  97656002.189 8     -1855.248          49.000  
E27  24959504.008 8 131163111.991 8      2502.652          51.000    24959505.016 8 100501619.863 8      1917.585          51.000  
E30  22343750.711 8 117417204.317 8      -132.836          51.000    22343753.070 8  89969031.118 8      -101.685          51.000  
E07  23411650.555 8 123029056.617 8      -403.348          51.000    23411653.117 8  94269019.722 8      -309.098          51.000  
C23  21929867.734 8 114194588.095 8      -657.434          51.000                                                                  
C05                                                                  39788800.977 6 160212997.560 6        -0.825          40.000  
> 2020 05 08 04 13  0.0000000  0 14      -0.000000000000
G30  21195697.336 7 111384162.219 7     -1843.371          42.000    21195698.984 7  86792895.574 7     -1436.394          42.000  
G15  22278016.219 6 117071759.159 6      2835.352          38.000                                                                  
G28  21046285.266 8 110598986.311 8      1051.762          51.000    21046283.477 8  86181058.858 8       819.555          49.000  
G05  21346333.617 8 112175735.589 8     -2212.340          50.000    21346332.727 8  87409659.035 8     -1723.905          50.000  
R11  19360134.781 8 103454281.853 8     -1169.434          51.000    19360136.805 8  80464483.230 8      -909.560          49.000  
R12  20226386.328 8 108045345.384 8      2592.453          51.000    20226388.938 7  84035261.412 7      2016.353          46.000  
R08  22784060.719 6 122007217.793 6     -3897.164          38.000    22784061.766 6  94894502.460 6     -3031.131          38.000  
R01  19671933.516 7 105157375.778 7     -1888.863          46.000    19671938.789 7  81789061.896 7     -1469.116          46.000  
E08  24266578.227 8 127521708.716 8     -2407.676          49.000    24266579.375 8  97711523.976 8     -1844.832          49.000  
E27  24945190.672 8 131087894.323 8      2513.512          51.000    24945191.414 8 100443985.560 8      1925.888          51.000  
E30  22344496.367 8 117421124.327 8      -126.910          51.000    22344498.984 8  89972034.760 8       -97.243          51.000  
E07  23413931.656 8 123041043.104 8      -393.977          51.000    23413933.977 8  94278204.159 8      -301.872          51.000  
C23  21933639.891 8 114214230.969 8      -650.605          51.000                                                                  
C05  39788759.273 6 207190510.298 6        17.914          36.000    39788757.391 6 160212822.196 6        13.882          39.000  
> 2020 05 08 04 13 30.0000000  0 15      -0.000000000000
G30  21206284.266 7 111439798.442 7     -1861.094          42.000    21206286.773 7  86836248.473 7     -1450.203          42.000  
G15  22261889.391 6 116986999.496 6      2820.348          37.000                                                                  
G07  23615603.195 5 124100831.49725     -2775.262          31.000                                                                  
G28  21040370.352 8 110567904.167 8      1025.168          51.000    21040368.930 8  86156838.995 8       798.832          49.000  
G05  21359046.094 8 112242540.594 8     -2236.473          49.000    21359045.641 8  87461714.891 8     -1742.707          49.000  
R11  19366795.492 8 103489875.057 8     -1198.469          51.000    19366797.695 8  80492166.827 8      -932.143          49.000  
R12  20211913.969 8 107968042.538 8      2565.777          50.000    20211917.156 7  83975136.960 7      1995.605          45.000  
R08  22805953.836 5 122124465.845 5     -3914.273          33.000    22805956.148 6  94985695.421 6     -3044.432          38.000  
R01  19682629.750 8 105214552.860 8     -1918.039          48.000    19682635.023 7  81833532.983 7     -1491.805          45.000  
E08  24280376.867 8 127594221.513 8     -2421.730          50.000    24280378.203 8  97767085.700 8     -1855.649          49.000  
E27  24930903.328 8 131012814.628 8      2496.590          51.000    24930903.641 8 100386456.976 8      1913.005          51.000  
E30  22345296.695 8 117425331.239 8      -148.812          51.000    22345299.336 8  89975258.221 8      -114.007          51.000  
E07  23416246.602 8 123053207.723 8      -412.172          51.000    23416248.594 8  94287525.089 8      -315.859          51.000  
C23  21937461.297 8 114234129.383 8      -671.219          51.000                                                                  
C05  39788693.672 6 207190168.480 6         9.289          36.000    39788691.867 6 160212557.876 6         7.482          39.000  
> 2020 05 08 04 14  0.0000000  0 15      -0.000000000000
