     3.02           OBSERVATION DATA    M (MIXED)           RINEX VERSION / TYPE
SAVERINEX           SC600               20200505 225930 LCL PGM / RUN BY / DATE
       G = GPS       R = GLONASS       C = COMPASS          COMMENT
       S = SBAS      J = QZSS          E = GALILEO          COMMENT
BEAN                                                        MARKER NAME
1                                                           MARKER NUMBER
GEODETIC                                                    MARKER TYPE
Unige DICCA         GTER                                    OBSERVER / AGENCY
SC60291900056       SC600               2.12(191226)        REC # / TYPE / VERS
                    HEMA45          NONE                    ANT # / TYPE
  4509407.8091   693652.4678  4442337.6214                  APPROX POSITION XYZ
        0.0000        0.0000        0.0000                  ANTENNA: DELTA H/E/N
G    8 C1C L1C D1C S1C C2Y L2Y D2Y S2Y                      SYS / # / OBS TYPES
R    8 C1C L1C D1C S1C C2P L2P D2P S2P                      SYS / # / OBS TYPES
C    8 C1I L1I D1I S1I C7I L7I D7I S7I                      SYS / # / OBS TYPES
E    8 C1C L1C D1C S1C C7Q L7Q D7Q S7Q                      SYS / # / OBS TYPES
DBHZ                                                        COMMENT
     30.000                                                 INTERVAL
  2020    05    05    20    00    0.0000000     GPS         TIME OF FIRST OBS
  2020    05    05    20    59   30.0000000     GPS         TIME OF LAST OBS
     0                                                      RCV CLOCK OFFS APPL
G L1C  0.00000                                              SYS / PHASE SHIFT
G L2Y  0.00000                                              SYS / PHASE SHIFT
R L1C  0.00000                                              SYS / PHASE SHIFT
R L2P  0.25000                                              SYS / PHASE SHIFT
C L1I  0.00000                                              SYS / PHASE SHIFT
C L7I  0.00000                                              SYS / PHASE SHIFT
E L1C  0.50000                                              SYS / PHASE SHIFT
E L7Q -0.25000                                              SYS / PHASE SHIFT
 14 R01  1 R02 -4 R03  5 R04  6 R05  1 R10 -5 R12 -1 R13 -2 GLONASS SLOT / FRQ #
    R14 -7 R15  0 R17  4 R18 -3 R19  3 R23  3               GLONASS SLOT / FRQ #
 C1C   71.950 C2C   71.950 C2P   71.950                     GLONASS COD/PHS/BIS
    18                                                      LEAP SECONDS
*** Above antenna height is from mark to ANTENNA BOTTOM.    COMMENT
    17     4        0.0000        ANT MEASURE TYPE/HEIGT    COMMENT
    0.0000    0.0000    0.0458    0.0405    0.0000          COMMENT
                    BASE STATION                            COMMENT
                                                            END OF HEADER
> 2020 05 05 20 00  0.0000000  0 18        .000000000000
G01  20328958.773 8 106829397.723 8       531.281          48.000    20328960.695 8  83243692.158 8       413.988          48.000
G03  21348971.438 7 112189604.233 7      2088.973          43.000    21348973.828 7  87420477.431 7      1627.771          44.000
G08  22597770.836 8 118752064.753 8     -3282.316          49.000    22597773.992 8  92534073.821 8     -2557.649          49.000
G11  20214602.023 8 106228441.002 8     -1481.625          50.000    20214601.383 8  82775413.193 8     -1154.516          49.000
G22  20656204.320 8 108549146.395 8       447.184          51.000    20656201.289 8  84583760.489 8       348.455          51.000
G32  22628932.781 5 118915832.504 5     -1953.148          33.000    22628928.539 5  92661704.208 5     -1521.925          32.000
R02  21762334.227 5 116127985.500 5     -3659.383          33.000    21762327.562 5  90321739.583 5     -2846.184          30.000
R03  19213885.203 7 102853478.076 7      -359.449          47.000    19213886.680 8  79997163.734 8      -279.569          48.000
R04  20999274.758 8 112450155.580 8      3338.656          49.000    20999278.094 7  87461243.217 7      2596.736          45.000
R17  21939097.891 7 117400526.705 7     -3541.496          45.000    21939101.477 7  91311524.455 7     -2754.497          45.000
R18  19279963.164 8 102917781.187 8      -571.422          49.000    19279968.664 8  80047168.121 8      -444.439          48.000
C05  39667787.805 5 206560580.156 5       -24.922          35.000    39667784.992 6 159725733.329 6       -19.144          37.000
C27  21517973.367 8 112049728.533 8      -285.191          51.000
C28  23850317.984 8 124194832.641 8     -2887.031          49.000
E04  26067501.930 6 136985649.673 6      2865.398          39.000    26067490.484 7 104963000.783 7      2195.472          44.000
E12  21516768.875 8 113071387.176 8       145.184          49.000    21516768.734 8  86639120.221 8       111.316          51.000
E19  24106455.891 8 126680286.133 8       404.852          49.000    24106457.812 8  97066728.706 8       310.241          50.000
E33  25514855.938 7 134081447.193 7     -2077.801          47.000    25514858.023 7 102737716.988 7     -1592.153          47.000
> 2020 05 05 20 00 30.0000000  0 18        .000000000000
G01  20326015.094 8 106813928.644 8       511.262          48.000    20326017.148 8  83231638.318 8       398.386          49.000
G03  21337132.297 7 112127387.649 7      2069.867          46.000    21337134.219 7  87371997.002 7      1612.887          46.000
G08  22616587.375 8 118850945.404 8     -3298.570          50.000    22616590.016 8  92611123.654 8     -2570.318          50.000
G11  20223162.109 8 106273425.250 8     -1506.238          50.000    20223161.602 8  82810465.860 8     -1173.692          48.000
G14  21935240.734 5 115270457.394 5      -465.914          34.000    21935235.414 5  89821127.102 5      -363.059          33.000
G22  20653739.570 8 108536194.208 8       427.355          51.000    20653736.734 8  84573667.887 8       333.004          51.000
R02  21782978.203 5 116238169.446 5     -3675.523          31.000    21782978.242 4  90407438.178 4     -2858.743          28.000
R03  19216018.266 8 102864896.022 8      -390.246          49.000    19216019.719 8  80006044.322 8      -303.525          49.000
R04  20980665.617 8 112350511.487 8      3315.758          48.000    20980669.352 7  87383742.319 7      2578.923          45.000
R17  21959037.570 7 117507228.218 7     -3560.406          47.000    21959041.703 7  91394514.557 7     -2769.205          46.000
R18  19283287.359 8 102935525.517 8      -600.098          49.000    19283293.031 8  80060969.254 8      -466.743          49.000
C05  39667984.031 5 206561602.284 5       -32.453          34.000    39667981.266 6 159726523.720 6       -24.974          38.000
C27  21519713.023 8 112058788.119 8      -307.672          51.000
C28  23867025.602 8 124281834.285 8     -2902.191          48.000
E04  26051211.148 7 136900053.831 7      2852.227          42.000    26051203.023 7 104897414.426 7      2185.490          45.000
E12  21516019.008 8 113067446.952 8       128.645          49.000    21516018.797 8  86636101.080 8        98.575          51.000
E19  24104236.320 8 126668623.665 8       383.809          49.000    24104238.383 8  97057792.539 8       294.114          50.000
E33  25526790.859 8 134144164.674 8     -2092.004          49.000    25526792.812 8 102785773.273 8     -1602.979          48.000
> 2020 05 05 20 01  0.0000000  0 18        .000000000000
G01  20323123.477 8 106798732.987 8       500.641          49.000    20323125.555 8  83219797.561 8       390.110          49.000
G03  21325341.125 7 112065422.847 7      2059.988          45.000    21325343.023 7  87323712.795 7      1605.189          46.000
G08  22635436.047 8 118949995.158 8     -3305.871          49.000    22635438.055 8  92688305.236 8     -2576.006          49.000
G11  20231803.117 8 106318834.522 8     -1522.000          50.000    20231802.859 8  82845849.733 8     -1185.971          49.000
G14  21937943.578 5 115284680.720 5      -482.684          34.000    21937938.375 5  89832198.572 5      -376.117          31.000
G22  20651327.219 8 108523516.822 8       416.680          51.000    20651324.109 8  84563789.411 8       324.685          51.000
R02  21803655.016 5 116348510.914 5     -3682.066          33.000    21803656.859 4  90493271.284 4     -2863.832          27.000
R03  19218262.859 8 102876911.869 8      -411.824          48.000    19218264.836 8  80015390.005 8      -320.308          49.000
R04  20962125.180 7 112251230.451 7      3301.969          47.000    20962129.031 7  87306523.756 7      2568.201          45.000
R17  21979023.016 8 117614171.687 8     -3570.094          50.000    21979027.336 7  91477692.841 7     -2776.740          46.000
R18  19286711.828 8 102953805.118 8      -619.457          49.000    19286717.578 8  80075186.711 8      -481.800          49.000
C05                                                                  39668159.500 6 159727241.341 6       -23.512          37.000
C27  21521521.125 8 112068203.724 8      -321.047          51.000
C28  23883760.586 7 124368976.756 7     -2908.414          47.000
E04  26034934.797 7 136814534.408 7      2848.145          45.000    26034929.484 7 104831886.656 7      2182.216          45.000
E12  21515302.055 8 113063678.878 8       121.398          49.000    21515301.828 8  86633213.851 8        93.055          51.000
E19  24102075.906 8 126657271.233 8       371.848          49.000    24102077.992 8  97049093.944 8       284.979          50.000
E33  25538745.305 8 134206983.737 8     -2097.012          49.000    25538746.797 8 102833907.351 8     -1606.819          48.000
> 2020 05 05 20 01 30.0000000  0 17        .000000000000
G01  20320320.867 8 106784004.809 8       487.113          49.000    20320322.828 8  83208321.064 8       379.569          49.000
G03  21313634.359 7 112003903.668 7      2047.020          45.000    21313636.648 7  87275775.768 7      1595.080          45.000
G08  22654353.055 7 119049405.252 7     -3315.723          47.000    22654354.469 8  92765767.577 8     -2583.680          48.000
G11  20240561.781 8 106364861.397 8     -1540.637          51.000    20240561.945 8  82881714.810 8     -1200.499          50.000
G14  21940769.406 4 115299521.825 4      -501.734          28.000    21940766.289 4  89843773.961 4      -390.956          29.000
G22  20649003.914 8 108511306.983 8       403.082          51.000    20649000.648 8  84554275.247 8       314.090          51.000
R03  19220656.102 8 102889721.020 8      -436.141          48.000    19220657.586 8  80025352.633 8      -339.220          49.000
R04  20943690.484 7 112152511.698 7      3285.176          47.000    20943694.438 7  87229742.516 7      2555.137          47.000
R17  21999090.539 8 117721552.193 8     -3582.531          51.000    21999094.445 7  91561210.998 7     -2786.416          46.000
R18  19290273.938 8 102972817.233 8      -641.953          51.000    19290278.891 8  80089973.924 8      -499.297          49.000
C05  39668359.219 5 206563555.382 5       -32.023          35.000    39668356.523 6 159728034.391 6       -24.853          37.000
C27  21523434.531 8 112078167.218 8      -337.359          51.000
C28  23900559.211 7 124456450.176 7     -2917.301          44.000
E04  26018709.953 7 136729286.009 7      2841.188          45.000    26018706.992 7 104766566.519 7      2176.906          46.000
E12  21514654.727 8 113060276.959 8       111.238          49.000    21514654.719 8  86630607.179 8        85.246          51.000
E19  24100011.352 8 126646421.930 8       357.211          49.000    24100013.297 8  97040780.870 8       273.719          50.000
E33  25550755.859 8 134270097.347 8     -2104.828          50.000    25550756.820 7 102882267.102 7     -1612.677          47.000
> 2020 05 05 20 02  0.0000000  0 17        .000000000000
G01  20317572.477 8 106769561.526 8       475.578          50.000    20317574.281 8  83197066.572 8       370.580          50.000
G03  21301977.328 7 111942647.159 7      2036.652          44.000    21301980.148 7  87228043.414 7      1586.999          44.000
G08  22673302.789 7 119148989.457 7     -3323.336          45.000    22673304.516 7  92843365.615 7     -2589.615          45.000
G11  20249403.055 8 106411321.873 8     -1556.855          51.000    20249403.141 8  82917917.767 8     -1213.134          51.000
G14  21943682.414 5 115314822.779 5      -519.047          34.000    21943684.352 5  89855718.000 5      -404.452          33.000
G22  20646734.555 8 108499380.883 8       391.859          51.000    20646731.539 8  84544982.186 8       305.345          51.000
R03  19223161.438 8 102903134.663 8      -458.156          48.000    19223163.695 8  80035785.507 8      -356.344          49.000
R04  20925326.086 7 112054170.637 7      3270.801          47.000    20925330.234 7  87153255.061 7      2543.956          47.000
R17  22019204.367 8 117829181.196 8     -3592.730          51.000    22019207.578 7  91644922.410 7     -2794.349          44.000
R18  19293938.492 8 102992376.318 8      -662.008          50.000    19293942.977 8  80105186.541 8      -514.898          50.000
C05  39668539.906 5 206564495.654 5       -30.961          34.000    39668537.398 6 159728762.242 6       -23.609          37.000
C27  21525418.344 8 112088497.280 8      -351.418          51.000
C28  23917385.766 7 124544071.611 7     -2924.090          43.000
E04  26002502.430 7 136644126.617 7      2836.230          46.000    26002501.648 7 104701314.569 7      2173.219          47.000
E12  21514042.125 8 113057058.573 8       103.406          49.000    21514042.695 8  86628141.126 8        79.188          51.000
E19  24098007.688 8 126635892.061 8       344.805          49.000    24098009.281 8  97032712.538 8       264.207          50.000
E33  25562787.336 8 134333321.898 8     -2110.164          50.000    25562787.648 7 102930711.878 7     -1616.900          46.000
> 2020 05 05 20 02 30.0000000  0 17        .000000000000
G01  20314892.023 8 106755475.329 8       463.059          50.000    20314893.422 8  83186090.322 8       360.825          50.000
G03  21290384.391 7 111881725.197 7      2024.625          45.000    21290387.117 7  87180571.765 7      1577.630          45.000
G08  22692298.484 7 119248816.920 7     -3332.012          44.000    22692301.656 7  92921153.249 7     -2596.373          44.000
G11  20258340.227 8 106458286.739 8     -1574.504          51.000    20258340.203 8  82954513.772 8     -1226.883          51.000
G14  21946701.211 5 115330674.635 5      -537.926          34.000    21946698.930 5  89868062.054 5      -419.163          30.000
G22  20644532.562 8 108487809.108 8       379.270          51.000    20644529.695 8  84535965.220 8       295.535          51.000
R03  19225793.570 8 102917224.380 8      -481.477          48.000    19225795.750 8  80046744.138 8      -374.482          48.000
R04  20907046.227 8 111956282.253 8      3254.832          49.000    20907050.320 7  87077119.683 7      2531.536          47.000
R17  22039377.664 8 117937129.070 8     -3604.172          51.000    22039379.648 7  91728881.800 7     -2803.248          42.000
R18  19297719.031 8 103012555.534 8      -683.535          51.000    19297723.336 8  80120881.481 8      -531.638          50.000
C05  39668718.133 5 206565424.331 5       -31.566          35.000    39668715.477 6 159729479.607 6       -24.113          37.000
C27  21527486.180 8 112099265.055 8      -366.781          51.000
C28  23934253.656 7 124631910.404 7     -2932.145          45.000
E04  25986326.234 7 136559128.904 7      2830.102          47.000    25986327.484 8 104636186.499 8      2168.480          48.000
E12  21513478.203 8 113054095.872 8        93.949          49.000    21513479.117 8  86625870.973 8        72.056          51.000
E19  24096078.328 8 126625753.050 8       330.945          48.000    24096079.531 8  97024943.701 8       253.599          49.000
E33  25574853.281 8 134396728.527 8     -2117.094          48.000    25574852.914 7 102979296.182 7     -1622.210          46.000
> 2020 05 05 20 03  0.0000000  0 17        .000000000000
G01  20312285.609 8 106741778.590 8       452.586          50.000    20312286.742 8  83175417.562 8       352.664          50.000
G03  21278861.258 7 111821169.948 7      2014.801          45.000    21278863.328 7  87133385.842 7      1569.975          46.000
G08  22711346.531 7 119348916.971 7     -3338.578          46.000    22711350.938 7  92999153.294 7     -2601.489          46.000
G11  20267378.898 8 106505786.286 8     -1589.727          51.000    20267378.969 8  82991526.414 8     -1238.745          50.000
G22  20642403.914 8 108476622.405 8       368.988          51.000    20642400.812 8  84527248.308 8       287.523          51.000
G32  22697697.172 5 119277212.381 5     -2050.812          31.000
R03  19228557.055 8 102932020.119 8      -502.414          49.000    19228559.781 8  80058251.947 8      -390.766          49.000
R04  20888857.453 8 111858881.015 8      3241.070          49.000    20888861.281 7  87001363.214 7      2520.836          46.000
R17  22059615.641 8 118045426.286 8     -3613.168          49.000    22059616.211 6  91813112.896 6     -2810.245          40.000
R18  19301621.875 8 103033387.333 8      -702.625          51.000    19301625.609 8  80137084.002 8      -546.483          49.000
C05  39668899.867 5 206566370.782 5       -29.680          35.000    39668897.000 6 159730210.698 6       -22.841          37.000
C27  21529644.258 8 112110502.164 8      -379.898          51.000
C28  23951168.688 7 124719996.541 7     -2937.973          44.000
E04  25970187.867 8 136474325.831 8      2826.004          49.000    25970190.477 8 104571207.560 8      2165.350          48.000
E12  21512969.242 8 113051421.187 8        86.758          49.000    21512970.000 8  86623821.537 8        66.507          51.000
E19  24094229.242 8 126616036.420 8       319.332          48.000    24094230.016 8  97017498.507 8       244.707          49.000
E33  25586959.281 7 134460348.676 7     -2121.750          46.000    25586959.727 7 103028044.033 7     -1625.721          46.000
> 2020 05 05 20 03 30.0000000  0 17        .000000000000
G01  20309723.938 8 106728317.578 8       436.672          50.000    20309725.281 8  83164928.480 8       340.267          50.000
G03  21267378.773 7 111760827.243 7      1999.805          46.000    21267380.234 7  87086365.561 7      1558.292          46.000
G08  22730416.984 7 119449132.411 7     -3350.543          47.000    22730421.969 7  93077243.240 7     -2610.813          47.000
G11  20276489.766 8 106553665.581 8     -1610.375          51.000    20276489.859 8  83028834.976 8     -1254.838          50.000
G22  20640319.008 8 108465666.192 8       353.281          51.000    20640315.906 8  84518711.010 8       275.284          51.000
G32  22709438.094 5 119338912.217 5     -2069.805          35.000    22709440.547 5  92991363.148 5     -1612.838          34.000
R03  19231423.234 8 102947363.058 8      -528.707          49.000    19231426.297 8  80070185.335 8      -411.217          48.000
R04  20870730.797 8 111761811.879 8      3221.785          49.000    20870734.062 7  86925865.007 7      2505.833          45.000
R17  22079888.281 7 118153913.645 7     -3627.438          45.000    22079888.078 6  91897491.910 6     -2821.340          40.000
R18  19305617.508 8 103054715.570 8      -727.387          51.000    19305621.273 8  80153672.643 8      -565.745          49.000
C05  39669055.516 5 206567180.834 5       -32.992          35.000    39669052.508 6 159730837.089 6       -25.083          37.000
C27  21531862.945 8 112122055.895 8      -398.406          51.000
C28  23968101.258 7 124808175.585 7     -2948.941          46.000
E04  25954058.016 8 136389564.180 8      2816.660          50.000    25954061.523 8 104506260.368 8      2158.118          48.000
E12  21512485.969 8 113048880.791 8        74.344          50.000    21512486.336 8  86621874.998 8        56.923          51.000
E19  24092430.969 8 126606587.145 8       302.379          48.000    24092431.539 8  97010258.163 8       231.702          50.000
E33  25599076.562 7 134524027.458 7     -2131.699          46.000    25599077.703 7 103076836.829 7     -1633.404          46.000
> 2020 05 05 20 04  0.0000000  0 16        .000000000000
G01  20307294.617 8 106715551.929 8       425.887          49.000    20307296.352 8  83154981.218 8       331.860          49.000
G03  21256023.898 7 111701156.402 7      1989.965          44.000    21256025.273 7  87039868.862 7      1550.622          44.000
G08  22749596.500 7 119549919.660 7     -3356.969          47.000    22749601.383 7  93155778.748 7     -2615.820          47.000
G11  20285760.328 8 106602383.355 8     -1625.742          51.000    20285760.453 8  83066796.885 8     -1266.812          51.000
G22  20638365.000 8 108455398.869 8       342.988          51.000    20638362.141 8  84510710.504 8       267.264          51.000
R03  19234478.688 8 102963718.714 8      -549.602          50.000    19234481.680 8  80082906.404 8      -427.468          48.000
R04  20852754.789 8 111665544.581 8      3208.043          50.000    20852756.781 7  86850990.442 7      2495.145          44.000
R17  22100282.000 6 118263055.972 6     -3636.582          38.000    22100283.156 6  91982380.370 6     -2828.450          41.000
R18  19309793.773 8 103077007.053 8      -746.777          51.000    19309797.430 8  80171010.460 8      -580.830          49.000
C05  39669272.375 5 206568310.123 5       -30.895          34.000    39669269.328 6 159731710.377 6       -24.047          38.000
C27  21534229.828 8 112134381.185 8      -411.668          51.000
C28  23985140.352 8 124896900.706 8     -2954.535          48.000
E04  25938024.000 8 136305304.079 8      2812.422          50.000    25938027.836 8 104441697.476 8      2155.056          48.000
E12  21512115.656 8 113046934.219 8        67.195          49.000    21512115.781 8  86620383.470 8        51.454          51.000
E19  24090770.859 8 126597863.989 8       290.789          48.000    24090771.484 8  97003574.196 8       222.842          50.000
E33  25611291.852 7 134588223.456 7     -2136.352          44.000    25611294.016 7 103126025.965 7     -1636.960          47.000
> 2020 05 05 20 04 30.0000000  0 16        .000000000000
G01  20304894.328 8 106702938.874 8       413.199          50.000    20304896.281 8  83145152.863 8       321.973          50.000
G03  21244693.031 7 111641614.459 7      1977.641          43.000    21244694.117 7  86993472.550 7      1541.019          43.000
G08  22768781.234 8 119650733.249 8     -3365.504          49.000    22768785.477 8  93234334.785 8     -2622.471          49.000
G11  20295086.852 8 106651394.463 8     -1643.352          51.000    20295086.727 8  83104987.355 8     -1280.534          49.000
G22  20636438.773 8 108445276.400 8       330.344          51.000    20636435.844 8  84502822.855 8       257.411          51.000
R03  19237619.352 8 102980531.939 8      -572.824          51.000    19237622.680 8  80095983.368 8      -445.530          48.000
R04  20834825.352 8 111569527.330 8      3191.555          51.000    20834825.773 7  86776310.417 7      2482.323          44.000
R17  22120692.898 6 118372298.014 6     -3647.816          40.000    22120697.750 7  92067346.523 7     -2837.188          42.000
R18  19314047.086 8 103099710.202 8      -768.406          51.000    19314050.266 8  80188668.447 8      -597.649          48.000
C05  39669446.945 5 206569219.197 5       -31.215          34.000    39669444.070 6 159732414.107 6       -24.161          37.000
C27  21536641.594 8 112146939.813 8      -427.203          51.000
C28  24002180.594 8 124985632.155 8     -2962.586          49.000
E04  25921982.320 8 136221003.380 8      2805.840          50.000    25921986.141 8 104377103.497 8      2149.992          48.000
E12  21511755.047 8 113045038.780 8        57.574          50.000    21511755.047 8  86618931.111 8        44.100          51.000
E19  24089145.484 8 126589323.093 8       276.875          48.000    24089146.000 8  96997029.891 8       212.193          50.000
E33  25623502.148 7 134652392.969 7     -2143.094          44.000    25623505.688 8 103175194.806 8     -1642.290          48.000
> 2020 05 05 20 05  0.0000000  0 17        .000000000000
G01  20302566.625 8 106690707.702 8       405.266          49.000    20302568.781 8  83135622.070 8       315.791          49.000
G03  21233430.648 7 111582430.310 7      1970.855          44.000    21233431.406 7  86947355.019 7      1535.732          43.000
G08  22788013.969 8 119751798.940 8     -3369.078          48.000    22788017.609 8  93313087.256 8     -2625.259          48.000
G11  20304512.461 8 106700926.606 8     -1655.809          51.000    20304511.906 8  83143583.794 8     -1290.240          49.000
G22  20634583.562 8 108435526.524 8       322.695          51.000    20634580.422 8  84495225.554 8       251.454          51.000
R02  21970739.891 5 117240034.367 5     -3740.812          30.000    21970747.523 4  91186757.853 4     -2909.515          25.000
R03  19240888.859 8 102998033.345 8      -590.844          50.000    19240892.125 7  80109595.577 7      -459.545          47.000
R04  20816986.055 8 111473995.301 8      3180.305          50.000    20816985.289 7  86702007.821 7      2473.573          44.000
R17  22141168.430 7 118481870.522 7     -3654.031          44.000    22141174.758 7  92152569.622 7     -2842.024          44.000
R18  19318421.031 8 103123057.587 8      -785.000          51.000    19318424.039 8  80206827.504 8      -610.556          48.000
C05  39669622.914 5 206570135.416 5       -26.773          35.000    39669620.180 6 159733123.384 6       -20.963          38.000
C27  21539141.367 8 112159958.492 8      -437.758          51.000
C28  24019265.922 8 125074594.885 8     -2965.457          50.000
E04  25905976.555 8 136136891.908 8      2804.461          49.000    25905980.273 8 104312654.516 8      2148.777          48.000
E12  21511447.844 8 113043423.644 8        53.082          49.000    21511447.758 8  86617693.526 8        40.610          51.000
E19  24087598.203 8 126581193.002 8       268.027          48.000    24087598.625 8  96990800.347 8       205.363          50.000
E33  25635752.016 7 134716764.244 7     -2145.238          44.000    25635756.008 8 103224518.247 8     -1643.733          48.000
> 2020 05 05 20 05 30.0000000  0 17        .000000000000
G01  20300311.273 8 106678856.417 8       386.770          49.000    20300313.414 8  83126387.296 8       301.379          49.000
G03  21222235.812 7 111523601.607 7      1952.855          43.000    21222237.023 7  86901514.519 7      1521.706          43.000
G08  22807293.430 7 119853111.754 7     -3383.133          46.000    22807297.062 7  93392032.280 7     -2636.207          46.000
G11  20314036.711 8 106750976.298 8     -1678.961          51.000    20314035.906 8  83182583.504 8     -1308.284          48.000
G22  20632798.625 8 108426145.808 8       304.555          51.000    20632795.328 8  84487915.912 8       237.315          51.000
R02  21991812.938 5 117352495.762 5     -3754.758          30.000    21991825.422 4  91274227.904 4     -2920.370          25.000
R03  19244285.938 8 103016218.353 8      -619.566          51.000    19244289.016 7  80123739.472 7      -481.885          47.000
R04  20799236.250 8 111378947.903 8      3158.188          48.000    20799235.930 7  86628082.135 7      2456.368          45.000
R17  22161706.938 7 118591768.704 7     -3670.742          46.000    22161713.234 7  92238045.963 7     -2855.022          45.000
R18  19322915.336 8 103147046.992 8      -812.301          51.000    19322918.156 8  80225485.896 8      -631.789          49.000
C05  39669799.867 5 206571057.013 5       -32.809          35.000    39669797.039 6 159733836.025 6       -25.518          37.000
C27  21541729.094 8 112173434.783 8      -458.859          51.000
C28  24036394.859 8 125163784.845 8     -2978.676          50.000
E04  25890006.156 8 136052968.191 8      2792.422          48.000    25890009.750 7 104248349.374 7      2139.648          47.000
E12  21511193.656 8 113042086.813 8        37.938          49.000    21511193.445 8  86616669.193 8        29.051          51.000
E19  24086128.648 8 126573470.607 8       248.656          48.000    24086129.133 8  96984883.200 8       190.574          50.000
E33  25648039.812 7 134781334.243 7     -2157.789          45.000    25648043.539 8 103273993.964 8     -1653.266          49.000
> 2020 05 05 20 06  0.0000000  0 16        .000000000000
G01  20298151.930 8 106667508.932 8       375.836          50.000    20298153.672 8  83117545.088 8       292.859          50.000
G03  21211131.688 7 111465251.910 7      1943.023          43.000    21211133.953 7  86856047.311 7      1514.047          43.000
G08  22826641.875 7 119954791.554 7     -3389.410          45.000    22826646.438 7  93471263.304 7     -2641.099          45.000
G11  20323682.703 8 106801666.036 8     -1694.336          51.000    20323681.453 7  83222081.954 7     -1320.265          47.000
G22  20631107.195 8 108417256.780 8       294.180          51.000    20631103.828 8  84480989.414 8       229.231          51.000
R03  19247833.938 8 103035210.434 8      -640.395          51.000    19247837.219 7  80138511.113 7      -498.085          46.000
R04  20781599.289 7 111284512.866 7      3143.750          45.000    20781601.398 7  86554632.667 7      2445.139          45.000
R17  22182329.492 7 118702115.804 7     -3679.570          46.000    22182335.492 7  92323871.503 7     -2861.888          44.000
R18  19327553.312 8 103171803.919 8      -831.906          51.000    19327556.102 8  80244741.263 8      -647.038          48.000
C05  39670001.055 5 206572105.521 5       -31.406          34.000    39669998.297 6 159734646.424 6       -24.110          37.000
C27  21544428.234 8 112187490.972 8      -472.215          51.000
C28  24053590.039 8 125253322.682 8     -2984.449          48.000
E04  25874094.828 8 135969356.695 8      2787.742          49.000    25874098.094 7 104184283.455 7      2136.173          47.000
E12  21511016.008 8 113041152.178 8        30.438          49.000    21511015.766 8  86615953.040 8        23.358          51.000
E19  24084759.875 8 126566278.465 8       236.898          48.000    24084760.758 8  96979372.352 8       181.505          50.000
E33  25660388.961 8 134846225.771 8     -2162.391          48.000    25660392.516 8 103323716.066 8     -1656.933          50.000
> 2020 05 05 20 06 30.0000000  0 17        .000000000000
G01  20296026.344 8 106656338.238 8       372.863          50.000    20296027.555 8  83108840.641 8       290.543          50.000
G03  21200056.570 7 111407054.052 7      1940.773          42.000    21200059.781 7  86810698.375 7      1512.294          42.000
G08  22845996.812 7 120056508.864 7     -3387.785          43.000    22846002.570 7  93550523.599 7     -2639.830          43.000
G11  20333387.641 8 106852666.948 8     -1701.688          49.000    20333386.141 7  83261822.872 7     -1325.990          47.000
G22  20629446.719 8 108408531.309 8       291.695          51.000    20629443.375 8  84474190.360 8       227.295          51.000
G32  22781882.734 5 119719611.037 5     -2149.723          31.000    22781886.992 5  93288004.597 5     -1675.102          31.000
R03  19251469.930 8 103054674.023 8      -653.047          51.000    19251472.633 7  80153649.476 7      -507.925          45.000
R04  20764015.539 7 111190358.333 7      3137.387          47.000    20764018.867 7  86481401.325 7      2440.187          46.000
R17  22202972.375 7 118812576.117 7     -3680.262          46.000    22202977.539 6  92409785.066 6     -2862.426          41.000
R18  19332272.789 8 103196995.885 8      -843.414          50.000    19332275.320 8  80264335.025 8      -655.989          48.000
C05  39670164.023 5 206572953.659 5       -21.430          35.000    39670161.430 6 159735303.428 6       -16.516          37.000
C27  21547176.375 8 112201802.576 8      -477.793          51.000
C28  24070789.062 8 125342882.244 8     -2982.109          48.000
E04  25858180.797 8 135885730.921 8      2791.223          48.000    25858183.391 8 104120206.603 8      2138.690          48.000
E12  21510852.734 8 113040292.754 8        30.840          49.000    21510852.156 8  86615294.528 8        23.678          51.000
E19  24083429.531 8 126559288.965 8       233.102          48.000    24083430.742 8  96974016.767 8       178.628          50.000
E33  25672736.750 7 134911110.897 7     -2159.246          47.000    25672740.414 8 103373433.235 8     -1654.511          51.000
> 2020 05 05 20 07  0.0000000  0 17        .000000000000
G01  20293998.211 8 106645679.256 8       347.258          51.000    20293999.086 8  83100534.949 8       270.591          51.000
G03  21189074.469 7 111349342.519 7      1916.254          44.000    21189078.141 7  86765728.371 7      1493.185          45.000
G08  22865423.125 7 120158595.187 7     -3408.426          46.000    22865428.656 7  93630071.385 7     -2655.916          46.000
G11  20343215.086 8 106904312.408 8     -1731.668          48.000    20343213.742 7  83302066.067 7     -1349.352          47.000
G22  20627880.750 8 108400302.857 8       266.551          51.000    20627877.523 8  84467778.589 8       207.702          51.000
R02  22055304.047 5 117691306.237 5     -3777.449          31.000
R03  19255257.344 8 103074947.330 8      -688.641          51.000    19255259.703 7  80169417.610 7      -535.606          46.000
R04  20746549.461 8 111096826.934 8      3107.879          49.000    20746552.875 7  86408654.702 7      2417.239          46.000
R17  22223699.219 7 118923487.790 7     -3703.926          47.000    22223702.383 6  92496049.664 6     -2880.834          39.000
R18  19337137.430 8 103222962.859 8      -877.883          50.000    19337139.734 8  80284531.566 8      -682.798          48.000
C05                                                                  39670350.094 6 159736063.132 6       -26.608          37.000
C27  21550037.125 8 112216700.978 8      -505.902          51.000
C28  24088056.734 8 125432793.290 8     -3002.305          50.000
E04  25842328.148 8 135802426.336 8      2772.004          49.000    25842329.852 8 104056375.868 8      2123.949          48.000
E12  21510767.430 8 113039843.405 8         8.688          49.000    21510766.438 8  86614950.238 8         6.657          51.000
E19  24082201.609 8 126552835.984 8       206.656          49.000    24082202.680 8  96969072.285 8       158.290          50.000
E33  25685146.625 7 134976323.475 7     -2178.645          46.000    25685150.156 8 103423401.286 8     -1669.339          49.000
> 2020 05 05 20 07 30.0000000  0 18        .000000000000
G01  20292036.086 8 106635367.591 8       336.555          51.000    20292036.953 8  83092499.891 8       262.250          51.000
G03  21178153.711 7 111291952.595 7      1906.074          42.000    21178157.469 7  86721008.956 7      1485.250          42.000
G08  22884888.695 7 120260883.308 7     -3414.285          47.000    22884892.812 7  93709776.376 7     -2660.485          47.000
G11  20353133.680 8 106956436.202 8     -1746.832          49.000    20353132.906 8  83342682.030 8     -1361.168          49.000
G14  21982602.102 5 115519369.872 5      -719.691          34.000
G22  20626377.867 8 108392405.617 8       256.336          51.000    20626374.656 8  84461624.911 8       199.742          51.000
R02  22076543.328 5 117804654.412 5     -3783.301          34.000    22076550.477 4  91625879.945 4     -2942.567          26.000
R03  19259164.297 8 103095860.749 8      -709.152          51.000    19259166.766 7  80185683.649 7      -551.563          45.000
R04  20729169.102 8 111003752.419 8      3093.430          50.000    20729172.461 7  86336263.447 7      2406.004          47.000
R17  22244479.055 7 119034680.531 7     -3712.543          47.000    22244480.180 6  92582532.903 6     -2887.533          40.000
R18  19342115.734 8 103249537.276 8      -897.266          51.000    19342117.789 8  80305200.567 8      -697.873          48.000
C05  39670535.266 5 206574887.127 5       -33.039          34.000    39670532.742 6 159736798.917 6       -25.037          37.000
C27  21552979.227 8 112232022.700 8      -519.246          51.000
C28  24105360.117 8 125522890.799 8     -3007.613          51.000
E04  25826505.430 8 135719279.058 8      2767.492          48.000    25826506.406 8 103992665.656 8      2120.624          48.000
E12  21510728.719 8 113039639.670 8         1.348          49.000    21510727.414 8  86614794.150 8          .955          51.000
E19  24081044.188 8 126546753.850 8       195.129          49.000    24081045.430 8  96964411.949 8       149.553          50.000
E33  25697586.945 7 135041697.969 7     -2183.129          45.000    25697590.180 8 103473493.435 8     -1672.838          48.000
> 2020 05 05 20 08  0.0000000  0 19        .000000000000
G01  20290149.086 8 106625451.454 8       322.160          51.000    20290150.242 8  83084773.049 8       251.034          51.000
G03  21167302.867 7 111234932.078 7      1893.051          42.000    21167306.859 7  86676577.340 7      1475.105          42.000
G08  22904401.156 8 120363417.903 8     -3423.621          48.000    22904403.586 8  93789673.407 8     -2667.760          48.000
G11  20363152.461 8 107009085.037 8     -1765.352          50.000    20363152.039 8  83383707.109 8     -1375.599          49.000
G14  21986764.633 5 115541229.804 5      -739.730          34.000    21986764.820 5  90032125.680 5      -576.413          31.000
G22  20624946.977 8 108384886.590 8       242.547          51.000    20624943.680 8  84455765.935 8       188.998          51.000
G32  22819265.805 5 119916048.132 5     -2206.719          34.000    22819256.359 5  93441058.458 5     -1719.527          33.000
R02  22097825.977 6 117918224.654 6     -3791.086          37.000    22097841.141 4  91714238.743 4     -2948.625          29.000
R03  19263199.336 8 103117460.176 8      -733.160          51.000    19263200.953 7  80202483.200 7      -570.236          45.000
R04  20711883.445 8 110911185.277 8      3075.312          50.000    20711886.508 7  86264266.824 7      2391.910          46.000
R17  22265319.492 7 119146200.587 7     -3724.559          47.000    22265320.773 6  92669270.722 6     -2896.879          41.000
R18  19347216.992 8 103276768.016 8      -920.387          51.000    19347219.125 8  80326380.022 8      -715.856          48.000
C05                                                                  39670718.500 6 159737547.145 6       -26.596          37.000
C27  21556012.086 8 112247814.964 8      -535.938          51.000
C28  24122707.742 8 125613220.359 8     -3016.598          51.000
E04  25810721.523 7 135636337.838 7      2759.391          47.000    25810722.531 8 103929113.324 8      2114.374          48.000
E12  21510745.852 8 113039729.768 8        -9.660          49.000    21510744.453 8  86614863.192 8        -7.405          51.000
E19  24079966.109 8 126541089.961 8       180.059          49.000    24079967.719 8  96960072.111 8       137.982          50.000
E33  25710066.289 7 135107281.610 7     -2191.414          45.000    25710069.672 7 103523745.829 7     -1678.977          45.000
> 2020 05 05 20 08 30.0000000  0 17        .000000000000
G01  20288330.109 8 106615893.104 8       312.707          50.000    20288331.742 8  83077324.978 8       243.665          50.000
G03  21156515.500 7 111178242.921 7      1884.379          44.000    21156519.461 7  86632403.969 7      1468.350          44.000
G08  22923952.406 7 120466158.216 7     -3428.004          46.000    22923954.398 7  93869730.750 7     -2671.172          46.000
G11  20373263.844 8 107062219.437 8     -1779.230          51.000    20373263.461 8  83425110.547 8     -1386.413          49.000
G22  20623580.656 8 108377706.662 8       233.777          51.000    20623577.328 8  84450171.186 8       182.164          51.000
R02  22119142.461 5 118031974.192 5     -3794.820          35.000    22119157.078 4  91802710.606 4     -2951.527          28.000
R03  19267354.906 8 103139704.368 8      -752.098          51.000    19267356.430 7  80219784.266 7      -584.965          45.000
R04  20694684.992 8 110819088.470 8      3062.133          49.000    20694687.297 7  86192636.029 7      2381.662          44.000
R17  22286213.641 8 119258006.830 8     -3731.500          49.000    22286215.250 7  92756231.127 7     -2902.278          42.000
R18  19352433.750 8 103304616.013 8      -938.430          51.000    19352435.938 8  80348039.546 8      -729.890          48.000
C05                                                                  39670900.062 6 159738278.310 6       -24.010          38.000
C27  21559128.180 8 112264039.901 8      -548.000          51.000
C28  24140092.055 8 125703742.445 8     -3020.531          51.000
E04  25794969.398 7 135553565.515 7      2756.461          46.000    25794971.258 8 103865690.385 8      2112.031          49.000
E12  21510811.633 8 113040075.912 8       -15.629          48.000    21510810.352 8  86615128.428 8       -11.987          51.000
E19  24078960.375 8 126535805.312 8       169.996          48.000    24078961.727 8  96956022.851 8       130.200          49.000
E33  25722577.648 7 135173035.567 7     -2194.289          44.000    25722581.250 7 103574128.737 7     -1681.500          43.000
> 2020 05 05 20 09  0.0000000  0 18        .000000000000
G01  20286590.094 8 106606749.696 8       297.730          51.000    20286592.156 8  83070200.239 8       231.998          51.000
G03  21145802.117 7 111121941.964 7      1869.977          45.000    21145805.336 7  86588533.110 7      1457.125          45.000
G08  22943552.383 7 120569157.927 7     -3437.773          43.000    22943555.086 7  93949990.243 7     -2678.781          44.000
G11  20383478.344 8 107115894.936 8     -1798.352          51.000    20383477.961 8  83466935.604 8     -1401.313          50.000
G14  21995392.445 5 115586568.941 5      -774.906          35.000
G22  20622289.617 8 108370921.713 8       219.484          51.000    20622286.367 8  84444884.227 8       171.030          51.000
R02  22140502.648 5 118145957.363 5     -3803.406          34.000    22140517.375 4  91891364.194 4     -2958.205          25.000
R03  19271641.242 8 103162649.042 8      -776.602          51.000    19271642.172 7  80237630.136 7      -604.023          44.000
R04  20677584.312 7 110727521.625 7      3043.309          46.000    20677585.172 6  86121417.429 6      2367.021          41.000
R17  22307171.727 8 119370154.541 8     -3744.059          49.000    22307173.625 7  92843457.135 7     -2912.046          43.000
R18  19357777.070 8 103333139.228 8      -962.203          51.000    19357779.258 8  80370224.255 8      -748.380          48.000
C05  39671090.703 5 206577779.677 5       -32.855          34.000    39671088.172 6 159739035.696 6       -25.572          37.000
C27  21562338.156 8 112280753.599 8      -565.410          51.000
C28  24157523.727 8 125794511.546 8     -3029.848          51.000
E04  25779261.086 8 135471019.800 8      2747.531          48.000    25779263.531 8 103802441.091 8      2105.203          49.000
E12  21510936.945 8 113040735.263 8       -27.367          48.000    21510936.000 8  86615633.646 8       -21.006          51.000
E19  24078037.555 8 126530956.171 8       154.270          48.000    24078038.820 8  96952307.297 8       118.147          49.000
E33  25735132.805 7 135239016.099 7     -2203.258          44.000    25735134.969 7 103624685.148 7     -1688.234          42.000
> 2020 05 05 20 09 30.0000000  0 18        .000000000000
G01  20284917.719 8 106597961.460 8       285.336          51.000    20284919.984 8  83063352.265 8       222.340          51.000
G03  21135151.008 7 111065969.037 7      1858.629          44.000    21135152.703 7  86544917.864 7      1448.285          44.000
G08  22963189.219 7 120672353.999 7     -3444.914          42.000    22963193.062 6  94030402.793 6     -2684.346          41.000
G11  20393784.016 8 107170049.860 8     -1814.871          51.000    20393783.586 8  83509134.256 8     -1414.185          49.000
G14  21999858.586 6 115610044.737 6      -792.258          36.000
G22  20621062.078 8 108364470.526 8       207.824          51.000    20621058.758 8  84439857.342 8       161.944          51.000
R02  22161894.781 5 118260109.609 5     -3809.578          35.000
R03  19276046.383 8 103186230.321 8      -798.336          50.000    19276047.195 7  80255971.139 7      -620.925          45.000
R04  20660571.203 7 110636425.036 7      3026.984          47.000    20660571.953 7  86050564.556 7      2354.321          43.000
R17  22328180.602 7 119482580.086 7     -3753.742          46.000    22328184.156 7  92930899.197 7     -2919.580          45.000
R18  19363235.289 8 103362276.204 8      -983.023          51.000    19363237.523 8  80392886.327 8      -764.574          48.000
C05  39671273.750 5 206578731.506 5       -32.855          34.000    39671271.250 6 159739772.883 6       -25.358          37.000
C27  21565630.523 8 112297896.278 8      -580.191          51.000
C28  24174990.719 8 125885466.277 8     -3036.559          51.000
E04  25763585.602 8 135388641.354 8      2741.570          50.000    25763587.953 8 103739319.971 8      2100.705          50.000
E12  21511110.555 8 113041648.022 8       -36.234          49.000    21511109.820 8  86616333.036 8       -27.743          51.000
E19  24077186.062 8 126526481.604 8       141.309          49.000    24077187.586 8  96948878.748 8       108.302          49.000
E33  25747719.742 7 135305162.313 7     -2209.191          44.000    25747721.594 7 103675368.548 7     -1692.787          45.000
> 2020 05 05 20 10  0.0000000  0 17        .000000000000
G01  20283317.430 8 106589551.856 8       276.398          51.000    20283319.773 8  83056799.313 8       215.375          51.000
G03  21124566.711 7 111010347.224 7      1850.488          45.000    21124566.977 7  86501576.232 7      1441.939          45.000
G08  22982867.656 7 120775767.049 7     -3448.367          42.000    22982871.992 7  94110984.426 7     -2687.039          42.000
G11  20404184.633 8 107224706.163 8     -1827.918          50.000    20404184.352 8  83551723.590 8     -1424.352          48.000
G22  20619902.242 8 108358375.352 8       199.574          51.000    20619898.672 8  84435107.858 8       155.512          51.000
R02  22183322.617 5 118374450.433 5     -3812.262          35.000    22183333.633 4  92069066.169 4     -2965.089          26.000
R03  19280574.586 8 103210469.577 8      -816.582          49.000    19280575.695 7  80274823.916 7      -635.116          45.000
R04  20643652.836 8 110545823.879 8      3014.027          49.000    20643654.016 7  85980097.027 7      2344.247          45.000
R17  22349245.156 7 119595304.094 7     -3759.996          45.000    22349250.359 7  93018573.444 7     -2924.438          46.000
R18  19368812.781 8 103392050.487 8     -1000.883          51.000    19368814.992 8  80416044.080 8      -778.464          48.000
C05  39671456.023 5 206579681.269 5       -29.379          35.000    39671453.523 6 159740507.346 6       -22.678          37.000
C27  21569009.727 8 112315490.580 8      -591.754          51.000
C28  24192497.117 8 125976627.761 8     -3039.754          50.000
E04  25747947.086 8 135306454.200 8      2738.762          51.000    25747949.000 8 103676345.452 8      2098.484          51.000
E12  21511336.859 8 113042837.639 8       -41.949          49.000    21511336.195 8  86617244.570 8       -32.137          51.000
E19  24076410.172 8 126522404.007 8       131.613          48.000    24076411.812 8  96945754.371 8       100.897          49.000
E33  25760342.945 7 135371496.587 7     -2212.004          46.000    25760345.617 8 103726196.082 8     -1694.816          48.000
> 2020 05 05 20 10 30.0000000  0 17        .000000000000
G01  20281789.375 8 106581521.839 8       260.641          51.000    20281791.562 8  83050542.172 8       203.097          51.000
G03  21114049.570 7 110955077.173 7      1835.547          45.000    21114049.031 7  86458508.671 7      1430.296          45.000
G08  23002587.672 7 120879394.707 7     -3458.430          44.000    23002591.078 7  94191733.264 7     -2694.880          43.000
G11  20414679.992 8 107279862.674 8     -1847.523          48.000    20414680.039 7  83594702.678 7     -1439.632          47.000
G22  20618810.039 8 108352635.478 8       184.656          51.000    20618806.469 8  84430635.237 8       143.888          51.000
R02  22204785.539 5 118488976.835 5     -3821.441          34.000    22204796.664 3  92158149.254 3     -2972.232          23.000
R03  19285225.047 8 103235364.591 8      -841.465          49.000    19285226.141 7  80294186.702 7      -654.473          45.000
R04  20626827.516 8 110455720.375 8      2994.418          50.000    20626829.406 7  85910016.578 7      2328.995          46.000
R17  22370365.336 7 119708325.011 7     -3772.922          46.000    22370371.656 7  93106478.648 7     -2934.492          46.000
R18  19374510.055 8 103422462.549 8     -1025.152          51.000    19374512.164 8  80439697.905 8      -797.341          48.000
C05  39671637.805 5 206580627.699 5       -32.211          34.000    39671635.094 6 159741239.180 6       -24.944          37.000
C27  21572475.828 8 112333536.908 8      -609.703          51.000
C28  24210042.562 8 126067994.774 8     -3049.539          48.000
E04  25732345.383 8 135224459.843 8      2729.273          51.000    25732346.930 8 103613518.662 8      2091.205          51.000
E12  21511615.844 8 113044304.987 8       -54.305          48.000    21511615.398 8  86618368.907 8       -41.565          51.000
E19  24075709.750 8 126518723.198 8       115.320          48.000    24075711.422 8  96942934.031 8        88.350          49.000
E33  25773001.852 7 135438018.796 7     -2221.254          45.000    25773005.578 8 103777167.681 8     -1702.024          50.000
> 2020 05 05 20 11  0.0000000  0 17        .000000000000
G01  20280339.219 8 106573901.301 8       249.543          51.000    20280341.250 8  83044604.085 8       194.449          51.000
G03  21103604.531 7 110900188.351 7      1825.641          43.000    21103604.844 7  86415738.160 7      1422.577          43.000
G08  23022354.117 7 120983263.605 7     -3463.887          45.000    23022355.469 7  94272670.020 7     -2699.136          45.000
G11  20425276.344 8 107335548.055 8     -1862.656          49.000    20425276.398 8  83638093.888 8     -1451.420          48.000
G22  20617790.812 8 108347279.624 8       174.422          51.000    20617787.484 8  84426461.856 8       135.913          51.000
R02  22226288.039 5 118603730.664 5     -3826.426          30.000
R03  19290003.414 8 103260943.091 8      -861.645          49.000    19290004.508 7  80314081.094 7      -670.168          46.000
R04  20610100.867 8 110366146.157 8      2979.305          51.000    20610102.891 7  85840347.803 7      2317.237          47.000
R17  22391547.266 8 119821670.623 8     -3781.258          48.000    22391552.938 7  93194636.357 7     -2940.978          46.000
R18  19380332.414 8 103453542.113 8     -1044.742          51.000    19380334.070 8  80463870.898 8      -812.577          48.000
C05  39671824.492 5 206581600.122 5       -30.887          35.000    39671821.664 6 159741990.734 6       -23.702          37.000
C27  21576034.289 8 112352064.263 8      -623.320          51.000
C28  24227632.000 7 126159594.769 7     -3054.793          46.000
E04  25716785.945 8 135142688.682 8      2724.352          51.000    25716787.219 8 103550862.884 8      2087.481          51.000
E12  21511953.195 8 113046079.955 8       -61.977          48.000    21511953.289 8  86619728.957 8       -47.486          51.000
E19  24075090.273 8 126515467.999 8       103.785          48.000    24075092.219 8  96940439.797 8        79.554          49.000
E33  25785701.633 7 135504757.885 7     -2225.961          45.000    25785706.594 8 103828305.445 8     -1705.526          50.000
> 2020 05 05 20 11 30.0000000  0 18        .000000000000
G01  20278960.133 8 106566654.461 8       227.980          51.000    20278962.133 8  83038957.192 8       177.647          51.000
G03  21093224.508 7 110845644.570 7      1804.918          43.000    21093226.461 7  86373236.547 7      1406.433          42.000
G08  23042159.086 7 121087334.851 7     -3479.605          46.000    23042158.297 7  94353764.429 7     -2711.381          45.000
G11  20435966.641 8 107391724.602 8     -1888.047          51.000    20435966.750 8  83681867.811 8     -1471.205          49.000
G14  22018748.445 6 115709302.519 6      -869.910          36.000
G22  20616837.656 8 108342270.762 8       153.852          51.000    20616834.336 8  84422558.849 8       119.884          51.000
G32  22909381.617 5 120389584.359 5     -2313.152          32.000
R03  19294901.789 8 103287165.984 8      -892.262          48.000    19294903.398 7  80334476.693 7      -693.984          46.000
R04  20593466.367 8 110277066.241 8      2953.570          50.000    20593468.141 7  85771063.444 7      2297.221          46.000
R17  22412782.781 8 119935301.286 8     -3799.840          48.000    22412787.500 7  93283015.705 7     -2955.431          45.000
R18  19386272.797 8 103485252.462 8     -1074.898          51.000    19386274.219 8  80488534.491 8      -836.032          48.000
C05  39672009.000 5 206582560.890 5       -39.176          34.000    39672006.305 6 159742734.055 6       -30.263          37.000
C27  21579677.992 8 112371036.670 8      -647.156          51.000
C28  24245258.172 7 126251390.178 7     -3070.273          43.000
E04  25701261.859 8 135061105.498 8      2708.922          51.000    25701263.070 8 103488351.135 8      2075.670          51.000
E12  21512342.344 8 113048126.755 8       -80.098          48.000    21512342.859 8  86621297.281 8       -61.439          51.000
E19  24074544.766 8 126512601.495 8        81.703          49.000    24074546.953 8  96938243.413 8        62.586          49.000
E33  25798436.141 7 135571677.010 7     -2241.070          46.000    25798441.352 8 103879581.163 8     -1717.127          49.000
> 2020 05 05 20 12  0.0000000  0 19        .000000000000
G01  20277664.891 8 106559848.002 8       227.445          51.000    20277666.891 8  83033653.444 8       177.227          51.000
G03  21082923.102 7 110791512.257 7      1805.438          42.000    21082925.906 7  86331055.492 7      1406.834          42.000
G08  23062014.609 7 121191671.913 7     -3474.398          45.000    23062013.430 7  94435065.990 7     -2707.327          45.000
G11  20446762.852 8 107448457.482 8     -1892.582          51.000    20446762.969 8  83726075.240 8     -1474.739          50.000
G14  22023736.000 5 115735513.402 5      -875.727          34.000
G22  20615963.016 8 108337674.268 8       154.227          51.000    20615959.695 8  84418977.169 8       120.177          51.000
G32  22922593.445 4 120459041.861 4     -2314.879          29.000
R02  22269395.219 5 118833759.210 5     -3832.734          30.000
R03  19299932.945 8 103314097.870 8      -901.477          48.000    19299934.102 7  80355423.691 7      -701.148          46.000
R04  20576936.414 8 110188549.673 8      2949.277          48.000    20576938.305 7  85702217.207 7      2293.882          45.000
R17  22434083.602 8 120049282.153 8     -3797.109          48.000    22434087.008 7  93371667.473 7     -2953.307          42.000
R18  19392344.031 8 103517660.646 8     -1083.824          51.000    19392345.508 8  80513740.849 8      -842.974          49.000
C05  39672204.086 5 206583575.907 5       -27.203          35.000    39672201.445 6 159743519.682 6       -20.440          37.000
C27  21583419.758 8 112390519.533 8      -650.152          51.000
C28  24262933.961 7 126343444.974 7     -3064.844          44.000
E04  25685785.867 8 134979777.522 8      2714.656          51.000    25685787.125 8 103426034.931 8      2080.073          51.000
E12  21512796.023 8 113050512.041 8       -77.148          48.000    21512796.750 8  86623124.952 8       -59.153          51.000
E19  24074085.867 8 126510189.416 8        80.824          49.000    24074087.961 8  96936395.220 8        61.981          48.000
E33  25811217.820 7 135638841.737 7     -2234.844          46.000    25811222.352 8 103931045.078 8     -1712.479          49.000
> 2020 05 05 20 12 30.0000000  0 17        .000000000000
G01  20276433.766 8 106553378.463 8       208.875          51.000    20276435.734 8  83028612.249 8       162.760          51.000
G03  21072680.188 6 110737687.523 6      1788.035          41.000    21072683.617 6  86289114.139 6      1393.274          41.000
G08  23081900.531 7 121296168.388 7     -3486.941          45.000    23081900.125 7  94516491.775 7     -2717.097          45.000
G11  20457644.898 8 107505640.990 8     -1914.773          51.000    20457644.773 8  83770633.817 8     -1492.028          51.000
G14  22028814.820 6 115762202.878 6      -898.191          38.000
G22  20615146.750 8 108333385.174 8       136.809          51.000    20615143.594 8  84415635.030 8       106.604          51.000
R03  19305076.281 8 103341630.874 8      -928.777          48.000    19305077.547 7  80376838.258 7      -722.382          46.000
R04  20560490.805 7 110100492.397 7      2926.461          46.000    20560493.766 7  85633728.206 7      2276.139          44.000
R17  22455429.023 8 120163504.887 8     -3812.566          48.000    22455430.477 6  93460507.347 6     -2965.332          40.000
R18  19398526.172 8 103550661.005 8     -1110.953          51.000    19398527.656 8  80539407.786 8      -864.075          48.000
C05  39672389.977 5 206584544.967 5       -32.887          35.000    39672387.273 6 159744267.899 6       -25.004          37.000
C27  21587239.367 8 112410409.755 8      -670.875          51.000
C28  24280641.016 7 126435654.452 7     -3077.332          45.000
E04  25670338.367 8 134898601.796 8      2702.309          51.000    25670339.742 8 103363835.382 8      2070.546          51.000
E12  21513294.523 8 113053132.356 8       -92.312          48.000    21513295.273 8  86625132.722 8       -70.694          51.000
E19  24073693.461 8 126508127.220 8        61.949          49.000    24073695.477 8  96934815.129 8        47.414          48.000
E33  25824025.977 7 135706147.664 7     -2246.906          47.000    25824029.984 8 103982617.136 8     -1721.670          48.000
> 2020 05 05 20 13  0.0000000  0 17        .000000000000
G01  20275274.703 8 106547287.651 8       196.668          51.000    20275276.602 8  83023866.166 8       153.248          51.000
G03  21062503.852 6 110684211.815 6      1776.461          41.000    21062507.109 6  86247444.798 6      1384.258          41.000
G08  23101823.953 7 121400862.710 7     -3493.238          43.000    23101824.641 7  94598071.732 7     -2722.004          43.000
G11  20468620.094 8 107563315.127 8     -1930.715          51.000    20468619.992 8  83815574.716 8     -1504.450          51.000
G14  22033993.242 5 115789415.414 5      -915.758          35.000    22033996.312 5  90225517.161 5      -713.581          30.000
G22  20614396.742 8 108329444.036 8       125.488          51.000    20614393.609 8  84412564.009 8        97.783          51.000
R03  19310339.344 8 103369804.470 8      -949.844          50.000    19310340.656 7  80398751.076 7      -738.767          46.000
R04  20544139.180 8 110012938.228 8      2909.980          49.000    20544142.188 7  85565630.578 7      2263.321          42.000
R17  22476826.758 7 120278009.322 7     -3821.684          47.000    22476826.508 6  93549566.328 6     -2972.421          39.000
