     3.02           OBSERVATION DATA    M (MIXED)           RINEX VERSION / TYPE
SAVERINEX           SC600               20200510 185930 LCL PGM / RUN BY / DATE
       G = GPS       R = GLONASS       C = COMPASS          COMMENT
       S = SBAS      J = QZSS          E = GALILEO          COMMENT
BEAN                                                        MARKER NAME
1                                                           MARKER NUMBER
GEODETIC                                                    MARKER TYPE
Unige DICCA         GTER                                    OBSERVER / AGENCY
SC60291900056       SC600               2.12(191226)        REC # / TYPE / VERS
                    HEMA45          NONE                    ANT # / TYPE
  4509407.8091   693652.4678  4442337.6214                  APPROX POSITION XYZ
        0.0000        0.0000        0.0000                  ANTENNA: DELTA H/E/N
G    8 C1C L1C D1C S1C C2Y L2Y D2Y S2Y                      SYS / # / OBS TYPES
R    8 C1C L1C D1C S1C C2P L2P D2P S2P                      SYS / # / OBS TYPES
C    8 C1I L1I D1I S1I C7I L7I D7I S7I                      SYS / # / OBS TYPES
E    8 C1C L1C D1C S1C C7Q L7Q D7Q S7Q                      SYS / # / OBS TYPES
DBHZ                                                        COMMENT
     30.000                                                 INTERVAL
  2020    05    10    16    00    0.0000000     GPS         TIME OF FIRST OBS
  2020    05    10    16    59   30.0000000     GPS         TIME OF LAST OBS
     0                                                      RCV CLOCK OFFS APPL
G L1C  0.00000                                              SYS / PHASE SHIFT
G L2Y  0.00000                                              SYS / PHASE SHIFT
R L1C  0.00000                                              SYS / PHASE SHIFT
R L2P  0.25000                                              SYS / PHASE SHIFT
C L1I  0.00000                                              SYS / PHASE SHIFT
C L7I  0.00000                                              SYS / PHASE SHIFT
E L1C  0.50000                                              SYS / PHASE SHIFT
E L7Q -0.25000                                              SYS / PHASE SHIFT
 13 R04  6 R05  1 R06 -4 R07  5 R09 -2 R10 -5 R11  0 R12 -1 GLONASS SLOT / FRQ #
    R16 -1 R19  3 R20  2 R21  4 R22 -3                      GLONASS SLOT / FRQ #
 C1C   71.950 C2C   71.950 C2P   71.950                     GLONASS COD/PHS/BIS
    18                                                      LEAP SECONDS
*** Above antenna height is from mark to ANTENNA BOTTOM.    COMMENT
    17     4        0.0000        ANT MEASURE TYPE/HEIGT    COMMENT
    0.0000    0.0000    0.0458    0.0405    0.0000          COMMENT
                    BASE STATION                            COMMENT
                                                            END OF HEADER
> 2020 05 10 16 00  0.0000000  0 16        .000000000000
G10  21180789.570 8 111305817.770 8      1307.234          51.000    21180791.938 8  86731824.769 8      1018.624          51.000
G16  21083297.336 8 110793468.128 8     -1995.973          51.000    21083295.844 8  86332578.230 8     -1555.303          48.000
G20  21154944.008 6 111169980.899 6     -1114.383          41.000    21154941.906 6  86625938.936 6      -868.350          39.000
G21  23695156.820 6 124518883.723 6     -2574.691          38.000
G26  22837223.039 7 120010389.316 7     -3403.680          45.000    22837225.680 7  93514591.037 7     -2652.221          45.000
G27  20457099.953 6 107502783.423 6       898.484          39.000    20457102.133 6  83768393.476 6       700.121          39.000
R06  21023841.562 5 112187224.651 5      2469.453          35.000
R11  21811199.977 7 116552413.488 7     -3665.266          44.000    21811200.523 6  90651861.815 6     -2850.765          39.000
R21  19934892.859 6 106675603.870 6      -890.402          39.000    19934897.672 5  82969971.935 5      -692.535          31.000
C05  39617901.844 5 206300809.999 5        -7.859          34.000
C27  23004894.234 7 119792516.477 7     -1850.477          42.000
C30  21709511.617 5 113047121.878 5       689.656          35.000
E02  25991319.102 6 136585285.269 6     -2995.312          40.000    25991325.086 7 104656235.328 7     -2295.068          43.000
E05  27388047.430 7 143925166.000 7      2776.332          47.000    27388052.852 8 110280340.704 8      2127.370          48.000
E30  23312416.094 6 122507550.830 6      -877.395          40.000    23312422.898 5  93869454.065 5      -672.185          34.000
E36                                                                  24463115.844 6  98502839.646 6     -1237.420          41.000
> 2020 05 10 16 00 30.0000000  0 16        .000000000000
G10  21173386.727 8 111266916.192 8      1287.984          51.000    21173388.977 8  86701511.843 8      1003.624          51.000
G16  21094747.820 8 110853643.837 8     -2014.039          49.000    21094747.133 8  86379468.390 8     -1569.381          48.000
G20  21161365.719 6 111203728.126 6     -1133.648          39.000    21161363.930 6  86652235.504 6      -883.362          39.000
G26  22856682.445 7 120112647.839 7     -3412.066          46.000    22856684.875 7  93594272.935 7     -2658.756          45.000
G27  20452011.805 6 107476045.187 6       885.395          38.000    20452014.562 6  83747558.525 6       689.918          39.000
R05  22049961.797 4 117869680.996 4     -1754.781          28.000
R06  21010029.039 5 112113519.070 5      2446.316          34.000
R11  21831822.508 7 116662605.567 7     -3679.359          43.000    21831822.773 6  90737566.717 6     -2861.724          41.000
R21  19939919.617 6 106702502.921 6      -901.195          39.000    19939925.859 5  82990893.384 5      -700.933          34.000
C05  39617955.117 5 206301087.123 5        -9.422          34.000
C27  23015578.836 6 119848152.936 6     -1857.285          39.000
C30  21705567.469 6 113026585.068 6       681.070          39.000
E02  26008440.367 6 136675267.731 6     -3001.871          37.000    26008449.312 7 104725182.955 7     -2299.925          42.000
E05  27372211.500 8 143841947.846 8      2773.078          49.000    27372216.531 8 110216576.221 8      2124.814          49.000
E30  23317474.477 6 122534131.120 6      -892.914          40.000    23317471.570 5  93889805.823 5      -683.786          32.000
E36                                                                  24472351.906 6  98540031.108 6     -1240.619          40.000
> 2020 05 10 16 01  0.0000000  0 16        .000000000000
G10  21166085.320 8 111228548.087 8      1269.164          51.000    21166087.930 8  86671614.639 8       988.959          51.000
G16  21106291.227 7 110914312.377 7     -2031.352          46.000    21106291.773 7  86426742.596 7     -1582.871          46.000
G20  21167888.109 6 111238005.388 6     -1152.262          37.000    21167886.531 6  86678945.137 6      -897.860          36.000
G26  22876180.836 7 120215110.961 7     -3419.637          44.000    22876183.234 7  93674114.267 7     -2664.655          44.000
G27  20446990.430 6 107449659.505 6       872.770          39.000    20446993.430 6  83726998.233 6       680.080          38.000
R06  20996333.391 5 112040445.059 5      2424.422          34.000
R11  21852514.312 6 116773172.713 6     -3692.777          40.000    21852514.797 6  90823563.372 6     -2872.160          41.000
R21  19944998.547 6 106729681.756 6      -911.691          40.000    19945002.422 6  83012032.519 6      -709.093          37.000
R22  20925124.117 5 111699727.989 5      2052.398          30.000
C05  39618006.898 5 206301357.166 5        -9.789          35.000
C27  23026294.758 6 119903950.154 6     -1863.312          39.000
C30  21701665.664 6 113006266.152 6       672.562          40.000
E02  26025587.023 5 136765383.404 5     -3007.414          31.000    26025600.102 7 104794238.838 7     -2304.382          42.000
E05  27356385.602 7 143758782.648 7      2770.438          47.000    27356390.820 8 110152852.330 8      2122.731          49.000
E30  23322612.422 6 122561133.188 6      -907.980          38.000    23322607.281 5  93910495.821 5      -695.800          32.000
E36                                                                  24481604.883 6  98577289.984 6     -1243.927          40.000
> 2020 05 10 16 01 30.0000000  0 16        .000000000000
G10  21158896.219 8 111190769.329 8      1251.234          51.000    21158898.938 8  86642176.658 8       974.988          51.000
G16  21117939.008 8 110975526.248 8     -2047.695          48.000    21117940.164 8  86474441.744 8     -1595.607          48.000
G20  21174521.609 6 111272865.862 6     -1169.824          39.000    21174520.836 5  86706109.215 5      -911.551          35.000
G21  23739279.383 5 124750771.120 5     -2579.457          34.000
G26  22895727.758 7 120317830.806 7     -3426.645          42.000    22895730.547 7  93754155.664 7     -2670.113          42.000
G27  20442047.164 6 107423682.053 6       860.711          41.000    20442048.812 6  83706756.109 6       670.684          41.000
R06  20982768.031 5 111968061.868 5      2402.191          31.000
R11  21873284.539 6 116884166.162 6     -3705.203          36.000    21873286.625 6  90909891.547 6     -2881.828          40.000
R21  19950139.961 6 106757195.735 6      -920.879          40.000    19950142.984 6  83033432.278 6      -716.239          39.000
C05  39618067.586 5 206301673.314 5        -9.410          35.000
C27  23037051.867 5 119959962.276 5     -1869.137          33.000
C30  21697816.461 6 112986219.728 6       665.371          40.000
E02                                                                  26042787.086 6 104863443.375 6     -2307.839          40.000
E05  27340580.328 7 143675727.110 7      2768.363          47.000    27340585.664 8 110089212.451 8      2121.198          48.000
E30  23327840.422 6 122588611.161 6      -922.234          38.000    23327835.844 5  93931528.385 5      -706.210          32.000
E36                                                                  24490885.070 6  98614657.778 6     -1246.019          40.000
> 2020 05 10 16 02  0.0000000  0 16        .000000000000
G10  21151800.859 8 111153484.260 8      1232.625          51.000    21151803.844 8  86613123.373 8       960.487          51.000
G16  21129672.805 8 111037187.205 8     -2064.906          50.000    21129673.617 7  86522489.229 7     -1609.018          47.000
G20  21181247.773 6 111308211.749 6     -1188.516          41.000    21181246.664 5  86733651.466 5      -926.119          35.000
G21  23754007.812 6 124828148.092 6     -2580.957          37.000
G26  22915304.414 6 120420708.081 6     -3434.277          41.000    22915307.695 6  93834319.709 6     -2676.060          41.000
G27  20437163.320 6 107398017.230 6       848.453          40.000    20437164.234 6  83686757.569 6       661.132          40.000
R06  20969314.648 6 111896274.445 6      2380.742          37.000
R11  21894115.133 5 116995482.967 5     -3717.559          35.000    21894118.758 6  90996471.322 6     -2891.431          36.000
R21  19955325.953 6 106784946.076 6      -931.223          41.000    19955328.391 6  83055015.844 6      -724.284          40.000
C05  39618118.555 5 206301938.709 5       -10.359          35.000
C27  23047830.578 5 120016093.254 5     -1875.227          35.000
C30  21694001.492 6 112966350.449 6       657.430          41.000
E02  26059990.711 6 136946187.228 6     -3017.590          38.000    26059991.852 6 104932721.054 6     -2312.092          39.000
E05  27324777.953 8 143592686.488 8      2765.629          48.000    27324783.023 8 110025583.983 8      2119.079          48.000
E30  23333140.875 6 122616467.603 6      -936.902          40.000    23333137.180 5  93952872.896 5      -717.847          32.000
E36  24500171.359 5 128749269.811 5     -1629.941          35.000    24500174.242 6  98652060.090 6     -1248.820          40.000
> 2020 05 10 16 02 30.0000000  0 16        .000000000000
G10  21144816.781 8 111116784.424 8      1214.227          51.000    21144820.195 8  86584526.116 8       946.151          51.000
G16  21141509.016 8 111099383.516 8     -2081.449          51.000    21141508.945 8  86570953.857 8     -1621.908          48.000
G20  21188083.234 6 111344131.876 6     -1206.293          37.000    21188081.516 5  86761641.192 5      -939.969          33.000
G21  23768745.789 5 124905595.060 5     -2582.020          35.000
G26  22934927.688 6 120523830.539 6     -3440.828          39.000    22934931.469 6  93914674.891 6     -2681.165          39.000
G27  20432356.188 7 107372756.574 7       835.977          42.000    20432357.078 7  83667073.958 7       651.413          42.000
R06  20955992.297 6 111825178.459 6      2358.938          38.000
R11  21915020.781 5 117107210.402 5     -3729.961          30.000    21915028.961 5  91083370.495 5     -2901.078          32.000
R21  19960573.242 6 106813024.616 6      -940.996          41.000    19960575.508 6  83076854.709 6      -731.886          40.000
C05  39618177.016 5 206302243.921 5       -10.609          34.000
C27  23058650.977 6 120072432.271 6     -1880.766          36.000
C30  21690238.125 7 112946748.358 7       649.496          43.000
E02  26077228.266 6 137036784.512 6     -3022.438          41.000    26077231.844 5 105002139.644 5     -2315.633          35.000
E05  27308996.078 8 143509753.250 8      2763.289          48.000    27309001.312 8 109962037.825 8      2117.394          49.000
E30  23338531.320 7 122644792.232 7      -951.402          42.000    23338527.695 5  93974579.093 5      -728.464          30.000
E36  24509488.117 6 128798218.136 6     -1633.090          36.000    24509489.852 6  98689565.909 6     -1251.436          40.000
> 2020 05 10 16 03  0.0000000  0 16        .000000000000
G10  21137941.734 8 111080656.899 8      1207.340          51.000    21137945.461 8  86556374.818 8       940.787          51.000
G16  21153444.219 8 111162099.447 8     -2086.520          51.000    21153443.508 8  86619823.379 8     -1625.862          49.000
G18  23852288.547 5 125344618.346 5     -3143.578          31.000
G20  21195025.039 7 111380610.719 7     -1212.699          42.000    21195022.711 4  86790066.322 4      -944.963          29.000
G26  22954594.734 7 120627181.856 7     -3435.953          42.000    22954598.688 6  93995208.356 6     -2677.366          41.000
G27  20427623.516 7 107347887.229 7       835.383          42.000    20427624.422 7  83647695.229 7       650.948          42.000
R06  20942796.297 6 111754763.338 6      2348.469          37.000
R11  21936022.102 5 117219438.636 5     -3730.746          32.000    21936019.844 5  91170673.236 5     -2901.691          30.000
R21  19965879.047 6 106841416.843 6      -938.613          41.000    19965881.641 6  83098937.531 6      -730.036          40.000
C05  39618240.688 5 206302575.027 5         1.055          34.000
C27  23069504.789 6 120128965.513 6     -1874.988          38.000
C30  21686523.266 7 112927400.119 7       653.395          42.000
E02  26094499.984 7 137127549.885 7     -3015.574          43.000
E05  27293232.617 8 143426915.480 8      2772.445          49.000    27293237.477 7 109898564.774 7      2124.260          47.000
E30  23344008.125 7 122673570.369 7      -954.117          43.000
E36  24518825.328 6 128847287.050 6     -1624.895          36.000    24518827.922 6  98727164.188 6     -1245.001          40.000
> 2020 05 10 16 03 30.0000000  0 16        .000000000000
G10  21131127.070 8 111044844.774 8      1162.617          51.000    21131130.797 8  86528469.276 8       905.935          51.000
G16  21165428.789 8 111225075.368 8     -2129.387          51.000    21165427.703 8  86668895.480 8     -1659.265          49.000
G20  21202024.141 6 111417389.083 6     -1256.715          38.000    21202021.781 6  86818724.733 6      -979.264          36.000
G26  22974256.289 6 120730501.462 6     -3469.332          41.000    22974259.609 6  94075717.060 6     -2703.376          41.000
G27  20422916.547 7 107323152.196 7       796.258          42.000    20422917.312 7  83628421.179 7       620.461          42.000
R06  20929679.297 6 111684770.600 6      2299.934          37.000
R11  21957019.055 6 117331683.538 6     -3769.840          41.000    21957009.414 5  91257974.003 5     -2932.104          34.000
R12  20968037.203 5 112007481.671 5      -635.059          35.000    20968049.617 4  87116986.670 4      -493.934          26.000
R21  19971194.469 7 106869859.390 7      -975.312          42.000    19971196.641 6  83121059.541 6      -758.576          39.000
C05  39618260.039 5 206302675.511 5       -25.492          34.000
C27  23080349.672 6 120185436.904 6     -1906.840          40.000
C30  21682807.227 7 112908050.491 7       619.434          42.000
E02  26111755.328 6 137218223.523 6     -3046.734          41.000
E05  27277438.570 8 143343917.158 8      2743.297          48.000    27277443.406 8 109834968.686 8      2101.995          48.000
E30  23349521.664 7 122702543.365 7      -995.047          42.000    23349517.867 5  94018831.904 5      -762.208          31.000
E36  24528135.930 6 128896218.269 6     -1654.688          36.000    24528139.484 6  98764656.916 6     -1268.003          39.000
> 2020 05 10 16 04  0.0000000  0 18        .000000000000
G10  21124479.484 8 111009909.968 8      1168.746          51.000    21124483.180 8  86501247.361 8       910.711          51.000
G16  21177569.148 8 111288870.098 8     -2121.254          51.000    21177567.578 8  86718605.635 8     -1652.925          49.000
G18  23888306.336 5 125533890.216 5     -3148.734          34.000
G20  21209186.672 6 111455026.224 6     -1249.906          40.000    21209184.477 5  86848052.418 5      -973.962          30.000
G26  22994018.312 6 120834347.601 6     -3451.367          40.000    22994020.414 6  94156636.076 6     -2689.380          40.000
G27  20418342.203 7 107299113.534 7       808.418          43.000    20418343.477 7  83609689.738 7       629.936          44.000
R06  20916748.727 6 111615773.330 6      2302.824          37.000
R11  21978149.539 6 117444619.246 6     -3756.789          40.000    21978148.141 6  91345812.775 6     -2921.950          37.000
R12  20971612.922 5 112026585.088 5      -637.141          31.000    20971620.703 4  87131848.403 4      -495.554          28.000
R21  19976626.141 6 106898923.665 6      -960.016          40.000    19976628.266 6  83143665.125 6      -746.679          39.000
R22  20856658.039 5 111334256.130 5      2018.141          30.000
C05  39618342.062 5 206303103.102 5         -.957          34.000
C27  23091289.102 6 120242402.252 6     -1888.090          37.000
C30  21679197.750 7 112889255.780 7       635.785          42.000
E02  26129099.273 6 137309364.446 6     -3026.953          39.000
E05  27261721.070 8 143261321.207 8      2765.375          49.000    27261726.820 8 109771680.938 8      2118.864          48.000
E30  23355178.984 7 122732271.316 7      -984.668          42.000    23355175.312 5  94041610.401 5      -754.477          33.000
E36  24537526.086 5 128945572.235 5     -1633.012          33.000    24537531.219 6  98802473.601 6     -1251.490          39.000
> 2020 05 10 16 04 30.0000000  0 16        .000000000000
G10  21117898.828 8 110975326.841 8      1139.969          51.000    21117902.328 8  86474299.492 8       888.287          51.000
G16  21189764.422 8 111352955.220 8     -2147.797          51.000    21189762.734 8  86768542.081 8     -1673.611          49.000
G18  23906323.969 5 125628583.820 5     -3160.965          34.000    23906320.297 4  97892384.022 4     -2463.089          27.000
G20  21216412.242 5 111492994.089 5     -1277.406          33.000    21216409.289 5  86877637.743 5      -995.391          31.000
G26  23013779.688 6 120938191.164 6     -3468.406          39.000    23013781.250 6  94237553.074 6     -2702.654          39.000
G27  20413800.367 7 107275245.612 7       786.008          44.000    20413802.219 7  83591091.363 7       612.471          44.000
R06  20903904.977 5 111547239.917 5      2269.441          34.000
R11  21999309.250 7 117557706.085 7     -3779.137          43.000    21999313.039 6  91433769.143 6     -2939.329          37.000
R21  19982073.500 6 106928072.859 6      -979.867          39.000    19982075.133 6  83166336.649 6      -762.122          37.000
C05  39618386.477 5 206303333.950 5       -11.055          34.000
C27  23102222.336 6 120299339.494 6     -1903.875          39.000
C30  21675594.477 7 112870494.603 7       617.824          42.000
E02  26146431.656 5 137400444.048 5     -3041.766          34.000
E05  27245980.234 7 143178603.038 7      2752.340          46.000    27245986.727 7 109708299.496 7      2108.996          47.000
E30  23360879.383 7 122762226.884 7     -1009.305          42.000    23360875.258 5  94064563.307 5      -773.456          35.000
E36  24546898.398 6 128994818.810 6     -1646.645          36.000    24546904.789 6  98840210.357 6     -1261.751          39.000
> 2020 05 10 16 05  0.0000000  0 17        .000000000000
G10  21111444.539 8 110941407.191 8      1108.957          51.000    21111447.531 8  86447868.620 8       864.122          51.000
G16  21202073.047 8 111417639.810 8     -2176.750          50.000    21202071.914 8  86818945.654 8     -1696.169          49.000
G18  23924371.766 5 125723425.194 5     -3174.277          35.000
G20  21223757.852 6 111531603.748 6     -1308.617          36.000    21223756.102 5  86907730.758 5     -1019.705          31.000
G26  23033599.266 6 121042340.337 6     -3487.406          38.000    23033600.172 6  94318708.212 6     -2717.462          37.000
G27  20409350.250 7 107251860.329 7       760.973          43.000    20409351.539 7  83572869.075 7       592.966          44.000
R06  20891208.070 5 111479489.604 5      2234.500          33.000
R11  22020556.195 7 117671255.227 7     -3803.508          42.000    22020563.469 5  91522085.130 5     -2958.284          35.000
R12  20979164.375 5 112066978.725 5      -713.652          33.000
R21  19987595.867 6 106957623.096 6     -1002.457          40.000    19987596.922 5  83189320.170 5      -779.689          35.000
C05  39618452.367 5 206303677.034 5       -23.840          34.000
C27  23113210.312 6 120356556.344 6     -1922.648          39.000
C30  21672057.023 7 112852075.413 7       597.660          44.000
E02                                                                  26163823.422 5 105350865.204 5     -2343.463          33.000
E05  27230274.938 7 143096075.418 7      2736.926          45.000    27230282.625 8 109645064.081 8      2097.155          48.000
E30  23366682.047 6 122792720.154 6     -1036.113          40.000    23366678.852 6  94087928.260 6      -793.863          38.000
E36  24556310.109 6 129044274.557 6     -1662.625          38.000    24556317.750 6  98878104.992 6     -1273.843          38.000
> 2020 05 10 16 05 30.0000000  0 16        .000000000000
G10  21105086.547 8 110907993.980 8      1113.035          51.000    21105089.047 8  86421832.365 8       867.300          51.000
G16  21214464.938 8 111482764.123 8     -2170.426          49.000    21214464.492 8  86869691.882 8     -1691.241          48.000
G18  23942419.828 5 125818264.125 5     -3153.496          35.000    23942417.523 5  98040195.792 5     -2457.270          32.000
G20  21231195.969 6 111570692.064 6     -1303.430          36.000
G26  23053446.188 5 121146634.547 5     -3471.309          34.000    23053446.219 5  94399976.327 5     -2704.922          35.000
G27  20404962.039 7 107228800.715 7       770.969          43.000    20404963.086 7  83554900.571 7       600.755          44.000
R05  22155300.336 5 118432749.411 5     -1987.793          31.000    22155306.820 4  92114396.828 4     -1546.061          27.000
R06  20878629.453 5 111412365.363 5      2234.754          33.000
R11  22041859.797 7 117785101.482 7     -3791.879          42.000    22041868.883 4  91610632.169 4     -2949.239          29.000
R21  19993162.383 6 106987413.391 6      -989.281          38.000    19993163.453 5  83212490.384 5      -769.444          35.000
C27  23124221.711 6 120413896.028 6     -1905.871          37.000
C30  21668555.508 7 112833842.023 7       612.273          43.000
E02                                                                  26181215.766 6 105420910.464 6     -2330.105          37.000
E05  27214576.117 7 143013582.369 7      2756.711          44.000    27214584.938 7 109581855.194 7      2112.315          47.000
E30  23372556.734 6 122823592.350 6     -1027.863          40.000    23372556.352 6  94111583.544 6      -787.512          40.000
E36  24565730.609 6 129093777.858 6     -1643.547          40.000    24565738.664 6  98916036.103 6     -1259.224          36.000
> 2020 05 10 16 06  0.0000000  0 17        .000000000000
G10  21098828.258 8 110875105.540 8      1084.852          51.000    21098830.516 8  86396205.024 8       845.339          51.000
G16  21226943.352 8 111548343.142 8     -2196.129          48.000    21226943.570 8  86920792.431 8     -1711.266          48.000
G18  23960470.555 6 125913116.810 6     -3164.754          37.000
G27  20400639.414 7 107206085.234 7       748.875          45.000    20400640.445 7  83537200.198 7       583.539          45.000
R05  22166566.117 6 118493005.899 6     -2021.234          38.000
R06  20866170.641 4 111345884.915 4      2202.211          29.000
R11  22063223.031 7 117899258.113 7     -3812.906          42.000    22063216.305 4  91699334.791 4     -2965.594          28.000
R12  20987314.719 5 112110453.019 5      -753.980          30.000
R21  19998776.336 6 107017461.036 6     -1008.672          37.000    19998778.734 6  83235860.764 6      -784.523          36.000
R22  20811808.875 5 111094885.357 5      1978.652          32.000    20811800.070 4  86407068.141 4      1538.955          27.000
C05  39618562.273 5 206304249.264 5       -11.480          35.000
C27  23135260.586 5 120471375.573 5     -1921.488          32.000
C30  21665093.086 7 112815812.185 7       595.012          44.000
E02  26198622.562 5 137674687.350 5     -3055.098          35.000    26198627.219 6 105491034.784 6     -2340.955          39.000
E05  27198888.266 7 142931143.346 7      2744.430          43.000    27198896.664 7 109518687.629 7      2102.896          44.000
E30  23378506.773 6 122854859.935 6     -1051.371          39.000    23378509.734 7  94135541.841 7      -805.773          43.000
E36  24575163.391 6 129143345.821 6     -1656.199          39.000    24575168.891 5  98954016.738 5     -1268.832          34.000
> 2020 05 10 16 06 30.0000000  0 16        .000000000000
G10  21092683.625 8 110842815.115 8      1068.457          51.000    21092685.891 8  86371043.678 8       832.567          51.000
G16  21239522.102 8 111614447.373 8     -2210.195          48.000    21239522.602 8  86972302.193 8     -1722.230          48.000
G18  23978536.859 6 126008054.452 6     -3163.883          36.000
G21  23886815.234 5 125526056.490 5     -2587.656          32.000
G26  23093254.391 5 121355896.526 5     -3491.184          34.000    23093244.766 5  94562976.519 5     -2720.403          35.000
G27  20396396.320 7 107183787.275 7       738.402          46.000    20396397.148 7  83519825.157 7       575.378          46.000
R05  22177973.523 6 118553971.278 6     -2042.766          40.000
R06  20853848.789 5 111280131.674 5      2181.441          32.000
R11  22084658.406 7 118013794.078 7     -3821.855          42.000    22084656.625 5  91788417.800 5     -2972.554          31.000
R21  20004451.656 5 107047839.559 5     -1016.109          35.000    20004454.898 6  83259488.470 6      -790.310          36.000
C05  39618623.211 5 206304566.342 5        -9.418          34.000
C30  21661683.547 7 112798058.057 7       589.258          44.000
E02  26216070.117 6 137766379.180 6     -3057.270          37.000    26216073.078 6 105561292.122 6     -2342.628          40.000
E05  27183225.234 7 142848832.645 7      2743.625          45.000    27183232.469 7 109455618.455 7      2102.177          44.000
E30  23384544.234 6 122886594.537 6     -1063.480          38.000    23384551.219 6  94159857.988 6      -814.890          41.000
E36  24584622.047 6 129193050.430 6     -1657.055          37.000    24584625.156 5  98992102.047 5     -1269.485          32.000
> 2020 05 10 16 07  0.0000000  0 16        .000000000000
G10  21086642.219 8 110811067.037 8      1047.953          51.000    21086644.031 8  86346304.937 8       816.587          51.000
G16  21252190.133 8 111681018.534 8     -2228.137          49.000    21252190.391 8  87024175.795 8     -1736.210          48.000
G18  23996607.844 5 126103019.073 5     -3166.594          32.000
G26  23113204.594 6 121460750.590 6     -3499.219          37.000    23113198.016 6  94644680.886 6     -2726.667          36.000
G27  20392222.203 7 107161851.284 7       723.871          46.000    20392223.070 7  83502732.167 7       564.055          46.000
R05  22189508.000 6 118615639.945 6     -2068.316          38.000    22189517.836 5  92256655.335 5     -1608.691          30.000
R06  20841652.164 5 111215048.057 5      2156.934          34.000
R11  22106153.742 6 118128647.215 6     -3835.215          39.000    22106155.305 5  91877748.004 5     -2982.942          34.000
R12  20996076.492 5 112157252.025 5      -806.910          30.000
R21  20010179.203 6 107078490.998 6     -1027.512          37.000    20010183.180 6  83283328.433 6      -799.176          37.000
C05  39618682.094 5 206304872.795 5       -11.152          35.000
C30  21658316.469 7 112780524.029 7       579.504          45.000
E02  26233539.328 6 137858186.197 6     -3063.484          38.000    26233541.859 6 105631637.694 6     -2347.276          41.000
E05  27167576.688 7 142766595.769 7      2738.531          45.000    27167582.828 7 109392605.868 7      2098.466          45.000
E30  23390659.711 6 122918738.734 6     -1079.539          37.000    23390667.945 6  94184488.060 6      -827.209          37.000
E36  24594095.547 6 129242834.625 6     -1662.250          38.000    24594096.281 5  99030248.333 5     -1273.753          32.000
> 2020 05 10 16 07 30.0000000  0 16        .000000000000
G10  21080709.531 8 110779889.930 8      1029.781          51.000    21080710.672 8  86322011.086 8       802.427          51.000
G16  21264952.258 8 111748082.217 8     -2243.613          50.000    21264951.766 7  87076433.170 7     -1748.273          46.000
G18  24014689.516 5 126198037.553 5     -3167.977          32.000
G26  23133192.891 6 121565800.324 6     -3504.594          39.000    23133190.070 6  94726537.680 6     -2730.858          39.000
G27  20388122.375 7 107140306.126 7       711.730          44.000    20388123.438 7  83485943.708 7       554.595          44.000
R05  22201178.297 6 118678025.975 6     -2091.176          37.000    22201190.484 5  92305177.809 5     -1626.470          30.000
R06  20829586.883 5 111150665.170 5      2134.266          32.000
R11  22127712.961 5 118243841.193 5     -3845.258          34.000    22127714.531 5  91967343.310 5     -2990.756          33.000
R21  20015962.648 6 107109442.986 6     -1036.637          40.000    20015967.641 6  83307402.242 6      -806.270          37.000
C05  39618743.711 5 206305194.135 5       -10.469          34.000
C27  23168612.078 5 120645044.645 5     -1937.039          35.000
C30  21654997.250 7 112763238.079 7       572.086          44.000
E02  26251035.281 6 137950134.158 6     -3067.254          36.000    26251038.719 6 105702091.289 6     -2350.192          41.000
E05  27151947.383 7 142684462.385 7      2736.164          45.000    27151952.719 7 109329672.624 7      2096.559          44.000
E30  23396859.508 6 122951319.575 6     -1093.293          40.000    23396866.102 6  94209452.582 6      -837.290          36.000
E36  24603589.328 5 129292725.844 5     -1664.703          35.000
> 2020 05 10 16 08  0.0000000  0 15        .000000000000
G10  21074882.656 8 110749269.185 8      1010.938          51.000    21074883.758 8  86298150.785 8       787.744          51.000
G16  21277805.023 8 111815621.051 8     -2259.660          51.000    21277803.508 7  87129060.795 7     -1760.774          45.000
G18  24032778.539 5 126293093.029 5     -3169.672          33.000
G26  23153215.469 6 121671027.629 6     -3511.023          41.000    23153214.969 6  94808532.885 6     -2735.865          41.000
G27  20384094.016 7 107119137.267 7       699.004          45.000    20384095.227 7  83469448.496 7       544.678          45.000
R05  22212981.000 6 118741111.401 6     -2115.191          37.000    22212993.156 4  92354244.201 4     -1645.152          24.000
R06  20817650.562 5 111086971.009 5      2110.570          30.000
R11  22149332.789 5 118359356.028 5     -3856.273          34.000    22149331.969 4  92057188.092 4     -2999.327          28.000
R21  20021799.789 6 107140680.011 6     -1046.453          40.000    20021805.117 6  83331697.724 6      -813.908          38.000
C05  39618805.555 5 206305516.182 5       -11.312          34.000
C30  21651722.703 7 112746185.340 7       563.996          43.000
E02  26268554.867 6 138042205.789 6     -3071.305          36.000    26268559.320 6 105772639.641 6     -2353.523          41.000
E05  27136335.445 7 142602419.172 7      2732.738          46.000    27136339.992 7 109266808.407 7      2093.937          46.000
E30  23403140.117 6 122984320.635 6     -1107.465          41.000    23403141.203 6  94234739.035 6      -848.382          37.000
E36  24613100.039 5 129342708.121 5     -1667.688          34.000    24613101.195 5  99106757.641 5     -1278.350          33.000
> 2020 05 10 16 08 30.0000000  0 18        .000000000000
G10  21069165.234 8 110719224.346 8       993.180          51.000    21069166.289 8  86274739.252 8       773.909          51.000
G16  21290751.375 8 111883651.855 8     -2274.594          51.000    21290748.828 7  87182071.773 7     -1772.411          44.000
G18  24050876.906 4 126388211.182 4     -3170.496          29.000
G20  21277923.602 5 111816243.375 5     -1415.945          35.000
G26  23173275.383 6 121776448.637 6     -3515.969          41.000    23173276.586 6  94890679.056 6     -2739.719          41.000
G27  20380141.141 7 107098364.582 7       687.016          47.000    20380142.242 7  83453261.991 7       535.337          46.000
R05  22224918.180 6 118804912.212 6     -2137.230          39.000    22224924.938 4  92403856.902 4     -1662.290          25.000
R06  20805847.648 4 111023987.663 4      2088.887          29.000
R11  22171015.336 6 118475205.953 6     -3865.660          39.000    22171007.875 4  92147293.611 4     -3006.628          25.000
R12  21010332.773 4 112233451.023 4      -886.000          28.000    21010340.289 4  87292691.339 4      -689.114          28.000
R21  20027694.117 7 107172220.810 7     -1055.191          42.000    20027700.562 6  83356229.449 6      -820.707          39.000
C05  39618871.031 5 206305857.265 5       -10.645          34.000
C27  23190981.039 6 120761506.988 6     -1948.227          36.000
C30  21648496.078 7 112729384.931 7       557.051          43.000
E02  26286101.523 6 138134417.872 6     -3074.930          37.000    26286107.383 6 105843295.625 6     -2356.226          40.000
E05  27120744.734 8 142520486.832 8      2730.383          48.000    27120749.438 7 109204029.199 7      2092.076          47.000
E30  23409503.805 7 123017759.819 7     -1120.684          42.000    23409502.031 6  94260361.253 6      -858.688          39.000
E36  24622631.984 6 129392803.992 6     -1670.176          40.000
> 2020 05 10 16 09  0.0000000  0 17        .000000000000
G10  21063570.109 8 110689822.073 8       977.602          51.000    21063570.672 8  86251828.398 8       761.767          51.000
G16  21303803.203 8 111952238.507 8     -2287.152          49.000    21303800.438 7  87235515.862 7     -1782.200          45.000
G20  21286076.289 5 111859090.694 5     -1430.148          34.000
G26  23193384.469 6 121882126.638 6     -3518.988          41.000    23193387.133 6  94973025.421 6     -2742.078          40.000
G27  20376276.328 7 107078054.850 7       677.590          47.000    20376277.477 7  83437436.240 7       527.995          47.000
R05  22237000.766 6 118869492.386 6     -2157.293          37.000    22237008.031 5  92454099.008 5     -1677.891          30.000
R06  20794192.391 5 110961770.858 5      2068.938          32.000
R11  22192770.359 6 118591453.135 6     -3873.168          39.000
R12  21015411.039 5 112260523.696 5      -909.328          35.000    21015411.711 5  87313757.967 5      -707.252          30.000
R21  20033658.055 7 107204131.914 7     -1061.398          42.000    20033664.734 6  83381049.193 6      -825.529          39.000
C05  39618953.008 5 206306283.676 5        -7.391          35.000
C27  23202244.086 6 120820138.012 6     -1950.551          37.000
C30  21645330.422 7 112712902.415 7       552.254          45.000
E02  26303687.836 6 138226834.258 6     -3075.504          38.000    26303695.055 6 105914108.149 6     -2356.690          40.000
E05  27105188.086 8 142438733.254 8      2730.430          48.000    27105192.414 7 109141386.897 7      2092.001          46.000
E30  23415962.820 7 123051702.111 7     -1131.598          43.000    23415962.172 6  94286368.960 6      -867.170          41.000
E36  24632197.773 6 129443070.559 6     -1670.172          37.000    24632199.805 5  99183658.651 5     -1279.634          34.000
> 2020 05 10 16 09 30.0000000  0 17        .000000000000
G10  21058055.008 8 110660840.134 8       954.633          51.000    21058055.578 8  86229245.085 8       743.870          51.000
G16  21316917.352 8 112021155.637 8     -2307.156          48.000    21316915.336 7  87289217.487 7     -1797.784          45.000
G20  21294300.695 6 111902312.458 6     -1451.191          38.000
G26  23213499.727 5 121987835.882 5     -3527.871          35.000    23213503.531 5  95055396.270 5     -2748.990          35.000
G27  20372457.336 7 107057986.152 7       660.344          47.000    20372458.547 7  83421798.296 7       514.554          47.000
R05  22249185.672 5 118934622.494 5     -2185.105          35.000    22249190.820 5  92504755.864 5     -1699.520          30.000
R06  20782641.594 6 110900126.790 6      2041.188          36.000
R11  22214554.664 5 118707866.634 5     -3888.113          34.000
R21  20039648.711 6 107236186.161 6     -1075.238          41.000    20039654.734 6  83405980.261 6      -836.299          40.000
R22  20734971.406 5 110684685.102 5      1926.953          32.000
C05  39619008.609 5 206306573.506 5       -11.902          35.000
C27  23213505.695 5 120878798.202 5     -1960.074          35.000
C30  21642183.914 7 112696517.332 7       540.164          45.000
E02  26321271.039 6 138319230.131 6     -3083.809          40.000    26321278.734 6 105984904.937 6     -2362.915          40.000
E05  27089622.914 8 142356937.339 8      2722.887          48.000    27089626.594 8 109078712.211 8      2086.338          48.000
E30  23422474.742 7 123085923.590 7     -1149.844          43.000    23422476.086 7  94312590.624 7      -881.106          42.000
E36  24641754.031 6 129493288.707 6     -1677.625          37.000    24641758.734 6  99222137.506 6     -1285.567          36.000
> 2020 05 10 16 10  0.0000000  0 17        .000000000000
G10  21052643.000 8 110632400.575 8       940.574          51.000    21052643.883 8  86207084.428 8       732.915          51.000
G16  21330116.688 7 112090522.654 7     -2317.969          46.000    21330116.180 7  87343269.696 7     -1806.209          45.000
G18  24105203.195 5 126673689.119 5     -3170.355          32.000
G20  21302619.688 5 111946028.464 5     -1464.246          35.000    21302626.688 5  87230693.750 5     -1140.971          33.000
G27  20368707.414 7 107038280.780 7       652.488          47.000    20368708.664 7  83406443.456 7       508.432          47.000
R05  22261495.180 5 119000423.153 5     -2202.168          32.000    22261502.016 4  92555925.155 4     -1712.797          26.000
R06  20771216.859 5 110839166.374 5      2021.969          35.000
R11  22236391.242 6 118824565.113 6     -3893.070          37.000
R21  20045689.273 7 107268506.935 7     -1080.039          43.000    20045694.555 6  83431118.630 6      -840.027          40.000
R22  20724141.648 5 110626851.930 5      1923.227          30.000    20724148.586 4  86043152.625 4      1495.843          25.000
C05  39619060.938 5 206306845.842 5        -7.555          35.000
C27  23224796.484 6 120937607.607 6     -1961.176          38.000
C30  21639079.383 7 112680350.414 7       536.855          44.000
E02  26338873.453 6 138411724.819 6     -3083.125          38.000    26338881.453 6 106055777.463 6     -2362.406          38.000
E05  27074073.164 7 142275222.541 7      2724.035          47.000    27074076.391 7 109016099.673 7      2087.206          47.000
E30  23429062.688 7 123120544.675 7     -1159.031          42.000    23429065.727 7  94339118.484 7      -888.185          43.000
E36                                                                  24651330.781 5  99260671.855 5     -1284.130          34.000
> 2020 05 10 16 10 30.0000000  0 18        .000000000000
G10  21047342.078 8 110604545.305 8       919.508          51.000    21047343.117 8  86185379.025 8       716.497          51.000
G16  21343409.156 7 112160378.600 7     -2335.953          47.000    21343409.953 7  87397702.937 7     -1820.223          46.000
G18  24123318.523 5 126768884.281 5     -3173.480          34.000    24123316.336 5  98780945.655 5     -2472.842          31.000
G20  21311039.805 6 111990278.021 6     -1483.434          40.000    21311033.719 4  87265118.912 4     -1155.922          27.000
G26  23253833.531 5 122199720.662 5     -3537.578          31.000
G27  20365034.695 7 107018980.900 7       637.215          47.000    20365036.195 7  83391404.587 7       496.534          47.000
R05  22273936.383 5 119066933.050 5     -2228.164          34.000
R06  20759928.641 6 110778934.801 6      1996.359          39.000
R11  22258288.828 6 118941585.694 6     -3905.203          37.000    22258302.125 4  92510145.285 4     -3037.386          28.000
R12  21031413.422 5 112346087.946 5      -989.656          33.000
R21  20051787.062 7 107301135.661 7     -1091.988          43.000    20051791.469 6  83456496.517 6      -849.324          41.000
C05  39619117.969 5 206307143.408 5        -9.406          35.000
C27  23236127.078 6 120996606.631 6     -1969.129          38.000
C30  21636024.000 7 112664442.891 7       526.734          44.000
E02  26356501.930 6 138504357.667 6     -3089.695          36.000    26356510.320 6 106126755.800 6     -2367.279          36.000
E05  27058546.602 7 142193631.939 7      2718.234          47.000    27058549.125 7 108953582.282 7      2082.833          46.000
E30  23435734.367 6 123155605.604 6     -1175.469          41.000    23435738.562 7  94365983.354 7      -900.621          44.000
E36  24660913.352 5 129593977.193 5     -1681.352          33.000    24660920.719 5  99299293.007 5     -1288.093          34.000
> 2020 05 10 16 11  0.0000000  0 18        .000000000000
G10  21042159.562 8 110577312.677 8       898.543          51.000    21042161.242 8  86164158.799 8       700.166          51.000
G16  21356802.062 8 112230759.049 8     -2353.594          48.000    21356803.109 7  87452544.851 7     -1833.969          47.000
G18  24141451.602 5 126864171.381 5     -3176.711          34.000
G20  21319568.516 6 112035097.017 6     -1502.383          40.000    21319569.258 5  87300054.868 5     -1170.685          31.000
G26  23274049.102 5 122305998.846 5     -3545.168          33.000    23274059.750 5  95303369.064 5     -2762.469          33.000
G27  20361446.617 8 107000125.178 8       622.242          48.000    20361448.383 8  83376711.809 8       484.864          48.000
R05  22286517.195 5 119134187.655 5     -2253.055          35.000    22286519.352 4  92659940.113 4     -1752.370          27.000
R06  20748785.570 6 110719473.373 6      1970.180          36.000
R11  22280252.617 5 119058962.225 5     -3917.590          33.000    22280271.562 5  92601438.071 5     -3047.017          30.000
R12  21037064.664 5 112376234.524 5     -1018.559          33.000
R21  20057949.336 7 107334110.523 7     -1103.766          43.000    20057953.398 7  83482143.585 7      -858.487          42.000
C05  39619187.117 5 206307502.648 5       -12.141          35.000
C27  23247500.906 5 121055832.498 5     -1977.359          31.000
C30  21633025.039 7 112648832.536 7       516.539          44.000
E02  26374163.750 5 138597163.220 5     -3095.758          32.000    26374171.930 5 106197867.288 5     -2371.571          34.000
E05  27043051.500 8 142112205.200 8      2712.602          48.000    27043053.281 7 108891190.434 7      2078.355          47.000
E30  23442496.492 6 123191143.105 6     -1191.500          40.000    23442501.742 7  94393213.355 7      -912.893          45.000
E36                                                                  24670539.609 5  99338029.470 5     -1292.645          35.000
> 2020 05 10 16 11 30.0000000  0 19        .000000000000
G10  21037081.008 8 110550625.765 8       880.516          51.000    21037083.297 8  86143363.820 8       686.116          51.000
G16  21370280.211 8 112301584.487 8     -2368.238          50.000    21370280.828 8  87507733.494 8     -1845.380          48.000
G18  24159586.836 5 126959485.495 5     -3177.484          31.000
G20  21328191.023 5 112080406.210 5     -1518.203          35.000    21328195.930 5  87335360.860 5     -1183.003          34.000
G21  24034839.453 5 126303932.838 5     -2595.746          30.000
G26  23294297.391 5 122412414.107 5     -3549.605          31.000    23294316.594 4  95386290.098 4     -2765.929          29.000
G27  20357928.562 8 106981637.001 8       610.195          48.000    20357930.336 7  83362305.433 7       475.477          47.000
R05  22299222.117 6 119202105.134 6     -2274.836          36.000    22299225.367 4  92712771.833 4     -1769.317          27.000
R06  20737771.516 5 110660705.869 5      1947.516          34.000
R12  21042856.039 5 112407168.633 5     -1044.340          34.000
R21  20064161.203 7 107367352.216 7     -1112.414          43.000    20064165.445 7  83507998.261 7      -865.211          43.000
R22  20691964.656 5 110455150.278 5      1897.992          33.000    20691955.328 4  85909511.258 4      1476.207          28.000
C05  39619253.117 5 206307846.432 5       -11.387          35.000
C27  23258900.422 5 121115208.206 5     -1981.445          35.000
C30  21630068.680 7 112633442.863 7       509.621          44.000
E02  26391854.320 5 138690125.141 5     -3097.809          33.000    26391850.281 5 106269051.040 5     -2374.262          35.000
E05  27027573.336 8 142030866.681 8      2709.867          48.000    27027575.281 7 108828866.206 7      2076.398          47.000
E30  23449334.305 6 123227078.561 6     -1204.418          39.000    23449339.922 7  94420748.325 7      -922.806          45.000
E36  24680169.469 5 129695165.274 5     -1688.891          32.000    24680174.039 6  99376821.395 6     -1293.902          36.000
> 2020 05 10 16 12  0.0000000  0 17        .000000000000
G10  21032124.312 8 110524578.589 8       860.457          51.000    21032126.547 8  86123067.312 8       670.486          51.000
G16  21383860.664 8 112372946.132 8     -2384.770          51.000    21383860.570 8  87563339.951 8     -1858.262          48.000
G20  21336923.836 7 112126297.275 7     -1536.566          42.000    21336926.422 4  87371120.166 4     -1197.321          27.000
G26  23314590.570 5 122519063.622 5     -3555.492          32.000    23314617.156 5  95469393.659 5     -2770.510          32.000
G27  20354498.352 8 106963610.690 8       596.172          48.000    20354500.094 8  83348258.947 8       464.550          48.000
R05  22312068.273 5 119270777.264 5     -2298.898          33.000
R06  20726907.133 6 110602730.922 6      1922.246          36.000
R12  21048807.758 5 112438962.911 5     -1070.859          30.000    21048822.016 4  87452579.027 4      -832.894          26.000
R21  20070440.859 7 107400955.499 7     -1123.285          45.000    20070445.055 7  83534134.130 7      -873.666          43.000
R22  20681327.609 5 110398419.570 5      1888.477          33.000    20681332.094 4  85865387.376 4      1468.812          26.000
C05  39619333.836 5 206308266.346 5       -12.375          35.000
C27  23270350.219 5 121174825.761 5     -1988.668          31.000
C30  21627173.320 7 112618366.893 7       500.117          44.000
E02  26409566.773 5 138783210.676 5     -3103.332          34.000    26409563.109 6 106340376.979 6     -2377.764          36.000
E05  27012130.336 7 141949711.798 7      2705.035          47.000    27012132.289 7 108766682.652 7      2072.668          47.000
E30  23456265.180 5 123263504.445 5     -1219.488          35.000    23456270.938 7  94448659.069 7      -934.362          45.000
E36                                                                  24689840.938 5  99415740.146 5     -1297.024          35.000
> 2020 05 10 16 12 30.0000000  0 16        .000000000000
G10  21027266.047 8 110499048.408 8       842.543          51.000    21027268.086 8  86103173.664 8       656.527          51.000
G16  21397519.109 8 112444718.221 8     -2398.961          51.000    21397518.570 8  87619266.220 8     -1869.323          48.000
G20  21345743.758 6 112172645.095 6     -1552.141          39.000    21345743.234 4  87407235.206 4     -1209.469          28.000
G26  23334903.820 5 122625821.484 5     -3559.887          32.000    23334932.547 5  95552646.625 5     -2773.929          32.000
G27  20351132.688 8 106945923.919 8       584.004          49.000    20351134.367 8  83334477.045 8       455.068          49.000
R06  20716167.812 5 110545425.513 5      1899.348          35.000
R11  22346492.797 6 119412884.843 6     -3945.137          39.000    22346480.602 4  92876670.495 4     -3068.440          29.000
R21  20076764.773 7 107434794.664 7     -1131.789          45.000    20076768.398 7  83560453.472 7      -880.283          44.000
R22  20670729.062 5 110341866.666 5      1882.430          32.000
C05  39619405.844 5 206308642.119 5       -11.246          34.000
C27  23281822.445 5 121234563.056 5     -1993.125          31.000
C30  21624315.516 7 112603482.836 7       493.191          45.000
E02  26427289.938 6 138876349.539 6     -3105.480          36.000    26427287.641 6 106411749.164 6     -2379.742          38.000
E05  26996698.711 7 141868619.175 7      2702.223          45.000    26996701.703 8 108704546.828 8      2070.540          48.000
E30  23463263.648 5 123300282.373 5     -1232.559          32.000    23463271.961 7  94476850.292 7      -944.171          45.000
E36                                                                  24699511.805 5  99454690.998 5     -1298.706          34.000
> 2020 05 10 16 13  0.0000000  0 17        .000000000000
G10  21022498.320 8 110473993.646 8       824.039          51.000    21022500.320 8  86083650.491 8       642.108          51.000
G16  21411246.992 8 112516856.641 8     -2413.918          51.000    21411246.234 7  87675477.943 7     -1880.978          47.000
G20  21354642.227 6 112219405.219 6     -1568.824          37.000
G26  23355230.164 5 122732642.892 5     -3566.184          31.000    23355235.531 5  95635769.268 5     -2778.853          32.000
G27  20347823.797 8 106928535.450 8       571.309          49.000    20347825.242 8  83320927.575 8       445.176          49.000
R05  22338098.672 6 119409924.633 6     -2342.180          36.000
R06  20705546.938 6 110488749.950 6      1874.902          36.000
R11  22368652.086 6 119531314.607 6     -3953.992          38.000    22368643.203 4  92968782.470 4     -3075.327          28.000
R12  21061124.461 5 112504743.273 5     -1122.035          35.000
R21  20083125.055 7 107468826.396 7     -1140.789          46.000    20083127.445 7  83586922.595 7      -887.280          44.000
C05  39619461.117 5 206308929.939 5       -11.414          35.000
C27  23293310.922 5 121294377.606 5     -1998.000          34.000
C30  21621486.547 7 112588749.436 7       485.457          45.000
E02  26445015.625 6 138969512.617 6     -3109.016          38.000    26445014.742 6 106483133.754 6     -2382.035          39.000
E05  26981270.844 7 141787548.658 7      2698.773          42.000    26981275.195 7 108642427.854 7      2067.912          47.000
E30  23470327.047 6 123337393.131 6     -1245.848          37.000    23470334.453 7  94505288.930 7      -954.491          45.000
E36  24709180.383 5 129847622.118 5     -1697.836          34.000    24709183.555 5  99493641.214 5     -1300.805          35.000
> 2020 05 10 16 13 30.0000000  0 17        .000000000000
G10  21017848.914 8 110449561.136 8       804.668          51.000    21017850.766 8  86064612.167 8       627.014          51.000
G16  21425071.758 8 112589506.018 8     -2429.520          51.000    21425071.125 7  87732087.814 7     -1893.135          47.000
G20  21363646.477 6 112266722.962 6     -1585.672          41.000
G26  23375596.383 4 122839587.801 4     -3569.840          29.000    23375605.555 4  95719196.383 4     -2781.709          29.000
G27  20344599.773 8 106911592.428 8       557.973          49.000    20344600.992 8  83307725.232 8       434.784          49.000
R05  22351308.133 6 119480529.383 6     -2365.145          36.000
R06  20695072.500 5 110432855.018 5      1850.770          35.000
R11  22390876.078 5 119650073.684 5     -3964.070          32.000    22390870.242 4  93061150.637 4     -3083.166          27.000
R12  21067495.703 6 112538793.761 6     -1147.914          37.000
R21  20089549.156 7 107503199.387 7     -1150.832          47.000    20089550.680 7  83613657.124 7      -895.092          44.000
R22  20649653.945 4 110229253.446 4      1866.789          29.000
C05  39619527.453 5 206309275.505 5       -11.621          35.000
C30  21618714.367 7 112574311.940 7       476.992          47.000
E02  26462771.805 6 139062836.048 6     -3112.469          39.000    26462771.906 6 106554641.300 6     -2385.085          39.000
E05  26965872.664 6 141706648.433 6      2694.629          36.000    26965881.008 8 108580439.371 8      2064.572          49.000
E30  23477480.023 6 123374976.031 6     -1259.859          41.000    23477485.984 7  94534086.204 7      -965.317          45.000
E36  24718881.797 5 129898600.412 5     -1701.449          32.000    24718884.711 5  99532702.528 5     -1303.214          34.000
> 2020 05 10 16 14  0.0000000  0 15        .000000000000
G10  21013304.820 8 110425681.703 8       786.191          51.000    21013306.039 8  86046004.811 8       612.617          51.000
G16  21438979.688 8 112662593.369 8     -2444.078          51.000    21438979.242 7  87789038.959 7     -1904.476          46.000
G20  21372743.555 6 112314526.195 6     -1602.082          38.000
G27  20341447.383 8 106895026.165 8       545.301          50.000    20341448.664 8  83294816.460 8       424.910          50.000
R05  22364639.703 6 119551786.034 6     -2386.918          36.000    22364645.422 4  92984759.514 4     -1856.492          25.000
R06  20684731.883 6 110377673.562 6      1826.938          37.000
R07  22890306.602 6 122533612.905 6      4302.980          38.000
R12  21074010.008 6 112573606.267 6     -1173.227          36.000
R21  20096023.414 7 107537842.327 7     -1159.910          46.000    20096024.188 7  83640601.636 7      -902.152          44.000
C05  39619591.688 5 206309609.901 5       -11.680          35.000
C30  21615986.031 7 112560101.788 7       469.359          47.000
E02  26480544.969 6 139156248.440 6     -3115.605          37.000    26480546.875 6 106626216.958 6     -2387.369          40.000
E05  26950494.992 6 141625850.967 6      2690.746          38.000    26950506.641 8 108518529.528 8      2061.971          50.000
E30  23484708.641 7 123412956.289 7     -1273.230          42.000    23484712.773 7  94563187.938 7      -975.478          44.000
E36  24728598.094 6 129949655.783 6     -1703.645          38.000    24728600.750 5  99571821.295 5     -1305.348          33.000
> 2020 05 10 16 14 30.0000000  0 16        .000000000000
G10  21008868.672 8 110402370.047 8       767.660          51.000    21008869.648 8  86027839.917 8       598.180          51.000
G16  21452973.383 8 112736130.878 8     -2458.734          51.000    21452972.898 7  87846340.890 7     -1915.897          46.000
G20  21381935.320 6 112362827.261 6     -1618.000          36.000
G26  23416418.188 4 123054106.726 4     -3580.215          29.000    23416417.922 5  95886316.910 5     -2789.784          32.000
G27  20338369.422 8 106878851.777 8       532.727          50.000    20338370.766 8  83282213.024 8       415.112          50.000
R05  22378094.516 5 119623705.748 5     -2408.320          33.000
R06  20674528.000 6 110323222.638 6      1802.543          36.000
R07  22866206.414 7 122404584.969 7      4298.590          42.000
R12  21080675.805 5 112609188.316 5     -1198.797          31.000
R21  20102550.188 7 107572769.489 7     -1168.988          47.000    20102551.156 7  83667767.201 7      -909.213          45.000
C05  39619656.297 5 206309945.950 5       -11.355          35.000
C30  21613304.078 7 112546133.470 7       461.551          47.000
E02  26498337.078 6 139249761.857 6     -3118.652          36.000    26498341.789 6 106697870.006 6     -2389.458          40.000
E05  26935142.430 6 141545172.029 6      2687.379          41.000    26935154.281 8 108456710.700 8      2059.151          51.000
E30  23492015.023 7 123451347.033 7     -1286.516          43.000    23492017.383 7  94592604.213 7      -985.787          44.000
E36  24738329.977 6 130000797.793 6     -1706.098          38.000    24738332.875 5  99611015.061 5     -1307.270          32.000
> 2020 05 10 16 15  0.0000000  0 17        .000000000000
G10  21004539.430 8 110379620.870 8       747.820          51.000    21004540.164 8  86010113.323 8       582.717          51.000
G16  21467051.391 8 112810110.959 8     -2474.543          51.000    21467050.789 7  87903987.676 7     -1928.218          46.000
G20  21391220.156 5 112411618.597 5     -1635.500          32.000
G26  23436865.727 5 123161554.587 5     -3585.148          32.000    23436863.734 5  95970041.527 5     -2793.625          31.000
G27  20335365.117 8 106863064.390 8       518.645          50.000    20335366.414 8  83269911.163 8       404.139          50.000
R05  22391670.961 5 119696279.451 5     -2430.809          31.000    22391676.812 4  93097156.268 4     -1890.629          24.000
R06  20664460.109 5 110269498.737 5      1778.117          34.000
R07  22842130.023 6 122275701.211 6      4292.254          41.000    22842141.492 4  95103365.822 4      3338.420          24.000
R11  22457831.836 5 120007843.844 5     -3989.648          30.000    22457831.602 4  93339431.926 4     -3103.060          24.000
R12  21087479.219 5 112645539.614 5     -1226.195          33.000    21087499.695 4  87613263.345 4      -953.704          27.000
R21  20109129.164 8 107607974.598 8     -1179.211          49.000    20109130.195 7  83695148.927 7      -917.167          46.000
C05  39619720.383 5 206310279.981 5       -12.090          35.000
C30  21610667.352 8 112532401.675 8       452.695          48.000
E02  26516147.594 5 139343368.529 5     -3122.621          32.000    26516154.453 6 106769594.561 6     -2392.912          39.000
E05  26919812.930 7 141464608.076 7      2682.527          46.000    26919823.727 8 108394979.953 8      2055.317          51.000
E30  23499397.672 7 123490141.313 7     -1300.863          43.000    23499399.492 7  94622329.738 7      -996.780          44.000
