     3.02           OBSERVATION DATA    M (MIXED)           RINEX VERSION / TYPE
SAVERINEX           SC600               20200507 145931 LCL PGM / RUN BY / DATE
       G = GPS       R = GLONASS       C = COMPASS          COMMENT
       S = SBAS      J = QZSS          E = GALILEO          COMMENT
BEAN                                                        MARKER NAME
1                                                           MARKER NUMBER
GEODETIC                                                    MARKER TYPE
Unige DICCA         GTER                                    OBSERVER / AGENCY
SC60291900056       SC600               2.12(191226)        REC # / TYPE / VERS
                    HEMA45          NONE                    ANT # / TYPE
  4509407.8091   693652.4678  4442337.6214                  APPROX POSITION XYZ
        0.0000        0.0000        0.0000                  ANTENNA: DELTA H/E/N
G    8 C1C L1C D1C S1C C2Y L2Y D2Y S2Y                      SYS / # / OBS TYPES
R    8 C1C L1C D1C S1C C2P L2P D2P S2P                      SYS / # / OBS TYPES
C    4 C1I L1I D1I S1I                                      SYS / # / OBS TYPES
E    8 C1C L1C D1C S1C C7Q L7Q D7Q S7Q                      SYS / # / OBS TYPES
DBHZ                                                        COMMENT
     30.000                                                 INTERVAL
  2020    05    07    12    00    0.0000000     GPS         TIME OF FIRST OBS
  2020    05    07    12    59   30.0000000     GPS         TIME OF LAST OBS
     0                                                      RCV CLOCK OFFS APPL
G L1C  0.00000                                              SYS / PHASE SHIFT
G L2Y  0.00000                                              SYS / PHASE SHIFT
R L1C  0.00000                                              SYS / PHASE SHIFT
R L2P  0.25000                                              SYS / PHASE SHIFT
C L1I  0.00000                                              SYS / PHASE SHIFT
E L1C  0.50000                                              SYS / PHASE SHIFT
E L7Q -0.25000                                              SYS / PHASE SHIFT
 13 R01  1 R02 -4 R03  5 R08  6 R10 -5 R11  0 R12 -1 R13 -2 GLONASS SLOT / FRQ #
    R14 -7 R17  4 R18 -3 R22 -3 R23  3                      GLONASS SLOT / FRQ #
 C1C   71.950 C2C   71.950 C2P   71.950                     GLONASS COD/PHS/BIS
    18                                                      LEAP SECONDS
*** Above antenna height is from mark to ANTENNA BOTTOM.    COMMENT
    17     4        0.0000        ANT MEASURE TYPE/HEIGT    COMMENT
    0.0000    0.0000    0.0458    0.0405    0.0000          COMMENT
                    BASE STATION                            COMMENT
                                                            END OF HEADER
> 2020 05 07 12 00  0.0000000  0 16        .000000000000
G14  24194297.047 6 127141886.668 6     -2485.336          41.000    24194297.414 5  99071615.857 5     -1936.625          34.000
G18  22451804.672 8 117985035.108 8      3286.668          49.000    22451804.656 7  91936406.177 7      2561.043          42.000
G21  22260702.039 8 116980832.255 8      2838.254          50.000    22260701.352 7  91153903.465 7      2211.629          47.000
G25  21237602.359 8 111604357.073 8     -2039.281          48.000    21237604.773 8  86964439.366 8     -1589.050          48.000
G29  20280668.031 8 106575636.138 8      -609.488          51.000    20280667.633 8  83045971.557 8      -474.926          51.000
R13  22076836.375 7 117889053.744 7     -3647.953          42.000    22076838.680 6  91691483.796 6     -2837.300          38.000
R14  19181888.891 8 102250270.639 8      -437.133          51.000    19181891.914 8  79527971.053 8      -339.992          49.000
R17  20536577.828 8 109895510.263 8      3023.035          50.000    20536580.023 7  85474250.529 7      2351.253          43.000
R23  21238264.648 6 113610349.778 6     -3512.969          37.000
R24  19265783.844 8 103022836.629 8      -854.316          51.000    19265786.039 7  80128953.285 7      -664.468          46.000
C29  22109022.672 8 115127478.872 8     -1508.957          51.000
E11  23710067.531 8 124597279.188 8      2261.801          49.000    23710067.484 8  95470640.847 8      1733.125          48.000
E12  22053901.930 8 115894053.060 8      -608.070          51.000    22053901.250 8  88801997.713 8      -465.888          51.000
E24  21876311.250 8 114960780.445 8      -817.281          51.000    21876323.422 8  88086897.544 8      -626.217          51.000
E31  27049362.969 6 142145355.709 6     -2510.371          37.000    27049365.102 6 108916595.429 6     -1923.815          38.000
E33  27291805.500 6 143419403.428 6     -2723.328          36.000    27291805.938 5 109892795.337 5     -2086.502          34.000
> 2020 05 07 12 00 30.0000000  0 15        .000000000000
G14  24208499.227 6 127216517.984 6     -2495.898          40.000    24208499.914 5  99129770.041 5     -1944.859          34.000
G18  22433063.562 8 117886545.318 8      3273.688          50.000    22433061.281 6  91859661.044 6      2550.931          40.000
G21  22244525.422 8 116895822.016 8      2823.551          50.000    22244525.148 7  91087661.762 7      2200.169          47.000
G25  21249267.648 8 111665657.894 8     -2053.117          48.000    21249269.938 8  87012206.221 8     -1599.835          48.000
G29  20284180.477 8 106594093.785 8      -626.754          51.000    20284180.008 8  83060354.139 8      -488.380          51.000
R13  22097355.977 6 117998626.797 6     -3662.691          41.000    22097357.938 6  91776707.221 6     -2848.763          36.000
R14  19184403.891 8 102263678.836 8      -462.555          51.000    19184407.461 8  79538399.637 8      -359.765          49.000
R17  20519673.383 8 109805046.297 8      3002.242          51.000    20519673.641 7  85403889.731 7      2335.077          44.000
R24  19270635.062 8 103048778.043 8      -880.832          51.000    19270637.242 7  80149129.959 7      -685.092          46.000
C29  22117741.484 8 115172880.116 8     -1523.277          51.000
E11  23697177.391 8 124529543.790 8      2248.305          49.000    23697177.375 8  95418739.702 8      1722.700          49.000
E12  22057405.461 8 115912464.159 8      -624.789          51.000    22057404.461 8  88816104.921 8      -478.633          51.000
E24  21880997.445 8 114985406.758 8      -829.941          51.000    21881009.711 8  88105767.046 8      -635.830          51.000
E31  27063702.539 6 142220710.867 6     -2518.785          40.000    27063704.320 6 108974334.970 6     -1929.745          39.000
E33  27307360.414 5 143501144.339 5     -2731.617          35.000    27307360.328 5 109955427.992 5     -2093.171          34.000
> 2020 05 07 12 01  0.0000000  0 15        .000000000000
G14  24222763.398 6 127291474.722 6     -2503.367          39.000    24222763.766 5  99188177.806 5     -1950.679          34.000
G18  22414397.625 8 117788451.768 8      3263.699          50.000    22414393.781 6  91783224.657 6      2543.145          41.000
G21  22228433.977 8 116811259.581 8      2811.949          50.000    22228433.578 7  91021769.000 7      2191.132          46.000
G25  21261012.578 8 111727377.377 8     -2063.664          49.000    21261014.609 8  87060299.310 8     -1608.050          49.000
G29  20287792.297 8 106613073.860 8      -640.684          51.000    20287791.727 8  83075143.810 8      -499.234          51.000
R13  22117957.016 6 118108641.866 6     -3673.672          36.000    22117959.188 5  91862274.409 5     -2857.300          35.000
R14  19187062.750 8 102277854.440 8      -484.660          50.000    19187066.844 8  79549425.102 8      -376.958          49.000
R17  20502886.539 8 109715210.440 8      2984.766          51.000    20502886.359 7  85334017.458 7      2321.487          46.000
R24  19275635.383 8 103075516.656 8      -903.945          51.000    19275637.211 7  80169926.668 7      -703.069          45.000
C29  22126543.477 8 115218714.638 8     -1534.375          51.000
E11  23684366.188 8 124462221.634 8      2237.801          49.000    23684366.172 8  95367155.196 8      1714.592          49.000
E12  22061006.055 8 115931385.078 8      -638.562          51.000    22061004.992 8  88830602.780 8      -489.345          50.000
E24  21885757.516 8 115010421.809 8      -839.750          51.000    21885770.086 8  88124934.425 8      -643.490          51.000
E31  27078089.758 6 142296314.039 6     -2523.535          41.000    27078090.695 6 109032264.614 6     -1933.779          39.000
E33  27322964.148 5 143583144.785 5     -2736.836          34.000    27322963.727 5 110018257.206 5     -2097.340          32.000
> 2020 05 07 12 01 30.0000000  0 16        .000000000000
G12  23641400.188 5 124236400.256 5     -3045.270          34.000
G14  24237033.508 6 127366463.095 6     -2503.973          38.000    24237033.180 5  99246610.255 5     -1951.154          35.000
G18  22395751.734 8 117690466.269 8      3260.355          48.000    22395748.453 7  91706872.410 7      2540.540          43.000
G21  22212372.734 8 116726855.795 8      2806.777          50.000    22212371.664 7  90955999.863 7      2187.102          45.000
G25  21272781.766 8 111789224.056 8     -2067.691          48.000    21272783.305 8  87108491.498 8     -1611.191          48.000
G29  20291447.867 8 106632284.283 8      -648.230          51.000    20291447.234 8  83090112.983 8      -505.115          51.000
R13  22138583.258 5 118218801.857 5     -3678.148          32.000    22138587.203 6  91947954.351 6     -2860.782          37.000
R14  19189810.328 8 102292502.826 8      -500.277          50.000    19189815.039 8  79560818.267 8      -389.105          49.000
R17  20486161.500 8 109625708.501 8      2973.637          51.000    20486161.977 8  85264404.875 8      2312.832          48.000
R24  19280729.031 8 103102754.245 8      -920.316          50.000    19280730.898 7  80191111.477 7      -715.799          46.000
C29  22135372.922 8 115264692.564 8     -1538.938          51.000
E11  23671578.766 8 124395022.870 8      2233.879          50.000    23671578.633 8  95315665.247 8      1711.736          49.000
E12  22064648.039 8 115950523.963 8      -645.637          51.000    22064647.070 8  88845267.646 8      -494.754          50.000
E24  21890536.211 8 115035535.003 8      -842.852          51.000    21890549.039 8  88144176.998 8      -645.818          51.000
E31  27092468.117 6 142371873.936 6     -2521.922          41.000    27092469.359 6 109090161.079 6     -1932.474          39.000
E33                                                                  27338560.188 5 110081052.723 5     -2096.320          31.000
> 2020 05 07 12 02  0.0000000  0 16        .000000000000
G12  23658815.812 6 124327911.828 6     -3050.336          36.000
G14  24251354.766 6 127441720.948 6     -2511.113          39.000    24251354.266 5  99305252.756 5     -1956.709          33.000
G18  22377172.188 7 117592832.410 7      3250.703          47.000    22377170.812 7  91630794.141 7      2533.015          46.000
G21  22196387.844 8 116642853.766 8      2795.367          49.000    22196385.828 7  90890543.788 7      2178.211          44.000
G25  21284620.727 7 111851438.362 7     -2077.934          47.000    21284622.055 7  87156970.114 7     -1619.172          47.000
G29  20295192.961 8 106651964.891 8      -661.840          51.000    20295192.141 8  83105448.536 8      -515.719          51.000
R13  22159282.883 5 118329349.056 5     -3689.328          33.000    22159288.812 6  92033935.502 6     -2869.474          38.000
R14  19192692.914 8 102307869.542 8      -522.172          50.000    19192697.914 8  79572770.150 8      -406.131          49.000
R17  20469544.492 8 109536787.886 8      2956.227          48.000    20469546.008 8  85195244.412 8      2299.287          49.000
R24  19285961.172 8 103130733.781 8      -942.953          51.000    19285963.398 7  80212873.351 7      -733.408          47.000
C29  22144275.633 8 115311051.000 8     -1549.633          51.000
E11  23658860.891 8 124328189.434 8      2223.746          49.000    23658860.547 8  95264455.243 8      1704.041          50.000
E12  22068377.047 8 115970120.688 8      -658.723          50.000    22068376.031 8  88860283.342 8      -504.774          50.000
E24  21895379.500 8 115060987.503 8      -852.043          51.000    21895392.648 8  88163679.561 8      -652.816          51.000
E31  27106883.672 6 142447630.958 6     -2526.496          41.000    27106886.805 6 109148208.601 6     -1935.842          41.000
E33  27354196.289 5 143747271.557 5     -2740.309          33.000    27354195.344 5 110144008.827 5     -2099.669          31.000
> 2020 05 07 12 02 30.0000000  0 15        .000000000000
G14  24265714.523 6 127517181.951 6     -2517.816          40.000    24265714.211 5  99364053.470 5     -1961.935          34.000
G18  22358647.484 7 117495489.509 7      3240.480          45.000    22358648.109 7  91554942.539 7      2525.050          46.000
G21  22180467.625 8 116559192.544 8      2783.656          48.000    22180464.898 7  90825353.285 7      2169.086          43.000
G25  21296517.477 8 111913956.226 8     -2088.258          48.000    21296518.336 7  87205685.240 7     -1627.214          47.000
G29  20299015.188 8 106672050.489 8      -675.516          51.000    20299014.266 8  83121099.661 8      -526.376          51.000
R13  22180044.883 5 118440217.150 5     -3700.320          35.000    22180051.562 6  92120166.227 6     -2878.027          40.000
R14  19195698.289 8 102323890.468 8      -544.227          50.000    19195703.180 8  79585230.878 8      -423.287          49.000
R17  20453022.953 7 109448385.822 7      2938.875          45.000    20453026.656 8  85126487.193 8      2285.789          48.000
R24  19291319.516 8 103159388.392 8      -965.684          50.000    19291321.781 7  80235160.250 7      -751.087          47.000
C29  22153239.062 8 115357725.509 8     -1560.371          51.000
E11  23646200.664 8 124261658.833 8      2213.195          49.000    23646200.000 8  95213477.300 8      1695.801          50.000
E12  22072181.055 8 115990110.902 8      -672.207          51.000    22072179.891 8  88875600.531 8      -515.137          50.000
E24  21900275.469 8 115086716.174 8      -861.609          51.000    21900288.883 8  88183393.750 8      -660.185          51.000
E31  27121324.398 6 142523521.181 6     -2531.094          41.000    27121329.703 7 109206358.254 7     -1939.586          43.000
E33                                                                  27369856.781 4 110207071.611 4     -2103.021          29.000
> 2020 05 07 12 03  0.0000000  0 15        .000000000000
G12  23693707.867 5 124511277.010 5     -3056.910          34.000
G14  24280117.477 6 127592871.993 6     -2521.797          39.000    24280117.172 5  99423032.617 5     -1965.040          30.000
G18  22340183.852 7 117398469.155 7      3233.715          44.000    22340186.234 7  91479342.264 7      2519.778          44.000
G21  22164617.844 7 116475903.101 7      2775.152          47.000    22164615.148 7  90760452.504 7      2162.456          44.000
G25  21308477.344 7 111976806.014 7     -2095.508          46.000    21308478.141 7  87254659.077 7     -1632.863          46.000
G29  20302919.750 8 106692569.075 8      -686.125          51.000    20302918.969 8  83137088.194 8      -534.643          51.000
R13  22200873.398 6 118551433.437 6     -3707.883          37.000    22200879.648 6  92206667.724 6     -2883.915          40.000
R14  19198832.234 8 102340595.530 8      -563.203          50.000    19198836.992 8  79598223.706 8      -438.047          49.000
R17  20436604.922 8 109360534.039 8      2924.227          48.000    20436609.672 7  85058157.996 7      2274.398          47.000
R24  19296809.234 8 103188745.194 8      -985.184          50.000    19296811.719 7  80257993.331 7      -766.254          47.000
C29  22162268.047 8 115404743.140 8     -1567.977          51.000
E11  23633603.852 8 124195461.071 8      2205.988          49.000    23633602.898 8  95162754.362 8      1690.333          49.000
E12  22076065.195 8 116010522.505 8      -682.312          50.000    22076064.414 8  88891240.598 8      -522.805          50.000
E24  21905229.531 8 115112750.244 8      -867.809          51.000    21905243.273 8  88203341.933 8      -664.974          51.000
E31  27135796.078 6 142599573.078 6     -2532.637          41.000    27135803.492 7 109264631.760 7     -1940.631          44.000
> 2020 05 07 12 03 30.0000000  0 14        .000000000000
G14  24294549.820 6 127668715.328 6     -2531.891          40.000    24294549.922 4  99482131.220 4     -1972.905          28.000
G18  22321769.234 7 117301701.139 7      3220.238          47.000    22321771.906 7  91403938.599 7      2509.277          46.000
G21  22148825.156 7 116392914.698 7      2760.035          46.000    22148823.188 7  90695786.270 7      2150.677          43.000
G25  21320486.352 7 112039914.338 7     -2109.004          46.000    21320487.445 7  87303834.391 7     -1643.380          46.000
G29  20306892.664 8 106713446.453 8      -702.941          51.000    20306891.906 8  83153356.295 8      -547.747          51.000
R13  22221753.000 6 118662921.382 6     -3721.406          37.000    22221757.719 6  92293380.470 6     -2894.427          39.000
R14  19202080.930 8 102357911.814 8      -588.461          51.000    19202085.438 8  79611691.916 8      -457.692          49.000
R17  20420277.906 8 109273159.872 8      2903.434          51.000    20420280.891 7  84990200.387 7      2258.229          44.000
R24  19302415.961 8 103218727.583 8     -1010.953          50.000    19302418.328 7  80281312.971 7      -786.297          47.000
C29  22171348.688 8 115452030.028 8     -1581.660          50.000
E11  23621056.547 8 124129524.276 8      2192.570          48.000    23621055.695 8  95112231.392 8      1679.985          49.000
E12  22080015.461 8 116031281.611 8      -698.836          50.000    22080015.180 8  88907146.936 8      -535.418          50.000
E24  21910227.883 8 115139017.118 8      -880.504          51.000    21910241.781 8  88223468.499 8      -674.657          51.000
E31  27150285.023 7 142675713.279 7     -2540.391          42.000    27150293.578 7 109322972.922 7     -1946.653          44.000
> 2020 05 07 12 04  0.0000000  0 14        .000000000000
G14  24309018.328 6 127744748.466 6     -2537.484          38.000    24309020.266 4  99541377.754 4     -1977.267          29.000
G18  22303411.539 8 117205227.771 8      3211.098          49.000    22303412.852 7  91328764.574 7      2502.157          44.000
G21  22133097.484 7 116310269.148 7      2749.359          44.000    22133096.922 7  90631387.184 7      2142.358          43.000
G25  21332551.852 7 112103320.356 7     -2118.227          45.000    21332553.492 7  87353241.694 7     -1650.566          46.000
G29  20310941.109 8 106734721.075 8      -715.402          51.000    20310940.461 8  83169933.929 8      -557.456          51.000
R13  22242689.844 5 118774719.455 5     -3731.852          35.000    22242694.531 6  92380334.421 6     -2902.554          39.000
R14  19205451.984 8 102375880.131 8      -609.504          51.000    19205456.062 8  79625667.256 8      -474.059          48.000
R17  20404048.188 8 109186305.764 8      2886.766          51.000    20404048.969 7  84922647.330 7      2245.268          44.000
R24  19308147.016 8 103249373.719 8     -1032.352          51.000    19308149.375 7  80305148.869 7      -802.940          47.000
C29  22180488.539 8 115499623.956 8     -1591.273          51.000
E11  23608566.609 8 124063889.078 8      2183.176          49.000    23608565.812 8  95061939.495 8      1672.796          49.000
E12  22084039.352 8 116052426.904 8      -711.098          50.000    22084039.055 8  88923349.183 8      -544.873          50.000
E24  21915278.211 8 115165556.761 8      -889.035          51.000    21915292.117 8  88243804.062 8      -681.188          51.000
E31  27164798.422 7 142751981.046 7     -2544.168          43.000    27164807.180 7 109381411.797 7     -1949.466          44.000
> 2020 05 07 12 04 30.0000000  0 15        .000000000000
G12  23746228.016 4 124787257.363 4     -3073.594          29.000
G14  24323523.000 6 127820973.191 6     -2543.707          37.000    24323526.648 5  99600773.626 5     -1982.106          33.000
G18  22285111.477 8 117109056.411 8      3200.867          51.000    22285110.648 7  91253825.916 7      2494.185          42.000
G21  22117435.883 7 116227973.150 7      2737.566          42.000    22117437.039 7  90567260.417 7      2133.169          42.000
G25  21344674.945 7 112167028.072 7     -2128.398          47.000    21344677.547 7  87402884.064 7     -1658.492          47.000
G29  20315065.586 8 106756396.128 8      -729.004          51.000    20315065.180 8  83186823.571 8      -568.055          51.000
R13  22263683.430 5 118886829.618 5     -3742.027          31.000    22263690.250 6  92467531.144 6     -2910.466          39.000
R14  19208946.375 8 102394505.715 8      -631.547          51.000    19208949.891 8  79640153.828 8      -491.203          49.000
R17  20387916.750 8 109099978.451 8      2868.914          51.000    20387917.195 7  84855503.960 7      2231.381          46.000
R24  19314002.648 8 103280686.177 8     -1054.633          51.000    19314004.758 7  80329503.013 7      -820.270          47.000
C29  22189687.852 8 115547527.875 8     -1601.691          51.000
E11  23596135.297 8 123998561.102 8      2172.734          50.000    23596134.352 8  95011883.010 8      1664.822          48.000
E12  22088137.430 8 116073961.996 8      -724.129          50.000    22088136.969 8  88939850.097 8      -554.819          50.000
E24  21920381.406 8 115192374.051 8      -898.305          51.000    21920395.484 8  88264352.359 8      -688.296          51.000
E31  27179337.070 7 142828380.460 7     -2548.727          44.000    27179345.250 7 109439951.545 7     -1952.828          44.000
> 2020 05 07 12 05  0.0000000  0 14        .000000000000
G14  24338064.758 5 127897393.670 5     -2549.586          35.000    24338070.086 5  99660322.029 5     -1986.684          31.000
G18  22266870.648 8 117013197.287 8      3190.582          51.000    22266868.305 6  91179130.587 6      2486.171          41.000
G21  22101843.414 7 116146036.429 7      2725.730          43.000    22101845.297 7  90503413.603 7      2123.946          43.000
G25  21356857.031 7 112231044.496 7     -2138.586          47.000    21356860.477 7  87452766.968 7     -1666.431          47.000
G29  20319267.570 8 106778477.895 8      -742.320          51.000    20319267.141 8  83204030.125 8      -578.431          51.000
R13  22284736.609 5 118999257.288 5     -3752.168          34.000    22284744.461 6  92554974.920 6     -2918.353          38.000
R14  19212565.586 8 102413796.845 8      -653.656          51.000    19212568.820 8  79655158.033 8      -508.399          49.000
R17  20371884.453 8 109014187.628 8      2851.246          48.000    20371885.953 7  84788777.785 7      2217.636          47.000
R24  19319983.977 8 103312670.086 8     -1076.742          51.000    19319985.938 7  80354379.387 7      -837.466          47.000
C29  22198947.836 8 115595747.681 8     -1612.098          51.000
E11  23583764.094 8 123933548.926 8      2162.176          49.000    23583762.695 8  94962068.483 8      1656.789          48.000
E12  22092310.773 8 116095893.442 8      -737.129          49.000    22092310.742 8  88956654.724 8      -564.819          50.000
E24  21925538.969 8 115219476.878 8      -907.691          51.000    21925553.383 8  88285119.445 8      -695.492          51.000
E31  27193902.156 7 142904918.566 7     -2552.977          45.000    27193909.227 7 109498597.558 7     -1956.282          43.000
> 2020 05 07 12 05 30.0000000  0 14        .000000000000
G14  24352641.758 6 127973997.959 6     -2556.590          38.000    24352648.461 5  99720013.629 5     -1992.151          34.000
G18  22248687.742 8 116917643.887 8      3180.336          50.000    22248685.477 7  91104673.473 7      2478.184          43.000
G21  22086319.266 8 116064451.983 8      2713.777          48.000    22086320.172 7  90439841.327 7      2114.635          43.000
G25  21369096.000 7 112295359.893 7     -2148.746          47.000    21369099.344 7  87502882.835 7     -1674.348          47.000
G29  20323545.000 8 106800955.778 8      -755.461          51.000    20323544.422 8  83221545.352 8      -588.671          51.000
R13  22305849.375 6 119111992.081 6     -3762.707          37.000    22305855.734 6  92642657.528 6     -2926.550          38.000
R14  19216308.047 8 102433744.685 8      -675.629          51.000    19216310.945 8  79670673.012 8      -525.492          48.000
R17  20355948.555 7 108928925.607 7      2833.574          46.000    20355953.344 8  84722462.825 8      2203.888          48.000
R24  19326088.312 8 103345313.607 8     -1098.867          51.000    19326090.352 7  80379768.796 7      -854.674          46.000
C29  22208266.773 8 115644272.642 8     -1622.266          51.000
E11  23571451.117 8 123868844.331 8      2151.762          48.000    23571449.641 8  94912489.654 8      1648.767          48.000
E12  22096557.719 8 116118211.021 8      -750.156          49.000    22096557.977 8  88973755.211 8      -574.768          50.000
E24  21930748.984 8 115246856.306 8      -917.059          51.000    21930763.656 8  88306098.459 8      -702.684          51.000
E31  27208491.656 7 142981585.729 7     -2557.430          45.000    27208497.836 7 109557342.455 7     -1959.631          44.000
> 2020 05 07 12 06  0.0000000  0 15        .000000000000
G02  25062324.094 5 131703401.142 5     -2963.676          30.000
G14  24367252.469 6 128050777.873 6     -2562.457          39.000    24367259.070 5  99779842.086 5     -1996.720          31.000
G18  22230561.953 8 116822393.223 8      3169.969          49.000    22230560.992 7  91030452.227 7      2470.106          45.000
G21  22070861.656 8 115983216.224 8      2702.078          50.000    22070861.070 7  90376540.798 7      2105.518          42.000
G25  21381390.719 7 112359967.924 7     -2158.273          47.000    21381393.312 7  87553226.777 7     -1681.772          47.000
G29  20327896.484 8 106823822.893 8      -768.625          51.000    20327895.992 8  83239363.912 8      -598.929          51.000
R13  22327018.188 6 119225024.664 6     -3772.930          37.000    22327023.547 6  92730571.697 6     -2934.501          39.000
R14  19220172.656 8 102454344.044 8      -697.453          51.000    19220175.102 8  79686694.741 8      -542.464          49.000
R17  20340112.633 8 108844188.411 8      2815.941          50.000    20340118.742 8  84656556.091 8      2190.177          48.000
R24  19332314.648 8 103378608.545 8     -1120.516          50.000    19332316.664 7  80405664.848 7      -871.512          47.000
C29  22217642.852 8 115693095.487 8     -1632.203          51.000
E11  23559195.688 8 123804442.529 8      2141.797          48.000    23559194.352 8  94863142.846 8      1641.084          48.000
E12  22100876.758 8 116140907.986 8      -762.762          48.000    22100876.836 8  88991146.378 8      -584.511          50.000
E24  21936010.664 8 115274506.840 8      -926.121          51.000    21936025.250 8  88327285.220 8      -709.676          51.000
E31  27223104.367 7 143058375.735 7     -2561.734          45.000    27223110.062 7 109616181.494 7     -1962.863          44.000
> 2020 05 07 12 06 30.0000000  0 14        .000000000000
G14  24381898.219 6 128127739.517 6     -2568.316          38.000    24381904.094 5  99839812.098 5     -2001.289          32.000
G18  22212495.766 7 116727457.856 7      3159.426          47.000    22212496.570 7  90956476.637 7      2461.890          47.000
G21  22055472.539 8 115902341.464 8      2689.984          51.000    22055470.797 7  90313521.557 7      2096.092          43.000
G25  21393742.828 7 112424878.055 7     -2168.422          47.000    21393744.812 7  87603806.084 7     -1689.676          46.000
G29  20332323.727 8 106847087.758 8      -781.914          51.000    20332323.273 8  83257492.388 8      -609.284          51.000
R13  22348243.312 6 119338363.903 6     -3782.848          38.000    22348248.727 6  92818724.369 6     -2942.218          41.000
R14  19224161.359 8 102475605.225 8      -719.527          51.000    19224163.930 8  79703231.213 8      -559.632          50.000
R17  20324378.336 8 108759988.225 8      2797.961          51.000    20324383.977 8  84591067.067 8      2176.192          48.000
R24  19338663.922 8 103412562.632 8     -1142.547          51.000    19338666.445 7  80432073.595 7      -888.648          47.000
C29  22227077.656 8 115742224.500 8     -1642.430          51.000
E11  23547000.008 8 123740354.488 8      2131.344          48.000    23546999.164 8  94814036.437 8      1633.137          49.000
E12  22105269.539 8 116163993.226 8      -775.785          48.000    22105269.641 8  89008835.068 8      -594.430          50.000
E24  21941325.914 8 115302438.734 8      -935.484          51.000    21941340.438 8  88348687.567 8      -716.797          51.000
E31  27237742.242 7 143135298.033 7     -2566.031          45.000    27237747.773 7 109675121.911 7     -1966.132          44.000
> 2020 05 07 12 07  0.0000000  0 14        .000000000000
G14  24396577.430 6 128204877.544 6     -2573.215          36.000    24396582.406 5  99899919.550 5     -2005.102          33.000
G18  22194489.422 7 116632838.084 7      3149.414          46.000    22194491.695 7  90882746.940 7      2454.089          46.000
G21  22040151.742 8 115821827.329 8      2678.477          51.000    22040149.406 7  90250783.323 7      2087.125          42.000
G25  21406151.789 7 112490087.238 7     -2177.859          46.000    21406153.703 7  87654618.407 7     -1697.033          46.000
G29  20336825.828 8 106870746.777 8      -794.422          51.000    20336825.273 8  83275928.004 8      -619.030          51.000
R13  22369524.961 6 119452004.713 6     -3792.266          40.000    22369530.375 6  92907111.636 6     -2949.540          41.000
R14  19228273.812 8 102497526.708 8      -741.051          51.000    19228276.805 8  79720281.242 8      -576.373          50.000
R17  20308744.500 8 108676324.275 8      2780.586          51.000    20308748.828 7  84525995.143 7      2162.681          46.000
R24  19345135.969 8 103447171.094 8     -1163.785          51.000    19345138.320 7  80458991.276 7      -905.166          47.000
C29  22236570.719 8 115791655.674 8     -1652.098          51.000
E11  23534863.766 8 123676578.738 8      2121.254          48.000    23534863.406 8  94765169.324 8      1625.391          49.000
E12  22109735.781 8 116187463.305 8      -788.012          48.000    22109736.016 8  89026818.635 8      -603.771          49.000
E24  21946694.289 8 115330649.840 8      -944.348          51.000    21946708.891 8  88370303.857 8      -723.585          51.000
E31  27252404.875 7 143212349.706 7     -2569.918          46.000    27252410.250 7 109734161.463 7     -1969.131          45.000
> 2020 05 07 12 07 30.0000000  0 14        .000000000000
G14  24411288.758 5 128282185.685 5     -2579.805          34.000    24411293.859 5  99960159.657 5     -2010.234          33.000
G18  22176543.344 7 116538533.232 7      3138.156          45.000    22176546.430 7  90809262.634 7      2445.317          46.000
G21  22024898.953 8 115741672.563 8      2665.617          51.000    22024896.508 7  90188325.120 7      2077.107          43.000
G25  21418616.844 7 112555591.563 7     -2188.605          46.000    21418618.664 7  87705660.738 7     -1705.407          46.000
G29  20341402.031 8 106894795.002 8      -808.277          51.000    20341401.453 8  83294666.882 8      -629.827          51.000
R13  22390862.430 6 119565941.588 6     -3803.242          40.000    22390867.188 6  92995729.166 6     -2958.080          39.000
R14  19232509.688 8 102520105.184 8      -763.750          51.000    19232512.461 8  79737842.291 8      -594.028          49.000
R17  20293209.977 8 108593194.760 8      2761.824          50.000    20293213.039 7  84461338.941 7      2148.089          45.000
R24  19351729.125 8 103482427.813 8     -1186.230          51.000    19351731.461 7  80486413.180 7      -922.624          47.000
C29  22246120.742 8 115841384.176 8     -1662.723          51.000
E11  23522786.570 8 123613112.928 8      2109.898          48.000    23522786.352 8  94716539.683 8      1616.702          48.000
E12  22114274.320 7 116211313.918 7      -801.586          47.000    22114274.531 8  89045093.778 8      -614.223          49.000
E24  21952115.227 8 115359137.128 8      -954.496          51.000    21952129.547 8  88392131.770 8      -731.367          51.000
E31  27267091.398 7 143289526.984 7     -2575.027          45.000    27267096.531 7 109793297.247 7     -1973.040          44.000
> 2020 05 07 12 08  0.0000000  0 14        .000000000000
G14  24426032.797 5 128359666.020 5     -2585.793          32.000
G18  22158658.906 7 116444550.902 7      3127.387          46.000    22158662.281 7  90736029.660 7      2436.925          46.000
G21  22009715.672 8 115661884.148 8      2653.648          51.000    22009713.164 7  90126152.377 7      2067.778          42.000
G25  21431138.609 7 112621395.456 7     -2198.246          44.000    21431140.977 7  87756936.479 7     -1712.919          44.000
G29  20346053.188 8 106919236.642 8      -821.160          51.000    20346052.750 8  83313712.310 8      -639.865          51.000
R13  22412255.945 6 119680177.145 6     -3812.730          40.000    22412259.781 6  93084578.957 6     -2965.460          39.000
R14  19236869.805 8 102543346.320 8      -785.656          51.000    19236872.523 8  79755918.728 8      -611.066          49.000
R17  20277776.047 8 108510606.822 8      2743.945          49.000    20277779.273 7  84397103.949 7      2134.180          46.000
R24  19358444.242 8 103518335.476 8     -1207.582          51.000    19358446.375 7  80514341.361 7      -939.230          47.000
C29  22255728.250 8 115891413.260 8     -1672.555          51.000
E11  23510769.516 8 123549962.926 8      2099.906          49.000    23510768.883 7  94668152.025 7      1608.929          47.000
E12  22118885.930 7 116235548.825 7      -814.125          46.000    22118885.984 8  89063663.394 8      -623.825          48.000
E24  21957589.766 8 115387905.761 8      -963.543          51.000    21957603.969 8  88414175.271 8      -738.260          51.000
E31  27281802.688 7 143366834.337 7     -2578.902          45.000    27281807.438 7 109852532.666 7     -1975.994          45.000
> 2020 05 07 12 08 30.0000000  0 14        .000000000000
G14  24440808.633 5 128437314.455 5     -2590.582          33.000
G18  22140836.406 7 116350892.437 7      3116.766          47.000    22140839.594 7  90663049.068 7      2428.649          47.000
G21  21994602.094 8 115582462.967 8      2641.398          49.000    21994599.805 7  90064265.793 7      2058.233          43.000
G25  21443716.992 7 112687497.128 7     -2208.121          46.000    21443719.961 7  87808444.231 7     -1720.617          46.000
G29  20350778.648 8 106944068.853 8      -833.961          51.000    20350778.234 8  83333062.086 8      -649.837          51.000
R13  22433704.617 6 119794708.094 6     -3822.281          41.000    22433707.430 6  93173658.474 6     -2972.888          40.000
R14  19241353.844 8 102567249.120 8      -807.465          51.000    19241356.930 8  79774509.759 8      -628.028          49.000
R17  20262443.727 8 108428560.955 8      2726.012          49.000    20262446.883 7  84333290.484 7      2120.231          45.000
R24  19365280.086 8 103554890.180 8     -1229.004          51.000    19365282.305 7  80542772.804 7      -955.892          47.000
C29  22265392.992 8 115941740.096 8     -1682.320          51.000
E11  23498812.602 8 123487128.410 8      2089.582          50.000    23498811.312 7  94620006.109 7      1601.135          46.000
E12  22123570.562 7 116260165.823 7      -826.645          47.000    22123570.336 8  89082525.759 8      -633.409          48.000
E24  21963117.680 8 115416954.786 8      -972.801          51.000    21963131.859 8  88436433.615 8      -745.402          51.000
E31  27296538.484 7 143444269.971 7     -2583.105          46.000    27296542.602 7 109911866.393 7     -1979.230          44.000
> 2020 05 07 12 09  0.0000000  0 14        .000000000000
G14  24455615.172 5 128515122.853 5     -2595.488          34.000
G18  22123075.102 7 116257555.374 7      3106.082          47.000    22123077.641 7  90590318.920 7      2420.324          46.000
G21  21979557.422 7 115503405.957 7      2629.336          47.000    21979556.000 7  90002662.962 7      2048.833          44.000
G25  21456351.234 7 112753890.753 7     -2217.801          46.000    21456354.070 7  87860179.497 7     -1728.156          46.000
G29  20355577.250 8 106969285.148 8      -846.684          51.000    20355576.688 8  83352711.146 8      -659.753          51.000
R13  22455206.633 6 119909526.651 6     -3831.641          40.000    22455209.359 7  93262961.715 7     -2980.168          42.000
R14  19245960.953 8 102591808.767 8      -829.348          51.000    19245963.828 8  79793611.690 8      -645.048          48.000
R17  20247212.375 8 108347053.528 8      2708.164          51.000    20247214.977 7  84269895.825 7      2106.350          45.000
R24  19372235.594 8 103592084.237 8     -1250.238          50.000    19372237.664 7  80571701.492 7      -972.408          47.000
C29  22275113.719 8 115992358.020 8     -1691.895          51.000
E11  23486914.711 8 123424605.161 8      2079.336          50.000    23486912.875 7  94572098.723 7      1593.195          44.000
E12  22128326.555 7 116285158.630 7      -839.074          47.000    22128326.219 7  89101676.088 7      -642.843          47.000
E24  21968698.250 8 115446279.288 8      -981.770          51.000    21968712.156 8  88458903.025 8      -752.202          51.000
E31  27311297.555 7 143521828.213 7     -2587.176          46.000    27311301.242 7 109971294.066 7     -1982.256          44.000
> 2020 05 07 12 09 30.0000000  0 15        .000000000000
G14  24470454.367 6 128593124.068 6     -2600.191          36.000
G18  22105375.930 7 116164545.275 7      3096.473          47.000    22105377.336 7  90517843.602 7      2412.839          46.000
G21  21964582.547 7 115424718.011 7      2618.656          46.000    21964582.492 7  89941347.685 7      2040.511          45.000
G25  21469041.648 7 112820578.672 7     -2226.246          46.000    21469044.109 7  87912144.083 7     -1734.740          46.000
G29  20360449.148 8 106994886.870 8      -858.109          51.000    20360448.578 8  83372660.551 8      -668.657          51.000
R13  22476762.344 6 120024633.592 6     -3840.043          39.000    22476765.812 7  93352489.279 7     -2986.703          43.000
R14  19250691.891 8 102617028.565 8      -849.949          50.000    19250694.891 8  79813227.084 8      -661.072          49.000
R17  20232082.969 8 108266089.150 8      2691.492          51.000    20232084.523 7  84206923.549 7      2093.383          45.000
R23  21622402.227 5 115665271.177 5     -3689.570          30.000
R24  19379310.617 8 103629918.039 8     -1270.031          51.000    19379313.016 7  80601127.803 7      -987.799          47.000
C29  22284890.312 8 116043268.217 8     -1700.230          51.000
E11  23475076.711 8 123362397.033 8      2069.816          50.000    23475074.219 7  94524432.797 7      1585.915          43.000
E12  22133154.352 7 116310529.049 7      -850.355          47.000    22133153.727 7  89121115.775 7      -651.499          46.000
E24  21974331.859 8 115475882.399 8      -989.801          51.000    21974345.562 8  88481585.920 8      -758.464          51.000
E31  27326079.508 7 143599511.421 7     -2589.922          43.000    27326083.773 7 110030817.548 7     -1984.444          45.000
> 2020 05 07 12 10  0.0000000  0 14        .000000000000
G14  24485320.094 6 128671243.880 6     -2607.262          36.000
G18  22087738.469 7 116071859.843 7      3083.691          47.000    22087738.938 7  90445621.270 7      2402.879          45.000
G21  21949677.836 7 115346396.508 7      2604.254          46.000    21949678.547 7  89880317.951 7      2029.289          46.000
G25  21481787.055 7 112887555.369 7     -2237.805          46.000    21481789.570 7  87964333.692 7     -1743.747          46.000
G29  20365393.180 8 107020867.937 8      -872.840          51.000    20365392.781 8  83392905.555 8      -680.135          51.000
R13  22498370.180 6 120140021.726 6     -3851.523          38.000    22498374.875 7  93442235.582 7     -2995.629          43.000
R14  19255545.703 8 102642903.728 8      -873.988          50.000    19255549.242 8  79833352.172 8      -679.769          49.000
R17  20217054.062 8 108185664.785 8      2671.301          48.000    20217055.117 7  84144371.294 7      2077.678          45.000
R24  19386503.961 8 103668383.943 8     -1293.172          51.000    19386506.188 7  80631045.717 7     -1005.800          47.000
C29  22294721.859 8 116094464.272 8     -1711.867          51.000
E11  23463297.984 8 123300500.029 8      2057.422          50.000    23463294.445 7  94477005.245 7      1576.514          43.000
E12  22138053.109 8 116336271.107 8      -864.699          48.000    22138051.906 7  89140840.209 7      -662.520          46.000
E24  21980017.484 8 115505759.449 8     -1000.902          51.000    21980030.891 8  88504478.728 8      -766.886          51.000
E31  27340883.516 7 143677314.197 7     -2595.910          42.000    27340889.539 7 110090432.632 7     -1988.960          45.000
> 2020 05 07 12 10 30.0000000  0 14        .000000000000
G14  24500217.141 5 128749524.662 5     -2611.957          35.000
G18  22070165.523 7 115979513.890 7      3072.930          46.000    22070165.969 7  90373663.418 7      2394.491          45.000
G21  21934846.227 8 115268455.187 8      2592.102          48.000    21934846.547 7  89819584.494 7      2019.822          45.000
G25  21494589.641 7 112954832.447 7     -2247.125          45.000    21494591.641 7  88016757.357 7     -1751.006          45.000
G29  20370411.461 8 107047239.181 8      -885.199          51.000    20370411.148 8  83413454.566 8      -689.766          51.000
R13  22520031.914 6 120255701.347 6     -3860.383          37.000    22520038.094 7  93532208.612 7     -3002.520          42.000
R14  19260524.906 8 102669447.096 8      -895.559          49.000    19260528.539 8  79853997.012 8      -696.546          49.000
R17  20202126.945 7 108105794.312 7      2653.559          46.000    20202129.367 7  84082249.772 7      2063.876          47.000
R24  19393817.359 8 103707491.650 8     -1313.852          51.000    19393819.727 7  80661462.839 7     -1021.885          47.000
C29  22304610.438 8 116145956.640 8     -1721.059          50.000
E11  23451581.234 8 123238927.135 8      2047.516          50.000    23451576.766 7  94429826.060 7      1568.807          44.000
E12  22143024.570 7 116362395.849 7      -876.781          47.000    22143023.125 7  89160857.857 7      -671.757          46.000
E24  21985757.414 8 115535922.816 8     -1009.844          51.000    21985770.602 8  88527590.919 8      -773.776          51.000
E31  27355713.273 7 143755248.182 7     -2599.652          42.000    27355720.430 7 110150148.260 7     -1991.900          45.000
> 2020 05 07 12 11  0.0000000  0 14        .000000000000
G14  24515145.234 5 128827957.375 5     -2619.543          34.000
G18  22052659.383 7 115887519.898 7      3058.754          46.000    22052660.617 7  90301979.797 7      2383.445          46.000
G21  21920089.578 8 115190906.146 8      2576.777          50.000    21920089.227 7  89759156.726 7      2007.881          44.000
G25  21507450.875 7 113022419.157 7     -2259.578          44.000    21507452.719 7  88069422.292 7     -1760.710          44.000
G29  20375505.562 8 107074009.076 8      -900.652          51.000    20375505.258 8  83434314.216 8      -701.807          51.000
R13  22541750.016 6 120371679.212 6     -3872.383          37.000    22541756.641 6  93622413.590 6     -3011.853          39.000
R14  19265631.117 8 102696668.645 8      -920.383          49.000    19265634.930 8  79875169.358 8      -715.853          49.000
R17  20187306.336 8 108026489.490 8      2632.238          48.000    20187309.789 8  84020568.275 8      2047.299          48.000
R24  19401252.211 8 103747248.797 8     -1337.703          51.000    19401254.398 7  80692385.069 7     -1040.436          47.000
C29  22314557.375 8 116197753.475 8     -1733.301          50.000
E11  23439928.234 8 123177689.167 8      2034.246          50.000    23439923.758 7  94382903.515 7      1558.669          46.000
E12  22148070.508 8 116388912.031 8      -891.996          48.000    22148068.984 7  89181175.467 7      -683.382          45.000
E24  21991553.656 8 115566382.623 8     -1021.895          51.000    21991566.867 8  88550930.244 8      -782.995          51.000
E31  27370570.562 7 143833322.773 7     -2606.484          43.000    27370578.133 7 110209971.612 7     -1997.063          45.000
> 2020 05 07 12 11 30.0000000  0 13        .000000000000
G18  22035216.508 8 115795857.659 8      3050.191          48.000    22035218.547 7  90230554.671 7      2376.773          47.000
G21  21905403.523 8 115113728.761 8      2566.801          49.000    21905403.195 7  89699018.555 7      2000.105          44.000
G25  21520366.781 7 113090292.082 7     -2266.871          45.000    21520368.484 7  88122310.285 7     -1766.390          45.000
G29  20380670.961 8 107101153.676 8      -910.543          51.000    20380670.781 8  83455465.847 8      -709.514          51.000
R13  22563520.016 6 120487931.286 6     -3879.371          37.000    22563524.867 6  93712831.803 6     -3017.295          36.000
R14  19270860.375 8 102724545.541 8      -939.742          50.000    19270864.383 8  79896851.395 8      -730.911          49.000
R17  20172588.289 8 107947728.595 8      2616.699          51.000    20172592.133 8  83959309.855 8      2035.214          48.000
R24  19408803.625 8 103787629.539 8     -1355.902          51.000    19408805.938 8  80723792.313 8     -1054.591          48.000
C29  22324558.258 8 116249830.612 8     -1740.121          50.000
E11  23428334.961 8 123116764.282 8      2025.969          51.000    23428330.797 7  94336220.844 7      1552.417          47.000
E12  22153186.531 7 116415795.774 7      -901.891          47.000    22153184.469 7  89201774.699 7      -690.927          45.000
E24  21997401.945 8 115597116.282 8     -1028.613          51.000    21997415.281 8  88574479.407 8      -788.116          51.000
E31  27385450.492 7 143911514.647 7     -2607.895          42.000    27385457.859 7 110269884.821 7     -1998.263          44.000
> 2020 05 07 12 12  0.0000000  0 14        .000000000000
G14  24545085.648 5 128985295.372 5     -2627.195          33.000
G18  22017838.312 8 115704534.119 8      3037.852          48.000    22017840.766 7  90159393.477 7      2367.157          47.000
G21  21890789.203 8 115036928.839 8      2553.020          49.000    21890789.219 7  89639174.479 7      1989.369          45.000
G25  21533337.617 7 113158454.957 7     -2277.375          44.000    21533339.477 7  88175424.222 7     -1774.578          44.000
G29  20385908.258 8 107128675.714 8      -924.324          51.000    20385908.141 8  83476911.594 8      -720.253          51.000
R13  22585341.789 6 120604458.678 6     -3889.180          38.000    22585344.617 6  93803464.054 6     -3024.924          36.000
R14  19276213.992 8 102753082.451 8      -962.926          51.000    19276217.648 8  79919046.759 8      -748.942          49.000
R17  20157973.406 8 107869517.976 8      2597.230          51.000    20157976.953 8  83898479.427 8      2020.068          48.000
R24  19416471.891 8 103828635.434 8     -1377.918          50.000    19416474.430 8  80755685.779 8     -1071.714          48.000
C29  22334613.625 8 116302190.775 8     -1750.672          51.000
E11  23416802.172 8 123056157.612 8      2014.113          50.000    23416798.281 8  94289781.996 8      1543.234          48.000
E12  22158372.805 7 116443050.264 7      -915.398          47.000    22158370.477 7  89222658.027 7      -701.367          44.000
E24  22003303.102 8 115628128.353 8     -1039.031          51.000    22003316.547 8  88598241.915 8      -796.174          51.000
E31  27400353.047 6 143989827.572 6     -2613.055          41.000    27400360.102 7 110329890.773 7     -2002.175          43.000
> 2020 05 07 12 12 30.0000000  0 13        .000000000000
G18  22000523.922 8 115613546.353 8      3025.957          48.000    22000526.516 7  90088493.933 7      2357.889          46.000
G21  21876246.156 8 114960503.332 8      2539.949          50.000    21876246.438 7  89579622.161 7      1979.184          46.000
G25  21546362.398 7 113226901.720 7     -2287.668          44.000    21546364.977 7  88228759.325 7     -1782.598          44.000
G29  20391216.141 8 107156568.395 8      -937.176          51.000    20391215.758 8  83498646.139 8      -730.267          51.000
R13  22607214.289 6 120721254.806 6     -3899.055          39.000    22607217.211 6  93894305.388 6     -3032.601          38.000
R14  19281690.328 8 102782274.083 8      -985.250          51.000    19281693.648 7  79941751.331 7      -766.309          47.000
R17  20143460.602 8 107791853.340 8      2578.398          51.000    20143463.438 7  83838073.640 7      2005.421          46.000
R24  19424255.602 8 103870258.309 8     -1399.020          50.000    19424258.016 7  80788059.116 7     -1088.129          47.000
C29  22344721.742 8 116354826.828 8     -1760.434          50.000
E11  23405328.852 8 122995864.552 8      2003.203          50.000    23405325.383 8  94243583.422 8      1534.922          48.000
E12  22163628.359 8 116470668.865 8      -927.922          48.000    22163626.469 7  89243820.327 7      -711.047          44.000
E24  22009256.117 8 115659413.488 8     -1048.625          51.000    22009269.547 8  88622213.658 8      -803.525          51.000
E31  27415277.516 6 144068255.492 6     -2617.395          40.000    27415284.258 7 110389984.848 7     -2005.617          42.000
> 2020 05 07 12 13  0.0000000  0 14        .000000000000
G18  21983277.172 8 115522913.750 8      3015.172          48.000    21983279.523 7  90017871.151 7      2349.488          45.000
G21  21861777.828 8 114884471.185 8      2527.996          49.000    21861778.461 7  89520376.356 7      1969.867          46.000
G25  21559444.555 7 113295648.463 7     -2296.391          45.000    21559447.000 7  88282328.164 7     -1789.398          45.000
G29  20396597.445 8 107184847.185 8      -948.871          51.000    20396596.906 8  83520681.562 8      -739.380          51.000
G31  21137569.102 5 111078676.852 5       147.703          34.000
R13  22629140.156 6 120838332.533 6     -3907.129          39.000    22629143.180 6  93985365.791 6     -3038.881          39.000
R14  19287292.875 8 102812137.512 8     -1006.512          51.000    19287295.750 7  79964978.406 7      -782.845          47.000
R17  20129052.531 8 107714753.525 8      2560.645          50.000    20129055.125 7  83778107.094 7      1991.612          46.000
R24  19432157.289 8 103912512.567 8     -1418.902          50.000    19432159.781 7  80820923.528 7     -1103.591          47.000
C29  22354885.688 8 116407753.833 8     -1768.949          51.000
E11  23393918.328 8 122935902.768 8      1993.441          49.000    23393915.469 8  94197638.665 8      1527.406          48.000
E12  22168956.266 7 116498667.214 7      -939.598          46.000    22168954.695 7  89265273.606 7      -719.820          44.000
E24  22015264.289 8 115690988.736 8     -1057.297          51.000    22015277.805 8  88646407.684 8      -810.181          51.000
E31  27430227.438 7 144146814.700 7     -2620.660          42.000    27430233.625 7 110450179.500 7     -2008.119          42.000
> 2020 05 07 12 13 30.0000000  0 14        .000000000000
G18  21966101.156 8 115432651.972 8      3002.812          48.000    21966102.555 7  89947537.299 7      2339.854          44.000
G21  21847386.930 8 114808847.183 8      2514.051          48.000    21847387.867 7  89461448.597 7      1959.001          47.000
G25  21572586.305 7 113364707.622 7     -2307.012          45.000    21572587.938 7  88336140.448 7     -1797.675          44.000
G29  20402054.406 8 107213523.817 8      -962.457          51.000    20402054.023 8  83543026.981 8      -749.967          51.000
G31  21136782.789 5 111074542.850 5       127.660          33.000    21136781.031 5  86551579.125 5        99.463          31.000
R13  22651120.695 6 120955703.852 6     -3917.121          38.000    22651124.094 6  94076654.544 6     -3046.653          39.000
R14  19293023.766 8 102842685.980 8     -1029.645          51.000    19293026.281 7  79988738.267 7      -800.835          47.000
R17  20114752.672 8 107638233.346 8      2541.137          51.000    20114754.961 7  83718591.377 7      1976.440          45.000
R24  19440179.047 8 103955408.738 8     -1440.430          50.000    19440181.602 7  80854287.221 7     -1120.334          46.000
C29  22365107.906 8 116460983.110 8     -1779.215          51.000
E11  23382573.430 8 122876286.087 8      1981.590          49.000    23382571.305 8  94151958.329 8      1518.352          49.000
E12  22174358.594 7 116527057.209 7      -952.723          46.000    22174356.805 7  89287026.995 7      -730.017          44.000
E24  22021330.391 8 115722867.280 8     -1067.562          51.000    22021343.922 8  88670834.105 8      -818.008          51.000
E31  27445204.875 6 144225517.645 6     -2625.926          41.000    27445210.641 7 110510484.282 7     -2011.953          43.000
> 2020 05 07 12 14  0.0000000  0 14        .000000000000
G18  21948986.156 7 115342711.122 7      2992.531          47.000    21948986.258 7  89877453.551 7      2331.843          43.000
G21  21833063.969 8 114733580.888 8      2502.812          49.000    21833064.961 7  89402799.564 7      1950.247          46.000
G25  21585777.406 7 113434026.153 7     -2314.957          45.000    21585778.578 7  88390154.866 7     -1803.863          45.000
G29  20407576.883 8 107242544.647 8      -973.277          51.000    20407576.500 8  83565640.600 8      -758.401          51.000
G31  21136101.680 6 111070956.206 6       109.992          37.000    21136101.383 6  86548784.354 6        85.705          36.000
R13  22673145.797 6 121073313.161 6     -3924.375          38.000    22673149.500 6  94168128.389 6     -3052.295          39.000
R14  19298873.281 8 102873866.352 8     -1049.992          51.000    19298875.742 8  80012989.621 8      -816.661          48.000
R17  20100551.984 8 107562240.738 8      2524.113          51.000    20100553.688 7  83659486.079 7      1963.202          46.000
R24  19448310.430 8 103998890.802 8     -1459.223          50.000    19448312.758 7  80888106.606 7     -1134.948          46.000
C29  22375377.898 8 116514461.125 8     -1786.863          51.000
E11  23371284.359 8 122816962.928 8      1972.348          49.000    23371283.219 8  94106502.908 8      1511.333          50.000
E12  22179825.273 7 116555785.303 7      -963.391          47.000    22179823.656 7  89309039.416 7      -738.164          44.000
E24  22027444.367 8 115754996.992 8     -1075.348          51.000    22027457.906 8  88695452.931 8      -823.884          51.000
E31  27460199.320 6 144304311.380 6     -2628.094          41.000    27460204.609 7 110570858.634 7     -2013.638          42.000
> 2020 05 07 12 14 30.0000000  0 14        .000000000000
G18  21931939.383 7 115253130.023 7      2980.090          46.000    21931938.688 7  89807650.151 7      2322.148          44.000
G21  21818816.477 8 114658710.219 8      2489.203          50.000    21818816.984 7  89344458.799 7      1939.642          45.000
G25  21599024.414 7 113503639.657 7     -2325.137          44.000    21599025.680 7  88444399.125 7     -1811.798          43.000
G29  20413171.344 8 107271944.043 8      -986.191          51.000    20413170.773 8  83588549.224 8      -768.461          51.000
G31  21135531.180 6 111067953.308 6        90.297          37.000    21135530.312 5  86546444.427 5        70.358          35.000
R13  22695221.789 6 121191194.768 6     -3934.074          37.000    22695225.383 6  94259814.018 6     -3059.839          39.000
R14  19304848.109 8 102905715.597 8     -1072.676          50.000    19304850.836 8  80037761.228 8      -834.303          49.000
R17  20086457.023 8 107486814.250 8      2504.852          51.000    20086458.484 7  83600821.089 7      1948.218          47.000
R24  19456557.945 8 104042992.813 8     -1480.234          50.000    19456560.086 7  80922408.186 7     -1151.293          45.000
C29  22385702.047 8 116568222.153 8     -1796.605          51.000
E11  23360058.336 8 122757970.372 8      1960.699          49.000    23360058.039 8  94061300.835 8      1502.330          51.000
E12  22185363.133 7 116584886.514 7      -976.305          47.000    22185362.266 7  89331337.753 7      -748.039          44.000
E24  22033613.156 8 115787414.221 8     -1085.359          51.000    22033626.547 8  88720292.060 8      -831.705          51.000
E31  27475217.406 6 144383231.620 6     -2632.902          41.000    27475222.250 6 110631329.905 6     -2017.275          41.000
> 2020 05 07 12 15  0.0000000  0 14        .000000000000
G18  21914960.508 7 115163906.580 7      2968.500          46.000    21914959.969 7  89738125.416 7      2313.120          46.000
G21  21804644.031 8 114584232.913 8      2476.355          50.000    21804643.617 7  89286424.559 7      1929.628          45.000
G25  21612326.164 7 113573542.878 7     -2334.422          43.000    21612328.352 7  88498869.147 7     -1819.030          43.000
G29  20418836.875 8 107301716.411 8      -998.195          51.000    20418836.109 8  83611748.463 8      -777.815          51.000
G31  21135070.555 6 111065530.036 6        71.664          38.000    21135069.578 6  86544556.159 6        55.839          36.000
R13  22717346.797 5 121309341.417 5     -3942.258          35.000    22717350.625 6  94351705.795 6     -3066.201          40.000
R14  19310947.398 8 102938229.052 8     -1094.406          50.000    19310950.734 8  80063049.487 8      -851.202          50.000
R17  20072466.562 8 107411950.707 8      2486.457          48.000    20072468.492 7  83542593.907 7      1933.911          47.000
R24  19464919.680 8 104087707.235 8     -1500.238          50.000    19464921.766 7  80957186.076 7     -1166.852          46.000
C29  22396079.508 8 116622260.059 8     -1805.465          51.000
E11  23348894.680 8 122699304.601 8      1950.512          51.000    23348894.805 8  94016349.164 8      1494.485          51.000
E12  22190970.711 7 116614355.067 7      -988.012          47.000    22190970.102 7  89353917.567 7      -757.036          44.000
E24  22039835.898 8 115820114.554 8     -1094.340          51.000    22039849.109 8  88745348.111 8      -838.550          51.000
E31  27490257.992 6 144462273.130 6     -2635.922          39.000    27490262.648 6 110691894.127 6     -2020.115          39.000
> 2020 05 07 12 15 30.0000000  0 14        .000000000000
G18  21898053.695 7 115075060.629 7      2955.523          47.000    21898053.945 7  89668894.849 7      2303.008          47.000
G21  21790549.969 8 114510167.725 8      2462.090          48.000    21790548.859 7  89228711.451 7      1918.512          45.000
G25  21625686.578 7 113643752.482 7     -2345.316          42.000    21625688.930 7  88553577.927 7     -1827.519          43.000
G29  20424576.414 8 107331877.441 8     -1011.629          51.000    20424575.430 8  83635250.576 8      -788.282          51.000
