     3.02           OBSERVATION DATA    M (MIXED)           RINEX VERSION / TYPE
SAVERINEX           SC600               20200517 095930 LCL PGM / RUN BY / DATE
       G = GPS       R = GLONASS       C = COMPASS          COMMENT
       S = SBAS      J = QZSS          E = GALILEO          COMMENT
BEAN                                                        MARKER NAME
1                                                           MARKER NUMBER
GEODETIC                                                    MARKER TYPE
Unige DICCA         GTER                                    OBSERVER / AGENCY
SC60291900056       SC600               2.12(191202)        REC # / TYPE / VERS
                    HEMA45          NONE                    ANT # / TYPE
  4509407.8091   693652.4678  4442337.6214                  APPROX POSITION XYZ
        0.0000        0.0000        0.0000                  ANTENNA: DELTA H/E/N
G    8 C1C L1C D1C S1C C2Y L2Y D2Y S2Y                      SYS / # / OBS TYPES
R    8 C1C L1C D1C S1C C2P L2P D2P S2P                      SYS / # / OBS TYPES
C    8 C1I L1I D1I S1I C7I L7I D7I S7I                      SYS / # / OBS TYPES
E    8 C1C L1C D1C S1C C7Q L7Q D7Q S7Q                      SYS / # / OBS TYPES
DBHZ                                                        COMMENT
     30.000                                                 INTERVAL
  2020    05    17    07    00    0.0000000     GPS         TIME OF FIRST OBS
  2020    05    17    07    59   30.0000000     GPS         TIME OF LAST OBS
     0                                                      RCV CLOCK OFFS APPL
G L1C  0.00000                                              SYS / PHASE SHIFT
G L2Y  0.00000                                              SYS / PHASE SHIFT
R L1C  0.00000                                              SYS / PHASE SHIFT
R L2P  0.25000                                              SYS / PHASE SHIFT
C L1I  0.00000                                              SYS / PHASE SHIFT
C L7I  0.00000                                              SYS / PHASE SHIFT
E L1C  0.50000                                              SYS / PHASE SHIFT
E L7Q -0.25000                                              SYS / PHASE SHIFT
 14 R01  1 R02 -4 R03  5 R04  6 R05  1 R10 -5 R12 -1 R13 -2 GLONASS SLOT / FRQ #
    R14 -7 R15  0 R17  4 R21  4 R22 -3 R23  3               GLONASS SLOT / FRQ #
 C1C   71.950 C2C   71.950 C2P   71.950                     GLONASS COD/PHS/BIS
    18                                                      LEAP SECONDS
*** Above antenna height is from mark to ANTENNA BOTTOM.    COMMENT
    17     4        0.0000        ANT MEASURE TYPE/HEIGT    COMMENT
    0.0000    0.0000    0.0458    0.0405    0.0000          COMMENT
                    BASE STATION                            COMMENT
                                                            END OF HEADER
> 2020 05 17 07 00  0.0000000  0 18        .000000000000
G12  21150874.398 8 111148617.538 8      2289.555          51.000    21150872.898 8  86609294.954 8      1784.072          51.000
G13  23690744.555 6 124495646.202 6     -3698.867          38.000
G15  22195743.930 8 116639400.787 8     -3101.773          51.000    22195742.172 8  90887841.242 8     -2416.966          51.000
G19  21557062.898 5 113283182.328 5        57.164          35.000
G20  24411112.633 5 128281249.878 5     -2353.879          30.000
G24  20211571.656 8 106212539.649 8       545.012          48.000    20211573.531 8  82763008.909 8       424.684          48.000
G25  23561014.305 7 123813968.277 7      3339.523          42.000    23561018.031 7  96478422.229 7      2602.229          42.000
R04  20709209.070 8 110896877.016 8     -2712.098          50.000    20709211.344 7  86253104.802 7     -2109.412          44.000
R14  19619036.938 6 104580506.988 6      -167.637          37.000    19619041.805 5  81340401.747 5      -130.384          33.000
R23  21368751.242 5 114308387.878 5       992.969          32.000
R24  22178342.289 6 118597580.187 6      3410.996          40.000    22178345.656 5  92242555.213 5      2652.997          35.000
C11  24360577.039 7 126851929.326 7      2762.980          44.000    24360575.508 7  98089987.508 7      2136.545          42.000
C25  22009035.422 8 114606815.796 8      -660.168          51.000
E01  25320467.445 5 133059953.980 5     -1916.426          34.000    25320468.750 6 101955040.718 6     -1468.655          37.000
E04  26176174.680 8 137556673.782 8     -2953.219          48.000    26176168.602 6 105400560.254 6     -2262.964          38.000
E09  22372089.523 8 117566135.596 8      -819.859          49.000    22372093.492 8  90083134.442 8      -628.195          50.000
E24  24432973.852 6 128396120.481 6      2094.160          37.000    24432991.844 5  98381480.798 5      1604.832          31.000
E31  23527135.156 7 123635963.978 7       222.113          47.000    23527138.555 8  94734062.402 8       170.289          49.000
> 2020 05 17 07 00 30.0000000  0 19        .000000000000
G10  24096601.711 6 126628487.110 6      -752.324          36.000
G12  21137854.703 8 111080198.079 8      2277.512          51.000    21137851.898 8  86555981.140 8      1774.684          51.000
G13  23711887.625 6 124606760.183 6     -3703.199          39.000
G15  22213494.281 8 116732679.437 8     -3110.992          51.000    22213492.414 8  90960525.874 8     -2424.150          51.000
G19  21556815.555 6 113281886.418 6        35.480          38.000
G24  20208509.641 8 106196448.931 8       533.438          48.000    20208511.703 8  82750470.663 8       415.666          48.000
G25  23541980.734 7 123713945.779 7      3334.281          43.000    23541985.312 7  96400482.645 7      2598.141          43.000
R04  20724476.414 8 110978629.741 8     -2732.273          51.000    20724478.586 7  86316690.187 7     -2125.105          45.000
R14  19620027.562 5 104585786.150 5      -178.105          35.000    19620031.648 5  81344507.860 5      -138.523          33.000
R15  21620186.188 5 115531722.217 5      2498.301          32.000
R24  22159260.344 5 118495534.448 5      3398.691          30.000    22159263.414 5  92163186.323 5      2643.430          34.000
C11  24344697.266 7 126769239.273 7      2755.344          45.000    24344693.617 7  98026046.490 7      2130.588          42.000
C23  23133053.117 5 120459878.710 5      1748.113          32.000
C25  22012874.156 8 114626804.911 8      -666.754          51.000
E01  25331430.742 6 133117566.930 6     -1918.258          38.000    25331431.734 6 101999185.718 6     -1470.079          36.000
E04  26193062.250 7 137645414.337 7     -2957.188          47.000    26193053.930 6 105468556.157 6     -2265.705          37.000
E09  22376824.805 8 117591014.768 8      -832.887          49.000    22376828.156 8  90102197.704 8      -638.174          50.000
E24  24421048.273 6 128333435.218 6      2090.723          39.000    24421048.641 5  98333442.436 5      1602.270          33.000
E31  23525899.797 7 123629472.975 7       216.328          47.000    23525903.188 8  94729088.777 8       165.728          48.000
> 2020 05 17 07 01  0.0000000  0 16        .000000000000
G10  24100948.477 5 126651330.490 5      -771.812          34.000
G12  21124893.906 8 111012089.453 8      2261.945          51.000    21124891.547 8  86502909.486 8      1762.555          51.000
G13  23733046.562 6 124717952.641 6     -3710.645          40.000    23733049.984 5  97182884.414 5     -2891.411          31.000
G15  22231287.562 8 116826185.288 8     -3123.723          50.000    22231285.852 8  91033387.542 8     -2434.073          50.000
G24  20205504.117 8 106180655.147 8       518.340          49.000    20205506.492 8  82738163.801 8       403.901          49.000
G25  23522968.648 7 123614037.011 7      3325.531          44.000    23522973.969 7  96322631.701 7      2591.326          44.000
R04  20739847.312 8 111060936.460 8     -2755.934          51.000    20739849.297 7  86380706.487 7     -2143.507          46.000
R14  19621064.828 6 104591313.946 6      -191.512          37.000    19621066.906 5  81348807.178 5      -148.954          33.000
R15  21606176.195 5 115456882.744 5      2489.031          35.000    21606190.055 5  89799802.734 5      1935.913          30.000
C11  24328852.719 7 126686729.340 7      2744.195          46.000    24328849.492 7  97962244.566 7      2121.847          45.000
C25  22016741.703 8 114646944.824 8      -677.012          51.000
E01  25342395.328 5 133175187.219 5     -1924.102          35.000    25342397.453 6 102043336.323 6     -1474.066          37.000
E04  26209962.484 7 137734223.643 7     -2964.617          46.000    26209954.477 6 105536604.782 6     -2271.605          38.000
E09  22381624.484 8 117616234.305 8      -849.523          49.000    22381627.320 8  90121521.761 8      -650.943          50.000
E24  24409131.688 6 128270802.021 6      2083.754          38.000    24409134.398 5  98285450.879 5      1596.705          35.000
E31  23524689.070 7 123623109.933 7       206.832          47.000    23524692.242 8  94724213.171 8       158.518          48.000
> 2020 05 17 07 01 30.0000000  0 18        .000000000000
G10  24105390.977 5 126674676.773 5      -786.262          33.000
G12  21112004.430 8 110944355.271 8      2251.711          51.000    21112003.117 8  86450129.576 8      1754.580          51.000
G13  23754232.531 6 124829284.160 6     -3713.141          41.000    23754237.336 5  97269636.168 5     -2893.359          30.000
G15  22249135.547 8 116919978.544 8     -3131.023          50.000    22249134.016 8  91106473.164 8     -2439.759          50.000
G19  21556671.852 5 113281062.594 5        -8.516          33.000
G24  20202567.352 8 106165221.737 8       508.555          50.000    20202569.805 8  82726137.765 8       396.276          50.000
G25  23503990.453 7 123514306.035 7      3321.566          44.000    23503995.617 7  96244919.268 7      2588.234          44.000
R04  20755333.055 8 111143857.380 8     -2774.066          50.000    20755334.766 7  86445200.498 7     -2157.607          45.000
R14  19622160.617 6 104597153.356 6      -199.480          38.000    19622162.328 5  81353348.911 5      -155.151          34.000
R15  21592208.562 5 115382240.865 5      2485.449          34.000    21592221.320 4  89741779.085 4      1933.145          27.000
R23  21352714.617 5 114222568.479 5       913.520          34.000    21352723.953 4  88839838.486 4       710.509          27.000
C11  24313055.102 7 126604464.169 7      2738.258          47.000    24313053.125 8  97898631.879 8      2117.407          50.000
C25  22020650.195 8 114667297.621 8      -681.793          51.000
E01  25353373.234 5 133232876.023 5     -1923.902          35.000    25353376.922 6 102087540.166 6     -1474.327          37.000
E04  26226887.039 7 137823162.830 7     -2966.469          43.000    26226881.375 6 105604752.950 6     -2273.296          39.000
E09  22386500.367 8 117641856.464 8      -860.645          48.000    22386502.867 8  90141154.317 8      -659.431          49.000
E24  24397237.094 6 128208283.685 6      2082.625          37.000    24397242.172 6  98237547.253 6      1595.478          36.000
E31  23523514.242 7 123616937.060 7       202.766          47.000    23523517.641 8  94719483.323 8       155.312          48.000
> 2020 05 17 07 02  0.0000000  0 18        .000000000000
G10  24109936.492 5 126698567.953 5      -804.145          34.000
G12  21099194.773 8 110877039.812 8      2238.270          51.000    21099193.703 8  86397675.955 8      1744.106          51.000
G13  23775453.617 7 124940796.462 7     -3718.586          42.000    23775457.289 4  97356528.775 4     -2897.602          29.000
G15  22267046.016 8 117014100.324 8     -3141.410          48.000    22267044.844 8  91179814.766 8     -2447.852          48.000
G19  21556792.031 5 113281696.218 5       -30.906          33.000
G24  20199707.656 8 106150193.200 8       495.711          50.000    20199709.859 8  82714427.216 8       386.265          50.000
G25  23485054.352 7 123414797.481 7      3314.605          43.000    23485059.109 7  96167380.143 7      2582.809          43.000
R04  20770940.633 8 111227433.257 8     -2795.262          50.000    20770941.961 7  86510203.929 7     -2174.092          45.000
R14  19623322.516 6 104603348.353 6      -210.988          36.000    19623324.336 5  81358167.184 5      -164.105          32.000
R15  21578302.062 5 115307845.889 5      2478.359          31.000
R23  21347666.461 6 114195607.877 6       885.895          36.000
C11  24297312.750 7 126522489.354 7      2729.012          46.000    24297312.961 8  97835243.758 8      2110.366          51.000
C25  22024607.688 8 114687906.346 8      -689.840          51.000
E01  25364371.461 5 133290673.092 5     -1926.625          31.000    25364377.781 6 102131830.040 6     -1476.434          37.000
E04  26243844.133 6 137912273.713 6     -2971.746          40.000    26243840.844 6 105673032.645 6     -2277.112          39.000
E09  22391460.789 8 117667924.306 8      -874.859          48.000    22391462.984 8  90161128.352 8      -670.335          49.000
E24  24385371.750 5 128145923.744 5      2077.590          35.000    24385376.617 6  98189764.988 6      1591.836          37.000
E31  23522383.586 7 123610997.430 7       195.609          47.000    23522387.469 8  94714932.179 8       149.871          48.000
> 2020 05 17 07 02 30.0000000  0 16        .000000000000
G12  21086456.414 8 110810098.499 8      2224.215          51.000    21086454.297 8  86345513.911 8      1733.154          51.000
G13  23796700.438 7 125052441.548 7     -3725.277          43.000    23796701.461 4  97443524.910 4     -2902.814          28.000
G15  22285009.500 7 117108502.785 7     -3152.457          46.000    22285008.852 7  91253375.126 7     -2456.460          46.000
G19  21557036.406 5 113282975.193 5       -54.840          33.000    21557031.273 5  88272462.948 5       -42.708          31.000
G24  20196916.367 8 106135524.172 8       482.027          51.000    20196918.148 8  82702996.807 8       375.606          51.000
G25  23466152.273 7 123315466.980 7      3307.238          44.000    23466156.398 7  96089979.771 7      2577.069          44.000
R04  20786660.531 8 111311613.708 8     -2817.012          49.000    20786661.445 7  86575677.607 7     -2191.009          43.000
R14  19624542.023 5 104609851.954 5      -222.781          35.000    19624544.008 5  81363225.529 5      -173.277          32.000
R23  21342774.711 5 114169455.045 5       859.004          33.000
C11  24281617.617 7 126440762.344 7      2719.035          45.000    24281620.188 8  97772047.261 8      2102.648          51.000
C25  22028605.547 8 114708725.782 8      -698.395          51.000
E01                                                                  25375388.938 5 102176170.659 5     -1479.379          35.000
E04  26260824.438 5 138001509.024 5     -2977.363          33.000    26260823.555 6 105741407.732 6     -2281.365          38.000
E09  22396497.352 8 117694391.790 8      -889.766          49.000    22396499.609 8  90181408.600 8      -681.816          49.000
E24  24373526.820 6 128083676.689 6      2071.840          36.000    24373532.289 6  98142069.257 6      1587.729          39.000
E31  23521289.031 8 123605245.075 8       187.797          48.000    23521292.844 7  94710524.522 7       143.795          47.000
> 2020 05 17 07 03  0.0000000  0 16        .000000000000
G12  21073793.547 8 110743553.705 8      2211.824          51.000    21073790.859 8  86293660.863 8      1723.499          51.000
G13  23817976.477 7 125164238.889 7     -3728.758          43.000    23817975.734 4  97530639.671 4     -2905.519          28.000
G15  22303029.898 8 117203204.708 8     -3161.496          48.000    22303029.922 8  91327168.839 8     -2463.503          48.000
G24  20194197.812 8 106121237.819 8       470.164          51.000    20194199.234 8  82691864.592 8       366.362          50.000
G25  23447288.797 7 123216337.320 7      3301.254          45.000    23447292.117 7  96012735.916 7      2572.406          46.000
R04  20802496.125 8 111396416.918 8     -2836.883          49.000    20802496.547 7  86641635.668 7     -2206.464          43.000
R14  19625824.039 5 104616685.754 5      -233.043          35.000    19625827.227 5  81368540.739 5      -181.253          32.000
R23  21338033.461 6 114144095.814 6       832.270          40.000
R24  22064953.609 5 117991206.304 5      3326.746          35.000
C11  24265974.375 7 126359306.962 7      2710.785          45.000    24265979.180 8  97709060.812 8      2096.169          51.000
C25  22032648.125 8 114729777.236 8      -705.375          51.000
E01  25386412.773 5 133406498.782 5     -1932.734          32.000    25386415.023 5 102220578.065 5     -1481.205          34.000
E04                                                                  26277833.516 6 105809893.430 6     -2284.550          38.000
E09  22401614.250 8 117721279.926 8      -903.023          51.000    22401616.641 8  90202011.178 8      -691.927          50.000
E24  24361707.609 6 128021564.159 6      2068.359          37.000    24361713.375 6  98094476.612 6      1584.832          39.000
E31  23520234.375 8 123599701.036 8       181.586          48.000    23520237.820 8  94706276.488 8       139.068          48.000
> 2020 05 17 07 03 30.0000000  0 16        .000000000000
G12  21061198.125 8 110677363.859 8      2199.344          51.000    21061195.812 8  86242084.364 8      1713.774          51.000
G13  23839272.656 6 125276144.182 6     -3732.938          41.000    23839270.914 4  97617838.561 4     -2908.779          29.000
G15  22321099.742 8 117298161.741 8     -3170.500          50.000    22321100.039 8  91401161.298 8     -2470.519          50.000
G19  21557912.844 5 113287603.997 5       -97.691          34.000    21557890.000 5  88275983.373 5       -76.126          34.000
G24  20191544.016 8 106107292.186 8       458.070          51.000    20191545.352 8  82680997.849 8       356.938          51.000
G25  23428455.820 7 123117367.670 7      3295.312          46.000    23428458.656 7  95935616.761 7      2567.779          46.000
R04  20818440.086 8 111481796.416 8     -2856.574          49.000    20818440.242 7  86708041.928 7     -2221.780          44.000
R14  19627159.328 5 104623806.459 5      -242.793          33.000    19627164.023 5  81374079.195 5      -188.836          31.000
R24  22046331.656 5 117891602.554 5      3312.543          33.000
C11  24250376.516 7 126278084.166 7      2702.508          45.000    24250382.383 8  97646254.196 8      2089.832          51.000
C25  22036727.211 8 114751018.981 8      -712.215          51.000
E01  25397451.250 5 133464503.830 5     -1935.664          33.000    25397451.125 5 102265019.605 5     -1482.710          34.000
E04  26294851.273 5 138180373.707 5     -2985.109          33.000    26294862.164 6 105878456.260 6     -2287.456          38.000
E09  22406803.180 8 117748546.201 8      -916.148          51.000    22406805.414 8  90222903.517 8      -701.933          51.000
E24  24349906.219 6 127959544.217 6      2064.922          36.000    24349911.336 6  98046954.911 6      1581.926          39.000
E31  23519211.102 8 123594322.871 8       175.543          49.000    23519214.305 8  94702155.559 8       134.564          48.000
> 2020 05 17 07 04  0.0000000  0 16        .000000000000
G12  21048692.312 8 110611647.139 8      2184.996          50.000    21048690.680 8  86190876.522 8      1702.594          50.000
G13  23860610.492 6 125388272.256 6     -3738.781          38.000    23860607.898 5  97705211.031 5     -2913.330          31.000
G15  22339240.445 8 117393488.521 8     -3181.250          51.000    22339240.773 8  91475441.878 8     -2478.896          51.000
G24  20188977.430 8 106093804.789 8       444.340          51.000    20188978.766 8  82670488.185 8       346.239          51.000
G25  23409675.578 7 123018676.110 7      3287.488          44.000    23409678.445 7  95858714.271 7      2561.679          44.000
R04  20834513.523 8 111567867.459 8     -2878.086          48.000    20834514.383 7  86774986.046 7     -2238.511          45.000
R14  19628571.641 5 104631332.779 5      -254.645          33.000    19628576.992 5  81379932.948 5      -198.054          32.000
R23  21329017.297 6 114095798.476 6       777.219          36.000
R24  22027803.406 5 117792521.941 5      3296.465          30.000
C11  24234846.266 7 126197212.208 7      2692.168          46.000    24234852.250 8  97583718.889 8      2081.834          51.000
C25  22040865.273 8 114772566.786 8      -720.996          51.000
E01  25408518.656 5 133522666.653 5     -1938.805          33.000    25408519.930 5 102309584.370 5     -1485.688          34.000
E04  26311923.109 6 138270069.965 6     -2990.734          36.000    26311931.094 6 105947184.542 6     -2291.895          37.000
E09  22412085.961 8 117776306.991 8      -931.109          50.000    22412088.359 8  90244174.785 8      -713.459          50.000
E24  24338145.945 5 127897816.851 5      2059.234          33.000    24338148.086 6  97999593.700 6      1577.960          36.000
E31  23518241.375 8 123589227.063 8       167.621          48.000    23518244.742 8  94698250.980 8       128.413          48.000
> 2020 05 17 07 04 30.0000000  0 16        .000000000000
G12  21036251.391 8 110546271.452 8      2172.559          51.000    21036249.961 8  86139934.430 8      1692.903          51.000
G13  23881964.586 6 125500488.399 6     -3742.738          36.000    23881962.164 5  97792640.150 5     -2916.419          32.000
G15  22357425.836 8 117489050.053 8     -3190.219          51.000    22357426.367 8  91549905.357 8     -2485.888          51.000
G24  20186473.133 8 106080644.758 8       432.219          51.000    20186474.516 8  82660233.616 8       336.794          51.000
G25  23390922.977 7 122920131.083 7      3281.348          44.000    23390926.203 7  95781925.937 7      2556.894          44.000
R04  20850690.117 8 111654490.938 8     -2897.590          50.000    20850691.727 7  86842359.859 7     -2253.684          46.000
R14  19630034.445 6 104639129.167 6      -265.539          36.000    19630040.320 5  81385996.715 5      -206.530          33.000
R15  21509208.164 5 114938650.226 5      2444.797          34.000
R23  21324724.375 5 114072861.466 5       750.766          31.000
C11  24219358.648 8 126116562.005 8      2683.527          49.000    24219363.461 8  97521355.061 8      2075.107          51.000
C25  22045036.711 8 114794289.097 8      -727.938          51.000
E01  25419591.250 5 133580853.023 5     -1941.289          33.000    25419594.672 5 102354170.222 5     -1487.362          34.000
E04  26329009.766 6 138359847.822 6     -2995.133          37.000    26329015.078 6 106015975.283 6     -2294.771          36.000
E09  22417436.922 8 117804429.038 8      -944.465          49.000    22417440.023 8  90265722.838 8      -723.681          51.000
E24  24326395.078 5 127836069.453 5      2056.027          33.000    24326398.336 5  97952291.415 5      1574.982          35.000
E31  23517299.977 8 123584280.399 8       161.422          48.000    23517303.648 8  94694460.675 8       123.612          48.000
> 2020 05 17 07 05  0.0000000  0 17        .000000000000
G12  21023884.453 8 110481282.375 8      2159.742          51.000    21023883.500 8  86089293.626 8      1682.916          51.000
G13  23903343.703 6 125612835.169 6     -3747.410          37.000    23903341.305 5  97880183.276 5     -2920.042          32.000
G15  22375663.680 8 117584888.259 8     -3199.281          51.000    22375664.258 8  91624584.461 8     -2492.946          51.000
G24  20184039.594 8 106067856.835 8       419.949          51.000    20184041.047 8  82650268.992 8       327.233          51.000
G25  23372206.969 7 122821778.506 7      3275.215          45.000    23372210.695 7  95705287.593 7      2552.119          45.000
R04  20866978.094 8 111741708.558 8     -2917.230          50.000    20866979.664 7  86910195.753 7     -2268.960          47.000
R14  19631556.180 6 104647240.508 6      -275.664          36.000    19631561.188 5  81392305.493 5      -214.405          31.000
R15  21495507.867 5 114865399.491 5      2438.262          34.000
R23  21320583.820 6 114050730.305 6       724.242          36.000
C11  24203922.773 8 126036180.549 8      2674.766          49.000    24203924.875 8  97459198.984 8      2068.314          48.000
C23  23043718.438 5 119994664.589 5      1698.551          32.000
C25  22049250.234 8 114816230.177 8      -735.180          51.000
E01  25430677.344 5 133639111.100 5     -1943.289          34.000    25430682.430 5 102398810.989 5     -1489.190          34.000
E04  26346119.398 6 138449750.207 6     -2998.703          38.000    26346124.078 5 106084861.518 5     -2297.746          35.000
E09  22422865.188 8 117832956.560 8      -957.738          50.000    22422868.461 8  90287581.573 8      -733.869          50.000
E24  24314663.180 6 127774457.673 6      2051.461          38.000
E31  23516395.484 8 123579527.198 8       155.070          49.000    23516398.961 8  94690818.617 8       118.844          48.000
> 2020 05 17 07 05 30.0000000  0 17        .000000000000
G12  21011602.914 8 110416741.925 8      2144.312          51.000    21011602.898 8  86039002.381 8      1670.893          51.000
G13  23924758.844 6 125725371.746 6     -3753.789          41.000    23924756.648 5  97967874.005 5     -2925.043          32.000
G15  22393965.109 8 117681062.359 8     -3210.801          51.000    22393965.641 8  91699525.294 8     -2501.923          51.000
G24  20181688.570 8 106055502.857 8       405.094          50.000    20181690.219 8  82640642.494 8       315.657          50.000
G25  23353539.680 7 122723681.063 7      3266.211          46.000    23353543.930 7  95628848.061 7      2545.099          46.000
R04  20883387.508 7 111829578.931 7     -2939.375          47.000    20883389.055 7  86978539.346 7     -2286.181          46.000
R14  19633148.688 5 104655728.781 5      -288.848          35.000    19633152.781 5  81398907.487 5      -224.656          31.000
R15  21481834.500 4 114792409.153 4      2428.297          29.000
R23  21316616.602 6 114029525.142 6       695.016          36.000    21316626.508 4  88689657.659 4       540.568          24.000
R24  21972688.852 5 117497852.061 5      3249.973          35.000    21972703.141 5  91387249.042 5      2527.757          31.000
C11  24188550.219 8 125956131.269 8      2663.180          48.000    24188549.930 7  97397299.760 7      2059.333          45.000
C25  22053517.625 8 114838450.901 8      -744.887          51.000
E01  25441789.531 6 133697503.728 6     -1948.230          37.000    25441793.930 5 102443553.388 5     -1492.782          34.000
E04  26363264.352 6 138539837.010 6     -3005.016          38.000    26363268.422 5 106153889.069 5     -2303.374          33.000
E09  22428382.727 8 117861950.439 8      -973.789          51.000    22428385.070 8  90309797.639 8      -746.138          50.000
E24  24302969.305 7 127713028.938 7      2045.203          42.000
E31  23515539.523 8 123575028.467 8       146.289          49.000    23515542.180 8  94687371.529 8       112.050          48.000
> 2020 05 17 07 06  0.0000000  0 19        .000000000000
G12  20999371.109 8 110352462.498 8      2138.539          51.000    20999371.320 8  85988914.502 8      1666.394          51.000
G13  23946174.227 6 125837907.861 6     -3751.023          41.000    23946172.938 4  98055564.486 4     -2922.881          29.000
G15  22412294.023 8 117777381.443 8     -3212.703          51.000    22412294.406 8  91774579.083 8     -2503.408          51.000
G24  20179384.469 8 106043395.740 8       399.652          50.000    20179386.297 8  82631208.377 8       311.417          51.000
G25  23334885.438 7 122625651.614 7      3266.746          45.000    23334890.062 7  95552461.486 7      2545.516          46.000
R04  20899880.547 7 111917906.483 7     -2951.633          46.000    20899883.219 7  87047238.573 7     -2295.714          45.000
R14  19634774.883 5 104664402.530 5      -292.125          31.000    19634780.805 5  81405653.765 5      -227.208          31.000
R15  21468184.773 5 114719457.036 5      2430.336          35.000
R23  21312770.930 5 114008943.254 5       674.191          32.000
R24  21954477.242 5 117400438.919 5      3242.117          35.000    21954479.352 4  91311475.502 4      2521.625          25.000
C11  24173205.492 7 125876229.883 7      2661.086          47.000    24173205.133 6  97335514.914 6      2057.654          40.000
C23  23024207.789 5 119893074.964 5      1692.789          33.000
C24  25683444.344 4 133740430.137 4     -2560.344          29.000
C25  22057802.906 8 114860764.638 8      -745.160          51.000
E01  25452891.055 6 133755840.025 6     -1943.453          38.000    25452896.875 5 102488252.678 5     -1488.960          35.000
E04  26380407.883 6 138629918.274 6     -3002.230          38.000    26380412.430 5 106222984.374 5     -2300.503          30.000
E09  22433953.219 8 117891221.797 8      -980.094          51.000    22433954.258 8  90332226.313 8      -751.038          50.000
E24  24291276.906 7 127651595.105 7      2048.113          42.000
E31  23514695.891 8 123570595.455 8       146.961          48.000    23514698.109 8  94683974.795 8       112.559          48.000
> 2020 05 17 07 06 30.0000000  0 19        .000000000000
G12  20987229.016 8 110288655.519 8      2112.133          49.000    20987228.164 8  85939194.761 8      1645.818          49.000
G13  23967629.250 6 125950651.162 6     -3768.711          41.000    23967627.234 4  98143416.423 4     -2936.655          29.000
G15  22430690.008 8 117874053.039 8     -3235.219          50.000    22430689.977 8  91849907.570 8     -2520.950          50.000
G24  20177167.492 8 106031746.248 8       373.734          50.000    20177169.375 8  82622130.848 8       291.222          50.000
G25  23316284.188 7 122527901.499 7      3246.691          45.000    23316289.148 7  95476292.627 7      2529.892          45.000
R04  20916499.109 7 112006901.245 7     -2984.730          47.000    20916501.789 7  87116456.724 7     -2321.454          44.000
R14  19636475.305 5 104673489.365 5      -316.129          30.000    19636479.281 4  81412716.108 4      -245.878          29.000
R15  21454603.773 4 114646882.463 4      2409.914          29.000
R23  21309100.828 4 113989319.352 4       634.605          29.000
R24  21936361.070 6 117303566.688 6      3212.652          38.000    21936366.648 5  91236129.783 5      2498.727          30.000
C11  24157929.383 7 125796687.170 7      2638.488          46.000    24157949.555 5  97274041.120 5      2040.020          32.000
C23  23014497.117 5 119842529.711 5      1673.793          31.000
C24  25698226.188 5 133817419.873 5     -2575.203          30.000
C25  22062146.094 8 114883379.463 8      -765.691          51.000
E01  25464021.227 6 133814329.663 6     -1959.094          36.000    25464029.992 5 102533069.356 5     -1501.088          35.000
E04  26397589.664 6 138720202.347 6     -3019.824          37.000    26397595.984 5 106292172.103 5     -2313.990          33.000
E09  22439616.180 8 117920980.144 8     -1007.008          51.000    22439616.758 8  90355028.124 8      -771.612          50.000
E24  24279624.414 6 127590366.280 6      2030.430          41.000
E31  23513904.516 7 123566437.819 7       127.062          47.000    23513906.914 8  94680789.088 8        97.312          48.000
> 2020 05 17 07 07  0.0000000  0 17        .000000000000
G12  20975180.594 8 110225341.035 8      2105.301          49.000    20975178.656 8  85889858.816 8      1640.494          49.000
G13  23989126.844 6 126063619.221 6     -3766.523          38.000    23989125.133 5  98231443.484 5     -2934.947          31.000
G15  22449156.336 8 117971094.182 8     -3237.816          50.000    22449156.164 8  91925523.989 8     -2522.977          50.000
G17  22996747.445 4 120848722.827 4     -1912.254          29.000
G24  20175041.609 8 106020574.789 8       367.516          51.000    20175043.586 8  82613425.807 8       286.376          51.000
G25  23297739.906 7 122430451.190 7      3246.375          45.000    23297744.836 7  95400357.331 7      2529.646          45.000
R04  20933245.336 7 112096579.187 7     -2997.441          46.000    20933248.180 7  87186206.232 7     -2331.343          43.000
R23  21305603.688 5 113970584.192 5       612.555          35.000
R24  21918351.758 6 117207259.592 6      3203.828          40.000    21918359.359 4  91161224.238 4      2491.863          29.000
C11  24142726.875 7 125717524.909 7      2635.391          47.000    24142717.922 7  97212827.632 7      2037.818          42.000
C24  25713037.070 5 133894562.516 5     -2571.219          32.000
C25  22066550.703 8 114906314.731 8      -766.875          51.000
E01                                                                  25475194.258 5 102578018.028 5     -1498.322          34.000
E04  26414813.586 6 138810707.123 6     -3017.566          37.000    26414820.773 5 106361519.823 5     -2311.817          33.000
E09  22445375.188 8 117951244.396 8     -1014.188          51.000    22445376.094 8  90378217.600 8      -777.078          50.000
E24  24268015.102 6 127529362.054 6      2032.562          37.000
E31  23513169.391 8 123562574.657 8       126.914          48.000    23513171.852 8  94677828.989 8        97.345          48.000
> 2020 05 17 07 07 30.0000000  0 18        .000000000000
G12  20963196.008 8 110162362.514 8      2093.270          50.000    20963195.352 8  85840784.676 8      1631.119          50.000
G13  24010636.000 5 126176652.871 5     -3770.148          30.000
G15  22467662.641 8 118068345.741 8     -3245.586          50.000    22467662.547 8  92001304.411 8     -2529.028          50.000
G19  21566436.023 5 113332411.734 5      -274.477          31.000
G24  20172976.891 8 106009724.591 8       355.906          51.000    20172978.984 8  82604971.099 8       277.330          51.000
G25  23279223.023 7 122333144.932 7      3240.684          45.000    23279227.133 7  95324534.295 7      2525.202          45.000
R04  20950087.828 7 112186776.364 7     -3015.680          47.000    20950091.328 7  87256359.581 7     -2345.529          43.000
R14  19640085.922 5 104692706.293 5      -329.844          34.000    19640099.703 5  81427681.782 5      -256.539          30.000
R24  21900418.922 6 117111362.241 6      3189.203          40.000    21900428.836 4  91086637.387 4      2480.491          26.000
C11  24127568.359 7 125638589.976 7      2626.855          47.000    24127558.133 7  97151790.170 7      2031.315          47.000
C23  22995210.797 4 119742098.280 4      1670.109          28.000
C24  25727849.383 4 133971702.233 4     -2571.625          29.000
C25  22070986.844 8 114929414.747 8      -773.156          51.000
E01  25486346.391 5 133931666.048 5     -1956.016          31.000    25486361.461 5 102622977.864 5     -1499.053          35.000
E04  26432049.484 6 138901273.770 6     -3020.156          38.000
E09  22451200.430 8 117981856.895 8     -1026.684          51.000    22451201.961 8  90401673.936 8      -786.653          51.000
E24  24256418.578 5 127468425.496 5      2029.645          34.000
E31  23512460.430 8 123558848.441 8       121.535          48.000    23512462.586 8  94674973.833 8        93.139          48.000
> 2020 05 17 07 08  0.0000000  0 17        .000000000000
G12  20951281.641 8 110099751.863 8      2080.836          51.000    20951282.594 8  85791997.170 8      1621.431          51.000
G15  22486214.172 8 118165836.474 8     -3253.703          48.000    22486214.547 8  92077271.236 8     -2535.350          48.000
G19  21568069.086 5 113340971.176 5      -296.008          34.000
G24  20170979.438 8 105999227.770 8       343.930          51.000    20170981.484 8  82596791.741 8       267.997          51.000
G25  23260739.828 7 122236015.103 7      3234.691          45.000    23260742.727 7  95248848.682 7      2520.539          45.000
R04  20967033.742 8 112277520.684 8     -3033.980          50.000    20967037.922 7  87326938.448 7     -2359.763          45.000
R14  19641969.477 5 104702742.618 5      -339.848          32.000    19641984.406 4  81435487.915 4      -264.320          28.000
R23  21299008.945 5 113935342.169 5       560.773          31.000
R24  21882568.891 5 117015911.160 5      3173.781          35.000
C11  24112460.312 7 125559915.828 7      2618.059          47.000    24112450.680 8  97090954.340 8      2024.392          50.000
C24  25742668.695 4 134048830.246 4     -2572.887          28.000
C25  22075460.500 8 114952710.387 8      -779.828          51.000
E01  25497521.500 5 133990387.895 5     -1958.238          35.000    25497536.906 5 102667972.477 5     -1500.579          33.000
E04  26449302.312 6 138991931.971 6     -3023.332          37.000    26449299.656 5 106500373.458 5     -2316.585          32.000
E09  22457097.961 8 118012848.264 8     -1039.449          51.000    22457100.023 8  90425420.560 8      -796.461          51.000
E24  24244840.648 5 127407497.861 5      2026.273          35.000
E31  23511783.195 7 123555289.966 7       115.715          47.000    23511785.250 8  94672247.204 8        88.724          48.000
> 2020 05 17 07 08 30.0000000  0 18        .000000000000
G12  20939455.023 8 110037602.570 8      2065.172          51.000    20939456.320 8  85743569.169 8      1609.225          51.000
G15  22504828.148 8 118263655.878 8     -3264.770          48.000    22504829.344 8  92153494.138 8     -2543.976          48.000
G19  21569839.648 5 113350254.855 5      -320.812          31.000
G24  20169067.227 8 105989178.387 8       328.793          51.000    20169069.070 8  82588961.063 8       256.202          51.000
G25  23242308.180 8 122139155.644 8      3225.426          48.000    23242310.414 8  95173373.845 8      2513.322          48.000
R04  20984099.664 8 112368902.273 8     -3055.441          50.000    20984103.938 7  87398012.993 7     -2376.454          46.000
R14  19643926.289 5 104713161.693 5      -352.367          33.000
R15  21400630.023 5 114358451.228 5      2389.746          33.000    21400631.680 4  88945489.252 4      1858.691          26.000
R23  21295955.898 5 113919006.454 5       531.027          32.000    21295946.562 4  88603623.927 4       413.015          25.000
R24  21864822.453 5 116921004.763 5      3155.102          30.000    21864826.055 4  90938591.301 4      2453.977          28.000
C11  24097420.297 7 125481596.761 7      2605.859          46.000    24097411.336 8  97030393.032 8      2015.091          51.000
C23  22976031.461 5 119642196.241 5      1657.500          32.000
C25  22079989.266 8 114976293.399 8      -789.652          50.000
E01  25508723.672 5 134049243.063 5     -1962.648          34.000    25508737.336 5 102713072.338 5     -1504.129          34.000
E04  26466589.141 6 139082772.652 6     -3029.727          37.000    26466585.648 4 106569972.548 4     -2321.293          29.000
E09  22463085.398 8 118044310.464 8     -1055.375          51.000    22463087.242 8  90449527.938 8      -808.679          51.000
E24  24233300.234 6 127346851.731 6      2019.652          37.000
E31  23511155.578 8 123551991.441 8       106.891          48.000    23511157.750 8  94669719.768 8        81.861          48.000
> 2020 05 17 07 09  0.0000000  0 15        .000000000000
G12  20927697.023 8 109975814.251 8      2054.895          50.000    20927696.656 8  85695422.469 8      1601.220          50.000
G15  22523485.375 8 118361700.822 8     -3270.586          49.000    22523487.023 8  92229892.793 8     -2548.509          49.000
G24  20167220.883 8 105979475.198 8       318.902          51.000    20167222.578 8  82581400.132 8       248.495          51.000
G25  23223909.031 8 122042466.438 8      3221.324          48.000    23223911.203 8  95098031.678 8      2510.126          48.000
R04  21001264.453 8 112460814.178 8     -3071.223          49.000    21001268.547 7  87469500.040 7     -2388.729          45.000
R14  19645934.836 5 104723860.218 5      -359.637          35.000
R23  21293061.711 5 113903499.140 5       506.426          34.000
R24  21847159.672 5 116826544.663 5      3142.168          35.000    21847160.500 4  90865121.673 4      2443.899          24.000
C11  24082428.805 7 125403534.924 7      2599.066          45.000    24082421.852 8  96970030.672 8      2009.730          51.000
C25  22084553.992 8 115000063.594 8      -794.180          50.000
E01  25519932.734 6 134108137.993 6     -1962.586          36.000    25519944.672 5 102758199.573 5     -1503.563          35.000
E04  26483891.039 6 139173693.038 6     -3030.617          37.000
E09  22469143.180 8 118076141.805 8     -1065.930          51.000    22469144.078 8  90473918.173 8      -816.769          51.000
E24  24221777.234 6 127286296.133 6      2018.336          40.000
E31  23510558.203 8 123548851.350 8       103.363          48.000    23510560.555 8  94667313.704 8        79.171          48.000
> 2020 05 17 07 09 30.0000000  0 15        .000000000000
G12  20916018.008 8 109914441.544 8      2040.477          50.000    20916016.570 8  85647599.606 8      1589.982          50.000
G13  24096911.102 5 126630112.974 5     -3785.195          31.000
G15  22542195.625 8 118460022.451 8     -3280.328          50.000    22542197.344 8  92306507.050 8     -2556.100          50.000
G24  20165450.773 8 105970172.523 8       305.090          51.000    20165452.367 8  82574151.290 8       237.735          51.000
G25  23205552.656 8 121946002.366 8      3213.410          48.000    23205554.734 8  95022864.927 8      2503.959          48.000
R04  21018537.352 8 112553307.299 8     -3091.035          50.000    21018540.625 7  87541439.112 7     -2404.138          44.000
R14  19648005.180 5 104734892.432 5      -371.840          35.000
R24  21829588.992 6 116732590.078 6      3125.465          36.000    21829591.688 4  90792050.798 4      2430.914          26.000
C11  24067497.672 7 125325786.130 7      2587.902          46.000    24067493.023 8  96909910.378 8      2001.227          51.000
C25  22089164.734 8 115024074.187 8      -802.777          50.000
E01  25531158.773 6 134167121.928 6     -1965.984          36.000    25531167.781 5 102803395.000 5     -1506.407          35.000
E04  26501217.625 6 139264745.205 6     -3035.508          38.000
E09  22475280.922 8 118108395.339 8     -1080.508          51.000    22475280.977 8  90498631.898 8      -827.910          51.000
E24  24210282.047 7 127225884.820 7      2012.801          42.000    24210304.602 6  97484828.516 6      1542.153          37.000
E31  23510000.914 8 123545923.002 8        95.832          48.000    23510003.438 8  94665069.901 8        73.364          48.000
> 2020 05 17 07 10  0.0000000  0 18        .000000000000
G12  20904408.961 8 109853435.947 8      2025.492          50.000    20904408.594 8  85600062.780 8      1578.306          51.000
G13  24118528.484 5 126743723.377 5     -3790.109          35.000
G15  22560948.883 8 118558569.351 8     -3290.512          50.000    22560950.328 8  92383296.808 8     -2564.035          50.000
G24  20163747.789 8 105961222.759 8       290.574          51.000    20163749.391 8  82567177.438 8       226.421          51.000
G25  23187230.016 8 121849715.552 8      3204.570          48.000    23187231.359 8  94947836.271 8      2497.068          48.000
R04  21035908.469 8 112646327.606 8     -3111.336          48.000    21035911.383 7  87613788.181 7     -2419.931          45.000
R14  19650127.695 5 104746208.386 5      -383.438          30.000
R15  21360519.219 4 114144131.275 4      2369.711          27.000    21360519.484 4  88778774.592 4      1843.109          28.000
R24  21812104.570 5 116639095.550 5      3106.973          35.000    21812109.070 5  90719332.164 5      2416.531          30.000
C11  24052617.852 7 125248304.082 7      2576.270          46.000    24052615.414 8  96849996.369 8      1992.247          51.000
C23  22947503.242 4 119493665.687 4      1640.781          29.000
C25  22093812.203 8 115048276.474 8      -811.762          50.000
E01  25542391.578 5 134226145.236 5     -1970.074          33.000    25542397.406 5 102848620.601 5     -1509.540          33.000
E04  26518558.859 6 139355878.382 6     -3040.824          38.000
E09  22481489.203 8 118141021.337 8     -1095.566          51.000    22481489.312 8  90523631.034 8      -839.454          51.000
E24  24198805.547 6 127165568.780 6      2006.945          41.000    24198826.648 6  97438612.344 6      1537.909          38.000
E31  23509474.406 8 123543156.880 8        87.648          48.000    23509477.023 8  94662950.405 8        67.150          48.000
E33  27483594.359 6 144427260.058 6      2775.090          40.000    27483594.547 6 110665046.283 6      2126.457          38.000
> 2020 05 17 07 10 30.0000000  0 16        .000000000000
G12  20892884.484 8 109792873.128 8      2012.301          51.000    20892884.969 8  85552870.979 8      1568.027          51.000
G13  24140177.773 6 126857489.724 6     -3793.535          36.000    24140183.203 5  98850012.747 5     -2956.001          33.000
G15  22579758.812 8 118657414.113 8     -3298.805          50.000    22579759.820 8  92460318.678 8     -2570.500          50.000
G24  20162126.328 8 105952701.534 8       277.797          51.000    20162128.062 8  82560537.520 8       216.465          51.000
G25  23168955.523 7 121753682.322 7      3197.906          47.000    23168956.250 8  94873005.240 8      2491.878          48.000
R04  21053390.656 8 112739947.527 8     -3129.660          48.000    21053394.109 7  87686603.677 7     -2434.177          44.000
R24  21794720.977 5 116546141.968 5      3090.574          30.000    21794723.898 4  90647034.977 4      2403.774          28.000
C11  24037804.180 7 125171165.908 7      2566.488          47.000    24037803.414 8  96790348.293 8      1984.674          50.000
C23  22938065.047 4 119444526.292 4      1635.410          27.000
C25  22098511.000 8 115072745.050 8      -819.102          50.000
E01  25553641.352 5 134285292.721 5     -1972.219          34.000    25553645.797 5 102893933.643 5     -1511.061          34.000
E04  26535929.703 6 139447166.128 6     -3044.379          39.000
E09  22487782.453 8 118174094.419 8     -1108.898          51.000    22487783.648 8  90548972.732 8      -849.586          51.000
E24  24187362.086 6 127105423.298 6      2003.223          40.000    24187381.555 6  97392526.909 6      1535.054          38.000
E31  23508993.094 8 123540627.832 8        81.363          48.000    23508995.969 8  94661012.548 8        62.340          48.000
E33  27467760.953 6 144344058.025 6      2772.180          38.000    27467762.086 6 110601294.142 6      2124.060          39.000
> 2020 05 17 07 11  0.0000000  0 16        .000000000000
G12  20881435.109 8 109732704.530 8      2000.176          51.000    20881434.953 8  85505986.383 8      1558.579          51.000
G13  24161846.281 5 126971359.730 5     -3796.703          31.000
G15  22598615.336 8 118756504.842 8     -3305.875          49.000    22598615.930 8  92537532.204 8     -2576.006          49.000
G24  20160577.086 8 105944560.070 8       266.238          51.000    20160578.938 8  82554193.511 8       207.458          51.000
G25  23150719.914 7 121657854.405 7      3191.953          46.000    23150720.688 7  94798334.198 7      2487.236          46.000
R04  21070975.500 8 112834112.539 8     -3146.711          50.000    21070978.656 7  87759843.094 7     -2447.445          43.000
R23  21282977.914 6 113849504.747 6       394.695          36.000
R24  21777425.523 4 116453670.562 4      3075.379          29.000    21777433.195 5  90575103.793 5      2391.961          31.000
C11  24023047.766 8 125094324.907 8      2557.629          48.000    24023047.766 8  96730930.008 8      1977.621          49.000
C25  22103251.711 8 115097430.741 8      -825.270          51.000
E01  25564906.312 5 134344494.157 5     -1973.391          35.000    25564907.391 5 102939295.806 5     -1511.842          35.000
E04  26553319.641 6 139538557.289 6     -3047.047          37.000    26553314.414 5 106919193.744 5     -2334.382          32.000
E09  22494151.328 8 118207564.335 8     -1121.059          51.000    22494154.062 8  90574618.518 8      -858.987          51.000
E24  24175941.867 6 127045398.916 6      2000.117          37.000    24175958.250 6  97346534.332 6      1532.500          36.000
E31  23508547.414 8 123538285.865 8        76.094          48.000    23508550.742 8  94659218.055 8        58.321          49.000
E33  27451944.609 6 144260947.297 6      2769.941          38.000    27451948.766 7 110537611.942 7      2122.381          43.000
> 2020 05 17 07 11 30.0000000  0 18        .000000000000
G12  20870060.945 8 109672931.327 8      1986.223          51.000    20870059.594 8  85459409.911 8      1547.706          51.000
G13  24183533.359 5 127085328.610 5     -3800.020          34.000
G15  22617518.016 8 118855839.500 8     -3314.887          49.000    22617518.211 8  92614935.793 8     -2583.032          49.000
G19  21583016.484 6 113419515.771 6      -451.070          38.000    21583015.188 6  88378818.097 6      -351.486          36.000
G24  20159100.289 8 105936799.627 8       252.656          51.000    20159102.055 8  82548146.418 8       196.875          51.000
G25  23132523.352 7 121562233.353 7      3184.246          45.000    23132524.836 7  94723824.312 7      2481.231          44.000
R04  21088662.562 8 112928819.063 8     -3165.445          50.000    21088662.773 7  87833503.689 7     -2462.013          42.000
R14  19656879.219 5 104782227.004 5      -414.445          32.000
R23  21280842.719 5 113838098.247 5       366.930          33.000
R24  21760225.898 5 116361711.908 5      3057.191          35.000    21760234.508 5  90503580.403 5      2377.812          31.000
C11  24008349.344 8 125017784.089 8      2546.633          48.000    24008349.422 8  96671743.806 8      1969.396          48.000
C25  22108034.367 8 115122334.031 8      -833.371          51.000
E01  25576187.000 5 134403769.695 5     -1976.023          33.000    25576184.375 5 102984706.989 5     -1514.114          34.000
E04  26570728.734 5 139630122.628 5     -3051.133          35.000    26570726.469 5 106989298.935 5     -2337.824          34.000
E09  22500595.875 8 118241430.850 8     -1135.059          51.000    22500599.656 8  90600568.201 8      -869.723          51.000
E24                                                                  24164556.875 5  97300634.933 5      1529.160          32.000
E31  23508137.367 8 123536131.023 8        69.051          49.000    23508140.953 8  94657566.959 8        52.981          49.000
E33  27436145.898 6 144177930.517 6      2766.160          38.000    27436152.125 7 110474001.712 7      2119.483          44.000
> 2020 05 17 07 12  0.0000000  0 20        .000000000000
G12  20858756.891 8 109613527.433 8      1973.949          51.000    20858755.086 8  85413121.180 8      1538.142          51.000
G13  24205234.516 6 127199373.600 6     -3802.629          38.000
G15  22636461.523 8 118955389.003 8     -3322.129          49.000    22636460.883 8  92692506.805 8     -2588.675          49.000
G19  21585649.969 5 113433355.102 5      -471.820          34.000    21585648.180 5  88389601.980 5      -367.652          35.000
G24  20157691.008 8 105929393.814 8       240.844          51.000    20157692.625 8  82542375.655 8       187.670          51.000
G25  23114361.281 7 121466793.683 7      3177.961          46.000    23114363.484 7  94649455.767 7      2476.333          46.000
R04  21106444.227 8 113024035.979 8     -3182.480          48.000    21106443.062 7  87907561.248 7     -2475.263          43.000
R14  19659236.719 5 104794812.644 5      -423.875          33.000
R15  21307597.930 5 113861306.668 5      2345.320          33.000
R23  21278857.719 4 113827487.157 4       340.668          28.000
R24  21743122.008 6 116270230.386 6      3041.289          38.000    21743126.273 5  90432428.100 5      2365.453          31.000
C11  23993703.922 8 124941519.330 8      2537.484          48.000    23993703.859 8  96612771.107 8      1962.014          48.000
C23  22909947.672 5 119298104.765 5      1621.234          30.000
C25  22112853.594 8 115147428.538 8      -839.750          51.000
E01                                                                  25587469.898 5 103030146.469 5     -1515.090          34.000
E04  26588152.117 5 139721681.835 5     -3053.871          34.000    26588151.367 5 107059460.743 5     -2339.716          33.000
E09  22507110.633 8 118275666.659 8     -1147.461          51.000    22507114.906 8  90626800.844 8      -879.274          51.000
E24                                                                  24153173.195 4  97254819.407 4      1525.796          29.000
E31  23507757.852 8 123534136.301 8        63.613          49.000    23507761.227 8  94656038.545 8        48.779          49.000
E33  27420361.398 6 144094983.349 6      2763.453          41.000    27420367.727 7 110410444.797 7      2117.502          42.000
> 2020 05 17 07 12 30.0000000  0 16        .000000000000
G12  20847525.188 8 109554505.513 8      1950.957          50.000    20847523.633 8  85367130.079 8      1520.226          50.000
G13  24226951.609 6 127313502.016 6     -3815.512          38.000
G15  22655447.711 8 119055162.936 8     -3339.641          49.000    22655446.094 8  92770252.676 8     -2602.317          49.000
G19  21588404.750 6 113447830.677 6      -503.027          39.000    21588402.398 5  88400881.717 5      -391.963          33.000
G24  20156351.680 8 105922355.659 8       218.348          51.000    20156353.297 8  82536891.366 8       170.141          51.000
G25  23096236.680 7 121371548.603 7      3161.348          46.000    23096238.594 7  94575238.872 7      2463.391          46.000
R04  21124320.773 8 113119771.188 8     -3210.133          48.000    21124320.953 7  87982021.966 7     -2496.770          44.000
R24  21726107.016 6 116179242.756 6      3014.242          36.000    21726112.398 5  90361659.982 5      2344.411          32.000
C11  23979114.367 8 124865545.257 8      2517.523          48.000    23979114.219 8  96554023.151 8      1946.679          49.000
C23  22900629.312 4 119249588.210 4      1604.578          29.000
C25  22117711.695 8 115172726.230 8      -856.660          51.000
E01                                                                  25598765.844 5 103075623.176 5     -1524.440          33.000
E04  26605591.711 5 139813328.178 5     -3065.773          32.000    26605591.914 5 107129687.184 5     -2349.862          34.000
E09  22513697.695 8 118310283.140 8     -1170.383          51.000    22513701.773 8  90653325.133 8      -896.769          51.000
E31  23507410.938 8 123532313.366 8        47.754          49.000    23507414.148 8  94654641.743 8        36.576          49.000
E33  27404593.414 6 144012120.046 6      2750.559          41.000    27404598.602 6 110346952.124 6      2107.457          41.000
> 2020 05 17 07 13  0.0000000  0 17        .000000000000
G12  20836392.352 8 109496004.741 8      1947.984          50.000    20836390.945 8  85321545.073 8      1517.910          50.000
G13  24248710.711 6 127427849.972 6     -3808.609          37.000    24248713.617 5  99294401.873 5     -2967.748          35.000
G15  22674502.516 8 119155297.337 8     -3337.094          49.000    22674500.500 8  92848279.424 8     -2600.333          49.000
G19  21591306.805 7 113463080.590 7      -514.570          43.000    21591304.711 4  88412764.705 4      -400.964          29.000
G24  20155108.773 8 105915824.251 8       215.891          51.000    20155110.359 8  82531801.963 8       168.226          51.000
G25  23078175.797 7 121276637.600 7      3164.758          46.000    23078177.414 7  94501282.288 7      2466.048          46.000
R04  21142320.141 8 113216161.997 8     -3216.957          49.000    21142321.578 7  88056992.563 7     -2502.078          44.000
R23  21275354.922 5 113808802.728 5       286.008          32.000
R24  21709211.445 6 116088894.113 6      3007.598          38.000    21709215.828 4  90291388.931 4      2339.246          28.000
C11  23964606.711 7 124790001.159 7      2517.715          46.000    23964607.008 8  96495607.715 8      1946.830          50.000
C23  22891358.086 5 119201346.250 5      1609.984          32.000
C24  25891525.492 5 134823961.252 5     -2590.328          30.000
C25  22122635.352 8 115198364.143 8      -853.609          51.000
E04                                                                  26623074.727 6 107200082.948 6     -2344.074          36.000
E09  22520383.430 8 118345417.882 8     -1173.047          51.000    22520386.539 8  90680246.538 8      -898.798          51.000
E31  23507123.016 8 123530800.152 8        52.031          50.000    23507126.422 8  94653482.257 8        39.937          49.000
E33  27388868.461 7 143929481.167 7      2757.605          43.000    27388870.977 6 110283631.443 6      2112.946          39.000
> 2020 05 17 07 13 30.0000000  0 21        .000000000000
G12  20825323.617 8 109437839.009 8      1928.828          51.000    20825322.195 8  85276221.152 8      1502.983          51.000
G13  24270476.180 6 127542228.225 6     -3818.047          38.000    24270479.766 5  99383527.823 5     -2975.092          30.000
G15  22693589.836 8 119255602.480 8     -3350.836          50.000    22693588.117 8  92926439.240 8     -2611.041          50.000
G17  23145811.078 5 121632058.580 5     -2106.781          34.000    23145813.938 5  94778228.553 5     -1641.648          33.000
G19  21594320.758 6 113478917.674 6      -542.105          39.000    21594317.547 5  88425105.208 5      -422.417          34.000
G24  20153926.922 8 105909613.586 8       197.207          51.000    20153928.375 8  82526962.478 8       153.668          51.000
G25  23060143.031 7 121181874.884 7      3151.805          44.000    23060145.219 7  94427441.245 7      2455.952          44.000
R04  21160406.969 8 113313013.368 8     -3240.598          49.000    21160408.148 7  88132321.389 7     -2520.465          44.000
R15  21268295.406 5 113651336.231 5      2319.617          32.000
R23  21273858.547 5 113800711.499 5       252.391          35.000
R24  21692401.523 6 115998998.514 6      2984.238          38.000    21692400.328 5  90221443.137 5      2321.080          30.000
C11  23950146.438 7 124714704.399 7      2501.273          46.000    23950146.789 8  96437383.496 8      1934.246          51.000
C23  22882110.242 5 119153207.392 5      1598.227          34.000
C24  25906471.758 5 134901769.492 5     -2596.926          31.000
C25  22127588.617 8 115224157.079 8      -866.781          51.000
E01  25621451.156 5 134641628.026 5     -1989.102          33.000    25621424.438 5 103166862.493 5     -1524.311          31.000
E04                                                                  26640563.586 6 107270503.538 6     -2351.018          37.000
E09  22527132.156 8 118380883.244 8     -1192.156          51.000    22527134.328 8  90707421.274 8      -913.431          51.000
E24  24119184.281 5 126747167.986 5      1974.625          32.000
E31  23506858.492 8 123529409.340 8        39.852          50.000    23506862.062 8  94652416.580 8        30.589          50.000
E33  27373151.172 7 143846882.027 7      2748.219          44.000    27373149.977 6 110220341.212 6      2105.685          39.000
> 2020 05 17 07 14  0.0000000  0 21        .000000000000
G12  20814309.312 8 109379957.795 8      1923.422          51.000    20814308.242 8  85231118.929 8      1498.773          51.000
G13  24292237.445 6 127656583.542 6     -3812.988          39.000
G15  22712699.680 8 119356025.163 8     -3350.586          50.000    22712698.641 8  93004690.678 8     -2610.843          50.000
