     3.02           OBSERVATION DATA    M (MIXED)           RINEX VERSION / TYPE
SAVERINEX           SC600               20200503 225931 LCL PGM / RUN BY / DATE
       G = GPS       R = GLONASS       C = COMPASS          COMMENT
       S = SBAS      J = QZSS          E = GALILEO          COMMENT
BEAN                                                        MARKER NAME
1                                                           MARKER NUMBER
GEODETIC                                                    MARKER TYPE
Unige DICCA         GTER                                    OBSERVER / AGENCY
SC60291900056       SC600               2.12(191226)        REC # / TYPE / VERS
                    HEMA45          NONE                    ANT # / TYPE
  4509407.8091   693652.4678  4442337.6214                  APPROX POSITION XYZ
        0.0000        0.0000        0.0000                  ANTENNA: DELTA H/E/N
G    8 C1C L1C D1C S1C C2Y L2Y D2Y S2Y                      SYS / # / OBS TYPES
R    8 C1C L1C D1C S1C C2P L2P D2P S2P                      SYS / # / OBS TYPES
C    8 C1I L1I D1I S1I C7I L7I D7I S7I                      SYS / # / OBS TYPES
E    8 C1C L1C D1C S1C C7Q L7Q D7Q S7Q                      SYS / # / OBS TYPES
DBHZ                                                        COMMENT
     30.000                                                 INTERVAL
  2020    05    03    20    00    0.0000000     GPS         TIME OF FIRST OBS
  2020    05    03    20    59   30.0000000     GPS         TIME OF LAST OBS
     0                                                      RCV CLOCK OFFS APPL
G L1C  0.00000                                              SYS / PHASE SHIFT
G L2Y  0.00000                                              SYS / PHASE SHIFT
R L1C  0.00000                                              SYS / PHASE SHIFT
R L2P  0.25000                                              SYS / PHASE SHIFT
C L1I  0.00000                                              SYS / PHASE SHIFT
C L7I  0.00000                                              SYS / PHASE SHIFT
E L1C  0.50000                                              SYS / PHASE SHIFT
E L7Q -0.25000                                              SYS / PHASE SHIFT
 12 R01  1 R02 -4 R07  5 R08  6 R10 -5 R11  0 R12 -1 R13 -2 GLONASS SLOT / FRQ #
    R14 -7 R21  4 R22 -3 R23  3                             GLONASS SLOT / FRQ #
 C1C   71.950 C2C   71.950 C2P   71.950                     GLONASS COD/PHS/BIS
    18                                                      LEAP SECONDS
*** Above antenna height is from mark to ANTENNA BOTTOM.    COMMENT
    17     4        0.0000        ANT MEASURE TYPE/HEIGT    COMMENT
    0.0000    0.0000    0.0458    0.0405    0.0000          COMMENT
                    BASE STATION                            COMMENT
                                                            END OF HEADER
> 2020 05 03 20 00  0.0000000  0 18        .000000000000
G01  20387581.711 7 107137459.834 7       724.383          42.000    20387582.977 7  83483744.007 7       564.454          42.000
G03  21559236.484 8 113294550.989 8      2274.188          49.000    21559238.648 8  88281527.691 8      1772.094          49.000
G08  22297380.625 8 117173518.725 8     -3132.500          48.000    22297382.266 8  91304044.210 8     -2440.909          48.000
G11  20090649.875 8 105577088.616 8     -1204.266          50.000    20090648.922 8  82267849.316 8      -938.389          49.000
G22  20710902.484 8 108836615.320 8       655.262          51.000    20710899.227 8  84807721.714 8       510.594          51.000
R01  19242775.211 8 102863700.389 8      -826.543          48.000    19242779.672 7  80005136.934 7      -642.867          43.000
R02  21332855.422 8 113836181.144 8      3599.008          51.000    21332856.984 7  88539316.402 7      2799.231          43.000
R23  20642392.734 8 110422871.922 8     -2745.352          48.000    20642398.547 6  85884471.212 6     -2135.270          39.000
R24  19207137.555 8 102709231.853 8        41.672          49.000    19207140.227 8  79884947.036 8        32.411          48.000
C05  39663208.758 5 206536736.297 5       -30.832          34.000    39663204.695 6 159707290.482 6       -23.835          37.000
C19  22710855.875 8 118261366.341 8      2204.941          48.000
C20  21994877.680 8 114533208.566 8      -706.652          51.000
C29  21665325.703 8 112817056.281 8      -940.691          49.000
C30  24812896.062 7 129207265.873 7     -3153.801          45.000
E03  24809257.250 6 130373531.401 6     -1369.551          39.000    24809261.031 6  99896604.271 6     -1049.495          38.000
E08  22021066.117 8 115721521.059 8      1487.184          51.000    22021068.047 8  88669746.355 8      1139.518          51.000
E13  23350638.586 7 122708436.472 7       837.738          42.000    23350638.539 6  94023343.593 6       641.712          39.000
E15  24211859.359 8 127234154.106 8     -1620.090          50.000    24211864.727 8  97491135.624 8     -1241.463          51.000
> 2020 05 03 20 00 30.0000000  0 19        .000000000000
G01  20383478.586 7 107115897.004 7       712.484          43.000    20383480.289 7  83466941.798 7       555.183          43.000
G03  21546283.422 8 113226482.089 8      2262.934          49.000    21546285.141 8  88228487.029 8      1763.328          49.000
G08  22315289.258 7 117267632.379 7     -3142.504          47.000    22315291.812 7  91377379.533 7     -2448.704          47.000
G11  20097572.891 8 105613469.429 8     -1221.945          50.000    20097571.922 8  82296198.004 8      -952.165          49.000
G22  20707195.688 8 108817135.452 8       642.676          51.000    20707192.523 8  84792542.609 8       500.786          51.000
G32  22470113.789 6 118081224.502 6     -1711.961          36.000    22470120.664 5  92011395.605 5     -1333.989          34.000
R01  19247476.055 8 102888829.771 8      -849.582          48.000    19247480.633 7  80024682.017 7      -660.786          42.000
R02  21312656.352 8 113728397.681 8      3585.730          51.000    21312657.266 7  88455484.908 7      2788.905          43.000
R23  20657830.711 8 110505452.485 8     -2760.945          51.000    20657836.750 6  85948700.563 6     -2147.402          41.000
R24  19206958.805 8 102708275.208 8        21.402          49.000    19206961.148 8  79884202.989 8        16.646          48.000
C05                                                                  39663379.383 6 159707994.145 6       -23.527          36.000
C19  22698180.289 8 118195363.397 8      2194.434          50.000
C20  21998983.977 8 114554591.516 8      -719.699          51.000
C29  21670785.188 8 112845485.388 8      -955.340          50.000
C30  24831081.422 7 129301951.389 7     -3159.180          47.000
E03  24817105.195 6 130414773.894 6     -1380.844          40.000    24817109.219 6  99928205.654 6     -1058.205          36.000
E08  22012607.656 8 115677072.832 8      1475.227          51.000    22012609.492 8  88635688.666 8      1130.335          51.000
E13  23345875.648 6 122683405.617 6       830.227          41.000    23345875.570 6  94004164.094 6       636.085          40.000
E15  24221126.812 8 127282857.418 8     -1627.672          49.000    24221132.703 8  97528453.750 8     -1247.090          51.000
> 2020 05 03 20 01  0.0000000  0 19        .000000000000
G01  20379444.859 6 107094698.864 6       701.262          41.000    20379446.766 6  83450423.778 6       546.438          41.000
G03  21533396.172 8 113158759.739 8      2251.941          49.000    21533397.531 8  88175716.410 8      1754.763          49.000
G08  22333257.133 7 117362058.685 7     -3152.438          47.000    22333260.984 7  91450958.496 7     -2456.445          47.000
G11  20104598.312 8 105650389.027 8     -1239.168          49.000    20104597.625 8  82324966.530 8      -965.585          49.000
G22  20703562.492 8 108798042.405 8       630.430          51.000    20703559.227 8  84777664.909 8       491.244          51.000
G32  22479932.594 6 118132823.105 6     -1727.793          36.000    22479937.297 5  92051602.200 5     -1346.335          35.000
R01  19252307.930 8 102914658.628 8      -872.203          48.000    19252312.766 7  80044771.152 7      -678.380          43.000
R02  21292534.086 8 113621023.222 8      3572.613          51.000    21292534.695 7  88371971.547 7      2778.702          43.000
R23  20673358.789 8 110588514.983 8     -2776.340          51.000    20673364.906 7  86013304.698 7     -2159.375          42.000
R24  19206895.578 8 102707937.611 8         1.262          49.000    19206897.914 8  79883940.434 8          .981          48.000
C05  39663560.195 5 206538566.001 5       -30.387          34.000    39663556.148 6 159708705.376 6       -23.639          37.000
C19  22685569.172 8 118129689.269 8      2184.051          51.000
C20  22003168.266 8 114576378.498 8      -732.586          51.000
C29  21676330.992 8 112874361.939 8      -969.598          51.000
C30  24849299.828 7 129396809.882 7     -3164.387          47.000
E03  24825020.664 6 130456369.856 6     -1392.074          38.000    24825023.391 5  99960077.884 5     -1066.553          35.000
E08  22004221.125 8 115633001.105 8      1463.180          51.000    22004222.445 8  88601919.450 8      1121.129          51.000
E13  23341157.844 6 122658615.051 6       822.777          41.000    23341158.625 6  93985168.722 6       630.488          41.000
E15  24230440.281 8 127331799.483 8     -1635.086          51.000    24230446.258 8  97565954.826 8     -1252.849          51.000
> 2020 05 03 20 01 30.0000000  0 20        .000000000000
G01  20375477.055 6 107073848.766 6       688.707          41.000    20375479.148 6  83434176.955 6       536.655          41.000
G03  21520571.289 7 113091367.039 7      2240.516          47.000    21520573.273 7  88123202.631 7      1745.856          47.000
G08  22351281.008 8 117456777.579 8     -3162.551          48.000    22351285.633 8  91524765.427 8     -2464.325          48.000
G11  20111722.867 8 105687829.697 8     -1256.992          50.000    20111722.688 8  82354141.062 8      -979.474          48.000
G14  21906793.844 5 115120978.259 5      -198.281          35.000    21906794.320 5  89704670.052 5      -154.505          34.000
G22  20699999.312 8 108779318.398 8       617.676          51.000    20699996.086 8  84763074.782 8       481.306          51.000
G32  22489845.078 5 118184915.052 5     -1745.109          35.000    22489848.781 5  92092193.261 5     -1359.825          35.000
R01  19257267.062 8 102941166.915 8      -895.289          48.000    19257271.875 7  80065388.705 7      -696.336          43.000
R02  21272485.961 8 113514043.187 8      3559.125          51.000    21272487.008 7  88288764.954 7      2768.208          45.000
R23  20688973.336 8 110672040.138 8     -2792.168          51.000    20688979.164 6  86078268.716 6     -2171.683          41.000
R24  19206945.109 8 102708202.709 8       -19.160          50.000    19206947.523 8  79884146.617 8       -14.902          48.000
C05  39663735.258 5 206539477.099 5       -30.762          34.000    39663731.219 6 159709410.676 6       -23.527          37.000
C19  22673018.242 8 118064327.299 8      2173.164          51.000
C20  22007426.242 8 114598550.902 8      -745.742          51.000
C29  21681959.398 8 112903668.450 8      -984.301          51.000
C30  24867547.500 8 129491822.563 8     -3169.762          48.000
E03  24832999.500 6 130498300.471 6     -1403.547          37.000    24833002.664 5  99992206.550 5     -1075.343          35.000
E08  21995903.203 8 115589288.935 8      1450.828          51.000    21995903.680 8  88568425.739 8      1111.691          51.000
E13  23336482.305 6 122634048.186 6       815.031          40.000    23336484.477 7  93966344.747 7       624.463          42.000
E15  24239796.445 8 127380962.728 8     -1642.750          51.000    24239801.625 8  97603625.373 8     -1258.653          51.000
> 2020 05 03 20 02  0.0000000  0 20        .000000000000
G01  20371578.469 7 107053362.986 7       676.508          42.000    20371580.781 7  83418214.003 7       527.149          42.000
G03  21507812.562 8 113024320.064 8      2229.020          49.000    21507815.398 8  88070958.266 8      1736.901          49.000
G08  22369363.672 8 117551802.559 8     -3172.699          48.000    22369368.391 8  91598810.865 8     -2472.233          48.000
G11  20118949.508 8 105725806.197 8     -1274.977          50.000    20118949.383 8  82383733.136 8      -993.488          48.000
G14  21907980.156 6 115127210.125 6      -216.867          36.000    21907978.227 5  89709526.058 5      -168.987          30.000
G22  20696509.305 8 108760978.275 8       604.785          51.000    20696505.883 8  84748783.789 8       471.261          51.000
G32  22499854.438 6 118237513.980 6     -1761.758          36.000    22499857.711 5  92133179.352 5     -1372.807          35.000
R01  19262355.898 8 102968368.412 8      -918.336          48.000    19262360.445 7  80086545.429 7      -714.261          43.000
R02  21252515.312 8 113407475.613 8      3545.312          50.000    21252517.516 7  88205879.128 7      2757.468          46.000
R23  20704676.461 8 110756042.075 8     -2808.098          51.000    20704682.219 6  86143603.526 6     -2184.076          41.000
R24  19207110.562 8 102709087.232 8       -40.000          51.000    19207112.664 7  79884834.571 7       -31.114          47.000
C05  39663911.891 5 206540396.934 5       -31.762          34.000    39663907.898 6 159710121.956 6       -23.962          37.000
C19  22660529.773 8 117999293.667 8      2162.211          51.000
C20  22011760.898 8 114621122.869 8      -759.215          51.000
C29  21687673.062 8 112933420.157 8      -999.277          51.000
C30  24885827.023 8 129587003.415 8     -3175.629          48.000
E03  24841044.711 6 130540579.900 6     -1415.242          37.000    24841048.602 5 100024602.539 5     -1084.466          33.000
E08  21987656.602 8 115545952.485 8      1438.211          51.000    21987656.625 8  88535219.914 8      1101.976          51.000
E13  23331852.445 6 122609721.534 6       806.797          41.000    23331855.695 6  93947704.811 6       618.264          41.000
E15  24249197.594 8 127430362.677 8     -1650.676          51.000    24249202.016 8  97641477.272 8     -1264.810          51.000
> 2020 05 03 20 02 30.0000000  0 20        .000000000000
G01  20367749.734 6 107033243.936 6       664.621          41.000    20367752.227 6  83402536.816 6       517.884          41.000
G03  21495120.445 8 112957621.008 8      2217.484          49.000    21495123.398 8  88018985.028 8      1727.913          49.000
G08  22387504.633 8 117647132.340 8     -3182.633          49.000    22387509.016 8  91673093.804 8     -2479.974          49.000
G11  20126278.492 8 105764319.636 8     -1292.777          50.000    20126277.898 8  82413743.594 8     -1007.359          49.000
G14  21909272.188 5 115134005.743 5      -235.832          31.000    21909271.211 4  89714801.367 4      -183.759          27.000
G22  20693092.844 8 108743023.392 8       591.973          51.000    20693089.125 8  84734792.983 8       461.277          50.000
G32  22509960.148 5 118290619.593 5     -1778.938          32.000    22509962.633 5  92174560.341 5     -1386.185          30.000
R01  19267574.156 8 102996262.299 8      -941.344          48.000    19267578.617 7  80108240.698 7      -732.153          43.000
R02  21232622.516 8 113301324.726 8      3531.324          48.000    21232626.383 8  88123317.390 8      2746.586          48.000
R23  20720469.180 8 110840521.474 8     -2823.996          51.000    20720474.398 6  86209309.739 6     -2196.441          40.000
R24  19207392.359 8 102710594.358 8       -60.684          51.000    19207394.500 7  79886006.774 7       -47.198          46.000
C05  39664090.203 5 206541325.960 5       -31.027          34.000    39664086.211 6 159710839.374 6       -24.158          37.000
C19  22648103.984 8 117934590.726 8      2151.184          51.000
C20  22016172.461 8 114644094.733 8      -772.414          51.000
C29  21693472.570 8 112963618.419 8     -1014.117          51.000
C30  24904138.273 7 129682352.560 7     -3180.973          47.000
E03  24849156.453 6 130583208.543 6     -1426.855          37.000    24849159.945 5 100057269.978 5     -1092.793          32.000
E08  21979481.734 8 115502993.950 8      1425.629          51.000    21979481.734 8  88502303.650 8      1092.392          51.000
E13  23327268.914 6 122585637.609 6       798.770          41.000    23327272.164 6  93929250.875 6       612.047          41.000
E15  24258644.086 8 127480000.874 8     -1658.582          51.000    24258647.898 8  97679511.703 8     -1270.826          51.000
> 2020 05 03 20 03  0.0000000  0 19        .000000000000
G01  20363987.430 6 107013473.679 6       652.953          41.000    20363989.953 6  83387131.405 6       508.795          40.000
G03  21482490.844 7 112891251.691 7      2206.406          46.000    21482493.289 7  87967268.721 7      1719.278          46.000
G08  22405699.641 8 117742745.881 8     -3192.164          48.000    22405703.562 8  91747597.868 8     -2487.401          48.000
G11  20133706.008 8 105803350.783 8     -1310.016          50.000    20133705.055 8  82444157.457 8     -1020.791          50.000
G14  21910670.125 5 115141345.760 5      -254.098          32.000    21910668.961 5  89720526.829 5      -198.010          31.000
G22  20689745.805 8 108725434.337 8       579.883          51.000    20689742.148 8  84721087.254 8       451.857          50.000
R01  19272917.828 8 103024827.340 8      -963.676          48.000    19272922.180 7  80130457.963 7      -749.526          42.000
R02  21212804.477 8 113195574.175 8      3517.836          48.000    21212809.805 7  88041066.992 7      2736.095          47.000
R23  20736347.141 8 110925457.791 8     -2839.156          50.000    20736351.867 6  86275371.308 6     -2208.233          39.000
R24  19207787.242 8 102712706.269 8       -80.984          50.000    19207789.203 7  79887649.368 7       -62.991          46.000
C05  39664266.844 5 206542245.578 5       -31.215          34.000    39664262.758 6 159711550.503 6       -23.787          37.000
C19  22635737.789 8 117870200.541 8      2140.836          51.000
C20  22020656.547 8 114667446.577 8      -785.062          51.000
C29  21699354.211 8 112994244.473 8     -1028.355          51.000
C30  24922477.359 7 129777849.985 7     -3186.188          46.000
E03  24857330.641 5 130626166.097 5     -1437.797          34.000
E08  21971375.211 8 115460395.165 8      1413.559          51.000    21971375.586 8  88469663.033 8      1083.089          51.000
E13  23322728.109 6 122561778.567 6       791.242          40.000    23322730.867 6  93910969.297 6       606.106          41.000
E15  24268132.266 8 127529858.436 8     -1665.926          51.000    24268135.500 8  97717714.239 8     -1276.533          51.000
> 2020 05 03 20 03 30.0000000  0 19        .000000000000
G01  20360295.281 6 106994072.080 6       639.988          41.000    20360297.977 7  83372013.226 7       498.692          42.000
G03  21469927.297 7 112825231.821 7      2194.398          45.000    21469929.484 7  87915824.684 7      1709.924          45.000
G08  22423951.781 8 117838660.270 8     -3202.633          48.000    22423955.586 8  91822336.371 8     -2495.558          49.000
G11  20141235.508 8 105842918.365 8     -1328.250          50.000    20141234.398 8  82474989.328 8     -1035.000          50.000
G14  21912174.266 6 115149249.475 6      -273.602          36.000
G22  20686471.961 8 108708230.074 8       566.645          51.000    20686468.109 8  84707681.357 8       441.544          50.000
R01  19278390.406 8 103054080.829 8      -986.980          48.000    19278394.742 7  80153210.681 7      -767.651          43.000
R02  21193065.742 8 113090245.505 8      3503.406          50.000    21193071.188 7  87959144.731 7      2724.875          46.000
R23  20752314.047 8 111010868.847 8     -2855.328          51.000    20752318.594 6  86341802.093 6     -2220.811          39.000
R24  19208298.930 8 102715443.571 8      -102.113          50.000    19208300.984 7  79889778.339 7       -79.421          45.000
C05  39664445.188 5 206543174.698 5       -31.852          34.000    39664441.203 6 159712267.975 6       -24.512          36.000
C19  22623435.867 8 117806142.729 8      2129.227          51.000
C20  22025217.406 8 114691196.115 8      -798.699          51.000
C29  21705321.336 8 113025317.008 8     -1043.590          51.000
C30  24940848.227 7 129873513.124 7     -3192.023          45.000
E03  24865571.062 5 130669457.372 5     -1449.594          34.000
E08  21963340.898 8 115418175.758 8      1400.527          51.000    21963341.695 8  88437313.112 8      1073.125          51.000
E13  23318234.047 6 122538164.498 6       782.633          41.000    23318237.250 7  93892875.404 7       599.575          42.000
E15  24277665.266 8 127579954.446 8     -1674.242          51.000    24277668.266 8  97756099.469 8     -1282.843          51.000
> 2020 05 03 20 04  0.0000000  0 18        .000000000000
G01  20356671.250 7 106975028.650 7       628.793          42.000    20356674.016 7  83357174.186 7       489.969          42.000
G03  21457428.477 7 112759550.670 7      2183.625          46.000    21457430.477 7  87864644.598 7      1701.529          46.000
G08  22442258.578 8 117934861.818 8     -3211.504          49.000    22442261.953 8  91897298.620 8     -2502.471          49.000
G11  20148864.719 8 105883010.390 8     -1345.250          50.000    20148863.562 8  82506229.862 8     -1048.247          50.000
G22  20683269.078 8 108691398.681 8       554.855          51.000    20683264.930 8  84694566.007 8       432.355          50.000
G32  22540839.414 5 118452897.996 5     -1827.656          33.000
R01  19283989.125 8 103084008.895 8     -1008.836          49.000    19283993.641 7  80176488.083 7      -784.650          42.000
R02  21173405.047 8 112985329.510 8      3490.285          51.000    21173408.648 7  87877543.477 7      2714.669          45.000
R23  20768367.125 8 111096741.708 8     -2870.145          51.000    20768371.812 6  86408592.074 6     -2232.338          39.000
R24  19208925.961 8 102718796.153 8      -122.008          50.000    19208927.453 7  79892385.885 7       -94.895          45.000
C05  39664623.203 5 206544101.095 5       -31.016          34.000    39664619.289 6 159712985.083 6       -23.714          37.000
C19  22611196.562 8 117742406.800 8      2119.145          51.000
C20  22029852.281 8 114715330.891 8      -810.914          51.000
C29  21711371.641 8 113056824.684 8     -1057.461          51.000
C30  24959248.641 7 129969329.407 7     -3196.465          43.000
E08  21955376.875 8 115376325.102 8      1388.852          51.000    21955377.938 8  88405245.730 8      1064.257          51.000
E13  23313785.273 7 122514785.105 7       775.320          42.000    23313789.148 7  93874961.274 7       594.226          42.000
E15  24287241.383 8 127630277.574 8     -1681.195          51.000    24287244.562 8  97794658.747 8     -1288.183          51.000
> 2020 05 03 20 04 30.0000000  0 19        .000000000000
G01  20353084.617 7 106956181.004 7       615.953          43.000    20353087.438 7  83342487.708 7       479.963          43.000
G03  21444963.133 7 112694045.621 7      2171.508          44.000    21444965.109 7  87813601.737 7      1692.084          44.000
G08  22460588.742 8 118031184.925 8     -3221.672          51.000    22460591.273 8  91972355.582 8     -2510.394          50.000
G11  20156562.492 8 105923462.965 8     -1363.371          49.000    20156561.375 8  82537751.359 8     -1062.367          49.000
G14  21915475.344 5 115166614.290 5      -310.551          35.000
G22  20680105.797 8 108674776.539 8       541.574          51.000    20680102.062 8  84681613.709 8       422.006          50.000
G32  22551288.484 6 118507807.610 6     -1844.734          37.000    22551283.062 5  92343725.297 5     -1437.455          34.000
R01  19289682.586 8 103114443.362 8     -1032.043          48.000    19289686.750 7  80200159.331 7      -802.700          42.000
R02  21153791.375 8 112880663.609 8      3475.586          51.000    21153793.469 7  87796136.766 7      2703.237          45.000
R23  20784475.125 8 111182908.939 8     -2886.352          51.000    20784479.938 6  86475610.984 6     -2244.940          39.000
R24  19209637.398 8 102722599.108 8      -143.461          50.000    19209637.992 7  79895343.747 7      -111.581          45.000
C05  39664769.797 5 206544864.994 5       -31.523          33.000    39664765.812 6 159713575.819 6       -24.400          36.000
C19  22598988.211 8 117678831.750 8      2107.629          51.000
C20  22034529.727 8 114739687.920 8      -824.465          51.000
C29  21717474.516 8 113088605.565 8     -1072.801          51.000
C30  24977647.219 7 130065135.680 7     -3202.203          43.000
E08  21947452.023 8 115334680.537 8      1375.766          51.000    21947453.578 8  88373336.281 8      1054.203          51.000
E13  23309350.656 7 122491478.101 7       766.664          44.000    23309354.195 7  93857102.651 7       587.447          42.000
E15  24296829.219 8 127680664.578 8     -1689.602          50.000    24296833.148 8  97833266.974 8     -1294.573          51.000
> 2020 05 03 20 05  0.0000000  0 18        .000000000000
G01  20349633.617 7 106938045.710 7       602.898          43.000    20349636.477 7  83328356.346 7       469.794          42.000
G03  21432629.461 7 112629233.072 7      2159.086          43.000    21432631.531 7  87763098.457 7      1682.405          43.000
G08  22479039.758 8 118128142.751 8     -3232.121          51.000    22479041.195 8  92047907.112 8     -2518.536          51.000
G11  20164426.758 8 105964791.472 8     -1381.887          49.000    20164425.914 8  82569955.396 8     -1076.795          49.000
G22  20677080.477 8 108658878.964 8       528.133          51.000    20677077.250 8  84669225.986 8       411.532          51.000
G32  22561899.258 6 118563556.590 6     -1861.648          37.000    22561891.516 6  92387166.055 6     -1450.641          36.000
R01  19295568.266 7 103145906.413 7     -1055.430          47.000    19295572.383 7  80224630.608 7      -820.890          42.000
R02  21134322.578 8 112776773.265 8      3460.582          50.000    21134324.586 7  87715333.241 7      2691.564          46.000
R23  20800736.227 8 111269894.110 8     -2902.582          51.000    20800740.773 6  86543266.105 6     -2257.564          39.000
R24  19210531.078 8 102727378.597 8      -165.090          49.000    19210531.664 7  79899061.109 7      -128.403          45.000
C05  39664983.172 5 206545975.074 5       -32.812          33.000    39664979.180 6 159714435.385 6       -25.258          37.000
C19  22586908.312 8 117615929.416 8      2095.785          50.000
C20  22039347.828 8 114764776.991 8      -838.266          51.000
C29  21723727.938 8 113121170.490 8     -1088.395          51.000
C30  24996141.938 7 130161441.631 7     -3208.273          43.000
E08  21939664.711 8 115293758.447 8      1362.352          51.000    21939667.031 8  88341980.433 8      1043.859          51.000
E13  23305028.117 7 122468760.244 7       757.742          46.000    23305030.523 7  93839695.474 7       580.668          43.000
E15  24306526.594 8 127731631.222 8     -1698.199          49.000    24306531.734 8  97872319.341 8     -1301.221          51.000
> 2020 05 03 20 05 30.0000000  0 17        .000000000000
G01  20346210.570 7 106920056.971 7       593.344          44.000    20346213.297 7  83314339.147 7       462.349          44.000
G03  21420320.062 7 112564546.811 7      2150.488          45.000    21420322.156 7  87712693.604 7      1675.705          45.000
G08  22497503.203 8 118225166.423 8     -3238.941          50.000    22497503.742 8  92123509.952 8     -2523.850          50.000
G11  20172349.984 8 106006428.601 8     -1396.766          50.000    20172349.219 8  82602399.908 8     -1088.389          50.000
G22  20674085.281 8 108643138.867 8       518.312          51.000    20674082.281 8  84656960.988 8       403.883          51.000
R01  19301538.008 8 103177819.216 8     -1075.195          48.000    19301542.336 7  80249451.680 7      -836.263          42.000
R02  21114890.750 7 112673086.052 7      3449.191          47.000    21114893.906 7  87634687.651 7      2682.704          46.000
R23  20817041.578 8 111357118.864 8     -2915.242          50.000    20817046.820 6  86611107.567 6     -2267.414          40.000
R24  19211499.523 8 102732558.837 8      -183.133          49.000    19211500.352 7  79903090.175 7      -142.437          45.000
C05  39665155.391 5 206546871.661 5       -29.664          33.000    39665151.570 6 159715129.517 6       -23.524          37.000
C19  22574849.312 8 117553138.959 8      2087.422          50.000
C20  22044198.664 8 114790035.356 8      -848.441          51.000
C29  21730024.297 8 113153957.715 8     -1100.305          51.000
C30  25014624.195 7 130257684.243 7     -3210.527          42.000
E08  21931907.383 8 115252992.743 8      1352.523          51.000    21931910.016 8  88310744.412 8      1036.346          51.000
E13  23300709.859 7 122446065.873 7       752.406          46.000    23300711.406 7  93822306.286 7       576.456          44.000
E15  24316226.859 8 127782610.747 8     -1703.297          50.000    24316232.641 8  97911381.580 8     -1305.121          51.000
> 2020 05 03 20 06  0.0000000  0 18        .000000000000
G01  20342863.258 7 106902466.230 7       580.113          45.000    20342865.594 7  83300632.078 7       452.033          44.000
G03  21408082.719 7 112500238.112 7      2137.770          47.000    21408085.227 7  87662582.991 7      1665.797          47.000
G08  22516026.086 8 118322504.339 8     -3249.344          49.000    22516026.773 8  92199357.677 8     -2531.956          49.000
G11  20180379.852 8 106048624.511 8     -1415.316          51.000    20180378.820 8  82635279.838 8     -1102.844          49.000
G22  20671167.500 8 108627806.273 8       504.723          51.000    20671164.477 8  84645013.533 8       393.293          51.000
R01  19307639.172 8 103210434.549 8     -1098.469          48.000    19307643.703 7  80274819.172 7      -854.365          43.000
R02  21095544.758 7 112569858.642 7      3433.730          46.000    21095549.266 7  87554399.693 7      2670.682          46.000
R23  20833439.359 8 111444836.914 8     -2931.723          50.000    20833445.188 6  86679332.726 6     -2280.229          41.000
R24  19212590.797 8 102738396.549 8      -205.211          49.000    19212591.820 7  79907630.626 7      -159.609          45.000
C05                                                                  39665330.539 6 159715849.288 6       -24.451          37.000
C19  22562859.883 8 117490709.408 8      2075.402          50.000
C20  22049129.320 8 114815710.092 8      -862.336          51.000
C29  21736411.125 8 113187215.397 8     -1115.926          51.000
C30  25033140.625 6 130354110.605 6     -3217.008          38.000
E03  24907729.008 5 130891001.040 5     -1504.789          33.000
E08  21924227.727 8 115212634.622 8      1338.945          51.000    21924230.148 8  88279820.692 8      1025.924          51.000
E13  23296443.820 7 122423646.594 7       743.086          46.000    23296445.398 7  93805127.891 7       569.425          45.000
E15  24325977.961 8 127833853.801 8     -1712.004          51.000    24325983.469 8  97950645.737 8     -1311.837          51.000
> 2020 05 03 20 06 30.0000000  0 19        .000000000000
G01  20339586.648 7 106885246.785 7       568.133          46.000    20339588.594 7  83287214.319 7       442.701          46.000
G03  21395912.391 8 112436280.101 8      2126.430          49.000    21395914.695 8  87612745.624 8      1656.958          49.000
G08  22534602.547 8 118420126.555 8     -3258.340          48.000    22534604.008 8  92275426.963 8     -2538.966          48.000
G11  20188510.672 8 106091351.234 8     -1432.684          51.000    20188509.523 8  82668573.368 8     -1116.377          49.000
G14  21923414.086 5 115208318.501 5      -383.371          33.000
G22  20668321.945 8 108612853.254 8       492.574          51.000    20668318.633 8  84633361.837 8       383.827          51.000
R01  19313866.180 8 103243721.855 8     -1120.297          48.000    19313870.805 7  80300709.311 7      -871.339          43.000
R02  21076280.438 7 112467065.733 7      3419.520          44.000    21076285.562 7  87474449.653 7      2659.626          45.000
R23  20849924.281 8 111533018.884 8     -2946.699          51.000    20849930.180 6  86747918.732 6     -2291.874          41.000
R24  19213799.875 8 102744864.697 8      -225.723          48.000    19213801.438 7  79912661.417 7      -175.562          46.000
C05  39665514.781 5 206548744.521 5       -30.516          34.000    39665510.953 6 159716575.572 6       -24.219          37.000
C19  22550935.281 8 117428614.228 8      2064.645          51.000
C20  22054134.523 8 114841772.654 8      -874.809          51.000
C29  21742883.312 8 113220916.054 8     -1130.281          51.000
C30  25051685.875 6 130450691.964 6     -3221.504          38.000
E03  24916349.719 5 130936300.834 5     -1515.461          32.000
E08  21916620.570 8 115172657.189 8      1326.641          51.000    21916622.227 8  88249188.656 8      1016.511          51.000
E13  23292225.000 7 122401475.915 7       735.230          46.000    23292226.867 7  93788139.970 7       563.385          45.000
E15  24335774.297 8 127885332.845 8     -1719.512          51.000    24335779.070 8  97990090.700 8     -1317.566          51.000
> 2020 05 03 20 07  0.0000000  0 18        .000000000000
G01  20336370.828 7 106868346.686 7       551.453          47.000    20336372.398 7  83274045.410 7       429.704          47.000
G03  21383798.898 8 112372620.512 8      2110.391          49.000    21383800.758 8  87563140.785 8      1644.460          48.000
G08  22553222.453 8 118517977.728 8     -3271.996          48.000    22553224.625 8  92351674.667 8     -2549.607          48.000
G11  20196732.273 8 106134555.277 8     -1454.598          51.000    20196731.422 8  82702238.817 8     -1133.456          49.000
G22  20665538.383 8 108598226.602 8       475.684          51.000    20665535.070 8  84621964.443 8       370.663          51.000
G32  22605107.820 6 118790614.828 6     -1929.281          36.000    22605108.367 5  92564139.442 5     -1503.336          35.000
R01  19320208.375 7 103277625.425 7     -1146.949          47.000    19320213.078 7  80327078.758 7      -892.072          43.000
R02  21057088.297 7 112364656.068 7      3400.809          46.000    21057093.883 7  87394797.706 7      2645.073          46.000
R23  20866485.734 8 111621609.378 8     -2966.457          51.000    20866491.367 6  86816822.447 6     -2307.244          41.000
R24  19215117.234 8 102751910.442 8      -251.168          49.000    19215119.305 7  79918141.445 7      -195.353          47.000
C05  39665686.391 5 206549637.668 5       -35.117          34.000    39665682.742 6 159717266.991 6       -27.339          36.000
C19  22539065.242 8 117366801.701 8      2049.262          51.000
C20  22059204.141 8 114868169.497 8      -891.875          51.000
C29  21749430.625 8 113255007.093 8     -1149.324          51.000
C30  25070251.547 6 130547374.572 6     -3230.863          38.000
E08  21909075.695 8 115133008.146 8      1309.645          51.000    21909076.438 8  88218808.243 8      1003.539          51.000
E13  23288043.297 7 122379502.025 7       722.781          46.000    23288045.383 7  93771302.830 7       553.715          45.000
E15  24345605.906 8 127936995.014 8     -1731.578          51.000    24345609.414 8  98029675.967 8     -1326.794          51.000
> 2020 05 03 20 07 30.0000000  0 19        .000000000000
G01  20333238.758 7 106851886.216 7       546.266          47.000    20333239.984 7  83261219.076 7       425.662          47.000
G03  21371764.867 8 112309379.309 8      2105.934          48.000    21371766.750 8  87513861.977 8      1640.987          48.000
G08  22571908.453 8 118616175.250 8     -3274.117          48.000    22571911.219 8  92428192.237 8     -2551.257          48.000
G11  20205067.312 8 106178355.292 8     -1465.086          51.000    20205066.672 8  82736368.650 8     -1141.625          49.000
G14  21927995.953 6 115232374.873 6      -417.902          37.000
G22  20662839.539 8 108584045.267 8       470.203          51.000    20662836.320 8  84610914.061 8       366.392          51.000
G32  22616145.617 5 118848629.481 5     -1937.902          34.000    22616141.312 5  92609343.493 5     -1510.054          32.000
R01  19326688.117 7 103312264.114 7     -1161.840          46.000    19326693.016 7  80354019.957 7      -903.653          43.000
R02  21037992.836 8 112262753.410 8      3393.234          51.000    21037997.078 7  87315540.129 7      2639.185          45.000
R23  20883146.023 8 111710728.522 8     -2974.383          51.000    20883151.195 6  86886137.317 6     -2313.409          41.000
R24  19216565.367 8 102759656.904 8      -264.945          48.000    19216567.883 7  79924166.467 7      -206.069          46.000
C05  39665872.258 5 206550605.009 5       -27.926          34.000    39665868.594 6 159718015.049 6       -22.107          36.000
C19  22527272.617 8 117305391.009 8      2045.211          51.000
C20  22064360.062 8 114895017.669 8      -897.570          51.000
C29  21756075.617 8 113289606.598 8     -1156.891          51.000
C30  25088860.219 6 130644275.443 6     -3228.840          40.000
E08  21901615.523 8 115093807.524 8      1304.141          50.000    21901616.297 8  88188771.428 8       999.217          51.000
E13  23283921.828 7 122357845.398 7       721.477          46.000    23283924.086 7  93754708.779 7       552.883          45.000
E15  24355495.070 8 127988959.740 8     -1732.277          51.000    24355497.656 8  98069493.066 8     -1327.359          51.000
> 2020 05 03 20 08  0.0000000  0 19        .000000000000
G01  20330163.344 8 106835724.237 8       531.422          48.000    20330164.695 8  83248625.338 8       414.095          48.000
G03  21359783.016 7 112246415.190 7      2091.852          45.000    21359785.094 7  87464799.054 7      1630.014          46.000
G08  22590632.984 8 118714574.532 8     -3285.660          48.000    22590636.000 8  92504867.002 8     -2560.255          48.000
G11  20213488.570 8 106222608.918 8     -1485.031          50.000    20213487.961 8  82770851.969 8     -1157.167          48.000
G14  21930440.367 5 115245217.792 5      -438.969          34.000    21930433.305 5  89801444.922 5      -342.057          34.000
G22  20660198.531 8 108570166.778 8       455.176          51.000    20660195.227 8  84600099.673 8       354.682          51.000
G32  22627262.664 5 118907053.012 5     -1955.785          31.000
R01  19333277.734 7 103347491.256 7     -1186.391          46.000    19333283.117 7  80381418.861 7      -922.748          44.000
R02  21018966.141 8 112161215.866 8      3376.105          51.000    21018968.938 7  87236566.551 7      2625.863          46.000
R23  20899877.539 8 111800230.355 8     -2992.086          49.000    20899882.531 6  86955749.848 6     -2327.178          41.000
R24  19218118.078 8 102767960.579 8      -288.570          49.000    19218120.812 7  79930624.881 7      -224.444          47.000
C05  39666044.984 5 206551505.184 5       -31.887          33.000    39666041.375 6 159718711.080 6       -24.228          36.000
C19  22515530.047 8 117244242.131 8      2031.566          51.000
C20  22069575.438 8 114922175.272 8      -912.742          51.000
C29  21762791.195 8 113324573.681 8     -1174.035          51.000
C30  25107484.477 7 130741252.429 7     -3236.195          42.000
E08  21894213.719 8 115054913.983 8      1288.953          50.000    21894215.117 8  88158969.874 8       987.633          51.000
E13  23279834.078 7 122336365.065 7       710.773          47.000    23279836.328 7  93738249.819 7       544.547          46.000
E15  24365414.375 8 128041085.045 8     -1742.586          51.000    24365416.695 8  98109433.199 8     -1335.219          51.000
> 2020 05 03 20 08 30.0000000  0 18        .000000000000
G01  20327168.797 7 106819988.202 7       519.727          47.000    20327170.602 7  83236363.497 7       404.979          47.000
G03  21347877.398 7 112183855.363 7      2080.781          44.000    21347879.852 7  87416051.109 7      1621.385          44.000
G08  22609419.797 8 118813300.157 8     -3293.855          49.000    22609422.539 8  92581796.059 8     -2566.644          49.000
G11  20222019.820 8 106267441.845 8     -1501.613          49.000    20222019.055 7  82805786.722 7     -1170.088          47.000
G14  21932996.203 5 115258675.137 5      -456.496          34.000    21932994.211 5  89811942.600 5      -355.714          32.000
G22  20657639.281 8 108556717.274 8       443.570          51.000    20657636.031 8  84589619.549 8       345.642          51.000
R01  19340001.352 7 103383432.976 7     -1207.516          46.000    19340006.672 7  80409373.516 7      -939.179          43.000
R02  21000031.875 8 112060174.442 8      3362.211          51.000    21000034.133 7  87157978.845 7      2615.056          47.000
R23  20916702.789 7 111890242.283 7     -3006.371          46.000    20916709.242 6  87025759.123 6     -2338.286          40.000
R24  19219799.383 8 102776951.412 8      -308.660          48.000    19219802.344 7  79937617.739 7      -240.069          46.000
C05  39666228.820 5 206552461.802 5       -30.469          34.000    39666225.422 6 159719452.029 6       -23.959          36.000
C19  22503861.250 8 117183481.190 8      2021.289          51.000
C20  22074874.203 8 114949766.473 8      -924.609          51.000
C29  21769601.227 8 113360033.470 8     -1187.875          51.000
C30  25126147.453 7 130838429.565 7     -3240.156          43.000
E08  21886894.617 8 115016454.575 8      1277.102          50.000    21886896.828 8  88129500.980 8       978.588          51.000
E13  23275804.492 8 122315188.612 8       703.117          48.000    23275806.273 7  93722023.696 7       538.881          46.000
E15  24375388.250 8 128093497.483 8     -1749.508          51.000    24375390.453 8  98149593.351 8     -1340.523          51.000
> 2020 05 03 20 09  0.0000000  0 18        .000000000000
G01  20324238.664 8 106804590.782 8       507.492          49.000    20324240.750 8  83224365.495 8       395.448          48.000
G03  21336032.938 7 112121612.054 7      2069.246          46.000    21336034.953 7  87367549.863 7      1612.400          46.000
G08  22628251.531 8 118912261.520 8     -3302.746          49.000    22628253.875 8  92658908.777 8     -2573.571          49.000
G11  20230644.414 8 106312765.425 8     -1519.078          50.000    20230643.727 8  82841103.807 8     -1183.697          48.000
G14  21935653.633 5 115272646.724 5      -474.133          34.000    21935651.734 5  89822829.567 5      -369.454          34.000
G22  20655144.648 8 108543608.106 8       431.199          51.000    20655141.508 8  84579404.626 8       335.999          51.000
R01  19346841.430 8 103419997.437 8     -1229.270          48.000    19346847.070 7  80437812.570 7      -956.099          43.000
R02  20981174.016 8 111959541.807 8      3347.457          51.000    20981176.164 7  87079709.061 7      2603.581          47.000
R23  20933606.453 8 111980672.961 8     -3021.328          49.000    20933613.891 6  87096094.163 6     -2349.919          39.000
R24  19221592.984 8 102786540.723 8      -329.812          50.000    19221595.891 7  79945076.071 7      -256.521          46.000
C05  39666407.258 5 206553391.156 5       -30.000          34.000    39666403.688 6 159720170.277 6       -23.669          36.000
C19  22492249.688 8 117123021.522 8      2010.137          50.000
C20  22080238.727 8 114977702.607 8      -937.023          51.000
C29  21776488.555 8 113395898.350 8     -1202.375          49.000
C30  25144832.031 7 130935718.117 7     -3244.914          44.000
E08  21879641.547 8 114978341.652 8      1264.496          50.000    21879644.188 8  88100297.592 8       968.903          51.000
E13  23271816.406 8 122294228.898 8       694.938          49.000    23271817.555 7  93705963.681 7       532.413          47.000
E15  24385399.961 8 128146108.830 8     -1757.184          51.000    24385402.352 8  98189905.930 8     -1346.452          51.000
> 2020 05 03 20 09 30.0000000  0 19        .000000000000
G01  20321378.508 8 106789560.762 8       494.902          49.000    20321380.742 8  83212653.801 8       385.641          49.000
G03  21324254.305 7 112059713.792 7      2057.613          45.000    21324256.445 7  87319317.501 7      1603.338          45.000
G08  22647133.062 8 119011484.346 8     -3311.605          49.000    22647134.969 8  92736225.213 8     -2580.475          49.000
G11  20239367.836 8 106358606.996 8     -1536.531          51.000    20239367.539 8  82876824.496 8     -1197.297          49.000
G14  21938415.641 5 115287165.777 5      -492.902          35.000    21938414.539 5  89834143.052 5      -384.086          35.000
G22  20652720.102 8 108530866.736 8       418.703          51.000    20652716.602 8  84569476.296 8       326.262          51.000
R01  19353802.922 7 103457209.990 7     -1251.113          46.000    19353808.156 7  80466755.664 7      -973.088          43.000
R02  20962398.430 8 111859349.046 8      3332.473          51.000    20962400.305 7  87001781.388 7      2591.923          47.000
R23  20950594.820 8 112071549.307 8     -3036.523          51.000    20950601.922 6  87166775.762 6     -2361.740          39.000
R24  19223504.039 8 102796757.970 8      -351.020          50.000    19223506.656 7  79953022.827 7      -273.015          46.000
C05                                                                  39666581.633 6 159720887.390 6       -23.736          36.000
C19  22480702.016 8 117062891.391 8      1998.906          51.000
C20  22085674.758 8 115006010.097 8      -949.637          51.000
C29  21783458.625 8 113432195.725 8     -1217.059          50.000
C30  25163543.172 7 131033144.326 7     -3249.691          44.000
E07  26845166.922 6 141072303.567 6      3032.266          39.000
E08  21872460.086 8 114940603.708 8      1251.852          51.000    21872462.656 8  88071381.525 8       959.193          51.000
E13  23267874.961 8 122273514.900 8       686.516          49.000    23267875.656 7  93690091.934 7       525.957          47.000
E15  24395454.555 8 128198946.985 8     -1764.965          51.000    24395457.469 8  98230392.303 8     -1352.355          51.000
> 2020 05 03 20 10  0.0000000  0 19        .000000000000
G01  20318589.234 8 106774902.805 8       483.449          49.000    20318591.453 8  83201232.028 8       376.714          49.000
G03  21312541.766 7 111998165.116 7      2046.629          44.000    21312544.477 7  87271357.486 7      1594.773          44.000
G08  22666064.312 7 119110969.457 7     -3319.734          46.000    22666066.328 7  92813746.039 7     -2586.806          46.000
G11  20248190.711 8 106404970.460 8     -1553.223          51.000    20248190.414 8  82912951.850 8     -1210.303          50.000
G14  21941283.234 5 115302222.462 5      -509.418          33.000    21941283.133 5  89845886.719 5      -396.943          31.000
G22  20650366.320 8 108518496.988 8       407.016          51.000    20650362.680 8  84559837.533 8       317.155          51.000
R01  19360885.789 7 103495072.796 7     -1272.074          47.000    19360891.539 7  80496204.534 7      -989.391          44.000
R02  20943705.930 8 111759602.428 8      3318.238          51.000    20943707.727 7  86924200.722 7      2580.852          46.000
R23  20967667.594 8 112162873.899 8     -3050.707          51.000    20967674.078 6  87237805.965 6     -2372.772          39.000
R24  19225533.289 8 102807608.266 8      -371.395          50.000    19225535.531 7  79961461.930 7      -288.865          46.000
C05  39666763.594 5 206555247.291 5       -29.750          34.000    39666760.164 6 159721605.361 6       -23.331          36.000
C19  22469219.000 8 117003095.324 8      1988.539          51.000
C20  22091182.812 8 115034691.505 8      -961.422          51.000
C29  21790512.812 8 113468929.097 8     -1230.883          51.000
C30  25182280.703 7 131130710.692 7     -3253.582          44.000
E07  26827867.508 6 140981393.699 6      3029.020          37.000
E08  21865351.367 8 114903245.217 8      1239.738          51.000    21865353.367 8  88042756.199 8       949.974          51.000
E13  23263980.891 8 122253051.520 8       678.738          49.000    23263981.500 7  93674412.209 7       520.006          47.000
E15  24405552.922 8 128252015.833 8     -1771.965          51.000    24405556.500 8  98271055.448 8     -1357.844          51.000
> 2020 05 03 20 10 30.0000000  0 19        .000000000000
G01  20315866.062 8 106760592.153 8       469.680          49.000    20315868.117 8  83190080.879 8       365.984          49.000
G03  21300891.023 7 111936940.827 7      2033.898          45.000    21300894.055 7  87223650.250 7      1584.856          45.000
G08  22685039.805 7 119210689.026 7     -3329.570          44.000    22685042.797 7  92891449.597 7     -2594.470          44.000
G11  20257107.586 8 106451828.382 8     -1571.793          51.000    20257107.141 8  82949464.525 8     -1224.771          50.000
G14  21944250.156 6 115317817.015 6      -530.621          36.000    21944250.562 5  89858038.339 5      -413.477          35.000
G22  20648078.188 8 108506472.304 8       393.477          51.000    20648074.766 8  84550467.664 8       306.605          51.000
R01  19368085.016 7 103533556.832 7     -1294.707          46.000    19368090.875 7  80526136.564 7     -1006.994          44.000
R02  20925091.734 8 111660278.299 8      3302.016          51.000    20925093.219 7  86846948.660 7      2568.234          45.000
R23  20984819.117 8 112254618.731 8     -3066.801          51.000    20984825.117 6  87309163.009 6     -2385.293          40.000
R24  19227676.406 8 102819066.346 8      -393.648          50.000    19227678.164 7  79970373.758 7      -306.171          46.000
C05  39666937.500 5 206556152.066 5       -32.137          34.000    39666934.328 6 159722306.504 6       -24.361          36.000
C19  22457795.469 8 116943608.596 8      1976.156          51.000
C20  22096757.172 8 115063720.088 8      -975.035          51.000
C29  21797645.781 8 113506072.802 8     -1246.648          51.000
C30  25201039.555 7 131228390.328 7     -3259.320          44.000
E07  26810584.516 6 140890574.600 6      3024.086          38.000
E08  21858310.172 8 114866240.995 8      1225.895          51.000    21858311.797 8  88014402.328 8       939.340          51.000
E13  23260129.539 8 122232814.114 8       669.121          48.000    23260130.695 8  93658905.615 8       512.688          48.000
E15  24415690.414 8 128305289.656 8     -1780.898          51.000    24415694.406 8  98311875.660 8     -1364.629          51.000
> 2020 05 03 20 11  0.0000000  0 19        .000000000000
G01  20313219.000 8 106746681.897 8       458.094          49.000    20313220.805 8  83179241.734 8       356.959          49.000
G03  21289312.570 7 111876093.746 7      2023.227          46.000    21289315.086 7  87176236.962 7      1576.540          46.000
G08  22704069.500 7 119310693.457 7     -3337.148          46.000    22704073.742 7  92969375.134 7     -2600.375          46.000
G11  20266128.141 8 106499232.612 8     -1588.133          50.000    20266127.805 8  82986402.884 8     -1237.503          50.000
G14  21947327.453 6 115333987.955 6      -547.457          36.000
G22  20645865.578 8 108494844.574 8       382.094          51.000    20645862.227 8  84541407.099 8       297.735          51.000
R01  19375409.914 7 103572712.772 7     -1315.230          46.000    19375415.773 7  80556591.172 7     -1022.957          44.000
R02  20906567.125 8 111561431.884 8      3288.031          51.000    20906568.414 7  86770068.167 7      2557.361          46.000
R23  21002058.523 8 112346835.308 8     -3080.664          50.000    21002064.109 6  87380887.027 6     -2396.069          39.000
R24  19229943.203 8 102831186.544 8      -414.004          50.000    19229944.914 7  79979800.579 7      -322.003          46.000
C05  39667117.203 5 206557088.580 5       -30.570          34.000    39667113.969 6 159723029.933 6       -23.588          37.000
C19  22446441.117 8 116884483.637 8      1965.828          51.000
C20  22102408.273 8 115093146.407 8      -986.426          51.000
C29  21804867.141 8 113543678.271 8     -1260.102          51.000
C30  25219829.414 7 131326233.622 7     -3263.195          44.000
E07  26793328.875 6 140799900.030 6      3021.012          38.000
E08  21851346.195 8 114829643.781 8      1214.191          51.000    21851347.430 8  87986360.340 8       930.357          51.000
E13  23256331.281 8 122212855.982 8       661.574          48.000    23256333.211 8  93643612.997 8       506.986          49.000
E15  24425877.219 8 128358820.686 8     -1787.656          51.000    24425881.352 8  98352892.942 8     -1369.730          51.000
> 2020 05 03 20 11 30.0000000  0 18        .000000000000
G01  20310631.430 8 106733084.711 8       455.398          49.000    20310633.172 8  83168646.540 8       354.856          49.000
G03  21277789.242 7 111815536.321 7      2021.168          45.000    21277790.625 7  87129049.372 7      1574.936          45.000
G08  22723136.547 7 119410892.031 7     -3335.906          46.000    22723141.367 7  93047451.961 7     -2599.407          47.000
G11  20275235.648 8 106547094.334 8     -1595.551          50.000    20275235.289 8  83023697.760 8     -1243.283          50.000
G22  20643711.586 8 108483524.901 8       379.484          51.000    20643708.070 8  84532586.565 8       295.702          51.000
R01  19382843.414 7 103612448.630 7     -1326.844          46.000    19382849.164 7  80587496.835 7     -1031.990          43.000
R02  20888116.312 8 111462976.004 8      3282.793          51.000    20888118.367 7  86693491.443 7      2553.286          47.000
R23  21019368.859 8 112439432.457 8     -3085.520          50.000    21019374.086 6  87452907.064 6     -2399.849          39.000
R24  19232316.789 8 102843880.120 8      -425.234          50.000    19232318.633 7  79989673.360 7      -330.738          46.000
C05  39667285.602 5 206557964.633 5       -20.566          33.000    39667282.453 6 159723708.165 6       -16.154          36.000
C19  22435139.234 8 116825633.766 8      1964.395          51.000
C20  22108118.688 8 115122881.783 8      -989.129          51.000
C29  21812160.375 8 113581657.793 8     -1265.055          51.000
C30  25238633.172 7 131424151.788 7     -3257.988          43.000
E07  26776084.125 6 140709283.120 6      3026.910          38.000
E08  21844442.875 8 114793365.931 8      1211.258          51.000    21844443.508 8  87958563.050 8       928.181          51.000
E13  23252569.758 8 122193089.933 8       663.086          49.000    23252572.055 8  93628467.591 8       508.079          49.000
E15  24436096.227 8 128412520.702 8     -1785.387          51.000    24436100.328 8  98394039.712 8     -1368.006          51.000
> 2020 05 03 20 12  0.0000000  0 19        .000000000000
G01  20308140.023 8 106719992.852 8       433.395          49.000    20308142.000 8  83158445.104 8       337.710          49.000
G03  21266357.211 7 111755460.453 7      2000.090          44.000    21266358.172 7  87082237.025 7      1558.512          44.000
G08  22742276.750 7 119511473.939 7     -3353.586          47.000    22742281.555 7  93125827.475 7     -2613.184          47.000
G11  20284466.664 8 106595604.349 8     -1622.414          50.000    20284466.453 8  83061497.788 8     -1264.219          50.000
G14  21953801.562 5 115368004.865 5      -582.938          32.000
G22  20641652.562 8 108472704.578 8       357.879          51.000    20641649.094 8  84524155.158 8       278.867          51.000
R01  19390421.289 7 103652956.446 7     -1357.633          46.000    19390426.758 7  80619002.910 7     -1055.937          43.000
R02  20869775.820 8 111365107.375 8      3257.906          51.000    20869778.773 8  86617371.455 8      2533.930          48.000
R23  21036786.750 8 112532603.624 8     -3109.730          51.000    21036791.547 6  87525373.505 6     -2418.679          40.000
R24  19234834.352 8 102857342.882 8      -456.020          50.000    19234836.664 7  80000144.379 7      -354.682          46.000
C05                                                                  39667476.047 6 159724487.860 6       -23.421          37.000
C19  22423927.008 8 116767249.327 8      1943.719          51.000
C20  22113924.391 8 115153114.614 8     -1010.625          51.000
C29  21819561.766 8 113620200.741 8     -1288.805          51.000
C30  25257487.648 7 131522333.173 7     -3271.789          42.000
E07  26758887.617 6 140618916.822 6      3013.539          39.000
E08  21837637.109 8 114757599.441 8      1189.066          51.000    21837636.898 8  87931157.584 8       911.073          51.000
E13  23248881.562 8 122173708.531 8       645.051          49.000    23248883.891 8  93613616.912 8       494.290          49.000
E15  24446383.734 8 128466581.141 8     -1802.699          51.000    24446387.930 8  98435462.634 8     -1381.229          51.000
> 2020 05 03 20 12 30.0000000  0 19        .000000000000
G01  20305695.055 8 106707144.244 8       424.027          50.000    20305697.242 8  83148433.196 8       330.411          50.000
G03  21254966.570 7 111695603.659 7      1991.500          43.000    21254967.805 7  87035595.444 7      1551.818          43.000
G08  22761439.570 7 119612173.723 7     -3358.934          47.000    22761443.961 8  93204294.850 8     -2617.351          48.000
G11  20293771.117 8 106644498.751 8     -1636.461          51.000    20293770.922 8  83099597.324 8     -1275.164          50.000
G22  20639638.281 8 108462120.092 8       348.570          51.000    20639635.039 8  84515907.521 8       271.613          51.000
R01  19398093.305 7 103693966.088 7     -1375.547          47.000    19398098.461 7  80650899.311 7     -1069.870          43.000
R02  20851495.336 8 111267561.345 8      3245.816          50.000    20851499.062 8  86541502.365 8      2524.527          48.000
R08  22230240.930 5 119041894.005 5     -3796.098          31.000    22230244.875 4  92588174.302 4     -2952.523          28.000
R23  21054261.516 8 112626079.536 8     -3121.234          51.000    21054265.734 6  87598076.976 6     -2427.627          40.000
R24  19237445.945 8 102871308.047 8      -474.219          50.000    19237448.609 7  80011006.155 7      -368.840          46.000
C05                                                                  39667644.836 6 159725167.623 6       -21.307          36.000
C19  22412754.844 8 116709070.326 8      1935.566          51.000
C20  22119775.500 8 115183583.072 8     -1019.797          51.000
C29  21827021.391 8 113659046.184 8     -1300.160          51.000
C30  25276342.875 7 131620515.760 7     -3273.145          44.000
E07  26741688.953 6 140528539.544 6      3012.352          39.000    26741692.453 5 107677711.092 5      2308.019          33.000
E08  21830878.438 8 114722081.780 8      1179.430          51.000    21830877.781 8  87903942.788 8       903.743          51.000
E13  23245216.828 8 122154449.796 8       639.613          50.000    23245219.125 8  93598860.223 8       489.986          50.000
E15  24456689.688 8 128520738.951 8     -1807.191          51.000    24456693.875 8  98476960.169 8     -1384.749          51.000
> 2020 05 03 20 13  0.0000000  0 19        .000000000000
