     3.04           OBSERVATION DATA    M (MIXED)           RINEX VERSION / TYPE
Convert 2.6.2       NovAtel             20200515 160400 UTC PGM / RUN BY / DATE 
Rinex Version 3.04 Observation File                         COMMENT             
                                                            MARKER NAME         
                                                            MARKER NUMBER       
                                                            MARKER TYPE         
                                                            OBSERVER / AGENCY   
                    NovAtel GPSCard                         REC # / TYPE / VERS 
                                                            ANT # / TYPE        
        0.0000        0.0000        0.0000                  APPROX POSITION XYZ 
        0.0000        0.0000        0.0000                  ANTENNA: DELTA H/E/N
G    8 C1C L1C D1C S1C C2W L2W D2W S2W                      SYS / # / OBS TYPES 
R    8 C1C L1C D1C S1C C2P L2P D2P S2P                      SYS / # / OBS TYPES 
E    8 C1C L1C D1C S1C C7Q L7Q D7Q S7Q                      SYS / # / OBS TYPES 
C    8 C2I L2I D2I S2I C7I L7I D7I S7I                      SYS / # / OBS TYPES 
DBHZ                                                        SIGNAL STRENGTH UNIT
    30.000                                                  INTERVAL            
  2020    05    11    06    00    0.0000000     GPS         TIME OF FIRST OBS   
  2020    05    11    06    59   30.0000000     GPS         TIME OF LAST OBS    
G L1C  0.00000  08 G24 G15 G17 G13 G19 G12 G28 G20          SYS / PHASE SHIFT   
G L2W  0.00000  07 G15 G17 G13 G19 G24 G12 G28              SYS / PHASE SHIFT   
R L1C  0.00000  07 R05 R15 R14 R24 R16 R18 R06              SYS / PHASE SHIFT   
R L2P  0.25000  04 R05 R15 R24 R18                          SYS / PHASE SHIFT   
E L1C  0.50000  04 E01 E27 E21 E19                          SYS / PHASE SHIFT   
E L7Q -0.25000  04 E01 E27 E21 E19                          SYS / PHASE SHIFT   
C L2I  0.00000  06 C25 C05 C26 C14 C24 C12                  SYS / PHASE SHIFT   
C L7I  0.00000  03 C05 C14 C12                              SYS / PHASE SHIFT   
  7 R05  1 R15  0 R14 -7 R24  2 R16 -1 R18 -3 R06 -4        GLONASS SLOT / FRQ #
 C1C  -71.950 C2C  -71.950 C2P  -71.950                     GLONASS COD/PHS/BIS 
     0     0     0     0GPS                                 LEAP SECONDS        
                                                            END OF HEADER       
> 2020 05 11 06 00  0.0000000  0 17      -0.000000000000
G24  21630992.344 5 113671639.472 5      2251.984          35.000                                                                  
G15  20350612.438 8 106943181.516 8      -485.270          49.000    20350611.914 8  83332349.196 8      -378.135          49.000  
G17  22677743.148 6 119172413.636 6      1326.285          38.000    22677747.477 5  92861607.387 5      1033.472          30.000  
G13  20848689.758 8 109560586.884 8     -1918.688          51.000    20848689.750 8  85371874.267 8     -1495.082          49.000  
G19  23209461.508 8 121966548.916 8      3009.352          49.000    23209462.070 7  95038852.432 7      2344.950          47.000  
G12  24216002.422 6 127255950.78226      3830.527          36.000                                                                  
R05  20081246.047 8 107345394.136 8     -2725.047          51.000    20081248.117 8  83490841.459 8     -2119.481          49.000  
R15  19746867.469 6 105520884.996 6     -1569.832          38.000    19746872.172 5  82071784.464 5     -1220.978          33.000  
E01  26759111.805 7 140620076.948 7      2485.242          47.000    26759115.617 8 107747863.688 8      1904.245          50.000  
E27  24538717.266 8 128951865.220 8     -1887.367          50.000    24538719.812 8  98807216.180 8     -1446.213          48.000  
E21  23563075.844 8 123824849.403 8       613.297          51.000    23563079.781 8  94878762.570 8       469.941          51.000  
E19  24132205.750 8 126815597.108 8        -7.242          50.000    24132206.594 8  97170395.108 8        -5.510          51.000  
C25  25998894.016 5 135383043.439 5      2669.305          34.000                                                                  
C05  39770615.266 5 207096028.75525        24.938          35.000    39770611.430 6 160139771.531 6        19.471          36.000  
C26  22190158.133 7 115549948.245 7     -1562.828          42.000                                                                  
C14  22709638.672 8 118255030.608 8     -1742.320          51.000    22709635.055 8  91442284.162 8     -1347.194          51.000  
C24  22204857.523 7 115626493.650 7       933.301          45.000                                                                  
> 2020 05 11 06 00 30.0000000  0 18      -0.000000000000
G24  21618156.352 5 113604173.548 5      2244.367          34.000    21618164.141 5  88522753.229 5      1748.861          33.000  
G15  20353435.398 8 106958016.918 8      -504.145          49.000    20353434.586 8  83343909.227 8      -392.840          49.000  
G17  22670217.406 5 119132867.018 5      1309.512          33.000    22670218.906 5  92830791.549 5      1020.393          34.000  
G13  20859685.539 8 109618366.528 8     -1933.691          51.000    20859684.734 8  85416897.328 8     -1506.773          49.000  
G28  22429333.164 5 117866964.38925     -2630.570          31.000                                                                  
G19  23192310.703 8 121876418.922 8      2998.902          49.000    23192310.867 7  94968621.276 7      2336.808          46.000  
G12  24194147.945 6 127141100.976 6      3825.398          37.000    24194159.578 6  99071036.610 6      2980.834          36.000  
R05  20096600.180 8 107427472.315 8     -2747.238          50.000    20096603.484 8  83554680.049 8     -2136.741          49.000  
R15  19755715.102 7 105568161.459 7     -1582.418          42.000    19755723.297 5  82108555.070 5     -1230.770          31.000  
E01  26744938.445 7 140545600.584 7      2479.395          47.000    26744943.680 8 107690797.383 8      1899.857          49.000  
E27  24549507.805 8 129008569.960 8     -1893.332          50.000    24549510.227 7  98850665.239 7     -1450.712          47.000  
E21  23559602.969 8 123806598.672 8       603.016          51.000    23559606.812 8  94864778.242 8       462.060          51.000  
E19  24132285.250 8 126816014.850 8       -20.961          50.000    24132286.547 8  97170715.188 8       -16.061          51.000  
C25  25983520.789 5 135302998.362 5      2666.227          35.000                                                                  
C05  39770471.219 5 207095277.582 5        24.941          35.000    39770467.156 6 160139190.081 6        19.087          36.000  
C26  22199179.945 7 115596926.183 7     -1569.629          44.000                                                                  
C14  22719717.789 8 118307515.480 8     -1757.074          50.000    22719714.094 8  91482868.763 8     -1358.745          51.000  
C24  22199506.055 7 115598627.158 7       924.250          44.000                                                                  
> 2020 05 11 06 01  0.0000000  0 17      -0.000000000000
G15  20356362.586 8 106973398.496 8      -521.152          51.000    20356361.172 8  83355894.880 8      -406.090          51.000  
G13  20870762.750 8 109676574.896 8     -1946.711          51.000    20870761.312 8  85462254.448 8     -1516.918          49.000  
G28  22444370.602 5 117945986.936 5     -2636.910          34.000                                                                  
G19  23175215.516 8 121786582.316 8      2990.281          49.000    23175215.141 7  94898618.759 7      2330.090          45.000  
G12  24172314.820 5 127026377.742 5      3822.992          32.000    24172324.320 5  98981641.766 5      2978.950          32.000  
R05  20112074.484 8 107510193.112 8     -2767.461          50.000    20112078.516 8  83619018.436 8     -2152.470          48.000  
R15  19764627.758 6 105615784.618 6     -1593.000          38.000    19764629.133 5  82145626.209 5     -1239.003          30.000  
R14  23228416.641 5 123820144.347 5     -3483.195          31.000                                                                  
E01  26730793.867 7 140471274.322 7      2475.805          47.000    26730800.031 8 107633846.100 8      1897.007          49.000  
E27  24560328.008 8 129065430.942 8     -1897.238          49.000    24560330.375 7  98894234.010 7     -1453.720          47.000  
E21  23556184.688 8 123788633.951 8       594.762          51.000    23556188.078 8  94851013.082 8       455.709          51.000  
E19  24132439.180 8 126816823.366 8       -32.758          50.000    24132440.867 8  97171334.690 8       -25.127          51.000  
C25  25968163.711 6 135223033.924 6      2664.629          36.000                                                                  
C05                                                                  39770321.656 5 160138604.708 5        19.909          35.000  
C26  22208237.406 7 115644088.959 7     -1574.492          43.000                                                                  
C14  22729877.547 8 118360423.362 8     -1769.922          49.000    22729874.844 8  91523780.450 8     -1368.622          51.000  
C24  22194203.492 7 115571016.396 7       916.812          44.000                                                                  
> 2020 05 11 06 01 30.0000000  0 18      -0.000000000000
G15  20359391.125 8 106989312.455 8      -540.008          51.000    20359389.352 8  83368295.372 8      -420.785          50.000  
G17  22655444.148 5 119055161.89225      1277.074          32.000                                                                  
G13  20881918.531 8 109735197.018 8     -1961.617          51.000    20881916.562 8  85507933.972 8     -1528.536          48.000  
G28  22459451.047 5 118025234.446 5     -2646.195          34.000                                                                  
G19  23158173.781 7 121697028.346 7      2979.656          47.000    23158172.953 7  94828836.470 7      2321.814          44.000  
G12  24150504.281 4 126911755.74524      3817.547          28.000    24150517.086 4  98892336.20324      2974.719          28.000  
R05  20127666.398 8 107593539.244 8     -2789.223          51.000    20127669.945 8  83683843.161 8     -2169.396          48.000  
R15  19773601.375 6 105663737.982 6     -1604.906          36.000    19773602.609 5  82182923.325 5     -1248.261          33.000  
R14  23248015.531 5 123924623.824 5     -3482.969          32.000                                                                  
E01  26716675.875 8 140397084.419 8      2470.047          49.000    26716682.109 8 107576999.308 8      1892.685          49.000  
E27  24571174.844 8 129122432.674 8     -1903.004          48.000    24571177.508 7  98937910.648 7     -1458.201          46.000  
E21  23552818.078 8 123770940.549 8       584.605          51.000    23552820.781 8  94837455.808 8       447.942          51.000  
E19  24132664.914 8 126818008.753 8       -46.391          51.000    24132666.656 8  97172242.966 8       -35.540          51.000  
C25  25952818.742 4 135143136.207 4      2662.207          28.000                                                                  
C05  39770176.320 5 207093743.067 5        25.434          35.000    39770172.188 6 160138003.477 6        19.966          36.000  
C26  22217327.219 6 115691421.616 6     -1581.266          41.000                                                                  
C14  22740115.734 8 118413738.541 8     -1784.527          50.000    22740114.203 8  91565007.105 8     -1379.937          51.000  
C24  22188947.398 7 115543646.992 7       907.516          44.000                                                                  
> 2020 05 11 06 02  0.0000000  0 16      -0.000000000000
G15  20362533.852 8 107005826.804 8      -557.996          50.000    20362532.055 8  83381163.674 8      -434.805          50.000  
G17  22648198.359 6 119017095.120 6      1261.699          39.000    22648197.719 6  92740591.423 6       983.143          38.000  
G13  20893165.617 8 109794300.943 8     -1975.711          51.000    20893163.750 7  85553988.934 7     -1539.516          47.000  
G28  22474586.578 6 118104772.772 6     -2653.492          36.000                                                                  
G19  23141199.273 7 121607828.612 7      2969.762          46.000    23141197.789 7  94759330.221 7      2314.104          43.000  
R05  20143388.094 8 107677577.291 8     -2810.246          51.000    20143390.562 8  83749206.076 8     -2185.747          48.000  
R15  19782650.375 6 105712089.517 6     -1615.758          37.000    19782651.625 5  82220530.018 5     -1256.701          32.000  
R14  23267623.539 5 124029147.015 5     -3483.062          30.000                                                                  
E01  26702597.570 8 140323100.017 8      2465.340          50.000    26702602.461 8 107520309.997 8      1889.028          48.000  
E27  24582061.438 7 129179642.685 7     -1907.906          47.000    24582064.305 7  98981746.876 7     -1461.882          46.000  
E21  23549516.164 8 123753586.734 8       575.352          51.000    23549518.211 8  94824158.721 8       440.890          51.000  
E19  24132975.617 8 126819640.255 8       -59.230          51.000    24132976.984 8  97173493.076 8       -45.354          51.000  
C05  39770036.086 5 207093013.048 5        26.207          35.000    39770031.977 5 160137437.93225        20.748          35.000  
C26  22226462.539 6 115738991.365 6     -1587.238          40.000                                                                  
C14  22750445.391 8 118467527.515 8     -1798.402          50.000    22750444.727 8  91606600.150 8     -1390.500          51.000  
C24  22183750.961 7 115516586.827 7       899.336          45.000                                                                  
> 2020 05 11 06 02 30.0000000  0 15      -0.000000000000
G15  20365765.305 8 107022807.205 8      -575.555          51.000    20365763.508 8  83394395.142 8      -448.484          51.000  
G17  22641033.586 4 118979433.33324      1246.434          28.000    22641035.547 4  92711258.70824       971.253          29.000  
G13  20904478.266 8 109853750.880 8     -1989.117          51.000    20904477.055 8  85600313.538 8     -1549.962          48.000  
G19  23124267.164 7 121518852.189 7      2960.355          46.000    23124264.891 6  94689997.977 6      2306.771          41.000  
R05  20159212.766 8 107762167.574 8     -2830.688          51.000    20159215.000 7  83814998.531 7     -2201.646          47.000  
R15  19791746.977 6 105760700.224 6     -1626.566          37.000    19791748.828 5  82258338.390 5     -1265.107          33.000  
R14  23287213.641 5 124133576.255 5     -3481.082          31.000                                                                  
E01  26688533.008 8 140249187.104 8      2460.891          49.000    26688535.758 7 107463675.462 7      1885.604          47.000  
E27  24592962.023 8 129236925.232 8     -1912.371          48.000    24592964.867 7  99025638.700 7     -1465.309          45.000  
E21  23546252.836 8 123736437.524 8       566.539          51.000    23546254.758 8  94811018.415 8       434.084          51.000  
E19  24133345.516 8 126821583.748 8       -71.715          51.000    24133346.516 8  97174982.242 8       -54.908          51.000  
C05  39769879.570 5 207092197.344 5        26.910          35.000    39769875.398 6 160136807.227 6        20.960          36.000  
C26  22235617.828 6 115786664.147 6     -1592.520          40.000                                                                  
C14  22760840.422 8 118521655.434 8     -1811.629          51.000    22760840.438 8  91648455.290 8     -1400.839          51.000  
C24  22178588.500 7 115489702.474 7       891.441          46.000                                                                  
> 2020 05 11 06 03  0.0000000  0 16      -0.000000000000
G15  20369103.617 8 107040348.931 8      -595.430          51.000    20369101.883 8  83408064.004 8      -463.971          51.000  
G17  22633966.734 6 118942294.768 6      1228.055          37.000    22633970.922 5  92682318.593 5       956.923          33.000  
G13  20915874.570 8 109913641.395 8     -2005.012          51.000    20915874.078 8  85646981.464 8     -1562.347          48.000  
G19  23107396.352 7 121430197.262 7      2948.449          46.000    23107393.523 7  94620916.242 7      2297.494          42.000  
R05  20175157.672 8 107847403.593 8     -2853.309          51.000    20175159.672 7  83881293.192 7     -2219.240          45.000  
R15  19800910.242 6 105809665.236 6     -1639.480          38.000    19800913.719 5  82296422.257 5     -1275.152          32.000  
R14  23306804.102 5 124238006.646 5     -3482.242          31.000                                                                  
E01  26674500.109 8 140175441.351 8      2454.180          49.000    26674500.852 7 107407169.000 7      1880.423          46.000  
E27  24603894.336 8 129294374.337 8     -1919.027          48.000    24603896.977 7  99069658.097 7     -1470.341          45.000  
E21  23543046.266 8 123719587.735 8       555.391          51.000    23543048.195 8  94798107.533 8       425.523          51.000  
E19  24133792.820 8 126823934.940 8       -86.574          51.000    24133793.750 8  97176783.801 8       -66.273          51.000  
C25  25906885.344 4 134903949.50424      2652.199          27.000                                                                  
C05  39769724.477 5 207091390.269 5        25.699          35.000    39769720.375 6 160136183.116 6        19.676          36.000  
C26  22244810.711 6 115834533.552 6     -1600.191          38.000                                                                  
C14  22771318.445 8 118576215.032 8     -1827.094          50.000    22771318.641 8  91690644.236 8     -1412.852          51.000  
C24  22173477.914 7 115463088.176 7       881.309          46.000                                                                  
> 2020 05 11 06 03 30.0000000  0 16      -0.000000000000
G15  20372553.750 8 107058477.952 8      -612.934          51.000    20372552.000 8  83422190.504 8      -477.611          51.000  
G17  22627001.367 5 118905688.859 5      1213.020          31.000    22627006.227 4  92653794.085 4       945.207          29.000  
G13  20927359.844 8 109973998.054 8     -2018.441          51.000    20927359.695 8  85694012.621 8     -1572.812          48.000  
G19  23090592.547 7 121341893.788 7      2938.598          45.000    23090590.156 7  94552108.383 7      2289.820          43.000  
R05  20191227.789 8 107933309.247 8     -2873.434          51.000    20191228.500 7  83948108.642 7     -2234.893          44.000  
R15  19810144.383 6 105859008.940 6     -1649.848          37.000    19810148.242 5  82334800.724 5     -1283.218          30.000  
R14  23326400.180 5 124342464.189 5     -3481.453          32.000                                                                  
E01  26660503.836 8 140101889.524 8      2449.727          49.000    26660503.062 7 107350811.132 7      1877.043          46.000  
E27  24614863.242 8 129352015.200 8     -1923.367          48.000    24614865.320 7  99113824.437 7     -1473.756          45.000  
E21  23539901.602 8 123703063.229 8       546.621          51.000    23539903.531 8  94785445.896 8       418.822          51.000  
E19  24134322.609 8 126826720.368 8       -98.867          51.000    24134323.617 8  97178918.076 8       -75.785          51.000  
C25  25891610.430 5 134824409.359 5      2649.598          30.000                                                                  
C05  39769576.062 5 207090617.914 5        26.055          35.000    39769572.008 5 160135585.833 5        20.748          35.000  
C26  22254045.422 5 115882624.805 5     -1605.109          34.000                                                                  
C14  22781883.766 8 118631230.840 8     -1840.199          49.000    22781884.109 8  91733185.918 8     -1423.001          51.000  
C24  22168423.836 7 115436769.853 7       873.555          45.000                                                                  
> 2020 05 11 06 04  0.0000000  0 14      -0.000000000000
G15  20376107.633 8 107077152.752 8      -633.105          51.000    20376105.805 8  83436742.290 8      -493.329          51.000  
G13  20938926.039 8 110034778.548 8     -2034.562          51.000    20938926.102 8  85741374.011 8     -1585.374          49.000  
G19  23073848.578 8 121253903.482 8      2926.340          48.000    23073846.719 6  94483544.524 6      2280.266          41.000  
R05  20207414.859 8 108019838.903 8     -2896.129          51.000    20207415.289 7  84015409.410 7     -2252.548          46.000  
R15  19819441.234 6 105908687.575 6     -1663.242          39.000    19819445.172 4  82373439.642 4     -1293.633          28.000  
R14  23345992.523 5 124446904.980 5     -3482.977          32.000                                                                  
E01  26646536.422 8 140028490.663 8      2442.543          48.000    26646534.828 7 107294570.474 7      1871.575          47.000  
E27  24625860.523 7 129409805.110 7     -1930.348          46.000    24625862.023 7  99158104.992 7     -1479.152          45.000  
E21  23536810.812 8 123686822.106 8       535.074          51.000    23536812.789 8  94773001.387 8       410.058          51.000  
E19  24134927.406 8 126829899.421 8      -114.012          50.000    24134928.297 8  97181353.956 8       -87.381          51.000  
C05  39769426.422 5 207089838.218 5        24.621          35.000    39769422.398 6 160134983.734 6        18.957          36.000  
C26  22263314.898 6 115930896.079 6     -1613.316          36.000                                                                  
C14  22792527.969 8 118686660.119 8     -1856.023          48.000    22792528.367 8  91776047.327 8     -1435.214          51.000  
C24  22163418.625 7 115410706.271 7       862.887          44.000                                                                  
> 2020 05 11 06 04 30.0000000  0 17      -0.000000000000
G15  20379775.344 8 107096426.567 8      -651.445          51.000    20379773.773 8  83451760.833 8      -507.623          51.000  
G17  22613358.312 5 118834010.54925      1176.996          33.000                                                                  
G13  20950582.992 8 110096035.552 8     -2048.820          51.000    20950582.711 8  85789106.706 8     -1596.487          48.000  
G28  22550915.633 5 118505861.11225     -2694.383          34.000                                                                  
G19  23057175.422 8 121166283.009 8      2915.605          49.000    23057172.781 6  94415268.795 6      2271.901          41.000  
G12  24020209.062 5 126227079.825 5      3788.000          32.000    24020206.219 5  98358729.046 5      2951.692          34.000  
R05  20223728.344 8 108107043.751 8     -2917.102          51.000    20223729.625 8  84083235.352 8     -2268.860          48.000  
R15  19828811.117 6 105958753.369 6     -1674.160          38.000    19828815.164 4  82412379.607 4     -1302.128          27.000  
R14  23365592.242 5 124551382.193 5     -3482.523          32.000                                                                  
E01  26632607.930 7 139955298.455 7      2437.188          45.000    26632606.477 7 107238488.166 7      1867.612          47.000  
E27  24636895.938 7 129467796.178 7     -1935.383          46.000    24636897.047 7  99202539.693 7     -1482.918          44.000  
E21  23533784.094 8 123670917.249 8       525.516          51.000    23533786.094 8  94760814.536 8       402.680          51.000  
E19  24135617.367 8 126833525.506 8      -127.445          50.000    24135618.094 8  97184132.375 8       -97.572          51.000  
C05  39769285.742 5 207089104.990 5        24.367          35.000    39769281.703 6 160134416.520 6        18.924          36.000  
C26  22272629.602 6 115979399.488 6     -1619.785          39.000                                                                  
C14  22803261.172 7 118742554.096 7     -1869.832          47.000    22803261.695 8  91819268.078 8     -1445.933          51.000  
C24  22158472.312 7 115384950.122 7       854.215          44.000                                                                  
> 2020 05 11 06 05  0.0000000  0 16      -0.000000000000
G15  20383538.180 8 107116200.357 8      -669.207          51.000    20383536.703 8  83467168.957 8      -521.460          51.000  
G17  22606676.852 5 118798888.34325      1161.227          30.000    22606679.336 4  92570560.45424       904.861          29.000  
G13  20962311.719 8 110157668.964 8     -2062.430          51.000    20962310.820 8  85837132.731 8     -1607.089          48.000  
G19  23040554.523 8 121078937.104 8      2905.035          48.000    23040551.516 6  94347207.055 6      2263.665          41.000  
G12  23998587.719 5 126113460.308 5      3784.914          34.000    23998587.258 5  98270194.399 5      2949.281          32.000  
R05  20240148.797 8 108194820.003 8     -2937.211          51.000    20240150.867 8  84151505.754 8     -2284.498          48.000  
R15  19838233.766 6 106009103.557 6     -1684.211          36.000    19838237.992 4  82451555.34624     -1309.939          26.000  
R14  23385180.320 5 124655794.046 5     -3480.605          30.000                                                                  
E01  26618699.633 7 139882214.526 7      2432.695          44.000    26618699.219 7 107182488.853 7      1863.964          47.000  
E27  24647950.609 7 129525888.409 7     -1939.699          46.000    24647951.391 7  99247051.920 7     -1486.315          44.000  
E21  23530802.492 8 123655249.263 8       516.590          51.000    23530804.406 8  94748809.189 8       395.892          51.000  
E19  24136373.633 8 126837500.296 8      -140.035          50.000    24136374.211 8  97187177.981 8      -107.261          51.000  
C05  39769135.164 5 207088321.373 5        25.309          35.000    39769131.211 5 160133810.531 5        19.803          35.000  
C26  22281970.234 6 116028036.128 6     -1625.289          39.000                                                                  
C14  22814064.836 7 118798813.169 7     -1883.027          47.000    22814065.016 8  91862771.149 8     -1456.134          51.000  
C24  22153566.242 7 115359403.168 7       846.285          44.000                                                                  
> 2020 05 11 06 05 30.0000000  0 16      -0.000000000000
G15  20387409.781 8 107136545.155 8      -684.703          51.000    20387408.070 8  83483022.039 8      -533.538          51.000  
G17  22600096.422 5 118764298.832 5      1146.828          31.000    22600095.602 5  92543607.354 5       893.633          30.000  
G13  20974125.250 8 110219748.879 8     -2073.777          51.000    20974123.961 8  85885506.666 8     -1615.931          48.000  
G19  23023999.805 7 120991940.472 7      2897.078          46.000    23023996.625 7  94279417.525 7      2257.464          42.000  
G12  23976999.586 5 126000010.743 5      3782.562          34.000    23977001.133 5  98181792.117 5      2947.452          33.000  
R05  20256689.078 8 108283236.813 8     -2954.812          51.000    20256691.250 8  84220274.433 8     -2298.185          49.000  
R15  19847722.891 6 106059808.505 6     -1693.035          38.000                                                                  
E01  26604825.562 7 139809310.457 7      2430.191          44.000    26604826.516 7 107126627.300 7      1862.021          46.000  
E27  24659037.727 7 129584151.755 7     -1941.836          46.000    24659038.359 7  99291695.257 7     -1487.898          44.000  
E21  23527879.359 8 123639888.840 8       509.871          51.000    23527881.008 8  94737039.516 8       390.755          51.000  
E19  24137209.711 8 126841895.245 8      -150.566          49.000    24137210.281 8  97190545.536 8      -115.348          51.000  
C25  25830677.211 5 134507081.905 5      2640.766          31.000                                                                  
C05                                                                  39768984.336 5 160133219.378 5        21.682          35.000  
C26  22291349.867 6 116076875.835 6     -1628.367          41.000                                                                  
C14  22824952.367 8 118855506.165 8     -1894.109          48.000    22824951.867 8  91906609.731 8     -1464.576          51.000  
C24  22148714.188 7 115334135.817 7       840.703          45.000                                                                  
> 2020 05 11 06 06  0.0000000  0 16      -0.000000000000
G15  20391369.422 8 107157353.166 8      -703.422          51.000    20391367.539 8  83499236.067 8      -548.121          51.000  
G17  22593604.625 5 118730193.55225      1129.918          30.000                                                                  
G13  20986003.094 8 110282167.241 8     -2088.277          51.000    20986001.383 7  85934144.335 7     -1627.230          47.000  
G19  23007491.578 7 120905188.638 7      2885.652          46.000    23007488.492 7  94211818.731 7      2248.561          42.000  
G12  23955423.656 6 125886624.852 6      3776.480          36.000    23955425.250 6  98093439.534 6      2942.716          36.000  
R05  20273327.867 8 108372181.337 8     -2975.676          51.000    20273330.578 8  84289453.538 8     -2314.415          50.000  
R15  19857258.078 6 106110757.077 6     -1704.398          39.000                                                                  
E01  26590966.141 7 139736479.245 7      2424.465          45.000    26590968.000 7 107070821.558 7      1857.750          46.000  
E27  24670136.727 7 129642477.558 7     -1947.250          46.000    24670137.305 7  99336386.450 7     -1492.059          44.000  
E21  23524994.320 8 123624728.112 8       500.008          51.000    23524995.797 8  94725422.844 8       383.117          51.000  
E19  24138105.484 8 126846603.169 8      -164.254          49.000    24138106.258 8  97194152.901 8      -125.833          51.000  
C25  25815488.719 5 134427907.669 5      2637.188          30.000                                                                  
C05  39768824.789 5 207086704.915 5        27.766          35.000    39768820.648 5 160132560.587 5        21.552          35.000  
C26  22300747.695 6 116125811.310 6     -1635.047          38.000                                                                  
C14  22835902.539 8 118912524.873 8     -1908.062          49.000    22835901.281 8  91950700.199 8     -1475.402          51.000  
C24  22143895.688 7 115309041.470 7       831.461          46.000                                                                  
> 2020 05 11 06 06 30.0000000  0 16      -0.000000000000
G15  20395459.594 8 107178847.870 8      -724.824          51.000    20395457.766 8  83515985.173 8      -564.801          51.000  
G17  22587214.594 5 118696617.824 5      1109.742          32.000    22587220.195 5  92490874.697 5       864.737          33.000  
G13  20997987.727 8 110345146.829 8     -2105.656          51.000    20997985.703 7  85983219.335 7     -1640.772          47.000  
G19  22991072.984 7 120818908.494 7      2871.094          46.000    22991070.484 7  94144587.488 7      2237.217          43.000  
G12  23933902.898 6 125773528.367 6      3767.961          39.000    23933902.070 5  98005312.375 5      2936.074          31.000  
R05  20290107.008 8 108461878.305 8     -2999.301          50.000    20290110.617 8  84359217.795 8     -2332.793          49.000  
R15  19866880.367 6 106162174.775 6     -1718.457          39.000    19866880.625 5  82570571.213 5     -1336.578          33.000  
E01  26577164.094 7 139663945.053 7      2415.836          47.000    26577165.992 7 107015243.395 7      1851.168          46.000  
E27  24681290.016 7 129701088.467 7     -1955.461          47.000    24681290.727 7  99381296.073 7     -1498.323          44.000  
E21  23522189.672 8 123609990.298 8       487.250          51.000    23522191.445 8  94714130.222 8       373.321          51.000  
E19  24139103.750 8 126851848.136 8      -180.738          50.000    24139104.852 8  97198171.762 8      -138.521          51.000  
C25  25800332.508 4 134349092.803 4      2630.977          29.000                                                                  
C05  39768687.086 5 207085987.238 5        24.707          35.000    39768682.633 5 160132004.659 5        18.794          35.000  
C26  22310205.773 6 116175063.531 6     -1644.051          37.000                                                                  
C14  22846957.680 8 118970089.435 8     -1924.879          50.000    22846955.891 8  91995212.780 8     -1488.478          51.000  
C24  22139152.602 7 115284341.596 7       819.805          44.000                                                                  
> 2020 05 11 06 07  0.0000000  0 16      -0.000000000000
G15  20399628.148 8 107200754.499 8      -741.688          51.000    20399626.609 8  83533055.251 8      -577.938          51.000  
G17  22580918.578 5 118663567.01525      1094.180          31.000                                                                  
G13  21010026.672 8 110408412.173 8     -2118.172          51.000    21010024.578 7  86032516.983 7     -1650.524          46.000  
G19  22974692.422 7 120732828.701 7      2861.430          46.000    22974690.633 7  94077512.325 7      2229.686          43.000  
G12  23912385.672 6 125660448.864 6      3764.641          40.000    23912381.016 4  97917198.623 4      2933.493          26.000  
R05  20306974.359 8 108552044.944 8     -3017.992          50.000    20306978.102 7  84429347.321 7     -2347.331          47.000  
R15  19876537.453 6 106213780.373 6     -1727.977          39.000    19876540.039 5  82610708.913 5     -1343.982          34.000  
E01  26563366.609 8 139591433.613 8      2412.156          48.000    26563368.359 7 106959682.701 7      1848.241          47.000  
E27  24692445.117 7 129759708.600 7     -1958.750          47.000    24692446.000 7  99426212.785 7     -1500.987          43.000  
E21  23519413.102 8 123595400.257 8       479.199          51.000    23519415.039 8  94702950.843 8       367.185          51.000  
E19  24140152.117 8 126857356.050 8      -192.516          49.000    24140153.430 8  97202392.099 8      -147.539          51.000  
C25  25785161.352 5 134270101.497 5      2629.551          31.000                                                                  
C05  39768522.648 6 207085131.818 6        26.121          36.000    39768518.352 5 160131343.176 5        19.809          35.000  
C26  22319672.211 6 116224359.514 6     -1648.555          36.000                                                                  
C14  22858064.945 8 119027925.980 8     -1936.941          50.000    22858062.930 8  92039935.675 8     -1497.806          51.000  
C24  22134432.305 7 115259763.935 7       812.762          43.000                                                                  
> 2020 05 11 06 07 30.0000000  0 15      -0.000000000000
G15  20403922.555 8 107223322.064 8      -765.008          51.000    20403921.266 8  83550640.363 8      -596.110          51.000  
G13  21022167.219 8 110472211.180 8     -2137.352          51.000    21022164.930 7  86082230.465 7     -1665.469          44.000  
G19  22958398.156 7 120647202.040 7      2844.691          47.000    22958396.977 7  94010790.259 7      2216.643          42.000  
G12  23890919.195 6 125547637.381 6      3754.043          41.000    23890910.875 5  97829293.695 5      2925.235          30.000  
R05  20323976.266 8 108642931.106 8     -3043.316          50.000    20323979.328 7  84500036.535 7     -2367.027          45.000  
R15  19886275.828 6 106265825.193 6     -1743.801          37.000    19886278.656 5  82651188.210 5     -1356.290          34.000  
E01  26549620.625 8 139519194.413 8      2401.562          48.000    26549622.367 8 106904330.604 8      1840.258          48.000  
E27  24703649.172 7 129818585.836 7     -1968.684          47.000    24703649.836 7  99471326.473 7     -1508.416          43.000  
E21  23516712.156 8 123581206.570 8       464.719          51.000    23516713.812 8  94692075.173 8       356.110          51.000  
E19  24141297.891 8 126863376.288 8      -210.961          50.000    24141299.094 8  97207005.003 8      -161.642          51.000  
C25  25770029.617 5 134191303.641 5      2621.961          32.000                                                                  
C05  39768379.242 5 207084385.370 5        21.078          35.000    39768375.227 5 160130766.924 5        16.535          35.000  
C26  22329193.602 5 116273945.386 5     -1660.609          30.000                                                                  
C14  22869271.125 8 119086279.551 8     -1955.461          48.000    22869269.531 8  92085058.341 8     -1512.045          51.000  
C24  22129782.734 7 115235555.052 7       799.000          43.000                                                                  
> 2020 05 11 06 08  0.0000000  0 16      -0.000000000000
G15  20408315.055 8 107246405.079 8      -777.406          51.000    20408314.016 8  83568627.116 8      -605.771          51.000  
G17  22568610.688 4 118598849.13924      1062.195          29.000                                                                  
G13  21034381.680 8 110536398.154 8     -2145.352          51.000    21034379.086 7  86132246.241 7     -1671.703          44.000  
G19  22942163.289 7 120561886.783 7      2839.309          45.000    22942162.461 7  93944310.850 7      2212.452          43.000  
G12  23869476.453 6 125434950.917 6      3754.863          40.000    23869464.797 4  97741467.120 4      2925.871          29.000  
R05  20341084.883 8 108734386.243 8     -3057.312          51.000    20341087.320 7  84571168.286 7     -2377.910          44.000  
R15  19896067.047 5 106318160.319 5     -1748.527          35.000    19896073.000 5  82691893.309 5     -1359.963          34.000  
E01  26535898.484 7 139447083.269 7      2402.203          47.000    26535900.312 8 106849076.623 8      1840.734          48.000  
E27  24714874.438 7 129877574.407 7     -1967.430          46.000    24714874.664 7  99516525.490 7     -1507.530          43.000  
E21  23514059.281 8 123567264.150 8       461.285          51.000    23514060.812 8  94681392.012 8       353.393          51.000  
E19  24142513.602 8 126869764.371 8      -218.398          49.000    24142514.781 8  97211899.770 8      -167.329          51.000  
C25  25754908.258 6 134112562.394 6      2624.516          36.000                                                                  
C05                                                                  39768225.281 5 160130163.172 5        21.259          35.000  
C26  22338742.133 4 116323694.768 4     -1658.824          28.000                                                                  
C14  22880548.297 8 119145005.135 8     -1963.074          48.000    22880547.508 8  92130468.659 8     -1517.910          51.000  
C24  22125176.992 7 115211571.446 7       796.219          43.000                                                                  
> 2020 05 11 06 08 30.0000000  0 16      -0.000000000000
G15  20412805.484 8 107270002.941 8      -795.414          51.000    20412804.836 8  83587015.051 8      -619.803          51.000  
G17  22562606.648 6 118567295.894 6      1044.457          36.000    22562610.672 6  92390111.318 6       813.863          36.000  
G13  21046669.656 8 110600971.683 8     -2159.160          51.000    21046667.070 7  86182563.185 7     -1682.466          44.000  
G19  22925988.172 7 120476885.822 7      2827.773          45.000    22925987.672 7  93878076.389 7      2203.464          42.000  
G12  23848057.664 6 125322391.252 6      3749.855          38.000                                                                  
R05  20358299.844 8 108826406.640 8     -3076.938          51.000    20358302.000 7  84642739.700 7     -2393.177          45.000  
R15  19905914.422 6 106370782.945 6     -1759.125          36.000    19905918.516 4  82732822.014 4     -1368.212          29.000  
E01  26522200.172 7 139375100.099 7      2397.125          45.000    26522202.242 8 106793920.681 8      1836.705          48.000  
E27  24726120.523 7 129936672.713 7     -1971.973          46.000    24726120.617 7  99561808.586 7     -1510.987          43.000  
E21  23511453.648 8 123553572.001 8       451.996          51.000    23511455.703 8  94670900.634 8       346.350          51.000  
E19  24143799.211 8 126876520.207 8      -231.559          49.000    24143800.555 8  97217076.314 8      -177.458          51.000  
C25  25739798.375 5 134033877.432 5      2621.840          35.000                                                                  
C05  39768072.742 5 207082788.978 5        27.730          35.000    39768068.688 5 160129532.479 5        21.265          35.000  
C26  22348320.789 5 116373570.647 5     -1665.086          34.000                                                                  
C14  22891896.133 7 119204100.508 7     -1976.289          47.000    22891896.188 8  92176164.899 8     -1528.126          51.000  
C24  22120614.469 7 115187812.523 7       787.922          42.000                                                                  
> 2020 05 11 06 09  0.0000000  0 17      -0.000000000000
G24  21406822.242 5 112493605.608 5      2113.586          34.000    21406809.969 5  87657353.997 5      1646.948          32.000  
G15  20417395.789 8 107294126.046 8      -810.543          51.000    20417395.680 8  83605812.239 8      -631.595          51.000  
G13  21059033.000 8 110665941.876 8     -2169.977          51.000    21059031.062 7  86233189.253 7     -1690.894          45.000  
G19  22909875.609 7 120392212.767 7      2819.160          45.000    22909874.930 6  93812097.437 6      2196.746          41.000  
G12  23826665.109 5 125209970.579 5      3747.566          32.000                                                                  
R05  20375621.789 8 108918999.739 8     -3093.488          51.000    20375624.367 7  84714756.512 7     -2406.050          46.000  
R15  19915817.562 6 106423702.349 6     -1766.566          37.000    19915820.117 5  82773981.388 5     -1373.999          30.000  
R24  22989410.352 5 122934330.430 5       438.277          31.000    22989416.531 5  95615601.441 5       340.885          32.000  
E01  26508528.133 7 139303255.961 7      2394.820          46.000    26508530.586 8 106738871.233 8      1834.921          50.000  
E27  24737389.312 7 129995890.178 7     -1973.707          45.000    24737389.656 7  99607182.959 7     -1512.172          43.000  
E21  23508897.383 8 123540140.151 8       445.703          51.000    23508899.922 8  94660608.722 8       341.450          51.000  
E19  24145156.883 8 126883654.695 8      -241.906          49.000    24145158.234 8  97222542.984 8      -185.354          51.000  
C25  25724701.359 5 133955259.580 5      2621.430          34.000                                                                  
C05  39767911.359 5 207081949.164 5        31.000          34.000    39767907.297 5 160128883.066 5        23.415          35.000  
C26  22357931.430 6 116423600.869 6     -1668.094          37.000                                                                  
C14  22903316.430 7 119263574.403 7     -1986.480          45.000    22903317.141 8  92222153.866 8     -1536.100          51.000  
C24  22116096.828 6 115164288.637 6       782.504          41.000                                                                  
> 2020 05 11 06 09 30.0000000  0 17      -0.000000000000
G15  20422079.500 8 107318738.972 8      -834.266          51.000    20422079.398 8  83624991.117 8      -650.077          51.000  
G17  22550863.734 5 118505565.814 5      1007.512          34.000    22550859.094 5  92342010.378 5       785.071          33.000  
G13  21071464.258 8 110731272.010 8     -2189.387          50.000    21071463.656 7  86284095.851 7     -1706.013          45.000  
G28  22706726.531 5 119324667.16825     -2766.469          34.000                                                                  
G19  22893819.039 7 120307836.352 7      2801.906          43.000    22893818.469 6  93746349.595 6      2183.307          41.000  
R05  20393043.180 8 109012126.323 8     -3118.855          51.000    20393046.203 7  84787188.279 7     -2425.777          47.000  
R15  19925768.438 5 106476880.583 5     -1782.500          34.000    19925773.359 5  82815342.211 5     -1386.386          30.000  
R24  22987035.070 5 122921563.133 5       407.660          31.000    22987033.688 5  95605677.288 5       317.072          34.000  
E01  26494876.406 8 139231515.979 8      2383.969          49.000    26494879.031 8 106683901.618 8      1826.684          51.000  
E27  24748673.695 7 130055190.382 7     -1983.781          43.000    24748674.688 7  99652620.746 7     -1520.041          42.000  
E21  23506384.344 8 123526932.992 8       430.797          51.000    23506386.781 8  94650488.933 8       330.103          51.000  
E19  24146580.078 8 126891133.088 8      -260.688          49.000    24146581.297 8  97228273.185 8      -199.799          51.000  
C25  25709609.023 5 133876674.215 5      2613.340          33.000                                                                  
C05  39767738.586 5 207081049.193 5        25.246          34.000    39767734.719 5 160128187.902 5        19.851          35.000  
C26  22367564.680 6 116473749.713 6     -1679.512          39.000                                                                  
C14  22914802.977 8 119323390.194 8     -2005.105          48.000    22914803.609 8  92268407.212 8     -1550.475          51.000  
C24  22111617.070 6 115140964.667 6       768.324          40.000                                                                  
> 2020 05 11 06 10  0.0000000  0 18      -0.000000000000
G15  20426887.906 8 107344006.558 8      -850.492          51.000    20426887.352 8  83644680.133 8      -662.721          51.000  
G17  22545153.164 5 118475581.32825       992.828          33.000    22545151.484 5  92318610.68825       773.633          33.000  
G13  21083995.359 8 110797126.698 8     -2201.156          50.000    21083996.102 7  86335411.222 7     -1715.187          46.000  
G28  22722530.359 6 119407709.56126     -2771.418          36.000                                                                  
G19  22877849.867 6 120223925.021 6      2792.035          39.000    22877850.172 6  93680964.123 6      2175.613          39.000  
G12  23783984.031 5 124985693.835 5      3733.168          33.000                                                                  
R05  20410594.227 8 109105950.789 8     -3136.395          49.000    20410597.859 7  84860162.860 7     -2439.418          46.000  
R15  19935799.438 6 106530483.571 6     -1791.090          36.000    19935802.141 4  82857057.44624     -1393.076          27.000  
R24  22984810.773 5 122909684.485 5       384.180          34.000    22984811.078 4  95596438.335 4       298.810          29.000  
E01  26481276.336 8 139160045.742 8      2380.535          50.000    26481279.070 8 106629138.728 8      1824.032          51.000  
E27  24760004.852 6 130114737.378 6     -1986.211          41.000    24760006.969 7  99698247.686 7     -1522.112          42.000  
E21  23503945.242 8 123514115.232 8       423.414          51.000    23503947.797 8  94640667.523 8       324.452          51.000  
E19  24148100.117 8 126899120.644 8      -272.035          49.000    24148101.195 8  97234393.510 8      -208.458          51.000  
C25  25694553.984 5 133798285.297 5      2612.195          31.000                                                                  
C05  39767586.000 5 207080253.783 5        27.840          34.000    39767582.086 5 160127573.602 5        21.235          34.000  
C26  22377250.359 6 116524180.201 6     -1683.215          40.000                                                                  
C14  22926387.617 8 119383709.863 8     -2016.344          50.000    22926387.000 8  92315050.183 8     -1559.198          51.000  
C24  22107206.938 6 115118004.152 6       762.059          39.000                                                                  
> 2020 05 11 06 10 30.0000000  0 17      -0.000000000000
G15  20431806.422 8 107369853.260 8      -870.449          51.000    20431805.617 8  83664820.404 8      -678.272          51.000  
G17  22539547.266 6 118446125.692 6       973.113          38.000    22539547.531 6  92295658.240 6       758.267          36.000  
G13  21096612.578 8 110863429.611 8     -2216.859          51.000    21096613.211 7  86387075.830 7     -1727.423          47.000  
G28  22738382.773 5 119491009.835 5     -2779.820          35.000                                                                  
G19  22861956.594 7 120140406.599 7      2778.031          43.000    22861956.836 6  93615884.796 6      2164.703          39.000  
G12  23762699.352 5 124873852.521 5      3724.629          34.000                                                                  
R05  20428260.812 8 109200393.832 8     -3157.727          51.000    20428264.805 7  84933618.584 7     -2456.010          45.000  
R15  19945897.156 5 106584433.722 5     -1803.738          30.000    19945895.609 4  82898998.597 4     -1402.911          29.000  
E01  26467713.617 8 139088770.977 8      2373.262          50.000    26467716.469 8 106574525.618 8      1818.459          51.000  
E27  24771368.227 6 130174455.388 6     -1992.746          41.000    24771371.938 6  99744005.640 6     -1526.850          41.000  
E21  23501565.688 8 123501611.560 8       412.332          51.000    23501568.727 8  94631086.799 8       315.883          51.000  
E19  24149702.680 8 126907542.793 8      -287.191          49.000    24149703.719 8  97240846.839 8      -220.122          50.000  
C25  25679520.664 5 133720019.138 5      2607.262          33.000                                                                  
C05                                                                  39767435.273 5 160126982.012 5        19.516          34.000  
C26  22386974.625 7 116574817.406 7     -1690.461          42.000                                                                  
C14  22938055.039 8 119444457.621 8     -2031.277          51.000    22938052.648 8  92362024.189 8     -1570.773          51.000  
C24  22102852.984 6 115095332.875 6       751.656          40.000                                                                  
> 2020 05 11 06 11  0.0000000  0 16      -0.000000000000
G15  20436824.375 8 107396222.440 8      -887.758          51.000    20436823.602 8  83685367.785 8      -691.760          51.000  
G17  22534035.078 5 118417165.930 5       956.887          31.000    22534034.961 4  92273104.165 4       745.617          28.000  
G13  21109304.523 8 110930123.388 8     -2229.766          51.000    21109304.664 7  86439044.985 7     -1737.480          47.000  
G28  22754266.828 5 119574488.080 5     -2785.477          34.000                                                                  
G19  22846129.430 7 120057228.453 7      2767.211          46.000    22846128.203 6  93551070.663 6      2156.272          39.000  
G12  23741444.141 6 124762156.699 6      3720.535          36.000    23741440.609 5  97217235.446 5      2899.119          31.000  
R05  20446032.828 8 109295394.454 8     -3176.055          51.000    20446035.648 7  85007507.876 7     -2470.268          43.000  
E01  26454177.547 8 139017635.384 8      2368.836          50.000    26454180.383 8 106520019.137 8      1815.089          51.000  
E27  24782753.422 6 130234286.571 6     -1996.379          41.000    24782758.086 7  99789850.293 7     -1529.616          42.000  
E21  23499235.383 8 123489364.782 8       403.902          51.000    23499238.703 8  94621702.904 8       309.481          51.000  
E19  24151377.344 8 126916343.284 8      -299.699          49.000    24151378.047 8  97247590.059 8      -229.664          50.000  
C25  25664499.969 5 133641819.759 5      2605.215          33.000                                                                  
C05  39767287.508 5 207078700.595 5        26.797          34.000    39767283.477 5 160126370.579 5        20.319          34.000  
C26  22396727.336 7 116625604.482 7     -1695.551          43.000                                                                  
C14  22949793.172 8 119505575.466 8     -2043.492          51.000    22949789.641 8  92409284.327 8     -1580.107          51.000  
C24  22098544.172 6 115072894.542 6       744.020          41.000                                                                  
> 2020 05 11 06 11 30.0000000  0 16      -0.000000000000
G15  20441940.867 8 107423109.118 8      -908.016          51.000    20441939.867 8  83706318.428 8      -707.545          51.000  
G13  21122069.766 8 110997202.730 8     -2245.488          51.000    21122069.258 7  86491314.556 7     -1749.735          47.000  
G19  22830366.898 8 119974388.959 8      2752.422          48.000    22830364.117 6  93486520.478 6      2144.748          38.000  
G12  23720215.797 6 124650603.747 6      3713.062          36.000    23720212.578 5  97130311.147 5      2893.305          35.000  
R05  20463908.398 8 109390944.490 8     -3197.293          51.000    20463909.391 7  85081824.463 7     -2486.787          44.000  
R15  19966251.164 6 106693241.777 6     -1825.016          38.000    19966250.945 5  82983615.693 5     -1419.466          35.000  
R24  22978993.453 5 122878600.918 5       306.500          31.000    22978998.008 4  95572254.685 4       238.389          28.000  
E01  26440667.094 8 138946635.162 8      2361.277          50.000    26440669.812 8 106465616.369 8      1809.309          51.000  
E27  24794159.391 6 130294225.557 6     -2003.102          41.000    24794164.492 7  99835777.537 7     -1534.635          42.000  
E21  23496953.336 8 123477370.220 8       392.500          51.000    23496956.625 8  94612512.262 8       300.771          51.000  
E19  24153123.391 8 126925518.191 8      -315.277          49.000    24153123.703 8  97254620.164 8      -241.549          49.000  
C25  25649490.359 5 133563683.342 5      2600.129          34.000                                                                  
C05  39767130.266 5 207077881.445 5        25.191          34.000    39767126.180 5 160125738.11225        19.241          34.000  
C26  22406507.570 6 116676536.509 6     -1703.309          41.000                                                                  
C14  22961600.438 8 119567057.390 8     -2058.566          50.000    22961595.961 8  92456826.019 8     -1591.790          49.000  
C24  22094278.828 6 115050684.676 6       733.500          41.000                                                                  
> 2020 05 11 06 12  0.0000000  0 16      -0.000000000000
G15  20447168.250 8 107450578.459 8      -924.348          51.000    20447166.945 8  83727723.122 8      -720.268          51.000  
G13  21134920.383 8 111064731.758 8     -2257.473          51.000    21134919.203 7  86543934.524 7     -1759.073          47.000  
G19  22814681.547 8 119891956.905 8      2741.973          50.000    22814677.609 6  93422287.756 6      2136.603          38.000  
G12  23699028.273 5 124539234.03225      3708.141          33.000    23699022.234 5  97043551.45025      2889.464          32.000  
R05  20481898.375 8 109487107.065 8     -3214.488          51.000    20481898.859 7  85156617.522 7     -2500.158          45.000  
R15  19976517.430 6 106748105.934 6     -1833.703          37.000    19976519.805 6  83026287.745 6     -1426.214          37.000  
R24  22977338.797 5 122869754.665 5       281.988          30.000    22977342.133 4  95565391.14024       219.321          26.000  
E01  26427194.211 8 138875835.750 8      2357.605          49.000    26427196.914 8 106411367.480 8      1806.484          51.000  
E27  24805598.211 6 130354336.296 6     -2005.582          41.000    24805603.547 7  99881836.438 7     -1536.665          42.000  
E21  23494731.305 8 123465692.438 8       384.914          51.000    23494734.484 8  94603564.345 8       294.997          51.000  
E19  24154953.125 8 126935132.871 8      -326.816          49.000    24154953.211 8  97261987.247 8      -250.442          49.000  
C25  25634504.133 5 133485674.554 5      2599.273          33.000                                                                  
C05  39766979.672 5 207077097.028 5        26.840          34.000    39766975.500 5 160125130.54725        20.434          34.000  
C26  22416327.812 7 116727677.288 7     -1707.270          43.000                                                                  
C14  22973489.078 8 119628966.126 8     -2069.656          49.000    22973484.211 8  92504697.741 8     -1600.471          49.000  
C24  22090069.953 7 115028767.751 7       726.664          42.000                                                                  
> 2020 05 11 06 12 30.0000000  0 16      -0.000000000000
G15  20452500.945 8 107478602.298 8      -941.527          51.000    20452499.688 8  83749559.892 8      -733.655          51.000  
G13  21147851.031 8 111132682.274 8     -2270.238          51.000    21147849.734 7  86596882.908 7     -1769.020          47.000  
G19  22799068.719 8 119809908.601 8      2730.312          48.000    22799064.836 6  93358354.075 6      2127.520          39.000  
G12  23677876.891 5 124428081.45425      3704.477          32.000    23677869.508 5  96956915.24625      2886.615          31.000  
R05  20499996.625 8 109583850.526 8     -3232.641          51.000    20499997.297 7  85231862.410 7     -2514.277          46.000  
R15  19986843.555 6 106803285.678 6     -1842.562          37.000    19986848.273 6  83069205.321 6     -1433.104          38.000  
R24  22975826.461 5 122861673.909 5       258.223          32.000    22975829.352 5  95559104.046 5       200.840          30.000  
E01  26413754.109 8 138805210.126 8      2353.086          49.000    26413756.641 8 106357251.735 8      1803.051          50.000  
E27  24817064.250 7 130414590.338 7     -2009.215          42.000    24817069.477 6  99928005.104 6     -1539.251          41.000  
E21  23492564.109 8 123454303.442 8       376.633          51.000    23492567.047 8  94594837.717 8       288.616          51.000  
E19  24156861.383 8 126945160.025 8      -339.270          49.000    24156861.422 8  97269670.372 8      -259.930          50.000  
C25  25619537.148 5 133407766.629 5      2596.941          33.000                                                                  
