     3.02           OBSERVATION DATA    M (MIXED)           RINEX VERSION / TYPE
SAVERINEX           SC600               20200504 115930 LCL PGM / RUN BY / DATE
       G = GPS       R = GLONASS       C = COMPASS          COMMENT
       S = SBAS      J = QZSS          E = GALILEO          COMMENT
BEAN                                                        MARKER NAME
1                                                           MARKER NUMBER
GEODETIC                                                    MARKER TYPE
Unige DICCA         GTER                                    OBSERVER / AGENCY
SC60291900056       SC600               2.12(191226)        REC # / TYPE / VERS
                    HEMA45          NONE                    ANT # / TYPE
  4509407.8091   693652.4678  4442337.6214                  APPROX POSITION XYZ
        0.0000        0.0000        0.0000                  ANTENNA: DELTA H/E/N
G    8 C1C L1C D1C S1C C2Y L2Y D2Y S2Y                      SYS / # / OBS TYPES
R    8 C1C L1C D1C S1C C2P L2P D2P S2P                      SYS / # / OBS TYPES
C    8 C1I L1I D1I S1I C7I L7I D7I S7I                      SYS / # / OBS TYPES
E    8 C1C L1C D1C S1C C7Q L7Q D7Q S7Q                      SYS / # / OBS TYPES
DBHZ                                                        COMMENT
     30.000                                                 INTERVAL
  2020    05    04    09    00    0.0000000     GPS         TIME OF FIRST OBS
  2020    05    04    09    59   30.0000000     GPS         TIME OF LAST OBS
     0                                                      RCV CLOCK OFFS APPL
G L1C  0.00000                                              SYS / PHASE SHIFT
G L2Y  0.00000                                              SYS / PHASE SHIFT
R L1C  0.00000                                              SYS / PHASE SHIFT
R L2P  0.25000                                              SYS / PHASE SHIFT
C L1I  0.00000                                              SYS / PHASE SHIFT
C L7I  0.00000                                              SYS / PHASE SHIFT
E L1C  0.50000                                              SYS / PHASE SHIFT
E L7Q -0.25000                                              SYS / PHASE SHIFT
 14 R04  6 R05  1 R06 -4 R07  5 R08  6 R09 -2 R10 -7 R15  0 GLONASS SLOT / FRQ #
    R16 -1 R17  4 R18 -3 R19  3 R20  2 R21  4               GLONASS SLOT / FRQ #
 C1C   71.950 C2C   71.950 C2P   71.950                     GLONASS COD/PHS/BIS
    18                                                      LEAP SECONDS
*** Above antenna height is from mark to ANTENNA BOTTOM.    COMMENT
    17     4        0.0000        ANT MEASURE TYPE/HEIGT    COMMENT
    0.0000    0.0000    0.0458    0.0405    0.0000          COMMENT
                    BASE STATION                            COMMENT
                                                            END OF HEADER
> 2020 05 04 09 00  0.0000000  0 12        .000000000000
G02  24243485.812 5 127400385.606 5      2334.758          30.000
G12  20094984.227 8 105599878.152 8       436.539          49.000    20094983.844 8  82285595.462 8       340.160          49.000
G19  22595568.195 5 118740512.591 5     -2603.598          32.000
G24  20468964.836 8 107565177.871 8     -1258.539          51.000    20468966.453 8  83817006.900 8      -980.680          51.000
R09  19802842.672 8 105746068.625 8      -890.242          51.000    19802842.992 8  82246948.936 8      -692.411          50.000
R20  21779341.469 6 116463956.370 6      3896.680          40.000    21779350.633 7  90583079.051 7      3030.754          46.000
C12  22591881.922 7 117641857.995 7      1364.434          47.000    22591882.227 8  90968149.435 8      1055.082          51.000
C24  22729650.383 8 118359248.883 8     -1477.078          50.000
E01  24122346.203 8 126763779.499 8     -1026.930          51.000    24122348.156 8  97130693.418 8      -786.901          51.000
E04  26041052.688 7 136846671.328 7     -2720.582          42.000    26041042.320 6 104856480.469 6     -2084.506          39.000
E09  23378508.945 6 122854905.139 6      -476.137          38.000
E13  26980689.836 6 141784486.221 6     -1089.637          36.000    26980690.531 6 108640046.351 6      -835.081          39.000
> 2020 05 04 09 00 30.0000000  0 11        .000000000000
G02  24230194.914 5 127330537.725 5      2334.820          31.000
G12  20092553.609 8 105587104.462 8       428.883          49.000    20092553.180 8  82275641.941 8       334.194          49.000
G24  20476211.117 8 107603258.693 8     -1266.340          51.000    20476213.016 8  83846680.270 8      -986.758          51.000
R09  19807896.781 8 105773058.237 8      -894.965          51.000    19807897.359 8  82267940.838 8      -696.084          51.000
R20  21757542.820 7 116347377.900 7      3889.391          42.000    21757548.859 7  90492407.011 7      3025.085          44.000
C12  22584090.062 8 117601283.780 8      1354.258          48.000    22584090.250 8  90936774.882 8      1047.086          51.000
C24  22738204.328 8 118403791.020 8     -1478.605          49.000
E01  24128244.250 8 126794774.725 8     -1025.543          51.000    24128246.344 8  97154443.004 8      -785.848          51.000
E04  26056619.789 7 136928492.236 7     -2720.602          45.000    26056612.664 6 104919174.301 6     -2084.485          39.000
E09  23381289.234 5 122869520.218 5      -484.305          32.000
E13  26986970.055 6 141817483.215 6     -1098.117          37.000    26986972.898 6 108665356.912 6      -841.103          38.000
> 2020 05 04 09 01  0.0000000  0 10        .000000000000
G12  20090121.305 8 105574322.207 8       410.965          49.000    20090120.609 8  82265681.754 8       320.235          49.000
G24  20483457.445 8 107641339.410 8     -1284.664          51.000    20483459.391 8  83876353.550 8     -1001.037          51.000
R09  19812932.078 8 105799947.528 8      -910.207          51.000    19812932.836 8  82288854.725 8      -707.939          51.000
R18  23258285.148 5 124154262.342 5     -3437.566          30.000
R20  21735739.289 7 116230776.045 7      3871.418          42.000    21735742.469 7  90401716.798 7      3011.106          45.000
C12  22576312.312 8 117560781.901 8      1333.656          49.000    22576312.445 8  90905456.262 8      1031.295          51.000
C24  22746722.500 8 118448146.832 8     -1490.598          49.000
E01  24134088.984 8 126825489.550 8     -1034.496          51.000    24134091.148 8  97177977.727 8      -792.657          51.000
E04  26072142.805 7 137010074.259 7     -2730.777          47.000    26072139.672 6 104981685.126 6     -2092.444          41.000
E13  26993255.234 6 141850511.454 6     -1116.266          37.000    26993256.398 6 108690655.710 6      -855.419          36.000
> 2020 05 04 09 01 30.0000000  0 11        .000000000000
G12  20087830.594 8 105562284.185 8       398.043          49.000    20087829.742 8  82256301.480 8       310.163          49.000
G24  20490847.125 8 107680172.675 8     -1297.855          51.000    20490848.961 8  83906613.221 8     -1011.316          51.000
G25  21427354.727 5 112601503.035 5      2209.605          31.000
R09  19818091.883 8 105827501.896 8      -920.262          51.000    19818093.055 8  82310285.892 8      -715.759          51.000
R20  21714074.469 7 116114921.684 7      3858.785          42.000    21714076.945 7  90311607.934 7      3001.280          47.000
C12  22568691.992 8 117521099.833 8      1318.203          50.000    22568692.203 8  90874771.587 8      1019.291          51.000
C24  22755348.328 8 118493062.641 8     -1497.551          48.000
C25  22307018.727 5 116158489.491 5      1301.711          31.000
E01  24140023.656 8 126856676.897 8     -1038.246          51.000    24140025.836 8  97201874.515 8      -795.536          51.000
E04  26087763.969 7 137092168.755 7     -2735.723          47.000    26087764.406 7 105044588.639 7     -2096.143          43.000
E13  26999683.406 6 141884290.286 6     -1129.082          38.000    26999685.461 6 108716538.124 6      -865.246          36.000
> 2020 05 04 09 02  0.0000000  0 14        .000000000000
G12  20085597.109 8 105550546.838 8       384.312          49.000    20085596.234 8  82247155.491 8       299.464          49.000
G15  24973812.266 5 131238268.487 5     -3707.898          30.000
G24  20498295.938 8 107719315.684 8     -1311.766          51.000    20498297.477 8  83937114.249 8     -1022.158          51.000
G25  21414776.398 6 112535387.107 6      2198.910          37.000
R09  19823292.094 8 105855271.674 8      -931.145          51.000    19823293.539 8  82331884.598 8      -724.224          51.000
R18  23297104.492 5 124361525.231 5     -3467.469          31.000
R20  21692465.438 6 115999368.689 6      3844.797          41.000    21692468.438 8  90221733.418 8      2990.398          48.000
C11  25049203.828 6 130437786.651 6      3407.008          37.000
C12  22561145.109 8 117481799.894 8      1301.707          50.000    22561145.219 8  90844382.395 8      1006.626          51.000
C24  22763996.602 7 118538099.394 7     -1505.051          45.000
E01  24145963.953 8 126887893.515 8     -1042.922          51.000    24145966.078 8  97225793.739 8      -799.134          51.000
E04  26103398.383 7 137174330.798 7     -2741.664          47.000    26103400.867 7 105107543.924 7     -2100.720          44.000
E13  27006170.797 6 141918377.805 6     -1143.316          38.000    27006173.516 6 108742657.097 6      -876.152          37.000
E31  24273493.820 5 127558073.122 5      1168.836          34.000
> 2020 05 04 09 02 30.0000000  0 12        .000000000000
G12  20083444.000 8 105539233.124 8       370.543          49.000    20083443.180 8  82238339.628 8       288.735          49.000
G24  20505827.188 8 107758891.639 8     -1325.852          51.000    20505828.398 8  83967952.627 8     -1033.131          51.000
G25  21402256.523 6 112469592.018 6      2188.586          36.000
R09  19828556.250 8 105883382.368 8      -942.082          51.000    19828557.938 8  82353748.463 8      -732.730          51.000
R20  21670936.852 6 115884247.248 6      3830.648          40.000    21670940.625 7  90132194.523 7      2979.393          46.000
C11  25029585.938 6 130335639.771 6      3403.523          36.000    25029602.930 5 100783840.272 5      2631.440          30.000
C12  22553695.211 8 117443005.860 8      1285.375          49.000    22553695.094 8  90814384.399 8       993.864          51.000
C24  22772691.719 7 118583379.668 7     -1512.695          43.000
E01  24151933.391 8 126919262.884 8     -1047.586          51.000    24151935.477 8  97249830.004 8      -802.705          51.000
E04  26119069.156 7 137256682.210 7     -2747.582          45.000    26119071.922 7 105170644.307 7     -2105.305          45.000
E13  27012739.883 6 141952896.778 6     -1157.355          39.000    27012742.758 6 108769106.688 6      -887.047          37.000
E31  24266840.164 5 127523104.597 5      1164.363          32.000
> 2020 05 04 09 03  0.0000000  0 13        .000000000000
G02  24164185.320 4 126983636.081 4      2292.219          28.000
G12  20081388.203 8 105528430.231 8       354.922          49.000    20081387.461 8  82229921.785 8       276.562          49.000
G24  20513457.445 8 107798987.926 8     -1341.902          51.000    20513458.398 8  83999196.453 8     -1045.638          51.000
G25  21389813.227 5 112404205.482 5      2175.699          32.000
R09  19833901.016 8 105911922.764 8      -955.094          51.000    19833902.914 8  82375946.538 8      -742.851          51.000
R20  21649506.672 6 115769651.078 6      3814.480          39.000    21649510.367 7  90043064.147 7      2966.818          44.000
C11  25010007.750 5 130233711.171 5      3397.168          31.000    25010010.898 5 100704980.139 5      2626.604          34.000
C12  22546359.320 8 117404805.340 8      1266.668          49.000    22546358.953 8  90784845.334 8       979.492          51.000
C24  22781450.836 6 118628989.764 6     -1522.672          41.000
E01  24157948.516 8 126950872.015 8     -1054.309          51.000    24157950.562 8  97274049.979 8      -807.862          51.000
E04  26134792.391 7 137339308.323 7     -2755.496          44.000    26134794.547 7 105233955.180 7     -2111.228          45.000
E09  23396250.625 5 122948133.986 5      -562.074          33.000    23396256.117 5  94207025.731 5      -431.027          34.000
E13  27019407.258 6 141987933.452 6     -1173.145          38.000    27019410.078 6 108795952.947 6      -898.915          37.000
> 2020 05 04 09 03 30.0000000  0 12        .000000000000
G12  20079378.383 8 105517867.643 8       343.562          48.000    20079377.570 8  82221691.195 8       267.711          48.000
G24  20521135.180 8 107839333.841 8     -1353.496          51.000    20521135.961 8  84030634.814 8     -1054.672          51.000
G25  21377396.266 5 112338958.533 5      2168.191          32.000
R09  19839275.000 8 105940618.998 8      -963.680          51.000    19839276.867 8  82398265.832 8      -749.529          51.000
R20  21628123.742 6 115655310.231 6      3802.137          36.000    21628128.148 7  89954132.369 7      2957.217          42.000
C11  24990422.094 5 130131736.116 5      3395.332          30.000    24990419.273 5 100626126.573 5      2625.722          34.000
C12  22539086.234 8 117366932.320 8      1252.551          48.000    22539085.898 8  90755559.526 8       968.594          51.000
C24  22790221.570 6 118674662.462 6     -1527.883          39.000
E01  24163957.773 8 126982451.032 8     -1056.496          51.000    24163960.031 8  97298246.884 8      -809.535          51.000
E04  26150516.125 6 137421937.585 6     -2758.617          39.000    26150517.570 7 105297268.496 7     -2113.794          45.000
E09  23399476.922 5 122965080.077 5      -574.008          32.000    23399475.844 5  94220003.330 5      -439.878          31.000
E13  27026118.719 5 142023218.257 5     -1184.691          33.000    27026122.516 6 108822994.593 6      -907.616          36.000
> 2020 05 04 09 04  0.0000000  0 12        .000000000000
G02  24138086.344 5 126846510.067 5      2261.805          32.000
G12  20077482.008 7 105507902.161 7       313.277          47.000    20077481.070 7  82213925.896 7       244.112          47.000
G24  20528928.180 8 107880286.181 8     -1384.211          51.000    20528929.188 8  84062545.721 8     -1078.603          51.000
G25  21365073.102 4 112274217.158 4      2141.102          29.000
R09  19844746.141 8 105969834.180 8      -991.672          51.000    19844747.930 8  82420988.751 8      -771.300          51.000
R20  21606855.133 5 115541592.539 5      3771.043          33.000    21606861.750 6  89865685.383 6      2933.039          38.000
C11  24970897.344 5 130030070.811 5      3374.102          31.000    24970890.914 5 100547512.459 5      2609.287          30.000
C12  22531944.125 8 117329741.777 8      1219.328          48.000    22531944.078 8  90726801.439 8       942.883          51.000
C24  22799071.672 7 118720751.700 7     -1552.336          43.000
E01  24170029.180 8 127014356.767 8     -1078.023          50.000    24170031.680 8  97322694.138 8      -826.042          51.000
E04  26166306.547 5 137504925.069 5     -2781.109          34.000    26166309.234 7 105360856.391 7     -2131.049          45.000
E09  23402821.336 5 122982655.497 5      -605.480          35.000    23402823.672 5  94233468.529 5      -463.524          32.000
> 2020 05 04 09 04 30.0000000  0 11        .000000000000
G02  24125104.008 6 126778289.892 6      2274.805          36.000
G12  20075642.688 8 105498235.800 8       319.719          49.000    20075641.492 8  82206393.661 8       249.131          49.000
G24  20536779.727 8 107921547.649 8     -1378.008          51.000    20536781.320 8  84094697.524 8     -1073.772          51.000
R09  19850257.758 8 105999265.976 8      -982.074          51.000    19850259.422 8  82443880.134 8      -763.836          51.000
R20  21585648.055 5 115428200.151 5      3776.727          35.000    21585652.992 6  89777491.383 6      2937.454          39.000
C11  24951376.602 5 129928422.692 5      3390.582          34.000
C12  22524876.453 7 117292940.035 7      1222.844          47.000    22524876.938 8  90698344.004 8       945.520          51.000
C24  22807946.578 7 118766962.534 7     -1539.879          45.000
E01  24176106.242 8 127046291.561 8     -1062.387          50.000    24176108.797 8  97347163.657 8      -814.052          51.000
E04  26182108.453 6 137587971.559 6     -2766.680          37.000    26182112.953 7 105424489.509 7     -2119.855          46.000
E09  23406228.570 5 123000555.062 5      -599.344          34.000    23406235.070 6  94247183.862 6      -459.396          36.000
> 2020 05 04 09 05  0.0000000  0 12        .000000000000
G02  24112143.859 6 126710182.541 6      2271.391          38.000
G12  20073857.359 8 105488852.462 8       311.207          49.000    20073856.109 8  82199081.971 8       242.499          49.000
G19  22748399.102 5 119543634.666 5     -2741.309          33.000
G24  20544686.945 8 107963102.507 8     -1386.902          51.000    20544688.914 8  84127077.955 8     -1080.700          51.000
R09  19855807.094 8 106028898.838 8      -987.898          51.000    19855808.359 8  82466927.922 8      -768.365          50.000
R20  21564502.031 6 115315121.550 6      3767.480          39.000    21564507.047 7  89689541.445 7      2930.266          44.000
C11  24931857.773 5 129826778.747 5      3391.191          35.000
C12  22517880.703 7 117256513.020 7      1211.113          47.000    22517881.539 8  90670176.325 8       936.576          51.000
C24  22816841.727 7 118813279.722 7     -1542.516          46.000
E01  24182185.875 8 127078239.747 8     -1061.867          51.000    24182188.336 8  97371643.442 8      -813.612          51.000
E04  26197919.680 6 137671059.846 6     -2766.867          39.000    26197925.188 7 105488154.544 7     -2120.223          47.000
E09                                                                  23409703.312 5  94261133.115 5      -466.316          35.000
> 2020 05 04 09 05 30.0000000  0 14        .000000000000
G02  24099241.875 6 126642382.086 6      2253.375          37.000
G12  20072161.875 8 105479943.255 8       287.957          48.000    20072160.680 8  82192139.754 8       224.382          48.000
G19  22764133.422 5 119626327.088 5     -2766.203          33.000
G24  20552686.664 8 108005141.998 8     -1410.469          51.000    20552688.812 8  84159836.022 8     -1099.067          51.000
G25  21328371.953 5 112081350.108 5      2126.215          32.000
R08  21636714.258 6 115863612.933 6     -2343.992          40.000
R09  19861430.391 8 106058927.592 8     -1008.664          51.000    19861431.977 8  82490283.601 8      -784.516          50.000
R20  21543453.609 6 115202556.779 6      3742.379          41.000    21543458.633 7  89601991.118 7      2910.742          46.000
C11  24912377.016 6 129725331.079 6      3377.242          36.000
C12  22510993.867 8 117220651.471 8      1184.879          48.000    22510994.664 8  90642445.904 8       916.196          51.000
C24  22825793.781 7 118859892.948 7     -1559.734          47.000
E01  24188304.555 8 127110392.668 8     -1076.312          51.000    24188306.672 8  97396280.104 8      -824.698          51.000
E04  26213775.188 6 137754379.460 6     -2782.191          39.000    26213781.703 7 105551996.822 7     -2131.887          47.000
E09                                                                  23413263.508 5  94275462.622 5      -484.819          33.000
> 2020 05 04 09 06  0.0000000  0 14        .000000000000
G02  24086392.156 5 126574860.792 5      2250.051          35.000
G12  20070550.797 8 105471477.573 8       278.844          49.000    20070549.562 8  82185543.101 8       217.281          49.000
G19  22779957.008 5 119709487.260 5     -2775.379          35.000
G24  20560772.961 8 108047635.005 8     -1420.000          51.000    20560775.180 8  84192947.452 8     -1106.494          51.000
G25  21316280.914 5 112017805.382 5      2119.727          31.000
R08  21649894.250 6 115934213.917 6     -2360.266          39.000
R09  19867122.039 8 106089321.329 8     -1015.086          51.000    19867124.062 8  82513923.138 8      -789.511          49.000
R20  21522496.242 6 115090478.715 6      3731.871          41.000    21522500.891 7  89514819.339 7      2902.566          47.000
C11  24892928.805 6 129624051.981 6      3377.262          38.000    24892938.297 5 100233552.575 5      2611.217          31.000
C12  22504210.133 7 117185326.422 7      1172.539          47.000    22504210.789 8  90615130.369 8       906.682          50.000
C24  22834796.617 8 118906772.043 8     -1563.035          48.000
E01  24194456.273 8 127142719.694 8     -1076.445          51.000    24194457.953 8  97421050.172 8      -824.833          51.000
E04  26229668.445 6 137837898.024 6     -2783.008          38.000    26229675.898 7 105615991.568 7     -2132.545          46.000
E09                                                                  23416912.414 5  94290148.691 5      -492.308          35.000
> 2020 05 04 09 06 30.0000000  0 13        .000000000000
G02  24073585.258 6 126507560.656 6      2238.828          36.000
G12  20069012.672 8 105463393.830 8       262.637          49.000    20069011.695 8  82179244.080 8       204.652          49.000
G19  22795859.258 5 119793052.003 5     -2792.863          32.000
G24  20568934.156 8 108090521.047 8     -1436.566          51.000    20568936.266 8  84226365.138 8     -1119.402          51.000
R08  21663185.648 6 116005413.768 6     -2383.730          37.000
R09  19872870.594 8 106120018.507 8     -1028.770          51.000    19872872.641 8  82537798.710 8      -800.154          48.000
R20  21501618.227 6 114978830.518 6      3714.133          40.000    21501623.203 7  89427981.907 7      2888.773          47.000
C11  24873501.344 6 129522883.449 6      3370.219          36.000    24873505.219 5 100155322.603 5      2605.759          34.000
C12  22497518.125 8 117150478.728 8      1153.301          48.000    22497518.320 8  90588183.969 8       891.681          49.000
C24  22843838.953 8 118953856.770 8     -1573.434          48.000
E01  24200629.500 8 127175159.895 8     -1083.637          50.000    24200630.961 8  97445906.952 8      -830.349          50.000
E04  26245586.930 6 137921552.936 6     -2791.223          36.000    26245595.781 7 105680090.815 7     -2138.753          46.000
E09                                                                  23420639.125 5  94305204.242 5      -505.532          32.000
> 2020 05 04 09 07  0.0000000  0 15        .000000000000
G02  24060843.062 6 126440598.485 6      2229.016          36.000
G12  20067568.922 8 105455805.669 8       247.410          50.000    20067567.938 8  82173331.259 8       192.790          50.000
G19  22811860.453 5 119877132.514 5     -2808.996          32.000
G24  20577191.727 8 108133913.257 8     -1452.148          51.000    20577193.625 8  84260177.225 8     -1131.544          51.000
G25  21292222.414 6 111891424.035 6      2094.367          36.000
R08  21676610.070 6 116077325.144 6     -2406.055          37.000
R09  19878697.758 8 106151135.350 8     -1041.484          51.000    19878700.094 8  82562000.681 8      -810.043          48.000
R18  23496333.977 4 125425026.428 4     -3621.227          27.000
R20  21480842.500 6 114867733.066 6      3696.691          39.000    21480847.820 7  89341572.827 7      2875.204          45.000
C11  24854116.664 5 129421940.982 5      3363.719          35.000    24854118.336 5 100077267.498 5      2600.724          35.000
C12  22490939.789 8 117116222.658 8      1134.699          48.000    22490939.047 8  90561695.038 8       877.424          49.000
C24  22852942.477 7 119001260.225 7     -1582.754          47.000
E01  24206845.883 8 127207827.287 8     -1090.004          50.000    24206847.531 8  97470937.803 8      -835.219          50.000
E04  26261552.523 5 138005389.514 5     -2798.074          33.000    26261563.031 7 105744380.577 7     -2144.096          45.000
E33  27011100.633 7 141944289.574 7      3035.930          44.000    27011108.164 7 108762536.574 7      2326.265          45.000
> 2020 05 04 09 07 30.0000000  0 14        .000000000000
G02  24048159.516 6 126373941.952 6      2223.699          39.000    24048171.492 4  98473226.988 4      1732.737          26.000
G12  20066212.500 8 105448677.300 8       236.930          49.000    20066210.852 8  82167776.699 8       184.621          49.000
G19  22827952.258 5 119961690.576 5     -2819.574          32.000
G24  20585539.016 8 108177776.818 8     -1462.945          51.000    20585540.438 8  84294356.589 8     -1139.960          51.000
G25  21280313.758 5 111828840.485 5      2087.043          31.000
R08  21690162.086 6 116149908.335 6     -2423.621          37.000    21690166.953 5  90338777.366 5     -1885.042          30.000
R09  19884596.977 8 106182636.241 8     -1049.273          51.000    19884599.352 7  82586501.354 7      -816.102          47.000
R20  21460163.883 6 114757155.013 6      3684.316          41.000    21460168.648 7  89255567.709 7      2865.579          44.000
C11  24834769.477 5 129321192.010 5      3361.531          34.000    24834769.641 6  99999361.983 6      2599.736          36.000
C12  22484468.203 7 117082524.210 7      1121.027          47.000    22484466.922 8  90535637.296 8       866.738          49.000
C24  22862100.148 7 119048947.401 7     -1587.332          46.000
E01  24213098.664 8 127240686.333 8     -1091.449          50.000    24213100.789 8  97496115.512 8      -836.356          49.000
E04                                                                  26277570.562 7 105808832.350 7     -2145.835          43.000
E33  26993794.664 7 141853345.453 7      3036.227          44.000    26993803.719 7 108692852.130 7      2326.361          45.000
> 2020 05 04 09 08  0.0000000  0 13        .000000000000
G02  24035495.227 6 126307387.710 6      2219.129          36.000
G12  20064904.117 8 105441802.241 8       227.836          50.000    20064901.930 8  82162419.504 8       177.534          50.000
G24  20593936.531 8 108221904.649 8     -1472.340          51.000    20593937.547 8  84328741.876 8     -1147.278          51.000
R08  21703800.969 6 116222949.830 6     -2439.523          36.000    21703807.609 5  90395587.378 5     -1897.410          30.000
R09  19890528.992 8 106214311.878 8     -1055.836          51.000    19890530.930 7  82611137.958 7      -821.206          46.000
R20  21439544.398 6 114646891.108 6      3673.125          40.000    21439547.562 7  89169806.902 7      2856.872          44.000
C11  24815420.477 5 129220434.742 5      3361.684          31.000    24815420.188 5  99921450.174 5      2599.416          35.000
C12  22478064.469 7 117049180.403 7      1108.410          47.000    22478063.391 8  90509853.804 8       857.117          51.000
C24  22871272.711 6 119096714.221 6     -1590.832          41.000
E01  24219348.664 8 127273531.013 8     -1091.727          50.000    24219351.023 8  97521282.212 8      -836.545          48.000
E04                                                                  26293578.734 6 105873286.932 6     -2146.341          41.000
E09  23432327.078 5 123137709.178 5      -696.656          33.000
E33  26976475.008 7 141762334.030 7      3037.805          46.000    26976485.945 7 108623116.157 7      2327.591          44.000
> 2020 05 04 09 08 30.0000000  0 13        .000000000000
G02  24022877.875 6 126241081.348 6      2204.777          36.000
G12  20063671.172 8 105435323.180 8       207.875          50.000    20063668.945 8  82157370.891 8       161.981          50.000
G24  20602411.250 8 108266439.145 8     -1492.809          51.000    20602411.883 8  84363444.032 8     -1163.227          51.000
R08  21717550.430 5 116296591.314 5     -2466.352          35.000    21717560.836 5  90452864.125 5     -1918.270          31.000
R09  19896520.891 8 106246307.948 8     -1073.426          50.000    19896522.312 7  82636023.790 7      -834.890          45.000
R20  21419010.891 6 114537091.765 6      3650.703          37.000    21419013.664 7  89084407.435 7      2839.436          45.000
C11                                                                  24796096.383 5  99843643.318 5      2590.792          33.000
C12  22471756.711 8 117016333.996 8      1085.078          48.000    22471755.578 8  90484454.880 8       839.063          51.000
C24  22880486.156 6 119144702.328 6     -1604.996          37.000
E01  24225623.055 8 127306504.141 8     -1102.785          50.000    24225625.445 7  97546547.329 7      -845.012          47.000
E04                                                                  26309615.031 6 105937852.450 6     -2155.206          38.000
E09  23436373.469 5 123158972.961 5      -717.402          35.000
E33  26959170.227 8 141671400.478 8      3028.246          48.000    26959183.109 7 108553439.844 7      2320.282          43.000
> 2020 05 04 09 09  0.0000000  0 15        .000000000000
G02  24010309.305 6 126175029.974 6      2197.801          36.000
G12  20062514.125 8 105429243.638 8       196.340          48.000    20062512.125 8  82152633.593 8       152.992          48.000
G24  20610963.961 8 108311384.637 8     -1504.648          51.000    20610964.375 8  84398466.452 8     -1172.456          51.000
G25  21244854.844 5 111642468.587 5      2055.820          34.000
R08  21731412.148 6 116370833.639 6     -2484.371          36.000    21731429.734 5  90510608.196 5     -1932.286          32.000
R09  19902573.516 8 106278628.429 8     -1082.453          49.000    19902574.195 7  82661161.955 7      -841.908          44.000
R20  21398564.578 6 114427765.444 6      3636.430          36.000    21398569.172 7  88999375.863 7      2828.334          45.000
C11                                                                  24776799.844 5  99765946.436 5      2588.170          33.000
C12  22465545.461 8 116983989.896 8      1070.078          48.000    22465544.477 8  90459444.365 8       827.540          51.000
C24  22889744.062 6 119192915.677 6     -1610.582          36.000
C25  22199364.539 4 115597817.469 4      1191.812          29.000
E01  24231922.625 8 127339609.597 8     -1105.320          49.000    24231925.133 7  97571913.837 7      -846.886          46.000
E04                                                                  26325681.109 6 106002530.579 6     -2157.523          36.000
E09  23440501.094 5 123180656.761 5      -729.355          35.000
E33  26941881.773 8 141580550.935 8      3027.223          48.000    26941896.891 6 108483827.902 6      2319.671          39.000
> 2020 05 04 09 09 30.0000000  0 13        .000000000000
G02  23997793.328 6 126109253.647 6      2189.719          36.000
G12  20061436.266 8 105423581.024 8       183.285          48.000    20061434.633 8  82148221.163 8       142.820          48.000
G24  20619597.758 8 108356758.635 8     -1518.062          49.000    20619598.641 8  84433822.794 8     -1182.906          49.000
R08  21745396.469 6 116445608.342 6     -2503.973          37.000    21745415.008 4  90568849.891 4     -1947.531          29.000
R09  19908690.258 8 106311292.062 8     -1092.879          48.000    19908690.766 7  82686567.031 7      -850.014          44.000
R20  21378211.758 5 114318934.848 5      3620.539          35.000    21378217.688 7  88914729.850 7      2815.975          47.000
C11                                                                  24757535.945 5  99688375.054 5      2585.050          32.000
C12  22459434.133 8 116952167.085 8      1053.582          49.000    22459433.852 8  90434836.980 8       814.718          51.000
C24  22899050.836 7 119241372.208 7     -1617.715          42.000
E01  24238250.914 8 127372865.235 8     -1109.504          49.000    24238253.609 7  97597395.410 7      -850.065          45.000
E04                                                                  26341780.000 5 106067333.643 5     -2161.001          34.000
E09  23444711.633 5 123202791.142 5      -742.949          32.000
E33  26924612.406 7 141489795.538 7      3024.730          47.000    26924604.492 5 108414223.108 5      2317.363          35.000
> 2020 05 04 09 10  0.0000000  0 14        .000000000000
G02  23985316.477 5 126043682.189 5      2180.461          35.000
G12  20060424.016 8 105418261.753 8       169.965          49.000    20060422.516 8  82144076.262 8       132.440          49.000
G24  20628298.695 8 108402487.392 8     -1531.980          48.000    20628300.547 8  84469455.599 8     -1193.751          48.000
R08  21759479.859 6 116521003.140 6     -2523.734          38.000
R09  19914857.203 7 106344224.077 7     -1103.840          47.000    19914858.305 7  82712180.820 7      -858.539          45.000
R20  21357939.422 6 114210529.939 6      3604.586          39.000    21357946.203 7  88830415.002 7      2803.570          47.000
C11                                                                  24738291.055 5  99610874.730 5      2580.830          33.000
C12  22453409.195 8 116920793.652 8      1036.660          50.000    22453409.344 8  90410577.083 8       801.660          51.000
C24  22908390.719 7 119289999.109 7     -1625.285          43.000
C25  22185679.375 4 115526642.488 4      1177.008          28.000
E01  24244593.867 8 127406197.545 8     -1113.902          49.000    24244596.453 7  97622935.735 7      -853.495          45.000
E04  26357870.062 5 138511530.905 5     -2825.297          34.000
E09  23448991.266 5 123225277.927 5      -757.094          32.000
E33  26907349.461 7 141399083.054 7      3021.543          46.000    26907345.352 6 108344716.209 6      2315.235          39.000
> 2020 05 04 09 10 30.0000000  0 11        .000000000000
G12  20059497.055 8 105413390.461 8       153.758          49.000    20059495.523 8  82140280.456 8       119.811          49.000
G24  20637087.594 8 108448676.116 8     -1548.336          50.000    20637090.047 8  84505446.825 8     -1206.496          50.000
R08  21773678.641 6 116597038.258 6     -2546.484          38.000    21773695.234 4  90686670.035 4     -1980.596          25.000
R09  19921094.664 7 106377532.266 7     -1117.746          45.000    19921096.070 7  82738087.195 7      -869.358          44.000
R20  21337768.008 6 114102662.670 6      3585.492          40.000    21337774.812 7  88746518.306 7      2788.719          46.000
C11  24719085.984 5 128718780.000 5      3330.367          33.000    24719085.086 5  99533528.400 5      2574.840          35.000
C12  22447491.203 8 116889975.359 8      1017.043          51.000    22447491.031 8  90386746.426 8       786.451          51.000
C24  22917782.703 7 119338901.118 7     -1635.684          45.000
E01  24250971.625 8 127439711.995 8     -1121.125          50.000    24250973.828 7  97648615.614 7      -859.026          45.000
E04  26374019.234 6 138596397.788 6     -2832.273          36.000    26374016.125 5 106197226.486 5     -2170.001          35.000
E33  26890113.000 7 141308511.261 7      3015.699          46.000    26890113.203 7 108275317.097 7      2310.752          42.000
> 2020 05 04 09 11  0.0000000  0 12        .000000000000
G12  20058664.594 8 105409016.003 8       141.746          48.000    20058663.000 8  82136871.802 8       110.452          49.000
G24  20645974.055 8 108495374.070 8     -1560.840          51.000    20645976.852 8  84541834.849 8     -1216.239          51.000
R08  21788005.625 6 116673760.771 6     -2564.480          39.000
R09  19927412.281 7 106411267.230 7     -1127.316          45.000    19927414.078 7  82764325.473 7      -876.802          44.000
R20  21317707.344 7 113995388.253 7      3570.277          42.000    21317713.477 7  88663082.701 7      2776.882          47.000
C11  24699919.508 5 128619004.435 5      3325.699          34.000    24699927.117 5  99456375.674 5      2571.992          33.000
C12  22441689.102 8 116859762.136 8      1001.195          50.000    22441689.062 8  90363383.669 8       774.164          51.000
C24  22927236.680 7 119388127.185 7     -1642.176          46.000
C25  22172255.500 5 115456793.023 5      1160.172          32.000
E01  24257393.477 8 127473458.029 8     -1124.516          50.000    24257395.594 7  97674472.941 7      -861.606          45.000
E04  26390213.758 5 138681489.950 5     -2836.457          34.000    26390211.484 6 106262426.974 6     -2172.871          37.000
E33  26872913.617 7 141218131.871 7      3013.680          45.000    26872917.453 7 108206065.389 7      2309.204          45.000
> 2020 05 04 09 11 30.0000000  0 13        .000000000000
G02  23948251.094 5 125848889.694 5      2167.598          33.000
G12  20057905.477 8 105405027.192 8       143.652          48.000    20057903.969 8  82133763.615 8       111.934          48.000
G24  20654936.242 8 108542469.667 8     -1559.461          51.000    20654939.273 8  84578532.689 8     -1215.164          51.000
G25  21186984.297 5 111338348.351 5      2017.645          32.000
R08  21802440.352 6 116751053.454 6     -2568.516          40.000
R09  19933788.953 7 106445316.086 7     -1123.051          44.000    19933790.180 7  82790807.930 7      -873.484          43.000
R20  21297737.938 7 113888597.996 7      3568.836          42.000    21297742.594 7  88580023.655 7      2775.764          47.000
C11  24680782.008 5 128519371.577 5      3335.633          34.000
C12  22435982.039 8 116830044.915 8       999.133          50.000    22435982.445 8  90340404.476 8       772.587          51.000
C24  22936731.211 7 119437567.348 7     -1634.766          46.000
E01  24263838.203 8 127507324.449 8     -1113.840          50.000    24263840.297 7  97700422.529 7      -853.554          45.000
E04                                                                  26406430.219 6 106327724.285 6     -2165.107          38.000
E33  26855730.516 7 141127835.964 7      3025.375          45.000    26855736.383 7 108136877.642 7      2318.240          46.000
> 2020 05 04 09 12  0.0000000  0 14        .000000000000
G02  23935958.141 5 125784308.983 5      2129.871          34.000
G12  20057163.680 8 105401129.601 8       102.152          48.000    20057162.430 8  82130726.537 8        79.599          48.000
G24  20663917.992 8 108589668.604 8     -1601.238          51.000    20663921.078 8  84615311.086 8     -1247.718          51.000
G25  21175548.266 5 111278256.879 5      1978.621          35.000
R08  21816924.375 6 116828613.029 6     -2616.090          38.000    21816950.016 4  90866826.676 4     -2034.737          28.000
R09  19940168.203 6 106479380.518 6     -1162.297          41.000    19940169.680 7  82817302.507 7      -904.012          43.000
R20  21277803.820 6 113781997.472 6      3523.598          41.000    21277807.523 7  88497112.197 7      2740.579          47.000
C11  24661617.891 5 128419592.786 5      3302.387          35.000
C12  22430314.766 8 116800533.541 8       954.320          49.000    22430314.992 8  90317584.417 8       737.980          51.000
C24  22946210.562 7 119486930.410 7     -1670.117          46.000
E01  24270249.820 8 127541017.386 8     -1146.387          50.000    24270251.914 7  97726239.185 7      -878.370          45.000
E04                                                                  26422616.922 6 106392891.832 6     -2190.252          41.000
E31  24145475.961 5 126885333.296 5      1060.922          34.000    24145483.977 5  97223849.087 5       813.276          35.000
E33  26838507.977 7 141037331.834 7      2994.105          46.000    26838514.742 7 108067530.380 7      2294.128          46.000
> 2020 05 04 09 12 30.0000000  0 14        .000000000000
G02  23923737.727 6 125720086.550 6      2134.660          37.000
G12  20056538.930 8 105397846.789 8       102.738          49.000    20056537.984 8  82128168.516 8        80.056          49.000
G24  20673019.242 8 108637495.206 8     -1601.004          51.000    20673022.391 8  84652578.561 8     -1247.536          51.000
R08  21831557.414 7 116906969.831 7     -2621.336          42.000    21831577.086 5  90927766.955 5     -2038.817          30.000
R09  19946649.328 6 106513993.208 6     -1158.816          38.000    19946651.570 7  82844223.508 7      -901.302          42.000
R20  21258005.023 6 113676124.366 6      3520.652          39.000    21258008.398 7  88414766.493 7      2738.288          45.000
C11  24642527.070 6 128320189.589 6      3310.844          36.000    24642533.312 5  99225256.739 5      2560.088          35.000
C12  22424786.781 8 116771748.158 8       950.992          49.000    22424786.766 8  90295325.778 8       735.322          51.000
C24  22955774.953 8 119536735.638 8     -1663.914          48.000
C25  22152349.227 5 115353091.668 5      1137.555          31.000
E01  24276728.000 8 127575060.725 8     -1137.000          50.000    24276730.242 7  97752324.335 7      -871.184          45.000
E04  26438869.477 5 138937209.216 5     -2848.961          34.000    26438870.289 7 106458329.760 7     -2183.087          42.000
E31                                                                  24139361.906 5  97199199.103 5       819.559          35.000
E33  26821346.031 7 140947145.711 7      3004.457          46.000    26821352.602 7 107998426.777 7      2302.098          46.000
> 2020 05 04 09 13  0.0000000  0 13        .000000000000
G12  20055996.586 8 105394996.810 8        76.914          50.000    20055995.766 8  82125947.757 8        59.933          50.000
G24  20682205.242 8 108685766.838 8     -1627.398          51.000    20682208.359 8  84690192.818 8     -1268.103          51.000
R08  21846304.289 6 116985935.278 6     -2653.414          41.000    21846318.773 4  90989184.616 4     -2063.763          28.000
R09  19953198.883 6 106548969.900 6     -1183.258          38.000    19953201.719 7  82871427.579 7      -920.315          42.000
R20  21238307.688 6 113570798.747 6      3491.004          37.000    21238312.148 7  88332846.619 7      2715.228          44.000
C11  24623475.516 6 128220984.673 6      3292.902          36.000    24623484.867 6  99148545.189 6      2546.154          39.000
C12  22419364.008 8 116743509.913 8       921.246          49.000    22419363.492 8  90273490.202 8       712.414          51.000
C24  22965390.406 7 119586803.260 7     -1683.965          46.000
C25  22145820.938 5 115319111.492 5      1117.867          33.000
E01  24283238.391 8 127609273.012 8     -1154.145          50.000    24283240.875 7  97778538.947 7      -884.297          45.000
E04  26455153.016 6 139022780.869 6     -2866.254          38.000    26455155.211 7 106523897.623 7     -2196.143          43.000
E31                                                                  24133272.477 5  97174685.448 5       806.401          33.000
E33  26804210.758 8 140857098.408 8      2988.344          48.000    26804216.516 7 107929429.541 7      2289.746          46.000
> 2020 05 04 09 13 30.0000000  0 13        .000000000000
G12  20055568.328 8 105392746.316 8        78.820          49.000    20055567.383 8  82124194.139 8        61.418          49.000
G24  20691507.758 8 108734650.992 8     -1625.898          51.000    20691510.648 8  84728284.358 8     -1266.934          51.000
R08  21861193.734 6 117065675.473 6     -2656.805          37.000    21861202.164 4  91051204.953 4     -2066.395          28.000
R09  19959849.664 6 106584480.881 6     -1178.719          39.000    19959851.703 7  82899047.296 7      -916.778          42.000
R20  21218745.672 6 113466195.448 6      3488.781          38.000    21218750.242 7  88251488.502 7      2713.500          44.000
C11  24604494.977 6 128122146.149 6      3301.996          38.000    24604505.422 6  99072116.959 6      2553.358          41.000
C12  22414078.039 8 116715985.428 8       919.207          49.000    22414077.383 8  90252206.565 8       710.804          51.000
C24  22975087.422 7 119637299.121 7     -1676.449          45.000
C25  22139377.445 5 115285567.006 5      1124.754          32.000
E01  24289812.711 8 127643821.412 8     -1143.496          50.000    24289815.273 7  97805011.097 7      -876.212          45.000
E04  26471500.773 6 139108687.500 6     -2855.305          40.000    26471503.227 7 106589722.182 7     -2187.969          44.000
E31                                                                  24127246.766 5  97150426.438 5       814.252          30.000
E33  26787134.508 8 140767359.350 8      2999.902          49.000    26787138.898 7 107860668.468 7      2298.620          45.000
> 2020 05 04 09 14  0.0000000  0 12        .000000000000
G12  20055171.227 8 105390659.379 8        62.832          50.000    20055170.430 8  82122567.965 8        48.960          50.000
G24  20700843.672 8 108783711.195 8     -1642.145          51.000    20700846.430 8  84766513.064 8     -1279.593          51.000
R08  21876143.883 6 117145742.913 6     -2678.301          37.000    21876149.461 5  91113479.609 5     -2083.123          32.000
R09  19966518.016 6 106620083.996 6     -1192.531          40.000    19966518.695 7  82926738.683 7      -927.524          42.000
R20  21199237.320 6 113361875.462 6      3468.500          38.000    21199241.461 7  88170350.803 7      2697.725          45.000
C11  24585502.961 6 128023244.845 6      3293.637          39.000    24585513.352 7  98995640.189 7      2546.909          44.000
C12  22408846.594 8 116688744.123 8       899.406          49.000    22408846.016 8  90231141.887 8       695.475          51.000
C24  22984784.312 7 119687791.649 7     -1686.910          44.000
C25  22132935.422 5 115252000.650 5      1112.547          30.000
E01  24296368.172 8 127678270.419 8     -1150.562          49.000    24296370.406 7  97831407.092 7      -881.657          45.000
E04  26487829.406 6 139194491.917 6     -2862.551          40.000    26487831.250 7 106655468.363 7     -2193.278          44.000
E33  26770034.555 8 140677495.213 8      2993.566          49.000    26770037.555 7 107791811.586 7      2293.718          45.000
> 2020 05 04 09 14 30.0000000  0 13        .000000000000
G02  23875437.453 6 125466307.239 6      2109.641          36.000
G12  20054819.453 8 105388810.794 8        62.230          50.000    20054818.703 8  82121127.523 8        48.491          50.000
G24  20710227.539 8 108833022.679 8     -1643.340          51.000    20710230.156 8  84804937.582 8     -1280.525          51.000
R08  21891171.023 6 117226210.710 6     -2684.035          37.000    21891176.328 6  91176065.595 6     -2087.586          36.000
R09  19973217.297 7 106655855.709 7     -1190.465          42.000    19973217.547 7  82954561.143 7      -925.917          42.000
R20  21179797.320 6 113257920.088 6      3463.574          38.000    21179801.664 7  88089496.700 7      2693.891          46.000
C11  24566513.594 6 127924357.683 6      3300.422          38.000    24566524.125 7  98919174.369 7      2552.156          46.000
C12  22403683.789 8 116661861.279 8       894.609          48.000    22403683.602 8  90210354.380 8       691.832          51.000
C24  22994494.875 6 119738355.296 6     -1682.297          40.000
C25  22126509.297 5 115218541.860 5      1118.781          31.000
E01  24302919.031 8 127712695.094 8     -1142.324          50.000    24302920.773 7  97857784.446 7      -875.317          44.000
E04  26504152.352 6 139280267.389 6     -2854.090          39.000    26504152.883 7 106721192.377 7     -2186.921          43.000
E33  26752925.672 8 140587583.365 8      3002.512          50.000    26752927.125 7 107722918.162 7      2300.662          45.000
> 2020 05 04 09 15  0.0000000  0 11        .000000000000
G12  20054602.891 8 105387672.928 8        34.871          51.000    20054601.844 8  82120240.868 8        27.172          51.000
G24  20719748.898 8 108883057.625 8     -1671.184          51.000    20719751.570 8  84843925.835 8     -1302.224          51.000
R08  21906363.203 5 117307556.758 5     -2717.613          34.000    21906367.820 6  91239334.685 6     -2113.702          36.000
R09  19980037.586 6 106692277.046 6     -1215.762          41.000    19980038.180 6  82982888.829 6      -945.592          41.000
R20  21160516.258 6 113154814.814 6      3431.359          38.000    21160521.094 7  88009303.764 7      2668.835          47.000
C11  24547617.328 6 127825955.715 6      3280.785          39.000    24547627.820 7  98843083.768 7      2536.833          45.000
C12  22398679.969 8 116635806.455 8       863.328          49.000    22398680.148 8  90190207.138 8       667.677          51.000
C24  23004307.016 5 119789458.807 5     -1704.262          33.000
E01  24309555.281 8 127747568.441 8     -1161.074          49.000    24309556.477 7  97884505.580 7      -889.657          43.000
E04  26520560.234 6 139366485.135 6     -2872.449          39.000    26520558.484 6 106787255.244 6     -2200.980          41.000
E33  26735898.070 8 140498099.040 8      2984.469          51.000    26735897.359 7 107654352.356 7      2286.765          44.000
> 2020 05 04 09 15 30.0000000  0 12        .000000000000
G12  20054445.250 8 105386844.341 8        22.977          51.000    20054444.125 8  82119595.222 8        17.904          51.000
G24  20729331.453 8 108933415.164 8     -1683.387          50.000    20729334.289 8  84883165.458 8     -1311.733          50.000
R09  19986903.086 7 106728940.694 7     -1225.734          42.000    19986904.141 6  83011404.939 6      -953.349          40.000
R20  21141318.234 6 113052156.316 6      3415.145          37.000    21141323.930 7  87929458.339 7      2656.227          47.000
C11  24528738.594 6 127727644.263 6      3276.031          41.000    24528748.320 7  98767063.111 7      2533.175          45.000
C12  22393759.062 8 116610183.184 8       847.305          48.000    22393759.750 8  90170393.604 8       655.190          51.000
C24  23014144.828 6 119840701.814 6     -1710.395          36.000
C25  22113896.594 5 115152888.795 5      1089.801          33.000
E01  24316200.578 8 127782489.484 8     -1164.398          49.000    24316201.352 7  97911263.262 7      -892.291          43.000
E04  26536975.906 6 139452742.372 6     -2875.438          38.000    26536971.961 6 106853348.401 6     -2203.452          39.000
E09  23501466.875 5 123501081.617 5      -911.941          33.000
E33  26718875.789 8 140408643.495 8      2981.715          51.000    26718872.281 7 107585808.634 7      2284.703          44.000
> 2020 05 04 09 16  0.0000000  0 12        .000000000000
G12  20054342.469 8 105386304.025 8        11.469          51.000    20054341.602 8  82119174.214 8         8.937          51.000
G24  20738971.492 8 108984073.742 8     -1695.281          51.000    20738974.297 8  84922639.640 8     -1320.998          51.000
R09  19993810.766 7 106765826.090 7     -1235.102          42.000    19993810.828 6  83040093.560 6      -960.635          39.000
R20  21122200.039 5 112949928.296 5      3398.535          35.000    21122206.602 7  87849947.682 7      2643.308          46.000
C11  24509873.750 7 127629405.271 7      3271.715          43.000    24509882.875 7  98691098.518 7      2529.852          42.000
C12  22388917.477 8 116584972.226 8       831.820          48.000    22388918.578 8  90150898.896 8       643.183          51.000
C24  23024010.609 7 119892070.504 7     -1715.812          42.000
C25  22107637.812 5 115120269.115 5      1083.145          35.000
E01  24322851.180 8 127817437.799 8     -1167.047          49.000    24322851.922 6  97938041.846 6      -894.332          41.000
E04  26553394.508 6 139539016.950 6     -2877.871          38.000    26553389.195 6 106919454.817 6     -2204.892          36.000
E31  24097330.320 5 126632325.316 5      1037.445          34.000    24097332.719 5  97029975.962 5       795.240          31.000
E33  26701855.406 8 140319198.648 8      2979.578          51.000    26701850.031 7 107517273.084 7      2283.008          44.000
> 2020 05 04 09 16 30.0000000  0 13        .000000000000
G12  20054312.359 8 105386144.921 8        -2.242          51.000    20054311.219 8  82119050.243 8        -1.747          51.000
G24  20748686.898 8 109035127.084 8     -1709.559          51.000    20748689.203 8  84962421.433 8     -1332.124          51.000
R08  21952451.477 5 117554395.422 5     -2769.277          30.000    21952458.289 4  91431212.141 4     -2153.885          29.000
R09  20000778.070 7 106803028.530 7     -1246.715          42.000    20000778.211 6  83069028.770 6      -969.670          40.000
R20  21103181.680 6 112848230.881 6      3380.141          39.000    21103188.711 7  87770849.700 7      2628.998          46.000
C11  24491041.211 7 127531333.849 7      3265.020          45.000    24491049.336 6  98615263.539 6      2524.814          40.000
C12  22384173.320 8 116560266.957 8       813.820          49.000    22384174.336 8  90131795.214 8       629.267          51.000
C24  23033918.117 7 119943654.447 7     -1724.152          45.000
C25  22101417.367 5 115087878.015 5      1074.363          30.000
E01  24329524.773 8 127852506.948 8     -1172.309          48.000    24329525.828 6  97964912.974 6      -898.122          41.000
E04  26569832.844 6 139625400.519 6     -2882.359          36.000    26569828.070 5 106985644.789 5     -2208.818          34.000
E31  24091418.031 5 126601257.097 5      1031.906          33.000    24091418.781 5  97006161.281 5       790.678          30.000
E33  26684855.094 8 140229860.184 8      2974.887          50.000    26684849.867 7 107448819.007 7      2279.405          46.000
> 2020 05 04 09 17  0.0000000  0 12        .000000000000
G12  20054363.398 8 105386412.507 8       -18.113          50.000    20054361.703 8  82119258.742 8       -14.114          51.000
G24  20758486.039 8 109086620.096 8     -1725.914          51.000    20758487.773 8  85002545.834 8     -1344.868          51.000
R08  21968024.336 6 117637755.192 6     -2790.281          37.000    21968028.930 4  91496047.457 4     -2170.222          27.000
R09  20007812.695 7 106840594.576 7     -1260.547          43.000    20007813.836 6  83098246.745 6      -980.428          40.000
R20  21084273.430 6 112747114.391 6      3358.680          41.000    21084279.438 7  87692203.549 7      2612.309          46.000
C11  24472250.016 7 127433477.712 7      3256.012          46.000    24472254.055 5  98539595.104 5      2517.873          35.000
C12  22379535.281 8 116536113.393 8       793.730          49.000    22379535.766 8  90113118.158 8       613.778          51.000
C24  23043875.727 7 119995498.762 7     -1734.590          47.000
C25  22095250.359 5 115055761.558 5      1062.855          30.000
E01  24336229.922 8 127887742.425 8     -1179.523          48.000    24336231.031 6  97991911.578 6      -903.659          40.000
E04  26586298.867 5 139711936.869 5     -2889.160          35.000    26586298.188 5 107051996.867 5     -2214.416          33.000
E33  26667883.875 8 140140675.884 8      2968.035          48.000    26667880.562 8 107380483.061 8      2274.146          49.000
> 2020 05 04 09 17 30.0000000  0 12        .000000000000
G12  20054476.844 8 105387008.435 8       -26.305          51.000    20054475.000 8  82119723.113 8       -20.497          51.000
G24  20768350.094 8 109138454.832 8     -1734.449          51.000    20768351.727 8  85042936.510 8     -1351.519          51.000
R08  21983686.297 6 117721586.096 6     -2803.160          39.000    21983688.078 4  91561249.273 4     -2180.236          28.000
R09  20014896.727 7 106878425.267 7     -1266.062          42.000    20014898.438 6  83127670.582 6      -984.718          40.000
R20  21065455.727 7 112646483.399 7      3345.234          42.000    21065460.016 7  87613935.028 7      2601.849          45.000
C11  24453481.609 7 127335742.182 7      3254.859          45.000    24453479.797 6  98464019.977 6      2516.749          37.000
C12  22374984.531 8 116512415.203 8       781.277          50.000    22374984.477 8  90094793.244 8       604.215          51.000
C24  23053864.094 7 120047506.540 7     -1737.227          46.000
C25  22089118.906 4 115023873.954 4      1060.273          29.000
E01  24342948.047 8 127923046.405 8     -1178.895          48.000    24342948.992 6  98018962.662 6      -903.294          40.000
E04  26602773.570 5 139798526.344 5     -2888.172          34.000    26602780.102 5 107118344.603 5     -2212.892          33.000
E33  26650923.648 8 140051550.146 8      2968.922          48.000    26650922.695 8 107312191.975 8      2274.831          50.000
> 2020 05 04 09 18  0.0000000  0 11        .000000000000
G12  20054671.805 8 105388033.080 8       -41.691          51.000    20054670.125 8  82120521.538 8       -32.487          51.000
G24  20778297.953 8 109190730.504 8     -1750.191          51.000    20778299.883 8  85083670.785 8     -1363.786          51.000
R08  21999449.695 6 117805986.670 6     -2823.250          38.000    21999452.117 5  91626894.138 5     -2195.861          30.000
R09  20022050.000 6 106916622.840 6     -1279.664          41.000    20022051.219 6  83157379.860 6      -995.291          40.000
R20  21046748.805 7 112546445.355 7      3324.371          43.000    21046751.789 7  87536127.723 7      2585.622          44.000
C11  24434755.750 7 127238229.506 7      3246.301          43.000    24434751.305 6  98388617.085 6      2510.267          40.000
C12  22370540.688 8 116489273.147 8       761.777          50.000    22370539.766 8  90076898.346 8       589.118          51.000
C24  23063902.609 7 120099777.663 7     -1747.008          47.000
E01  24349698.281 7 127958519.621 7     -1185.707          47.000    24349698.633 6  98046143.419 6      -908.313          40.000
E04  26619278.445 6 139885256.884 6     -2894.234          37.000    26619289.906 5 107184808.968 5     -2217.885          32.000
E33  26633993.680 7 139962585.960 7      2962.465          46.000    26633995.273 8 107244024.656 8      2269.926          51.000
> 2020 05 04 09 18 30.0000000  0 12        .000000000000
G12  20054927.844 8 105389379.603 8       -62.723          50.000    20054926.367 8  82121570.783 8       -48.872          50.000
G24  20788309.625 8 109243342.482 8     -1771.918          51.000    20788311.742 8  85124667.132 8     -1380.715          51.000
G25  21032836.289 5 110528307.429 5      1845.930          35.000
R08  22015294.859 6 117890845.778 6     -2849.086          37.000    22015298.414 5  91692895.624 5     -2215.959          33.000
R09  20029252.234 6 106955080.880 6     -1299.082          40.000    20029253.469 6  83187291.655 6     -1010.397          40.000
R20  21028133.180 7 112446897.208 7      3297.227          42.000    21028135.578 7  87458701.437 7      2564.513          45.000
C11  24416052.086 6 127140837.813 6      3231.953          40.000    24416048.086 6  98313307.699 6      2499.109          41.000
C12  22366183.484 8 116466583.465 8       736.371          50.000    22366182.258 8  90059353.278 8       569.388          51.000
C24  23073972.086 7 120152207.651 7     -1762.863          47.000
E01  24356460.492 7 127994056.645 7     -1198.152          46.000    24356460.672 6  98073373.078 6      -918.164          40.000
E04  26635793.570 6 139972043.397 6     -2906.363          37.000    26635807.164 5 107251355.728 5     -2227.205          31.000
E33  26617073.938 7 139873680.135 7      2949.934          46.000    26617078.234 8 107175902.027 8      2260.372          51.000
> 2020 05 04 09 19  0.0000000  0 11        .000000000000
G12  20055268.883 8 105391172.120 8       -67.016          51.000    20055267.359 8  82122967.541 8       -52.220          51.000
G24  20798408.602 8 109296413.619 8     -1776.504          50.000    20798411.117 8  85166021.270 8     -1384.289          51.000
R08  22031248.898 5 117976285.713 5     -2857.172          35.000    22031253.633 5  91759348.833 5     -2222.248          32.000
