     3.02           OBSERVATION DATA    M (MIXED)           RINEX VERSION / TYPE
SAVERINEX           SC600               20200515 025931 LCL PGM / RUN BY / DATE
       G = GPS       R = GLONASS       C = COMPASS          COMMENT
       S = SBAS      J = QZSS          E = GALILEO          COMMENT
BEAN                                                        MARKER NAME
1                                                           MARKER NUMBER
GEODETIC                                                    MARKER TYPE
Unige DICCA         GTER                                    OBSERVER / AGENCY
SC60291900056       SC600               2.12(191202)        REC # / TYPE / VERS
                    HEMA45          NONE                    ANT # / TYPE
  4509407.8091   693652.4678  4442337.6214                  APPROX POSITION XYZ
        0.0000        0.0000        0.0000                  ANTENNA: DELTA H/E/N
G    8 C1C L1C D1C S1C C2Y L2Y D2Y S2Y                      SYS / # / OBS TYPES
R    8 C1C L1C D1C S1C C2P L2P D2P S2P                      SYS / # / OBS TYPES
C    8 C1I L1I D1I S1I C7I L7I D7I S7I                      SYS / # / OBS TYPES
E    8 C1C L1C D1C S1C C7Q L7Q D7Q S7Q                      SYS / # / OBS TYPES
DBHZ                                                        COMMENT
     30.000                                                 INTERVAL
  2020    05    15    00    00    0.0000000     GPS         TIME OF FIRST OBS
  2020    05    15    00    59   30.0000000     GPS         TIME OF LAST OBS
     0                                                      RCV CLOCK OFFS APPL
G L1C  0.00000                                              SYS / PHASE SHIFT
G L2Y  0.00000                                              SYS / PHASE SHIFT
R L1C  0.00000                                              SYS / PHASE SHIFT
R L2P  0.25000                                              SYS / PHASE SHIFT
C L1I  0.00000                                              SYS / PHASE SHIFT
C L7I  0.00000                                              SYS / PHASE SHIFT
E L1C  0.50000                                              SYS / PHASE SHIFT
E L7Q -0.25000                                              SYS / PHASE SHIFT
 14 R04  6 R05  1 R06 -4 R07  5 R09 -2 R10 -5 R13 -2 R14 -7 GLONASS SLOT / FRQ #
    R15  0 R16 -1 R19  3 R20  2 R21  4 R22 -3               GLONASS SLOT / FRQ #
 C1C   71.950 C2C   71.950 C2P   71.950                     GLONASS COD/PHS/BIS
    18                                                      LEAP SECONDS
*** Above antenna height is from mark to ANTENNA BOTTOM.    COMMENT
    17     4        0.0000        ANT MEASURE TYPE/HEIGT    COMMENT
    0.0000    0.0000    0.0458    0.0405    0.0000          COMMENT
                    BASE STATION                            COMMENT
                                                            END OF HEADER
> 2020 05 15 00 00  0.0000000  0 15        .000000000000
G06  21121779.508 8 110995694.997 8      -671.848          48.000    21121780.781 8  86490141.061 8      -523.518          48.000
G07  21975939.391 8 115484341.330 8      2472.359          51.000    21975936.906 8  89987786.918 8      1926.514          51.000
G09  20338256.828 8 106878368.069 8      -562.645          51.000    20338257.117 8  83281841.034 8      -438.424          51.000
R06  19820676.227 7 105766939.080 7      -958.145          46.000
R15  22388621.781 5 119637903.949 5     -2476.098          33.000    22388619.406 4  93051770.600 4     -1925.857          25.000
R16  20574538.859 5 109905492.608 5      1435.598          31.000    20574544.648 4  85482065.366 4      1116.573          29.000
R22  21075364.469 6 112501708.850 6     -1225.820          37.000    21075371.203 4  87501365.428 4      -953.404          28.000
C05  39782406.461 6 207157429.562 6       -21.309          36.000    39782402.531 6 160187246.191 6       -16.229          37.000
C24  23554597.102 5 122655010.447 5      -218.316          35.000
C25  23759460.938 8 123721756.502 8      2686.410          51.000
C27  24557011.922 5 127874723.352 5     -1909.852          31.000
E03  23457945.133 8 123272342.294 8      -245.750          51.000    23457947.383 8  94455519.601 8      -188.266          51.000
E08  23442073.133 6 123188956.836 6      1793.688          36.000
E15  24711747.609 8 129861102.903 8     -2084.816          48.000    24711751.008 8  99503977.819 8     -1597.490          51.000
E25  26484172.844 6 139175242.986 6      2421.703          37.000
> 2020 05 15 00 00 30.0000000  0 13        .000000000000
G06  21125714.969 7 111016375.627 7      -698.836          47.000    21125716.266 7  86506255.836 7      -544.547          47.000
G07  21961902.000 8 115410573.947 8      2453.355          51.000    21961899.750 8  89930305.876 8      1911.706          51.000
G09  20341545.227 8 106895648.512 8      -581.496          51.000    20341545.500 8  83295306.326 8      -453.111          51.000
R06  19826133.844 7 105796061.445 7      -975.285          47.000
R16  20566587.305 5 109863012.858 5      1403.617          34.000    20566591.852 5  85449025.563 5      1091.702          31.000
R22  21082372.703 6 112539100.673 6     -1258.809          36.000    21082376.891 4  87530464.962 4      -979.076          29.000
C05  39782570.641 6 207158284.473 6       -28.363          36.000    39782566.688 6 160187907.255 6       -21.482          38.000
C14                                                                  24259812.547 5  97684211.380 5     -1804.048          33.000
C24  23555935.703 5 122662037.813 5      -242.938          32.000
C25  23744054.609 8 123641530.844 8      2669.816          51.000
E03  23459406.641 8 123280021.928 8      -258.297          51.000    23459408.828 8  94461403.999 8      -197.964          51.000
E15  24723723.078 8 129924035.248 8     -2102.734          48.000    24723726.172 8  99552198.699 8     -1611.180          51.000
E25  26470413.531 5 139102932.638 5      2407.309          32.000    26470414.195 5 106585372.050 5      1844.208          32.000
> 2020 05 15 00 01  0.0000000  0 15        .000000000000
G06  21129722.445 8 111037435.931 8      -708.891          48.000    21129723.672 8  86522666.476 8      -552.379          48.000
G07  21947891.398 8 115336949.358 8      2451.098          50.000    21947889.555 8  89872936.103 8      1909.946          50.000
G09  20344859.328 8 106913063.992 8      -583.410          51.000    20344859.719 8  83308876.840 8      -454.605          51.000
R06  19831606.758 7 105825266.821 7      -975.371          46.000
R07  20587937.438 5 110208831.299 5      1894.227          30.000
R16  20558740.273 5 109821092.856 5      1387.438          31.000    20558744.773 5  85416421.131 5      1079.115          33.000
R22  21089483.539 5 112577049.879 5     -1275.227          34.000    21089486.789 4  87559975.454 4      -991.843          24.000
C05  39782692.023 6 207158916.337 6       -18.137          36.000    39782688.039 6 160188395.868 6       -13.916          37.000
C14  24273231.320 5 126397098.369 5     -2327.695          32.000
C24  23557340.086 5 122669357.818 5      -249.887          32.000
C25  23728662.055 8 123561378.044 8      2669.984          51.000
E03  23460858.406 8 123287650.589 8      -254.043          51.000    23460860.430 8  94467249.339 8      -194.698          51.000
E08  23421687.117 6 123081802.041 6      1788.812          36.000
E15  24735719.086 8 129987075.559 8     -2103.789          48.000    24735722.656 8  99600502.310 8     -1612.015          51.000
E25                                                                  26456653.453 5 106529987.454 5      1845.609          31.000
> 2020 05 15 00 01 30.0000000  0 17        .000000000000
G03  24222789.484 5 127291611.271 5     -3166.059          32.000    24222790.211 5  99188275.622 5     -2467.062          31.000
G06  21133854.094 7 111059149.240 7      -730.953          47.000    21133855.086 7  86539585.941 7      -569.574          47.000
G07  21933960.375 8 115263743.301 8      2436.781          50.000    21933958.844 8  89815892.434 8      1898.791          50.000
G09  20348251.109 8 106930887.456 8      -597.352          51.000    20348251.523 8  83322765.253 8      -465.469          51.000
R06  19837147.312 7 105854832.988 7      -987.988          47.000
R15  22430920.195 5 119863994.365 5     -2539.527          35.000
R16  20551049.984 5 109780013.526 5      1358.773          34.000    20551053.703 5  85384470.480 5      1056.818          33.000
R21  22796278.469 5 121987477.240 5     -4229.289          31.000
R22  21096754.000 4 112615925.248 4     -1303.098          29.000
C05  39782822.609 6 207159596.515 6       -20.000          36.000    39782818.672 6 160188921.846 6       -15.749          37.000
C14  24286678.000 4 126467123.444 4     -2333.863          28.000    24286673.555 5  97792364.195 5     -1804.694          31.000
C24  23558852.750 6 122677241.540 6      -268.656          39.000
C25  23713336.227 8 123481571.815 8      2657.941          51.000
E03  23462352.438 8 123295501.864 8      -261.949          51.000    23462354.367 8  94473265.251 8      -200.729          51.000
E08  23411513.000 5 123028336.715 5      1782.898          34.000
E15  24747787.508 8 130050496.052 8     -2116.801          48.000    24747792.062 8  99649097.265 8     -1621.961          51.000
E25                                                                  26442945.797 5 106474788.225 5      1838.808          31.000
> 2020 05 15 00 02  0.0000000  0 18        .000000000000
G03  24240891.844 5 127386767.451 5     -3172.930          35.000    24240885.891 5  99262374.114 5     -2472.410          32.000
G04  21964020.180 5 115421704.466 5     -2464.266          32.000
G06  21138096.297 8 111081442.809 8      -753.543          48.000    21138096.758 8  86556957.566 8      -587.176          48.000
G07  21920095.867 8 115190885.552 8      2421.996          51.000    21920094.648 8  89759120.172 8      1887.270          51.000
G09  20351706.516 8 106949045.874 8      -611.691          51.000    20351706.875 8  83336914.670 8      -476.643          51.000
R06  19842741.703 7 105884686.841 7     -1000.746          47.000
R15  22445245.609 5 119940561.295 5     -2563.078          35.000    22445253.016 4  93287154.738 4     -1993.511          26.000
R16  20543502.578 5 109739703.442 5      1330.148          31.000    20543507.109 5  85353118.247 5      1034.563          33.000
R21  22820018.820 5 122114527.445 5     -4238.141          32.000    22820019.766 4  94977968.882 4     -3296.332          24.000
R22  21104153.430 4 112655466.404 4     -1330.832          29.000
C05  39782948.711 6 207160253.584 6       -22.102          36.000    39782944.828 6 160189429.925 6       -17.281          37.000
C14  24300145.414 5 126537236.484 5     -2340.047          31.000    24300143.797 5  97846594.569 5     -1809.926          32.000
C24  23560460.312 6 122685617.401 6      -288.266          38.000
C25  23698063.484 8 123402042.824 8      2645.582          51.000
C27  24601627.148 4 128107094.165 4     -1957.746          28.000
E03  23463874.930 8 123303503.330 8      -270.023          51.000    23463876.961 8  94479396.253 8      -206.859          51.000
E08  23401354.992 5 122974952.377 5      1776.488          34.000
E15  24759914.234 8 130114223.133 8     -2130.086          48.000    24759920.086 8  99697927.118 8     -1632.174          51.000
> 2020 05 15 00 02 30.0000000  0 18        .000000000000
G03  24259032.188 5 127482084.776 5     -3179.344          34.000    24259026.859 5  99336647.409 5     -2477.414          34.000
G04  21978090.656 5 115495648.062 5     -2472.148          32.000    21978083.359 5  89996576.535 5     -1926.349          30.000
G06  21142465.805 8 111104404.638 8      -774.934          50.000    21142465.664 8  86574849.878 8      -603.847          50.000
G07  21906315.094 8 115118466.978 8      2408.156          51.000    21906314.062 8  89702690.109 8      1876.485          51.000
G09  20355242.227 8 106967626.951 8      -624.961          51.000    20355242.602 8  83351393.429 8      -486.983          51.000
R06  19848407.094 8 105914918.599 8     -1012.570          48.000
R15  22459704.422 5 120017829.865 5     -2584.867          30.000    22459712.844 5  93347247.473 5     -2010.455          31.000
R16  20536117.000 5 109700255.018 5      1301.844          30.000    20536121.984 5  85322436.128 5      1012.545          33.000
R21  22843806.812 6 122241834.328 6     -4246.355          37.000    22843805.789 4  95076969.797 4     -3302.721          25.000
R22  21111719.891 5 112695800.535 5     -1358.359          32.000
C05  39783087.383 6 207160975.336 6       -23.914          36.000    39783083.359 6 160189988.030 6       -18.265          37.000
C14  24313656.547 4 126607562.783 4     -2346.215          29.000    24313649.688 5  97900975.163 5     -1813.771          30.000
C24  23562181.258 6 122694572.692 6      -306.574          36.000
C25  23682861.250 8 123322881.146 8      2634.055          51.000
E03  23465442.922 8 123311743.426 8      -277.094          51.000    23465445.031 8  94485710.098 8      -212.289          51.000
E08  23391230.977 6 122921764.093 6      1771.191          36.000
E15  24772116.180 7 130178343.716 7     -2142.441          47.000    24772122.500 8  99747058.474 8     -1641.569          51.000
E25  26415686.656 5 138815366.785 5      2380.105          34.000
> 2020 05 15 00 03  0.0000000  0 15        .000000000000
G03  24277201.055 5 127577552.656 5     -3184.762          32.000    24277193.008 5  99411037.846 5     -2481.633          33.000
G04  21992225.484 5 115569931.891 5     -2479.395          31.000
G06  21146952.031 8 111127979.410 8      -796.551          50.000    21146951.828 8  86593219.798 8      -620.689          50.000
G07  21892607.781 8 115046434.726 8      2394.125          51.000    21892606.664 8  89646561.073 8      1865.549          51.000
G09  20358847.891 8 106986575.277 8      -638.160          51.000    20358848.375 8  83366158.359 8      -497.268          51.000
R06  19854132.969 8 105945472.562 8     -1024.223          48.000
R21  22867629.453 6 122369337.342 6     -4253.961          36.000    22867634.516 4  95176138.292 4     -3308.636          25.000
R22  21119428.477 5 112736963.326 5     -1386.094          30.000
C05  39783228.008 6 207161707.783 6       -25.312          37.000    39783224.016 6 160190554.412 6       -19.498          38.000
C14                                                                  24327185.781 4  97955489.088 4     -1819.024          28.000
C24  23564003.086 6 122704053.454 6      -325.246          38.000
C25  23667719.359 8 123244034.932 8      2622.473          51.000
E03  23467045.992 8 123320167.289 8      -284.352          51.000    23467048.070 8  94492164.750 8      -217.883          51.000
E15  24784382.547 8 130242801.637 8     -2154.637          49.000    24784388.094 8  99796448.298 8     -1650.997          51.000
E25  26402125.812 6 138744118.106 6      2370.188          36.000
> 2020 05 15 00 03 30.0000000  0 15        .000000000000
G03  24295387.727 5 127673119.907 5     -3185.883          31.000    24295379.438 5  99485505.866 5     -2482.500          31.000
G04  22006389.125 5 115644361.353 5     -2482.223          33.000
G06  21151545.266 8 111152116.162 8      -812.461          50.000    21151545.383 8  86612027.621 8      -633.086          51.000
G07  21878964.750 8 114974740.326 8      2385.547          50.000    21878962.992 8  89590695.289 8      1858.868          50.000
G09  20362513.805 8 107005839.665 8      -646.059          51.000    20362514.273 8  83381169.570 8      -503.422          51.000
R06  19859909.789 8 105976297.958 8     -1030.586          48.000
R07  20535518.180 5 109928218.337 5      1854.008          32.000
R21  22891478.023 5 122496980.969 5     -4255.531          35.000
C05  39783361.188 6 207162401.101 6       -21.105          36.000    39783357.219 6 160191090.532 6       -16.384          38.000
C24  23565914.859 5 122714009.366 5      -338.367          34.000
C25  23652628.484 8 123165456.587 8      2616.227          50.000
E03  23468674.430 8 123328724.437 8      -286.059          51.000    23468676.445 8  94498721.528 8      -219.206          51.000
E05  26119102.320 5 137256810.353 5     -2071.059          32.000    26119101.594 5 105170808.229 5     -1587.134          33.000
E15  24796703.406 8 130307545.014 8     -2161.398          49.000    24796707.445 8  99846056.827 8     -1656.157          51.000
E25  26388603.320 5 138673050.019 5      2365.984          35.000    26388601.133 5 106255955.822 5      1812.843          35.000
> 2020 05 15 00 04  0.0000000  0 18        .000000000000
G04  22020590.445 6 115718991.165 6     -2488.656          36.000
G06  21156255.844 8 111176870.074 8      -832.953          51.000    21156256.641 8  86631316.381 8      -649.054          51.000
G07  21865396.875 8 114903440.883 8      2372.332          50.000    21865394.305 8  89535137.287 8      1848.570          50.000
G09  20366250.281 8 107025475.092 8      -658.359          51.000    20366250.562 8  83396469.901 8      -513.007          51.000
R06  19865747.992 8 106007451.013 8     -1041.633          49.000
R07  20525169.578 5 109872822.955 5      1845.449          30.000
R15  22503782.367 5 120253384.093 5     -2646.078          31.000
R21  22915362.953 5 122624817.803 5     -4262.129          31.000
R22  21135294.156 5 112821641.230 5     -1434.621          30.000
C05  39783497.406 6 207163110.667 6       -21.629          36.000    39783493.477 6 160191639.194 6       -16.598          37.000
C14                                                                  24354312.141 5  98064718.536 5     -1822.274          32.000
C24  23567930.938 6 122724495.842 6      -356.223          40.000
C25  23637599.711 8 123087203.767 8      2605.281          50.000
C27  24647289.414 5 128344907.518 5     -2002.934          31.000
E03  23470338.805 8 123337470.514 8      -292.285          51.000    23470340.812 8  94505423.066 8      -223.935          51.000
E05  26130942.828 5 137319031.227 5     -2073.230          34.000    26130940.469 5 105218500.942 5     -1588.439          31.000
E15  24809088.695 8 130372628.112 8     -2172.621          50.000    24809090.930 8  99895925.691 8     -1664.798          50.000
E25  26375131.266 5 138602251.577 5      2357.324          32.000    26375133.547 5 106201719.204 5      1806.166          35.000
> 2020 05 15 00 04 30.0000000  0 18        .000000000000
G04  22034815.062 6 115793742.972 6     -2494.859          36.000
G06  21161068.898 8 111202163.752 8      -853.543          51.000    21161070.516 8  86651025.735 8      -665.098          50.000
G07  21851889.820 8 114832462.645 8      2359.023          48.000    21851887.227 8  89479829.592 8      1838.203          48.000
G09  20370042.609 8 107045403.996 8      -670.602          51.000    20370042.742 8  83411998.919 8      -522.547          51.000
R06  19871632.984 8 106038853.844 8     -1052.387          48.000
R09  23066761.617 5 123175219.607 5      4362.852          34.000    23066769.070 5  95802968.776 5      3393.329          33.000
R15  22518699.383 5 120333086.915 5     -2667.723          35.000
R16  20508054.594 5 109550330.266 5      1196.344          34.000
R22  21143400.695 5 112864907.561 5     -1459.898          30.000
C05  39783622.234 6 207163760.690 6       -22.027          36.000    39783618.320 6 160192141.860 6       -17.072          38.000
C14                                                                  24367909.188 5  98119443.314 5     -1825.950          32.000
C24  23570032.617 6 122735436.524 6      -373.891          37.000
C25  23622619.812 8 123009202.671 8      2594.418          50.000
C27  24658860.070 5 128405167.790 5     -2014.738          30.000
E03  23472024.453 8 123346328.613 8      -298.492          51.000    23472026.625 8  94512210.436 8      -228.724          51.000
E05  26142791.750 5 137381295.220 5     -2075.715          31.000    26142791.414 5 105266190.666 5     -1590.719          31.000
E15  24821523.164 8 130437972.656 8     -2183.914          49.000    24821524.797 8  99945994.903 8     -1673.368          50.000
E25                                                                  26361702.398 5 106147649.861 5      1799.392          33.000
> 2020 05 15 00 05  0.0000000  0 16        .000000000000
G04  22049069.016 5 115868631.220 5     -2503.781          33.000
G06  21165988.508 8 111228016.839 8      -875.773          51.000    21165990.781 8  86671170.995 8      -682.421          51.000
G07  21838448.008 8 114761827.625 8      2344.039          49.000    21838446.141 8  89424789.352 8      1826.524          49.000
G09  20373894.539 8 107065645.964 8      -684.664          51.000    20373894.828 8  83427771.875 8      -533.508          51.000
R06  19877568.648 8 106070527.690 8     -1065.129          49.000
R09  23042250.656 5 123044335.103 5      4357.277          32.000    23042258.273 5  95701169.691 5      3388.990          33.000
R15  22533724.273 5 120413368.017 5     -2690.148          35.000
R16  20501395.688 5 109514775.286 5      1167.285          34.000    20501401.500 4  85178176.495 4       907.888          27.000
R22  21151684.086 5 112909107.521 5     -1488.074          31.000
C05  39783739.500 6 207164371.455 6       -24.480          36.000    39783735.617 6 160192614.135 6       -18.909          38.000
C14  24381519.820 4 126960963.428 4     -2368.281          28.000
C24  23572223.172 5 122746752.101 5      -392.949          33.000
C25  23607693.219 8 122931475.807 8      2581.633          50.000
E03  23473735.242 8 123355318.980 8      -306.617          51.000    23473737.680 8  94519099.154 8      -234.914          51.000
E15  24834010.891 8 130503597.511 8     -2196.883          51.000    24834012.906 8  99996278.885 8     -1683.341          50.000
E25                                                                  26348309.086 5 106093722.205 5      1791.344          32.000
> 2020 05 15 00 05 30.0000000  0 15        .000000000000
G02  22702228.805 4 119301017.122 4      1365.180          29.000
G06  21171035.117 8 111254536.142 8      -894.641          51.000    21171037.648 8  86691835.391 8      -697.123          51.000
G07  21825092.625 8 114691645.110 8      2332.410          50.000    21825091.469 8  89370101.690 8      1817.462          50.000
G09  20377826.281 8 107086307.634 8      -695.277          51.000    20377826.922 8  83443871.876 8      -541.775          51.000
R06  19883575.617 8 106102582.034 8     -1074.242          48.000
R15  22548878.250 6 120494333.318 6     -2709.664          37.000
R16  20494905.023 5 109480097.040 5      1142.008          34.000    20494910.867 5  85151204.475 5       888.228          31.000
R21  22987195.031 4 123009123.578 4     -4279.758          28.000
R22  21160111.555 5 112954076.052 5     -1512.941          32.000    21160121.492 4  87853223.878 4     -1176.735          26.000
C05  39783869.711 6 207165049.551 6       -23.227          36.000    39783865.922 6 160193138.482 6       -17.848          38.000
C24  23574528.492 5 122758747.205 5      -408.828          33.000
C25  23592840.547 8 122854131.934 8      2572.191          51.000
E03  23475491.586 8 123364548.919 8      -311.211          51.000    23475494.242 8  94526171.442 8      -238.433          51.000
E15  24846572.523 8 130569608.544 8     -2206.391          51.000    24846574.453 8 100046858.759 8     -1690.572          49.000
E25                                                                  26334974.969 6 106040033.802 6      1785.929          36.000
> 2020 05 15 00 06  0.0000000  0 15        .000000000000
G06  21176195.695 8 111281654.765 8      -913.828          51.000    21176198.016 8  86712966.804 8      -712.074          51.000
G07  21811811.328 8 114621850.759 8      2320.109          51.000    21811810.703 8  89315716.497 8      1807.877          50.000
G09  20381825.125 8 107107322.036 8      -706.328          51.000    20381825.938 8  83460246.738 8      -550.386          51.000
R06  19889641.039 8 106134949.084 8     -1084.020          48.000
R15  22564145.789 5 120575912.106 5     -2729.336          35.000
R16  20488565.633 5 109446230.062 5      1115.242          33.000    20488571.398 5  85124863.497 5       867.411          32.000
R22  21168679.430 5 112999808.943 5     -1536.539          30.000    21168680.766 4  87888793.831 4     -1195.089          29.000
C05  39784000.453 6 207165729.521 6       -22.570          36.000    39783996.648 6 160193664.301 6       -17.432          38.000
C14  24408831.766 5 127103163.948 5     -2375.402          31.000    24408828.312 5  98284240.951 5     -1836.809          32.000
C24  23576930.859 5 122771265.790 5      -425.449          35.000
C25  23578049.695 8 122777107.789 8      2562.227          51.000
C27  24693973.453 4 128588011.132 4     -2049.066          28.000
E03  23477280.930 8 123373952.189 8      -316.219          51.000    23477283.602 8  94533376.541 8      -242.253          51.000
E15  24859194.570 8 130635938.079 8     -2216.266          51.000    24859196.445 8 100097682.677 8     -1698.133          49.000
E25                                                                  26321688.852 6 105986540.640 6      1779.922          39.000
> 2020 05 15 00 06 30.0000000  0 13        .000000000000
G06  21181478.750 8 111309418.929 8      -934.320          51.000    21181480.945 8  86734601.207 8      -728.045          51.000
G07  21798613.344 8 114552493.623 8      2306.301          51.000    21798613.172 8  89261672.004 8      1797.117          51.000
G09  20385900.016 8 107128735.341 8      -718.617          51.000    20385900.688 8  83476932.426 8      -559.961          51.000
R06  19895774.188 8 106167676.682 8     -1095.176          49.000
R15  22579535.023 5 120658149.022 5     -2749.922          33.000
R21  23035246.797 4 123266256.952 4     -4290.926          29.000
C05  39784140.461 6 207166458.151 6       -23.320          36.000    39784136.578 6 160194227.722 6       -18.033          38.000
C14                                                                  24422534.297 6  98339423.038 6     -1840.304          37.000
C24  23579441.539 5 122784336.306 5      -443.441          33.000
C25  23563329.391 8 122700452.248 8      2550.832          51.000
E03  23479112.250 8 123383575.594 8      -322.637          51.000    23479114.648 8  94540750.321 8      -247.290          51.000
E15  24871885.672 8 130702631.482 8     -2227.391          51.000    24871888.125 8 100148785.400 8     -1706.717          49.000
E25  26308453.578 5 138251847.926 5      2313.453          34.000    26308460.984 6 105933280.500 6      1772.790          41.000
> 2020 05 15 00 07  0.0000000  0 14        .000000000000
G06  21186864.461 8 111337723.186 8      -954.035          50.000    21186866.586 8  86756656.457 8      -743.404          50.000
G07  21785478.977 8 114483470.526 8      2293.637          51.000    21785479.000 8  89207887.782 8      1787.249          51.000
G09  20390030.820 8 107150442.089 8      -729.984          51.000    20390031.289 8  83493846.779 8      -568.819          51.000
R06  19901955.164 8 106200658.734 8     -1105.117          49.000
R15  22595027.469 5 120740934.423 5     -2770.207          34.000
R21  23059308.672 5 123395018.329 5     -4294.586          33.000
R22  21186242.109 5 113093634.731 5     -1588.320          35.000
C05  39784269.742 5 207167131.790 5       -22.668          35.000    39784266.086 6 160194748.648 6       -18.015          38.000
C14                                                                  24436251.914 5  98394662.075 5     -1843.593          32.000
C24  23582038.898 5 122797863.662 5      -459.828          34.000
C25  23548659.984 8 122624063.814 8      2540.289          50.000
E03  23480965.602 8 123393314.385 8      -328.238          51.000    23480967.578 8  94548212.506 8      -251.507          51.000
E15  24884625.984 8 130769582.512 8     -2237.613          51.000    24884628.891 8 100200085.546 8     -1714.553          50.000
E25  26295264.867 5 138182550.515 5      2305.309          35.000    26295272.062 6 105880174.802 6      1766.378          41.000
> 2020 05 15 00 07 30.0000000  0 15        .000000000000
G06  21192361.859 8 111366613.593 8      -972.375          50.000    21192364.031 8  86779168.458 8      -757.695          50.000
G07  21772417.438 8 114414830.592 8      2281.957          51.000    21772416.852 8  89154402.139 8      1778.148          51.000
G09  20394226.133 8 107172488.302 8      -740.102          51.000    20394226.711 8  83511025.659 8      -576.699          51.000
R06  19908192.734 8 106233942.838 8     -1114.211          49.000
R09  22920085.672 5 122392000.189 5      4340.527          33.000    22920085.203 6  95193758.280 6      3375.966          36.000
R15  22610629.969 5 120824312.331 5     -2788.289          32.000    22610631.703 4  93974504.736 4     -2168.666          27.000
R16  20470465.445 5 109349565.908 5      1035.621          32.000    20470470.805 5  85049667.586 5       805.486          31.000
R21  23083389.555 6 123523916.165 6     -4298.359          37.000    23083409.430 4  96074205.822 4     -3343.171          24.000
R22  21195230.508 5 113141623.967 5     -1611.441          33.000    21195235.609 4  87999032.983 4     -1253.349          25.000
C05  39784397.508 6 207167797.028 6       -21.637          36.000    39784393.789 6 160195263.034 6       -16.788          38.000
C24  23584733.922 5 122811894.117 5      -475.445          35.000
C25  23534050.867 8 122547991.202 8      2530.891          49.000
E03  23482849.828 8 123403215.275 8      -332.352          51.000    23482851.453 8  94555798.902 8      -254.668          51.000
E15  24897424.305 8 130836836.497 8     -2246.484          51.000    24897427.867 8 100251617.814 8     -1721.332          51.000
E25                                                                  26282130.766 6 105827261.004 6      1760.925          41.000
> 2020 05 15 00 08  0.0000000  0 15        .000000000000
G06  21197972.891 8 111396100.418 8      -991.949          51.000    21197975.273 8  86802145.191 8      -772.944          51.000
G07  21759431.023 8 114346586.779 8      2269.184          51.000    21759429.188 8  89101225.155 8      1768.195          51.000
G09  20398487.930 8 107194884.213 8      -751.438          51.000    20398488.758 8  83528477.022 8      -585.536          51.000
R06  19914488.891 8 106267540.574 8     -1124.043          49.000
R09  22895717.148 5 122261865.305 5      4336.250          30.000    22895714.422 6  95092542.251 6      3372.639          37.000
R15  22626345.648 5 120908290.895 5     -2808.719          33.000    22626349.547 5  94039817.549 5     -2184.556          30.000
R16  20464732.102 6 109318942.104 6      1008.199          36.000    20464734.875 4  85025849.178 4       784.158          29.000
R21  23107499.375 6 123652956.594 6     -4302.523          37.000    23107523.672 4  96174570.600 4     -3346.407          27.000
R22  21204360.250 6 113190367.869 6     -1635.855          37.000    21204368.055 4  88036944.782 4     -1272.338          28.000
C05                                                                  39784522.078 6 160195779.513 6       -16.649          38.000
C25  23519504.578 8 122472247.644 8      2520.395          50.000
C27  24741690.828 5 128836474.159 5     -2091.195          31.000
E03  23484766.875 8 123413289.188 8      -337.660          51.000    23484768.398 8  94563517.882 8      -258.733          51.000
E15  24910282.031 8 130904402.923 8     -2256.406          51.000    24910286.664 8 100303389.462 8     -1729.004          51.000
E25  26269032.398 5 138044696.399 5      2289.473          34.000    26269039.781 6 105774549.237 6      1754.837          36.000
> 2020 05 15 00 08 30.0000000  0 18        .000000000000
G06  21203691.750 8 111426152.047 8     -1013.273          51.000    21203693.859 8  86825562.063 8      -789.564          51.000
G07  21746514.430 8 114278710.119 8      2254.391          51.000    21746511.578 8  89048334.260 8      1756.668          51.000
G09  20402810.242 8 107217598.319 8      -764.355          51.000    20402811.234 8  83546176.318 8      -595.602          51.000
R06  19920837.789 8 106301420.680 8     -1136.133          48.000
R09  22871360.375 5 122131809.738 5      4330.969          34.000    22871363.625 6  94991403.022 6      3368.531          36.000
R15  22642169.562 5 120992835.424 5     -2829.371          34.000    22642172.242 4  94105574.346 4     -2200.625          28.000
R16  20459146.359 6 109289107.820 6       979.273          39.000    20459145.883 4  85002624.318 4       761.654          25.000
R21  23131630.117 6 123782104.186 6     -4308.754          36.000    23131651.961 4  96275001.723 4     -3351.253          26.000
R22  21213628.430 6 113239832.601 6     -1662.617          36.000    21213629.141 4  88075417.286 4     -1293.156          29.000
C05  39784648.719 6 207169105.210 6       -23.086          37.000    39784645.062 6 160196274.602 6       -17.658          38.000
C14  24477547.094 5 127461010.309 5     -2396.312          32.000    24477547.344 6  98560932.424 6     -1853.093          36.000
C24  23590417.195 6 122841487.892 6      -510.613          37.000
C25  23505016.703 8 122396804.989 8      2507.746          51.000
C27  24753769.609 5 128899361.651 5     -2102.727          30.000
E03  23486710.945 8 123423505.308 8      -345.008          51.000    23486712.445 8  94571345.820 8      -264.375          51.000
E05  26237952.570 5 137881364.680 5     -2091.512          34.000
E15  24923193.117 8 130972249.418 8     -2268.199          51.000    24923198.070 8 100355375.724 8     -1737.983          51.000
E25  26255987.211 6 137976138.069 6      2279.371          37.000    26255993.109 5 105722002.491 5      1746.390          31.000
> 2020 05 15 00 09  0.0000000  0 18        .000000000000
G04  22164392.547 5 116474683.032 5     -2562.227          33.000
G06  21209533.258 8 111456848.459 8     -1046.203          51.000    21209534.898 8  86849481.333 8      -815.223          51.000
G07  21733683.453 8 114211283.062 8      2227.707          51.000    21733680.352 8  88995793.690 8      1735.873          51.000
G09  20407208.289 8 107240710.591 8      -789.254          51.000    20407209.328 8  83564185.876 8      -615.003          51.000
R06  19927255.016 7 106335665.203 7     -1160.160          47.000
R09  22847049.234 5 122001964.077 5      4312.434          34.000    22847046.719 6  94890411.895 6      3354.115          37.000
R15  22658114.891 5 121078024.876 5     -2862.176          31.000
R16  20453724.766 5 109260147.202 5       938.879          34.000    20453724.922 4  84980091.968 4       730.248          29.000
R21  23155797.438 5 123911436.755 5     -4326.199          31.000    23155821.086 4  96375593.697 4     -3364.822          25.000
R22  21223044.070 6 113290097.788 6     -1701.277          36.000    21223041.820 4  88114482.183 4     -1323.225          26.000
C05  39784781.758 6 207169798.008 6       -36.340          36.000    39784778.102 6 160196810.328 6       -28.161          38.000
C14  24491367.281 5 127532975.100 5     -2414.266          32.000    24491361.867 5  98616580.299 5     -1866.872          34.000
C24  23593404.758 5 122857077.345 5      -541.109          33.000
C25  23490602.477 8 122321745.515 8      2483.414          51.000
C27  24765912.930 5 128962621.161 5     -2127.086          33.000
E03  23488697.469 8 123433944.272 8      -364.027          51.000    23488698.859 8  94579344.511 8      -278.906          51.000
E15  24936172.227 8 131040455.201 8     -2291.781          51.000    24936176.836 8 100407637.268 8     -1756.031          50.000
E25  26243002.961 6 137907897.736 6      2256.930          36.000
> 2020 05 15 00 09 30.0000000  0 16        .000000000000
G04  22178981.656 5 116551341.852 5     -2553.438          31.000
G06  21215509.266 8 111488251.240 8     -1051.055          51.000    21215510.148 8  86873951.008 8      -819.004          51.000
G07  21720950.203 8 114144370.118 8      2229.309          49.000    21720947.773 8  88943653.726 8      1737.124          49.000
G09  20411693.891 8 107264282.694 8      -785.883          51.000    20411694.867 8  83582553.749 8      -612.376          51.000
R06  19933752.477 7 106370337.863 7     -1155.039          47.000
R09  22822781.672 5 121872373.740 5      4322.598          34.000    22822779.820 6  94789619.386 6      3362.017          38.000
R15  22674193.625 5 121163919.247 5     -2866.973          32.000
R16  20448479.602 6 109232125.924 6       925.918          36.000    20448481.469 4  84958297.715 4       720.161          28.000
R21  23180011.633 4 124041013.629 4     -4315.422          29.000
C05  39784936.828 6 207170605.535 6       -21.164          36.000    39784933.141 6 160197434.787 6       -16.661          38.000
C14                                                                  24505226.688 5  98672414.890 5     -1858.475          30.000
C24  23596517.555 6 122873291.049 6      -543.789          36.000
C25  23476273.891 8 122247133.365 8      2487.004          49.000
C27  24778142.188 5 129026312.329 5     -2123.371          33.000
E03  23490738.359 8 123444668.527 8      -354.648          51.000    23490739.508 8  94587561.797 8      -271.714          51.000
E15  24949231.016 8 131109081.166 8     -2286.945          50.000    24949234.578 8 100460220.782 8     -1752.356          51.000
> 2020 05 15 00 10  0.0000000  0 13        .000000000000
G04  22193569.141 5 116628015.799 5     -2559.020          35.000
G06  21221564.227 8 111520068.542 8     -1072.117          51.000    21221564.391 8  86898743.667 8      -835.416          51.000
G07  21708259.414 7 114077682.165 7      2214.539          47.000    21708258.297 7  88891689.064 7      1725.612          47.000
G09  20416211.453 8 107288022.869 8      -798.738          51.000    20416212.469 8  83601052.594 8      -622.390          51.000
R06  19940275.117 8 106405143.444 8     -1167.242          48.000
R09  22798507.469 5 121742747.559 5      4316.504          35.000    22798505.617 6  94688799.001 6      3357.281          38.000
C05  39785058.570 6 207171239.664 6       -22.930          36.000    39785054.953 6 160197925.111 6       -17.504          38.000
C14                                                                  24519086.625 5  98728213.152 5     -1862.610          35.000
C24  23599694.883 6 122889840.131 6      -561.812          36.000
C25  23461975.781 8 122172682.569 8      2474.445          48.000
C27  24790399.109 5 129090144.465 5     -2134.520          34.000
E03  23492778.148 8 123455387.031 8      -361.812          51.000    23492779.086 8  94595774.673 8      -277.236          51.000
E15  24962313.695 8 131177834.845 8     -2298.465          49.000    24962316.984 8 100512902.149 8     -1761.176          51.000
> 2020 05 15 00 10 30.0000000  0 14        .000000000000
G02  22628917.703 5 118915758.415 5      1205.391          34.000
G04  22208187.523 5 116704838.621 5     -2561.797          34.000
G06  21227731.945 8 111552479.238 8     -1088.750          51.000    21227732.266 8  86923998.735 8      -848.377          51.000
G07  21695646.023 7 114011400.567 7      2204.055          47.000    21695645.844 7  88840041.035 7      1717.445          47.000
G09  20420795.125 8 107312110.137 8      -807.141          51.000    20420796.117 8  83619821.898 8      -628.941          51.000
R06  19946856.875 8 106440264.574 8     -1174.391          48.000
R09  22774261.609 5 121613272.490 5      4314.664          35.000    22774259.258 6  94588096.149 6      3355.850          37.000
C05  39785181.180 6 207171878.622 6       -19.742          36.000    39785177.680 6 160198419.193 6       -15.121          38.000
C14                                                                  24532971.250 6  98784112.957 6     -1863.870          37.000
C24  23602971.711 6 122906902.677 6      -575.719          39.000
C25  23447743.117 7 122098573.545 7      2466.215          47.000
C27  24802716.781 5 129154293.882 5     -2142.312          35.000
E03  23494850.930 8 123466279.511 8      -364.465          51.000    23494851.828 8  94604120.853 8      -279.274          51.000
E15  24975454.930 8 131246894.333 8     -2305.547          49.000    24975458.680 8 100565817.854 8     -1766.549          51.000
> 2020 05 15 00 11  0.0000000  0 17        .000000000000
G02  22622080.945 5 118879836.109 5      1185.711          33.000
G06  21234000.578 8 111585420.504 8     -1111.992          51.000    21234001.453 8  86949667.266 8      -866.487          51.000
G07  21683099.305 8 113945465.660 8      2187.066          50.000    21683098.953 8  88788663.202 8      1704.211          50.000
G09  20425432.977 8 107336481.824 8      -822.336          51.000    20425433.883 8  83638812.821 8      -640.781          51.000
R06  19953486.055 8 106475638.298 8     -1188.617          48.000
R09  22750033.297 5 121483890.147 5      4306.430          34.000    22750029.461 6  94487465.436 6      3349.445          36.000
R16  20433560.734 5 109152387.969 5       841.594          35.000
R21  23252684.172 5 124429808.915 5     -4329.262          31.000
R22  21262078.594 6 113498407.680 6     -1786.812          36.000
C05  39785293.047 6 207172461.146 6       -24.016          36.000    39785289.508 6 160198869.642 6       -18.178          38.000
C14                                                                  24546868.445 6  98840066.674 6     -1869.775          37.000
C24  23606334.320 5 122924416.755 5      -596.289          30.000
C25  23433565.164 8 122024747.124 8      2451.094          50.000
C27  24815083.664 6 129218696.879 6     -2155.664          38.000
E03  23496944.898 8 123477283.961 8      -373.738          51.000    23496945.906 8  94612552.826 8      -286.362          51.000
E15  24988642.500 8 131316196.219 8     -2319.203          49.000    24988646.758 8 100618919.294 8     -1777.019          51.000
E25  26191549.328 5 137637522.187 5      2233.961          32.000    26191554.141 5 105462538.757 5      1711.632          32.000
> 2020 05 15 00 11 30.0000000  0 14        .000000000000
G06  21240418.570 8 111619147.019 8     -1131.352          51.000    21240419.953 8  86975947.691 8      -881.573          51.000
G07  21670667.781 8 113880134.456 8      2173.434          51.000    21670666.336 8  88737755.808 8      1693.585          51.000
G09  20430173.305 8 107361392.737 8      -833.387          51.000    20430174.148 8  83658223.926 8      -649.392          51.000
R06  19960211.141 7 106511524.535 7     -1198.738          47.000
R09  22725871.641 4 121354864.491 4      4300.027          29.000    22725865.727 5  94387112.174 5      3344.466          34.000
R16  20428926.875 5 109127638.428 5       813.797          35.000    20428931.125 4  84877082.711 4       632.959          27.000
C05  39785442.766 6 207173240.890 6       -23.594          36.000    39785439.305 6 160199472.609 6       -18.199          38.000
C24  23609834.766 6 122942635.141 6      -613.414          36.000
C25  23419491.719 8 121951458.867 8      2439.879          51.000
C27  24827547.000 6 129283604.681 6     -2166.238          36.000
E03  23499108.680 8 123488655.955 8      -379.199          51.000    23499109.953 8  94621266.432 8      -290.513          51.000
E08  23212737.391 6 121983752.699 6      1701.109          36.000
E15  25001925.133 8 131385994.480 8     -2328.855          50.000    25001929.414 8 100672401.074 8     -1784.487          51.000
E25  26178841.148 5 137570734.694 5      2224.656          34.000    26178843.414 5 105411354.769 5      1704.334          31.000
> 2020 05 15 00 12  0.0000000  0 15        .000000000000
G06  21246922.352 8 111653323.964 8     -1149.293          51.000    21246924.164 8  87002579.073 8      -895.553          51.000
G07  21658288.188 8 113815075.444 8      2161.414          51.000    21658285.234 8  88687060.514 8      1684.219          51.000
G09  20434952.562 8 107386508.309 8      -843.062          51.000    20434953.375 8  83677794.490 8      -656.932          51.000
G30  23570383.430 6 123863192.748 6      3547.559          37.000    23570384.383 6  96516777.483 6      2764.331          37.000
R06  19966968.531 7 106547584.197 7     -1207.461          46.000
R16  20424424.133 6 109103580.517 6       787.852          39.000    20424424.930 4  84858371.031 4       612.770          29.000
C05  39785566.906 6 207173887.275 6       -21.766          36.000    39785563.430 6 160199972.431 6       -16.939          38.000
C14                                                                  24574782.273 5  98952478.066 5     -1875.218          31.000
C24  23613404.992 5 122961226.845 5      -628.707          30.000
C25  23405458.711 8 121878380.146 8      2429.844          51.000
C27  24840043.391 6 129348684.075 6     -2174.512          36.000
E03  23501278.938 8 123500061.643 8      -383.430          51.000    23501280.453 8  94630005.855 8      -293.812          51.000
E08  23203024.367 6 121932722.717 6      1698.703          36.000
E15  25015238.914 8 131455953.733 8     -2337.223          51.000    25015242.125 8 100726006.198 8     -1790.913          51.000
E25  26166159.023 6 137504076.935 6      2216.879          36.000
> 2020 05 15 00 12 30.0000000  0 17        .000000000000
G02  22602182.430 5 118775269.922 5      1138.289          33.000
G06  21253532.383 8 111688058.873 8     -1166.312          51.000    21253533.750 8  87029645.226 8      -908.815          51.000
G07  21645981.148 8 113750399.033 8      2150.320          51.000    21645976.977 8  88636663.343 8      1675.577          51.000
G09  20439791.375 8 107411936.271 8      -852.133          51.000    20439792.141 8  83697608.472 8      -664.000          51.000
G30  23550136.289 6 123756783.501 6      3545.734          39.000    23550134.562 6  96433861.247 6      2762.910          38.000
R06  19973779.289 7 106583928.240 7     -1215.500          47.000
R15  22772714.336 5 121690410.005 5     -2979.484          35.000    22772726.430 4  94648195.851 4     -2317.380          27.000
R16  20420071.047 6 109080326.320 6       763.008          37.000    20420075.070 5  84840284.460 5       593.454          34.000
R21  23325574.094 5 124819850.990 5     -4335.441          32.000
C05  39785686.141 6 207174507.859 6       -19.156          36.000    39785682.648 6 160200452.302 6       -14.906          38.000
C14                                                                  24588757.047 5  99008752.861 5     -1876.892          31.000
C24  23617068.859 5 122980298.825 5      -643.145          35.000
C25  23391486.977 8 121805620.874 8      2420.684          51.000
C27  24852592.492 6 129414040.751 6     -2182.137          36.000
E03  23503476.297 8 123511609.442 8      -386.473          51.000    23503478.109 8  94638854.177 8      -296.131          51.000
E15  25028603.555 8 131526180.862 8     -2344.535          51.000    25028605.516 8 100779816.592 8     -1796.483          51.000
E25  26153522.586 5 137437688.704 5      2209.879          34.000    26153524.945 5 105309420.407 5      1693.365          33.000
> 2020 05 15 00 13  0.0000000  0 20        .000000000000
G02  22595730.688 5 118741365.395 5      1138.762          33.000
G04  22281775.875 6 117091510.964 6     -2572.781          36.000
G06  21260255.109 8 111723387.678 8     -1169.949          51.000    21260255.555 8  87057174.139 8      -911.649          51.000
G07  21633753.781 8 113686143.606 8      2152.371          51.000    21633749.016 8  88586594.202 8      1677.172          51.000
G09  20444696.555 8 107437712.795 8      -847.504          51.000    20444697.250 8  83717694.075 8      -660.393          51.000
G30  23529921.922 6 123650543.263 6      3556.160          37.000    23529915.867 6  96351076.759 6      2771.037          36.000
R06  19980650.492 7 106620593.999 7     -1209.469          45.000
R15  22789508.836 6 121780132.996 6     -2982.312          40.000
R16  20415874.922 5 109057914.764 5       750.922          30.000    20415877.492 5  84822853.276 5       584.050          32.000
R21  23349899.289 5 124950024.115 5     -4322.609          31.000
R22  21303313.164 5 113718504.939 5     -1863.391          32.000    21303306.766 5  88447714.241 5     -1449.295          34.000
C05  39785807.430 6 207175139.596 6        -4.062          37.000    39785804.031 6 160200940.791 6        -3.105          38.000
C14                                                                  24602756.633 5  99065133.174 5     -1867.921          31.000
C24  23620832.969 5 122999887.654 5      -644.434          30.000
C25  23377584.148 8 121733219.916 8      2424.840          51.000
C27  24865203.367 6 129479708.882 6     -2176.750          37.000
E03  23505707.844 8 123523336.356 8      -376.301          51.000    23505709.969 8  94647839.732 8      -288.364          51.000
E08  23183665.016 6 121830975.105 6      1708.977          37.000
E15  25042025.281 8 131596711.298 8     -2338.621          51.000    25042027.078 8 100833859.385 8     -1791.886          51.000
E25  26140939.633 5 137371564.714 5      2216.691          33.000    26140938.781 5 105258727.755 5      1698.219          30.000
> 2020 05 15 00 13 30.0000000  0 15        .000000000000
G04  22296557.906 5 117169165.544 5     -2596.680          34.000
G06  21267057.602 8 111759137.898 8     -1208.406          51.000    21267057.461 8  87085031.421 8      -941.618          51.000
G07  21621573.875 8 113622139.044 8      2119.504          51.000    21621569.242 8  88536720.530 8      1651.561          51.000
G09  20449635.234 8 107463665.617 8      -877.680          51.000    20449635.758 8  83737917.059 8      -683.906          51.000
G30  23509707.688 5 123544340.007 5      3531.656          34.000    23509696.008 5  96268292.314 5      2751.943          33.000
R06  19987549.227 7 106657407.392 7     -1239.387          44.000
R15  22806373.898 7 121870251.192 7     -3020.520          42.000    22806366.523 4  94788008.057 4     -2349.293          29.000
R21  23374220.633 5 125080161.742 5     -4345.566          30.000
C05  39785898.312 6 207175612.730 6       -22.988          36.000    39785894.938 6 160201306.648 6       -17.601          38.000
C14                                                                  24616754.062 5  99121487.395 5     -1885.098          32.000
C25  23363717.406 8 121661009.529 8      2394.184          51.000
C27  24877841.953 6 129545516.538 6     -2205.500          39.000
E03  23507940.914 8 123535070.820 8      -400.930          51.000    23507943.227 8  94656831.084 8      -307.242          51.000
E15  25055470.906 8 131667371.895 8     -2367.125          50.000    25055473.492 8 100888001.935 8     -1813.813          51.000
E25  26128380.461 5 137305568.935 5      2188.000          34.000    26128378.562 5 105208157.538 5      1676.445          33.000
> 2020 05 15 00 14  0.0000000  0 18        .000000000000
G02  22583120.727 5 118675097.622 5      1095.539          32.000
G04  22311420.430 4 117247266.630 4     -2591.789          29.000    22311423.367 5  91361546.908 5     -2019.576          30.000
G06  21274031.156 8 111795786.995 8     -1217.941          51.000    21274031.578 8  87113589.139 8      -949.045          51.000
G07  21609533.148 8 113558865.882 8      2115.691          51.000    21609529.055 8  88487416.753 8      1648.588          51.000
G09  20454698.398 8 107490272.436 8      -879.023          51.000    20454698.719 8  83758649.645 8      -684.953          51.000
R06  19994566.828 7 106694854.411 7     -1239.648          44.000
R09  22605379.539 5 120711421.792 5      4283.660          32.000    22605370.258 5  93886658.909 5      3331.736          31.000
R15  22823402.750 6 121961247.927 6     -3028.805          40.000    22823397.672 5  94858783.303 5     -2355.737          33.000
R16  20407959.953 6 109015677.089 6       685.824          36.000    20407955.602 5  84789943.803 5       533.416          32.000
C05  39786049.742 6 207176401.363 6       -12.918          36.000    39786046.406 6 160201916.507 6       -10.049          38.000
C24  23628667.875 5 123040669.873 5      -686.613          30.000
C25  23349977.859 8 121589466.117 8      2392.129          50.000
C27  24890598.148 6 129611935.638 6     -2205.953          40.000
E03  23510266.492 8 123547291.248 8      -396.793          51.000    23510268.828 8  94666194.787 8      -304.081          51.000
E05                                                                  26369858.859 5 106180495.746 5     -1609.719          35.000
E08  23164394.758 5 121729716.312 5      1691.902          35.000
E15  25069032.047 8 131738639.593 8     -2367.008          51.000    25069035.500 8 100942609.671 8     -1813.735          51.000
E25                                                                  26115935.656 6 105158054.182 6      1676.430          36.000
> 2020 05 15 00 14 30.0000000  0 17        .000000000000
G06  21281076.133 8 111832809.787 8     -1248.246          51.000    21281077.844 8  87142438.070 8      -972.656          51.000
G07  21597532.305 8 113495802.593 8      2090.602          50.000    21597528.953 8  88438276.510 8      1629.043          50.000
G09  20459786.188 8 107517008.455 8      -901.363          51.000    20459786.320 8  83779482.915 8      -702.361          51.000
R06  20001603.641 7 106732403.248 7     -1261.375          44.000
R07  20317661.594 5 108762027.723 5      1677.211          35.000
R09  22581365.328 6 120583211.603 6      4265.996          36.000    22581362.617 5  93786939.858 5      3317.997          31.000
R15  22840495.562 5 122052586.771 5     -3058.254          32.000    22840493.094 5  94929824.635 5     -2378.642          33.000
R16  20404213.969 6 108995718.594 6       646.484          37.000    20404221.289 4  84774420.615 4       502.827          28.000
R21  23422973.031 5 125341049.538 5     -4351.863          33.000
C05  39786162.109 6 207176986.705 6       -23.527          36.000    39786158.812 6 160202369.122 6       -18.537          38.000
C25  23336266.758 8 121518072.517 8      2369.461          51.000
C27  24903371.328 6 129678444.520 6     -2226.457          40.000
E03  23512584.789 8 123559473.578 8      -413.305          51.000    23512587.109 8  94675529.302 8      -316.655          51.000
E05  26381894.961 5 138637806.906 5     -2113.562          35.000    26381893.055 5 106228960.869 5     -1619.683          32.000
E08  23154780.719 5 121679203.838 5      1676.844          32.000
E15  25082608.820 8 131809988.629 8     -2387.543          50.000    25082613.227 8 100997279.702 8     -1829.431          51.000
E25  26103505.367 5 137174844.242 5      2167.492          32.000    26103508.047 6 105108012.512 6      1661.285          37.000
> 2020 05 15 00 15  0.0000000  0 17        .000000000000
G02  22570896.000 5 118610858.706 5      1050.938          32.000
G06  21288277.516 8 111870653.384 8     -1267.512          51.000    21288280.172 8  87171926.603 8      -987.668          51.000
G07  21585656.875 8 113433398.731 8      2076.699          49.000    21585654.266 8  88389650.154 8      1618.207          49.000
G09  20464983.648 8 107544321.056 8      -912.477          51.000    20464983.672 8  83800765.471 8      -711.021          51.000
R06  20008744.766 7 106770509.214 7     -1271.801          43.000
R09  22557434.867 6 120455432.548 6      4259.637          38.000    22557436.797 4  93687556.172 4      3313.048          26.000
R16  20400679.211 6 108976843.499 6       618.676          40.000
R21  23447389.234 5 125471744.001 5     -4353.957          31.000
R22  21346708.852 4 113950181.650 4     -1979.695          28.000
C05  39786320.773 6 207177813.007 6       -23.613          36.000    39786317.531 6 160203008.105 6       -18.573          38.000
C14  24659042.211 4 128406116.028 4     -2453.031          29.000
C25  23322670.719 8 121447275.015 8      2357.488          51.000
C27  24916246.172 6 129745485.252 6     -2236.023          39.000
E03  23514981.086 8 123572066.013 8      -418.938          51.000    23514983.414 8  94685178.053 8      -320.995          51.000
E05  26393986.609 5 138701334.093 5     -2115.977          33.000    26393985.758 5 106277651.996 5     -1620.911          35.000
E15  25096286.484 8 131881865.616 8     -2397.098          51.000    25096291.211 8 101052354.276 8     -1836.701          51.000
E25  26091179.945 5 137110071.798 5      2158.086          34.000    26091182.250 6 105058377.801 6      1653.634          39.000
> 2020 05 15 00 15 30.0000000  0 16        .000000000000
G06  21295543.414 8 111908835.232 8     -1277.820          51.000    21295546.430 8  87201678.710 8      -995.704          51.000
G07  21573815.750 8 113371174.077 8      2071.578          50.000    21573813.867 8  88341163.448 8      1614.220          50.000
G09  20470198.984 8 107571728.023 8      -914.625          51.000    20470199.062 8  83822121.550 8      -712.695          51.000
G30  23429320.039 6 123121878.981 6      3516.598          36.000    23429322.641 6  95939150.872 6      2740.206          36.000
R06  20015898.594 7 106808683.182 7     -1272.973          42.000
R09  22533493.805 6 120327599.331 6      4262.551          36.000
R15  22875030.789 5 122237168.344 5     -3085.094          34.000
R16  20397256.469 6 108958562.978 6       599.863          41.000
C05  39786434.180 6 207178403.372 6       -15.301          36.000    39786430.891 6 160203468.595 6       -11.910          38.000
C14  24673154.742 4 128479590.681 4     -2447.727          28.000    24673141.688 4  99348546.125 4     -1892.653          29.000
C25  23309097.812 8 121376598.744 8      2354.320          51.000
C27  24929131.141 6 129812578.596 6     -2236.766          41.000
E03  23517363.758 8 123584587.012 8      -415.676          51.000    23517366.141 8  94694772.065 8      -318.457          51.000
E05                                                                  26406044.797 6 106326200.263 6     -1615.382          37.000
E15  25109972.891 8 131953787.453 8     -2397.438          49.000    25109977.281 8 101107463.226 8     -1836.983          51.000
E25  26078861.320 5 137045341.811 5      2157.301          33.000    26078866.234 6 105008782.576 6      1653.125          39.000
> 2020 05 15 00 16  0.0000000  0 15        .000000000000
G06  21302933.203 8 111947667.319 8     -1306.113          51.000    21302935.883 8  87231937.494 8     -1017.748          51.000
G07  21562069.016 8 113309443.883 8      2048.613          51.000    21562067.430 8  88293062.019 8      1596.322          51.000
G09  20475491.742 8 107599541.797 8      -934.680          51.000    20475492.008 8  83843794.614 8      -728.322          51.000
G30  23409298.586 6 123016667.236 6      3502.074          37.000    23409301.906 6  95857167.728 6      2728.889          37.000
R06  20023125.023 6 106847244.149 6     -1292.629          39.000
R09  22509602.953 6 120200035.039 6      4246.555          36.000    22509611.742 4  93488951.272 4      3302.873          29.000
R15  22892445.523 5 122330218.502 5     -3112.703          34.000    22892442.531 4  95145764.795 4     -2420.991          27.000
R16  20394005.609 6 108941197.037 6       562.555          40.000    20394015.133 4  84731998.680 4       437.546          28.000
C05  39786561.859 6 207179068.229 6       -23.938          36.000    39786558.617 6 160203982.737 6       -18.818          38.000
C24  23645458.805 5 123128124.444 5      -765.461          32.000
C25  23295608.000 8 121306356.300 8      2333.289          51.000
C27  24942085.586 7 129880032.525 7     -2255.266          42.000
