     3.02           OBSERVATION DATA    M (MIXED)           RINEX VERSION / TYPE
SAVERINEX           SC600               20200517 045934 LCL PGM / RUN BY / DATE
       G = GPS       R = GLONASS       C = COMPASS          COMMENT
       S = SBAS      J = QZSS          E = GALILEO          COMMENT
BEAN                                                        MARKER NAME
1                                                           MARKER NUMBER
GEODETIC                                                    MARKER TYPE
Unige DICCA         GTER                                    OBSERVER / AGENCY
SC60291900056       SC600               2.12(191202)        REC # / TYPE / VERS
                    HEMA45          NONE                    ANT # / TYPE
  4509407.8091   693652.4678  4442337.6214                  APPROX POSITION XYZ
        0.0000        0.0000        0.0000                  ANTENNA: DELTA H/E/N
G    8 C1C L1C D1C S1C C2Y L2Y D2Y S2Y                      SYS / # / OBS TYPES
R    8 C1C L1C D1C S1C C2P L2P D2P S2P                      SYS / # / OBS TYPES
C    8 C1I L1I D1I S1I C7I L7I D7I S7I                      SYS / # / OBS TYPES
E    8 C1C L1C D1C S1C C7Q L7Q D7Q S7Q                      SYS / # / OBS TYPES
DBHZ                                                        COMMENT
     30.000                                                 INTERVAL
  2020    05    17    02    00    0.0000000     GPS         TIME OF FIRST OBS
  2020    05    17    02    59   30.0000000     GPS         TIME OF LAST OBS
     0                                                      RCV CLOCK OFFS APPL
G L1C  0.00000                                              SYS / PHASE SHIFT
G L2Y  0.00000                                              SYS / PHASE SHIFT
R L1C  0.00000                                              SYS / PHASE SHIFT
R L2P  0.25000                                              SYS / PHASE SHIFT
C L1I  0.00000                                              SYS / PHASE SHIFT
C L7I  0.00000                                              SYS / PHASE SHIFT
E L1C  0.50000                                              SYS / PHASE SHIFT
E L7Q -0.25000                                              SYS / PHASE SHIFT
 11 R01  1 R02 -4 R07  5 R08  6 R09 -2 R10 -5 R11  0 R12 -1 GLONASS SLOT / FRQ #
    R21  4 R22 -3 R23  3                                    GLONASS SLOT / FRQ #
 C1C   71.950 C2C   71.950 C2P   71.950                     GLONASS COD/PHS/BIS
    18                                                      LEAP SECONDS
*** Above antenna height is from mark to ANTENNA BOTTOM.    COMMENT
    17     4        0.0000        ANT MEASURE TYPE/HEIGT    COMMENT
    0.0000    0.0000    0.0458    0.0405    0.0000          COMMENT
                    BASE STATION                            COMMENT
                                                            END OF HEADER
> 2020 05 17 02 00  0.0000000  0 16        .000000000000
G02  23648803.578 8 124275278.643 8     -2399.363          48.000    23648802.508 7  96837875.789 7     -1869.634          47.000
G05  20833745.383 5 109482062.041 5      1321.547          35.000
G07  21165311.867 8 111224473.649 8     -1360.309          49.000    21165311.008 8  86668413.827 8     -1059.981          49.000
G28  23707928.570 7 124586008.097 7      3304.863          42.000    23707921.859 5  97079954.956 5      2575.218          31.000
G30  20450253.422 8 107466810.317 8       712.422          51.000    20450254.492 8  83740435.623 8       555.134          51.000
R01  20202781.453 7 107995436.262 7     -1875.445          47.000    20202786.031 6  83996460.564 6     -1458.680          40.000
R11  19675576.047 8 105140359.226 8      -962.395          51.000    19675578.258 8  81775818.069 8      -748.529          48.000
R12  20250793.141 8 108176118.131 8      3018.789          51.000    20250795.703 8  84136975.559 8      2347.947          48.000
C05  39809092.062 6 207296387.816 6        -6.195          36.000    39809088.836 6 160294695.884 6        -4.824          40.000
C14  21708755.602 6 113043220.065 6       970.852          36.000    21708758.273 7  87412180.031 7       750.833          43.000
C21  24682595.812 7 128528730.495 7     -2774.508          47.000
C24  23408385.297 8 121893627.252 8      2646.344          51.000
C26  21607616.742 8 112516472.702 8      -155.051          51.000
E12  25700874.805 6 135059016.018 6     -2731.625          40.000    25700877.562 7 103486779.858 7     -2093.057          44.000
E19  24004449.352 8 126144222.616 8      -104.938          48.000    24004450.539 8  96655972.360 8       -80.353          49.000
E21  24430076.273 8 128380943.528 8      1427.090          51.000    24430077.750 8  98369806.369 8      1093.460          51.000
> 2020 05 17 02 00 30.0000000  0 16        .000000000000
G02  23662526.953 8 124347394.428 8     -2407.594          49.000    23662525.859 7  96894069.904 7     -1876.047          47.000
G05  20826247.867 6 109442667.204 6      1304.977          36.000
G07  21173114.656 8 111265476.769 8     -1372.363          50.000    21173113.766 8  86700364.294 8     -1069.374          50.000
G28  23689071.305 7 124486913.028 7      3302.312          42.000    23689064.117 5  97002738.035 5      2573.231          30.000
G30  20446233.258 8 107445683.260 8       696.891          51.000    20446234.250 8  83723972.975 8       543.032          51.000
R01  20213350.078 8 108051929.121 8     -1889.914          48.000    20213354.578 6  84040399.453 6     -1469.933          41.000
R11  19681051.844 8 105169620.349 8      -987.418          51.000    19681053.969 7  81798576.735 7      -767.992          47.000
R12  20233895.773 8 108085858.384 8      2999.414          50.000    20233899.227 8  84066773.546 8      2332.878          49.000
C05  39809128.391 6 207296577.481 6        -5.520          36.000    39809125.242 6 160294842.563 6        -4.510          40.000
C14  21703196.094 6 113014268.390 6       960.164          37.000    21703197.992 7  87389792.732 7       742.505          42.000
C21  24698600.297 8 128612067.594 8     -2780.336          48.000
C24  23393170.133 8 121814397.382 8      2636.621          51.000
C26  21608556.961 8 112521369.024 8      -170.449          51.000
E12  25716480.008 6 135141020.759 6     -2734.547          39.000    25716482.047 7 103549614.650 7     -2095.239          43.000
E19  24005069.078 8 126147479.768 8      -111.234          48.000    24005070.453 8  96658468.088 8       -85.238          49.000
E21  24421968.797 8 128338339.423 8      1414.152          51.000    24421970.945 8  98337161.695 8      1083.541          51.000
> 2020 05 17 02 01  0.0000000  0 17        .000000000000
G02  23676294.930 8 124419744.851 8     -2416.480          49.000    23676293.453 7  96950446.862 7     -1882.972          46.000
G05  20818843.945 5 109403757.669 5      1287.762          33.000    20818837.859 5  85249645.413 5      1003.442          32.000
G07  21180983.836 8 111306828.538 8     -1385.199          49.000    21180982.273 8  86732586.432 8     -1079.376          49.000
G09  22942028.391 5 120561172.644 5     -2666.172          31.000
G28  23670228.562 7 124387895.123 7      3298.215          42.000    23670222.344 4  96925581.260 4      2570.041          29.000
G30  20442300.500 8 107425015.737 8       680.242          51.000    20442301.602 8  83707868.440 8       530.059          51.000
R01  20223997.930 7 108108847.405 7     -1905.379          47.000    20224002.773 6  84084669.209 6     -1481.961          41.000
R11  19686666.086 8 105199621.663 8     -1013.340          51.000    19686668.336 7  81821911.102 7      -788.153          47.000
R12  20217105.055 8 107996169.648 8      2979.055          50.000    20217109.594 8  83997015.605 8      2317.039          49.000
C05  39809160.328 6 207296743.819 6        -6.188          37.000    39809157.141 6 160294971.168 6        -4.754          40.000
C14  21697697.164 6 112985628.187 6       948.574          39.000    21697697.641 7  87367646.348 7       733.359          43.000
C21  24714637.211 8 128695571.666 8     -2787.203          48.000
C24  23378009.305 8 121735451.571 8      2625.824          51.000
C26  21609584.031 8 112526716.898 8      -186.793          51.000
E12  25732099.281 6 135223100.790 6     -2738.301          38.000    25732100.875 7 103612507.165 7     -2098.214          42.000
E19  24005723.102 7 126150917.048 7      -118.676          47.000    24005724.766 8  96661101.827 8       -90.945          49.000
E21  24413933.547 8 128296114.716 8      1400.027          50.000    24413936.203 8  98304807.710 8      1072.847          51.000
> 2020 05 17 02 01 30.0000000  0 17        .000000000000
G02  23690112.188 8 124492355.103 8     -2423.844          49.000    23690110.000 7  97007026.279 7     -1888.706          46.000
G05  20811538.297 5 109365363.230 5      1272.035          34.000    20811536.883 5  85219727.602 5       991.187          31.000
G07  21188924.336 8 111348555.256 8     -1396.273          49.000    21188922.406 8  86765100.764 8     -1088.005          49.000
G28  23651406.336 6 124288985.240 6      3295.648          41.000    23651400.992 5  96848508.642 5      2568.041          32.000
G30  20438460.469 8 107404835.743 8       665.371          51.000    20438461.234 8  83692143.764 8       518.471          51.000
R01  20234730.438 7 108166219.453 7     -1919.020          46.000    20234735.156 6  84129291.894 6     -1492.571          41.000
R02  20080515.625 4 107153446.680 4      2282.164          29.000
R11  19692423.906 8 105230389.274 8     -1037.477          51.000    19692426.234 7  81845841.470 7      -806.926          47.000
R12  20200427.703 8 107907083.335 8      2960.289          51.000    20200432.719 8  83927726.223 8      2302.447          49.000
C05  39809193.047 6 207296913.660 6        -4.961          36.000    39809189.992 6 160295103.275 6        -3.770          40.000
C14  21692263.742 6 112957328.641 6       938.477          41.000    21692262.914 7  87345763.314 7       725.738          43.000
C21  24730711.422 8 128779269.612 8     -2792.383          49.000
C24  23362908.250 8 121656819.145 8      2616.578          51.000
C26  21610702.719 8 112532543.402 8      -201.402          51.000
E12  25747737.875 6 135305282.088 6     -2740.559          37.000    25747739.219 7 103675477.245 7     -2099.750          42.000
E19  24006416.719 8 126154562.796 8      -124.191          48.000    24006418.570 8  96663895.305 8       -95.184          49.000
E21  24405975.914 8 128254298.356 8      1387.832          50.000    24405978.930 8  98272766.607 8      1063.407          51.000
> 2020 05 17 02 02  0.0000000  0 18        .000000000000
G02  23703972.797 8 124565194.267 8     -2432.840          49.000    23703969.922 7  97063784.065 7     -1895.719          45.000
G05  20804325.891 6 109327457.615 6      1254.555          37.000    20804326.281 6  85190190.803 6       977.578          37.000
G07  21196930.500 8 111390627.471 8     -1409.168          49.000    21196928.945 8  86797884.322 8     -1098.050          49.000
G09  22972522.555 5 120721420.792 5     -2676.594          31.000
G28  23632600.344 6 124190158.548 6      3291.848          39.000    23632595.188 5  96771500.810 5      2565.067          31.000
G30  20434707.664 8 107385115.135 8       648.711          51.000    20434708.250 8  83676777.054 8       505.489          51.000
R01  20245542.898 7 108224016.629 7     -1934.660          45.000    20245547.477 6  84174245.264 6     -1504.736          41.000
R02  20067716.570 5 107085159.058 5      2271.586          34.000
R11  19698319.328 8 105261892.923 8     -1063.414          51.000    19698321.945 7  81870344.345 7      -827.100          46.000
R12  20183858.789 8 107818573.892 8      2939.660          51.000    20183863.602 8  83858885.555 8      2286.405          49.000
C05  39809221.500 6 207297061.299 6        -5.777          37.000    39809218.312 6 160295217.431 6        -4.247          40.000
C14  21686890.383 6 112929343.213 6       926.711          40.000    21686888.258 6  87324123.236 6       716.468          41.000
C21  24746817.594 8 128863132.927 8     -2799.164          50.000
C24  23347862.477 8 121578473.820 8      2605.688          51.000
C26  21611907.766 8 112538820.192 8      -217.668          51.000
E12  25763390.047 6 135387534.427 6     -2743.738          36.000    25763391.266 6 103738501.778 6     -2102.360          41.000
E19  24007144.711 8 126158389.596 8      -131.621          48.000    24007146.711 8  96666827.508 8      -100.790          49.000
E21  24398090.836 8 128212863.340 8      1373.855          50.000    24398094.406 8  98241017.684 8      1052.626          51.000
> 2020 05 17 02 02 30.0000000  0 17        .000000000000
G02  23717886.266 8 124638311.858 8     -2441.277          48.000    23717883.070 7  97120758.801 7     -1902.294          46.000
G05  20797216.453 6 109290094.505 6      1236.984          37.000    20797217.500 6  85161076.672 6       963.881          37.000
G07  21205011.945 8 111433095.593 8     -1421.516          49.000    21205010.531 8  86830976.359 8     -1107.675          49.000
G28  23613820.656 6 124091469.757 6      3287.758          38.000    23613815.484 5  96694600.435 5      2561.889          31.000
G30  20431052.047 8 107365905.702 8       632.418          51.000    20431052.703 8  83661808.684 8       492.793          51.000
R01  20256443.672 7 108282291.567 7     -1949.984          43.000    20256448.945 6  84219570.185 6     -1516.655          41.000
R11  19704362.062 8 105294183.375 8     -1088.859          51.000    19704363.867 7  81895459.124 7      -846.891          46.000
R12  20167408.219 8 107730697.168 8      2919.285          51.000    20167413.039 8  83790537.028 8      2270.555          49.000
C05  39809255.234 6 207297238.176 6        -6.176          37.000    39809252.109 6 160295353.420 6        -4.316          39.000
C14  21681586.852 6 112901724.654 6       915.000          39.000    21681583.383 6  87302766.809 6       707.729          41.000
C21  24762964.891 8 128947212.256 8     -2805.691          50.000
C24  23332882.578 8 121500468.553 8      2595.043          51.000
C26  21613209.156 8 112545597.994 8      -233.680          51.000
E01  26855339.195 6 141125756.138 6      3164.293          39.000
E12  25779065.375 5 135469907.662 5     -2747.160          35.000    25779066.500 6 103801618.946 6     -2104.946          41.000
E19  24007917.227 8 126162449.716 8      -138.668          48.000    24007919.305 8  96669938.498 8      -106.231          49.000
E21  24390288.578 8 128171862.535 8      1360.016          51.000    24390292.469 8  98209601.457 8      1042.108          51.000
> 2020 05 17 02 03  0.0000000  0 19        .000000000000
G02  23731842.703 7 124711655.058 7     -2446.410          47.000    23731839.773 7  97177909.334 7     -1906.297          46.000
G05  20790200.594 6 109253225.936 6      1222.375          36.000    20790201.625 5  85132347.932 5       952.497          35.000
G07  21213158.969 8 111475908.544 8     -1430.977          49.000    21213157.203 8  86864337.104 8     -1115.047          49.000
G13  22867947.727 6 120171876.243 6      2714.125          37.000
G28  23595058.406 6 123992872.249 6      3286.840          37.000    23595052.711 4  96617771.138 4      2561.183          29.000
G30  20427484.297 8 107347157.678 8       619.113          51.000    20427484.953 8  83647199.832 8       482.426          51.000
R01  20267425.070 7 108340993.552 7     -1961.742          45.000    20267429.969 6  84265227.295 6     -1525.799          41.000
R02  20042297.602 5 106949481.842 5      2253.422          33.000
R11  19710542.211 8 105327207.998 8     -1111.051          51.000    19710544.469 7  81921144.965 7      -864.151          46.000
R12  20151067.820 8 107643405.723 8      2901.945          51.000    20151072.188 8  83722643.690 8      2257.069          50.000
C05  39809284.953 6 207297392.042 6        -2.809          37.000    39809281.836 6 160295473.207 6        -2.265          40.000
C14  21676343.656 6 112874425.016 6       906.582          41.000    21676340.250 7  87281657.004 7       700.930          42.000
C21  24779143.109 8 129031457.544 8     -2809.086          48.000
C24  23317959.172 8 121422755.572 8      2587.488          51.000
C26  21614597.133 8 112552826.925 8      -246.500          51.000
E01  26837282.641 6 141030862.060 6      3163.422          40.000
E12  25794753.844 5 135552350.003 5     -2747.344          35.000    25794754.758 6 103864789.110 6     -2105.200          40.000
E19  24008724.797 8 126166693.912 8      -142.629          48.000    24008726.891 8  96673190.532 8      -109.227          50.000
E21  24382559.758 8 128131247.161 8      1349.289          51.000    24382563.617 8  98178480.566 8      1033.877          51.000
> 2020 05 17 02 03 30.0000000  0 19        .000000000000
G02  23745849.891 7 124785263.890 7     -2457.188          47.000    23745847.656 7  97235266.861 7     -1914.692          46.000
G05  20783286.453 5 109216896.059 5      1203.070          35.000    20783286.914 5  85104038.951 5       937.467          35.000
G07  21221379.336 8 111519107.001 8     -1445.449          49.000    21221377.695 8  86897998.224 8     -1126.324          49.000
G13  22852454.844 5 120090448.380 5      2706.684          35.000
G28  23576322.109 5 123894411.610 5      3280.766          35.000
G30  20424012.195 8 107328913.362 8       600.641          51.000    20424013.188 8  83632983.479 8       468.032          51.000
R01  20278494.469 7 108400165.468 7     -1979.289          45.000    20278499.586 6  84311249.872 6     -1539.447          41.000
R02  20029680.273 5 106882138.004 5      2239.738          31.000
R11  19716867.594 8 105361007.994 8     -1138.742          51.000    19716869.555 7  81947433.863 7      -885.685          45.000
R12  20134845.383 8 107556745.502 8      2878.941          51.000    20134849.336 8  83655241.280 8      2239.177          49.000
C05  39809318.719 6 207297568.181 6        -5.305          36.000    39809315.633 6 160295609.413 6        -4.232          40.000
C14  21671170.617 6 112847487.568 6       892.980          41.000    21671167.344 7  87260827.272 7       690.301          43.000
C21  24795360.672 8 129115910.182 8     -2817.738          48.000
C24  23303100.164 8 121345378.533 8      2574.504          51.000
C26  21616080.125 8 112560548.441 8      -264.672          51.000
E01  26819249.734 6 140936093.902 6      3157.578          38.000
E12  25810463.227 6 135634901.899 6     -2752.766          36.000    25810463.531 6 103928043.139 6     -2109.256          38.000
E19  24009575.562 8 126171165.357 8      -151.961          48.000    24009577.617 8  96676616.704 8      -116.453          50.000
E21  24374912.766 8 128091060.668 8      1333.219          51.000    24374916.102 8  98147688.299 8      1021.569          51.000
> 2020 05 17 02 04  0.0000000  0 18        .000000000000
G02  23759897.406 7 124859083.218 7     -2466.137          47.000    23759895.883 7  97292788.421 7     -1921.665          47.000
G05  20776465.086 5 109181054.072 5      1184.250          31.000    20776465.172 5  85076110.160 5       922.789          31.000
G07  21229662.906 8 111562637.434 8     -1458.723          48.000    21229661.641 8  86931918.041 8     -1136.667          48.000
G09  23033882.195 5 121043843.613 5     -2697.770          33.000
G28  23557602.766 5 123796038.175 5      3275.348          35.000
G30  20420626.172 8 107311120.312 8       583.527          51.000    20420627.242 8  83619118.752 8       454.697          51.000
R01  20289641.844 7 108459753.733 7     -1995.289          46.000    20289647.000 6  84357596.272 6     -1551.891          40.000
R11  19723327.359 8 105395527.937 8     -1164.664          51.000    19723329.398 7  81974282.731 7      -905.847          46.000
R12  20118730.867 8 107470666.326 8      2857.477          50.000    20118735.055 8  83588290.798 8      2222.482          49.000
C05  39809346.688 6 207297713.730 6        -6.234          37.000    39809343.609 6 160295721.951 6        -4.863          40.000
C14  21666057.570 6 112820861.866 6       880.160          41.000    21666054.180 7  87240238.598 7       680.710          43.000
C21  24811608.055 8 129200517.508 8     -2824.852          48.000
C24  23288295.297 8 121268287.004 8      2562.922          51.000
C26  21617647.289 8 112568709.950 8      -281.406          51.000
E01  26801229.500 5 140841401.044 5      3153.418          34.000
E12  25826183.320 6 135717508.835 6     -2756.480          36.000    25826182.773 6 103991339.362 6     -2111.890          38.000
E19  24010459.656 7 126175812.107 7      -159.855          47.000    24010461.695 8  96680177.187 8      -122.436          50.000
E21  24367337.766 8 128051251.622 8      1318.668          51.000    24367340.625 8  98117185.257 8      1010.369          51.000
> 2020 05 17 02 04 30.0000000  0 17        .000000000000
G02  23773996.094 8 124933171.913 8     -2472.512          48.000    23773995.195 7  97350519.886 7     -1926.633          46.000
G05  20769749.203 5 109145763.268 5      1168.434          34.000    20769748.492 5  85048610.788 5       910.474          34.000
G07  21238021.039 8 111606559.708 8     -1469.184          48.000    21238019.812 8  86966143.182 8     -1144.821          48.000
G28  23538911.828 5 123697816.664 5      3272.809          34.000
G30  20417337.805 8 107293839.859 8       568.980          51.000    20417338.789 8  83605653.471 8       443.361          51.000
R01  20300878.742 7 108519820.797 7     -2008.680          47.000    20300883.352 6  84404315.097 6     -1562.306          40.000
R11  19729933.516 8 105430828.288 8     -1188.199          51.000    19729935.414 7  82001738.550 7      -924.158          46.000
R12  20102737.508 8 107385233.566 8      2838.426          51.000    20102741.289 8  83521843.087 8      2207.664          48.000
C05  39809380.547 6 207297889.661 6        -4.820          37.000    39809377.445 6 160295858.000 6        -3.866          40.000
C14  21661015.930 6 112794610.066 6       870.398          40.000    21661012.609 7  87219939.045 7       672.872          43.000
C21  24827897.148 8 129285339.668 8     -2829.684          49.000
C24  23273556.961 8 121191543.461 8      2553.781          51.000
C26  21619310.555 8 112577371.700 8      -295.688          51.000
E01  26783239.602 5 140746874.911 5      3150.926          33.000
E12  25841925.203 6 135800230.283 6     -2757.422          36.000    25841924.180 6 104054723.350 6     -2113.374          37.000
E19  24011388.891 7 126180696.167 7      -165.371          47.000    24011390.984 8  96683919.519 8      -126.764          50.000
E21  24359846.531 8 128011882.474 8      1306.320          51.000    24359849.188 8  98087019.303 8      1001.022          51.000
> 2020 05 17 02 05  0.0000000  0 16        .000000000000
G02  23788135.469 8 125007474.102 8     -2479.859          48.000    23788134.648 7  97408417.697 7     -1932.358          45.000
G05  20763128.938 6 109110972.110 6      1151.762          38.000    20763127.008 6  85021500.812 6       897.477          37.000
G07  21246443.352 7 111650819.159 7     -1480.738          47.000    21246442.055 8  87000631.052 8     -1153.819          48.000
G28  23520239.922 5 123599696.920 5      3269.855          34.000
G30  20414136.961 8 107277018.747 8       553.340          51.000    20414137.844 8  83592546.123 8       431.174          51.000
R01  20312195.203 7 108580312.770 7     -2023.133          47.000    20312199.789 6  84451364.352 6     -1573.551          39.000
R11  19736674.984 8 105466852.932 8     -1212.492          51.000    19736677.422 7  82029757.754 7      -943.049          46.000
R12  20086855.750 8 107300396.085 8      2818.277          51.000    20086859.234 8  83455858.369 8      2191.993          49.000
C05  39809410.008 6 207298043.392 6        -4.273          37.000    39809407.016 6 160295976.867 6        -3.443          40.000
C14  21656035.602 6 112768680.922 6       859.340          41.000    21656033.227 7  87199888.984 7       664.336          45.000
C21  24844217.508 8 129370323.238 8     -2835.164          50.000
C24  23258876.008 8 121115096.674 8      2543.625          51.000
C26  21621059.805 8 112586480.374 8      -310.762          50.000
E12  25857678.383 6 135883011.055 6     -2760.047          36.000    25857677.695 6 104118152.706 6     -2114.943          36.000
E19  24012353.445 7 126185765.028 7      -171.828          47.000    24012355.344 8  96687803.432 8      -131.619          50.000
E21  24352429.234 8 127972901.014 8      1293.184          51.000    24352431.320 8  98057150.411 8       990.908          51.000
> 2020 05 17 02 05 30.0000000  0 17        .000000000000
G02  23802318.078 8 125082003.280 8     -2488.082          48.000    23802316.742 7  97466492.362 7     -1938.765          43.000
G05  20756607.109 6 109076698.823 6      1133.980          36.000    20756605.586 6  84994794.372 6       883.621          38.000
G07  21254932.500 7 111695430.541 7     -1492.809          47.000    21254931.453 7  87035393.193 7     -1163.227          47.000
G09  23080177.508 4 121287130.343 4     -2710.613          28.000
G28  23501590.766 5 123501698.453 5      3265.258          33.000
G30  20411026.609 8 107260673.093 8       536.988          51.000    20411027.320 8  83579809.255 8       418.435          51.000
R01  20323594.031 7 108641245.584 7     -2038.469          47.000    20323598.008 6  84498756.517 6     -1585.476          39.000
R11  19743554.930 8 105503616.332 8     -1237.672          50.000    19743556.914 7  82058351.497 7      -962.634          46.000
R12  20071089.211 8 107216173.528 8      2797.125          51.000    20071092.859 8  83390351.928 8      2175.542          49.000
C05  39809438.414 6 207298191.224 6        -5.121          37.000    39809435.398 6 160296091.164 6        -3.721          40.000
C14  21651121.328 7 112743091.745 7       847.297          43.000    21651119.344 7  87180101.796 7       655.150          45.000
C21  24860572.047 8 129455483.568 8     -2841.574          50.000
C24  23244256.062 8 121038964.301 8      2532.543          51.000
C26  21622897.523 8 112596051.386 8      -326.656          49.000
E12  25873445.562 5 135965865.360 5     -2763.059          35.000    25873446.039 6 104181638.470 6     -2117.209          36.000
E19  24013356.453 7 126191035.400 7      -178.969          47.000    24013357.883 8  96691841.781 8      -137.180          50.000
E21  24345088.781 8 127934324.481 8      1279.188          51.000    24345090.055 8  98027591.777 8       980.169          51.000
> 2020 05 17 02 06  0.0000000  0 16        .000000000000
G02  23816544.383 7 125156762.120 7     -2495.707          47.000    23816541.773 6  97524745.971 6     -1944.710          40.000
G05  20750185.000 6 109042949.951 6      1116.336          38.000    20750183.094 6  84968496.560 6       869.872          38.000
G07  21263489.414 8 111740397.748 8     -1505.023          48.000    21263488.469 8  87070432.590 8     -1172.746          48.000
G28  23482965.914 5 123403829.534 5      3259.449          32.000
G30  20408007.664 8 107244808.115 8       520.430          51.000    20408008.227 8  83567446.917 8       405.530          51.000
R01  20335076.398 7 108702624.460 7     -2053.531          46.000    20335080.055 6  84546495.610 6     -1597.194          40.000
R11  19750573.367 8 105541121.548 8     -1262.680          50.000    19750575.547 7  82087522.241 7      -982.084          46.000
R12  20055439.547 8 107132574.160 8      2776.070          51.000    20055443.297 8  83325330.205 8      2159.166          48.000
C05  39809466.727 6 207298338.454 6        -4.984          37.000    39809463.656 6 160296205.020 6        -3.942          40.000
C14  21646274.008 7 112717849.215 7       835.340          44.000    21646271.898 7  87160582.655 7       646.007          45.000
C21  24876961.383 8 129540825.199 8     -2847.914          51.000
C24  23229698.102 8 120963153.148 8      2521.473          51.000
C26  21624825.258 8 112606089.355 8      -342.613          51.000
E12  25889227.430 5 136048806.475 5     -2765.629          34.000    25889229.586 5 104245183.066 5     -2119.519          35.000
E19  24014399.062 8 126196513.359 8      -186.230          48.000    24014399.938 8  96696039.178 8      -142.744          50.000
E21  24337826.234 8 127896159.126 8      1265.113          51.000    24337827.047 8  97998348.215 8       969.379          51.000
> 2020 05 17 02 06 30.0000000  0 16        .000000000000
G02  23830813.484 7 125231746.068 7     -2503.359          45.000    23830809.039 6  97583175.001 6     -1950.670          40.000
G05  20743862.820 6 109009725.479 6      1098.531          37.000    20743859.297 6  84942607.371 6       856.001          36.000
G07  21272113.367 8 111785717.144 8     -1516.602          48.000    21272112.359 8  87105746.378 8     -1181.767          48.000
G28  23464366.773 5 123306091.299 5      3255.605          33.000
G30  20405079.797 8 107229421.741 8       504.871          51.000    20405080.289 8  83555457.522 8       393.406          51.000
R01  20346642.000 7 108764447.250 7     -2068.156          47.000    20346645.664 6  84594580.012 6     -1608.566          41.000
R11  19757730.102 8 105579364.638 8     -1287.164          50.000    19757732.477 7  82117266.859 7     -1001.128          46.000
R12  20039906.445 8 107049598.783 8      2755.371          50.000    20039910.086 7  83260793.817 7      2143.066          46.000
C05  39809494.531 6 207298484.377 6        -4.602          37.000    39809491.508 6 160296317.070 6        -3.685          40.000
C14  21641493.508 7 112692952.745 7       824.145          44.000    21641490.977 7  87141331.165 7       637.239          45.000
C21  24893384.672 8 129626345.491 8     -2853.707          50.000
C24  23215201.703 8 120887662.839 8      2510.836          51.000
C26  21626842.211 8 112616591.707 8      -357.930          50.000
E12  25905022.859 5 136131813.537 5     -2768.270          31.000    25905027.039 5 104308783.542 5     -2120.758          34.000
E19  24015480.992 8 126202197.437 8      -193.004          48.000    24015481.289 8  96700394.520 8      -147.907          50.000
E21  24330641.570 8 127858404.003 8      1251.594          51.000    24330642.578 8  97969418.996 8       959.049          51.000
> 2020 05 17 02 07  0.0000000  0 16        .000000000000
G02  23845125.750 7 125306957.690 7     -2510.375          45.000    23845120.031 6  97641781.446 6     -1956.139          41.000
G05  20737641.406 5 108977033.042 5      1080.953          34.000    20737637.852 5  84917132.712 5       842.295          34.000
G07  21280805.172 8 111831392.752 8     -1528.121          48.000    21280803.992 7  87141337.772 7     -1190.744          47.000
G28  23445794.875 5 123208492.561 5      3251.684          33.000
G30  20402244.055 8 107214519.279 8       489.059          51.000    20402244.516 8  83543845.222 8       381.085          51.000
R01  20358291.266 7 108826719.306 7     -2082.836          47.000    20358294.820 6  84643013.840 6     -1619.984          41.000
R11  19765025.273 8 105618348.662 8     -1311.480          50.000    19765027.266 7  82147587.752 7     -1020.040          46.000
R12  20024491.508 8 106967255.781 8      2734.621          51.000    20024494.398 7  83196749.300 7      2126.928          44.000
C05  39809522.977 6 207298632.568 6        -4.727          36.000    39809519.867 6 160296431.653 6        -3.280          40.000
C14  21636780.812 7 112668409.109 7       812.719          44.000    21636777.953 7  87122352.468 7       628.349          47.000
C21  24909842.484 8 129712049.130 8     -2859.383          49.000
C24  23200767.984 8 120812500.316 8      2500.297          50.000
C26  21628949.383 8 112627563.162 8      -373.234          51.000
E12                                                                  25920838.438 5 104372442.569 5     -2122.925          34.000
E19  24016603.273 8 126208093.713 8      -199.801          48.000    24016603.180 8  96704912.455 8      -153.016          51.000
E21  24323535.938 8 127821065.490 8      1238.074          51.000    24323537.242 8  97940809.014 8       948.660          50.000
> 2020 05 17 02 07 30.0000000  0 18        .000000000000
G02  23859478.711 7 125382384.957 7     -2516.949          45.000    23859473.258 7  97700555.951 7     -1961.259          42.000
G05  20731519.852 6 108944864.201 6      1064.266          38.000    20731517.422 6  84892066.083 6       829.298          39.000
G07  21289562.742 8 111877413.920 8     -1538.922          49.000    21289561.469 8  87177198.434 8     -1199.160          49.000
G28  23427248.578 5 123111026.256 5      3247.055          35.000
G30  20399498.570 8 107200090.904 8       473.836          51.000    20399498.547 8  83532602.335 8       369.226          51.000
R01  20370022.922 7 108889430.813 7     -2096.961          47.000    20370026.398 6  84691789.430 6     -1630.970          40.000
R02  19930889.516 5 106354967.792 5      2153.727          32.000    19930879.109 4  82720520.342 4      1675.121          29.000
R11  19772457.148 8 105658061.905 8     -1335.031          49.000    19772459.430 7  82178475.857 7     -1038.355          47.000
R12  20009194.164 8 106885538.295 8      2714.340          51.000    20009195.172 7  83133191.269 7      2111.153          43.000
C05  39809550.258 6 207298773.527 6        -3.805          37.000    39809547.148 6 160296541.424 6        -2.906          40.000
C14  21632133.609 7 112644210.076 7       801.727          43.000    21632130.930 7  87103640.222 7       619.907          46.000
C21  24926333.469 8 129797925.718 8     -2864.707          49.000
C24  23186394.625 7 120737657.528 7      2490.180          47.000
C26  21631144.719 8 112638993.431 8      -387.809          51.000
E01  26675687.227 5 140181680.692 5      3129.391          33.000
E12                                                                  25936661.305 5 104436151.122 5     -2124.039          33.000
E19  24017764.078 8 126214192.923 8      -205.883          48.000    24017763.914 8  96709585.894 8      -157.793          51.000
E21  24316508.039 8 127784134.854 8      1225.113          51.000    24316509.227 8  97912511.545 8       938.726          50.000
> 2020 05 17 02 08  0.0000000  0 17        .000000000000
G02  23873873.070 7 125458028.998 7     -2525.270          44.000    23873868.570 7  97759499.375 7     -1967.742          44.000
G05  20725499.109 6 108913223.953 6      1045.785          39.000    20725497.781 6  84867411.358 6       814.894          39.000
G07  21298386.500 8 111923782.685 8     -1551.395          50.000    21298384.945 8  87213329.907 8     -1208.879          50.000
G28  23408729.305 5 123013699.527 5      3242.137          30.000
G30  20396843.984 8 107186140.137 8       457.219          51.000    20396843.570 8  83521731.621 8       356.274          51.000
R01  20381837.180 7 108952585.035 7     -2112.348          46.000    20381840.523 6  84740909.348 6     -1642.937          40.000
R11  19780025.656 8 105698505.792 8     -1360.277          51.000    19780027.758 7  82209932.205 7     -1057.997          47.000
R12  19994014.875 8 106804452.791 8      2692.332          51.000    19994015.242 7  83070124.794 7      2094.039          45.000
C05  39809577.109 6 207298914.101 6        -4.977          37.000    39809573.938 6 160296649.346 6        -3.679          40.000
C14  21627552.727 7 112620360.618 7       789.086          43.000    21627550.688 7  87085198.271 7       610.280          46.000
C21  24942858.672 8 129883978.323 8     -2871.277          49.000
C24  23172081.844 7 120663139.709 7      2478.414          46.000
C26  21633428.477 8 112650885.448 8      -404.164          51.000
E01  26657841.055 5 140087898.005 5      3124.059          34.000
E12                                                                  25952495.625 5 104499945.584 5     -2126.272          31.000
E19  24018964.242 8 126220499.722 8      -213.699          48.000    24018964.297 8  96714418.386 8      -163.765          51.000
E21  24309558.648 8 127747616.730 8      1210.379          51.000    24309559.820 8  97884530.155 8       927.463          51.000
> 2020 05 17 02 08 30.0000000  0 17        .000000000000
G02  23888307.633 7 125533883.213 7     -2531.898          44.000    23888304.008 7  97818606.545 7     -1972.908          44.000
G05  20719578.758 6 108882110.635 6      1028.219          37.000    20719577.641 6  84843167.183 6       801.209          37.000
G07  21307275.312 8 111970493.615 8     -1562.578          48.000    21307273.406 8  87249728.017 8     -1217.593          48.000
G13  22699274.969 5 119285492.475 5      2659.266          35.000
G30  20394279.438 8 107172663.032 8       441.398          51.000    20394279.367 8  83511230.012 8       343.947          51.000
R01  20393733.281 7 109016177.776 7     -2126.902          46.000    20393736.547 6  84790370.348 6     -1654.257          39.000
R11  19787729.906 8 105739674.034 8     -1384.363          50.000    19787731.914 8  82241951.949 8     -1076.727          48.000
R12  19978953.797 8 106723998.372 8      2671.383          51.000    19978953.789 7  83007549.133 7      2077.742          46.000
C05  39809602.711 6 207299047.575 6        -4.527          37.000    39809599.562 6 160296752.561 6        -3.314          40.000
C14  21623039.031 7 112596858.295 7       777.660          44.000    21623036.977 7  87067024.806 7       601.285          46.000
C21  24959417.148 8 129970202.366 8     -2876.875          49.000
C24  23157832.406 8 120588944.437 8      2467.809          49.000
C26  21635800.141 8 112663234.728 8      -419.148          51.000
E01  26640016.578 6 139994228.229 6      3120.152          36.000    26640021.414 5 107268321.719 5      2390.631          35.000
E12                                                                  25968341.461 5 104563749.407 5     -2127.289          31.000
E19  24020203.148 8 126227010.550 8      -220.418          48.000    24020203.516 8  96719407.208 8      -168.868          51.000
E21  24302687.227 8 127711508.183 8      1196.789          51.000    24302688.375 8  97856862.582 8       917.041          51.000
> 2020 05 17 02 09  0.0000000  0 17        .000000000000
G02  23902771.562 7 125609891.281 7     -2539.391          43.000    23902768.797 7  97877833.593 7     -1978.746          43.000
G05  20713748.219 6 108851472.154 6      1009.730          39.000    20713746.234 6  84819293.028 6       786.800          39.000
G07  21316218.633 8 112017491.622 8     -1574.562          49.000    21316217.000 8  87286349.860 8     -1226.932          49.000
G13  22684100.273 5 119205731.947 5      2654.699          32.000
G30  20391794.719 8 107159605.893 8       424.957          51.000    20391794.898 8  83501055.638 8       331.135          51.000
R01  20405701.023 7 109080154.357 7     -2142.336          46.000    20405705.062 6  84840129.847 6     -1666.261          40.000
R11  19795558.906 8 105781509.909 8     -1408.910          51.000    19795560.883 8  82274490.963 8     -1095.819          48.000
R12  19964001.008 8 106644123.390 8      2649.527          51.000    19964001.211 7  82945424.157 7      2060.743          47.000
C05  39809617.148 6 207299122.206 6        -4.723          36.000    39809614.023 6 160296810.254 6        -3.703          40.000
C14  21618582.547 7 112573651.390 7       765.434          45.000    21618580.086 7  87049079.759 7       591.879          46.000
C21  24975998.422 8 130056544.093 8     -2883.125          49.000
C24  23143636.680 8 120515020.194 8      2456.480          51.000
C26  21638249.359 8 112675987.596 8      -435.031          51.000
E01  26622203.578 6 139900622.766 6      3115.754          36.000    26622208.211 6 107196598.060 6      2387.399          37.000
E12                                                                  25984188.281 5 104627558.251 5     -2129.426          32.000
E19  24021470.836 8 126233672.723 8      -227.957          48.000    24021471.547 8  96724511.985 8      -174.549          51.000
E21  24295883.812 8 127675756.665 8      1182.516          51.000    24295884.906 8  97829468.568 8       906.036          51.000
> 2020 05 17 02 09 30.0000000  0 18        .000000000000
G02  23917292.289 7 125686197.694 7     -2553.227          42.000    23917290.109 7  97937293.123 7     -1989.527          42.000
G05  20708036.586 6 108821457.329 6       985.172          40.000    20708033.398 6  84795904.882 6       767.666          39.000
G07  21325244.336 8 112064922.259 8     -1592.891          48.000    21325242.844 8  87323308.790 8     -1241.217          48.000
G13  22668968.617 5 119126208.588 5      2642.586          34.000
G28  23353326.320 5 122722534.937 5      3219.938          32.000
G30  20389417.727 8 107147115.351 8       402.008          51.000    20389418.008 8  83491322.741 8       313.253          51.000
R01  20417768.953 7 109144664.146 7     -2164.062          46.000    20417772.883 6  84890304.141 6     -1683.160          40.000
R11  19803540.539 8 105824160.581 8     -1440.121          50.000    19803542.297 8  82307663.685 8     -1120.094          49.000
R12  19949184.914 8 106564979.773 8      2621.047          51.000    19949185.938 8  82883868.036 8      2038.592          48.000
C05  39809648.062 6 207299283.554 6       -11.332          37.000    39809645.008 6 160296935.021 6        -8.627          40.000
C14  21614210.906 7 112550886.808 7       746.637          46.000    21614208.219 7  87031476.744 7       577.395          47.000
C21  24992630.445 8 130143148.228 8     -2895.988          50.000
C24  23129521.531 8 120441514.031 8      2438.477          51.000
C26  21640803.797 8 112689288.734 8      -457.168          51.000
E01  26604431.406 6 139807230.394 6      3104.629          36.000    26604435.359 6 107125037.618 6      2379.147          36.000
E12                                                                  26000065.242 5 104691482.972 5     -2136.475          35.000
E19  24022795.281 8 126240633.493 8      -241.812          48.000    24022796.242 8  96729845.561 8      -185.261          51.000
E21  24289176.320 8 127640509.851 8      1161.719          51.000    24289177.727 8  97802461.274 8       890.172          51.000
> 2020 05 17 02 10  0.0000000  0 18        .000000000000
G02  23931851.000 7 125762704.482 7     -2552.137          42.000    23931849.297 6  97996908.809 6     -1988.678          41.000
G05  20702425.773 6 108791972.300 6       975.430          40.000    20702421.617 6  84772929.561 6       760.078          39.000
G07  21334333.938 8 112112689.156 8     -1596.473          48.000    21334332.336 7  87360529.750 7     -1244.005          47.000
G28  23334922.133 4 122625841.435 4      3222.629          29.000
G30  20387130.406 8 107135096.146 8       394.270          51.000    20387131.180 8  83481957.130 8       307.226          51.000
R01  20429918.172 7 109209610.074 7     -2170.750          47.000    20429922.555 6  84940817.635 6     -1688.361          41.000
R02  19871154.867 5 106036216.233 5      2096.406          35.000
R11  19811655.656 8 105867526.825 8     -1456.031          50.000    19811657.836 8  82341393.007 8     -1132.469          50.000
R12  19934488.625 8 106486473.883 8      2607.637          51.000    19934490.258 8  82822807.897 8      2028.162          48.000
C05  39809677.641 6 207299437.672 6        -3.641          37.000    39809674.609 6 160297054.214 6        -2.909          40.000
C14  21609906.227 7 112528471.697 7       742.863          45.000    21609903.586 7  87014143.968 7       574.347          47.000
C21  25009294.453 8 130229919.880 8     -2893.703          49.000
C24  23115468.461 8 120368333.267 8      2435.367          51.000
C26  21643445.250 8 112703043.257 8      -464.656          51.000
E01  26586681.117 6 139713957.966 6      3108.645          36.000    26586687.047 6 107053569.093 6      2381.694          37.000
E12                                                                  26015953.055 5 104755448.245 5     -2131.671          34.000
E19  24024158.719 8 126247798.633 8      -240.797          48.000    24024159.594 8  96735335.736 8      -184.525          51.000
E21  24282546.891 8 127605673.629 8      1155.793          51.000    24282549.242 8  97775768.603 8       885.608          51.000
> 2020 05 17 02 10 30.0000000  0 18        .000000000000
G02  23946441.719 7 125839381.752 7     -2559.531          42.000    23946440.539 7  98056657.356 7     -1994.440          42.000
G05  20696910.805 6 108762991.490 6       956.520          37.000    20696906.414 6  84750347.086 6       745.340          38.000
G07  21343482.094 8 112160763.434 8     -1608.430          48.000    21343480.680 8  87397990.241 8     -1253.322          48.000
G28  23316542.273 5 122529248.430 5      3216.707          34.000    23316535.484 5  95477308.987 5      2506.525          32.000
G30  20384927.617 8 107123520.783 8       377.598          51.000    20384928.812 8  83472937.375 8       294.232          51.000
R01  20442144.016 7 109274964.061 7     -2186.027          47.000    20442148.617 7  84991648.496 7     -1700.243          42.000
R02  19859403.656 6 105973505.710 6      2084.367          37.000
R11  19819899.453 8 105911578.751 8     -1480.629          50.000    19819901.594 8  82375655.597 8     -1151.600          50.000
R12  19919906.898 8 106408580.476 8      2585.328          51.000    19919908.969 8  82762224.145 8      2010.811          48.000
C05  39809700.727 6 207299557.653 6        -4.336          36.000    39809697.680 6 160297146.977 6        -3.205          40.000
C14  21605663.609 7 112506380.338 7       730.180          45.000    21605661.336 8  86997061.513 8       564.609          48.000
C21  25025984.859 7 130316831.269 7     -2900.148          47.000
C24  23101472.320 8 120295452.367 8      2423.566          51.000
C26  21646168.500 8 112717223.370 8      -480.582          51.000
E01  26568949.367 6 139620780.073 6      3103.457          36.000    26568957.172 6 106982172.988 6      2377.890          36.000
E12                                                                  26031845.273 5 104819431.754 5     -2133.285          31.000
E19  24025556.156 8 126255141.301 8      -248.516          48.000    24025556.617 8  96740961.934 8      -190.433          51.000
E21  24275990.742 8 127571221.606 8      1141.156          51.000    24275993.672 8  97749370.292 8       874.383          51.000
> 2020 05 17 02 11  0.0000000  0 18        .000000000000
G02  23961066.547 7 125916240.179 7     -2557.594          42.000    23961066.070 7  98116547.062 7     -1992.927          42.000
G05  20691494.477 6 108734529.685 6       947.602          39.000    20691490.969 6  84728169.045 6       738.391          38.000
G07  21352691.117 7 112209156.963 7     -1611.133          47.000    21352689.906 7  87435699.478 7     -1255.428          47.000
G13  22623718.992 5 118888426.570 5      2643.051          33.000
G28  23298188.570 6 122432794.279 6      3219.891          37.000    23298182.109 4  95402151.931 4      2509.000          27.000
G30  20382811.766 8 107112402.365 8       370.461          51.000    20382813.109 8  83464273.671 8       288.671          51.000
R01  20454448.547 7 109340739.214 7     -2192.027          47.000    20454453.531 6  85042806.909 6     -1704.910          41.000
R02  19847715.992 5 105911127.754 5      2080.949          31.000
R11  19828273.500 8 105956327.541 8     -1495.715          51.000    19828275.664 8  82410460.214 8     -1163.334          50.000
R12  19905442.422 8 106331315.899 8      2572.531          51.000    19905444.766 7  82702129.502 7      2000.858          47.000
C05  39809719.750 6 207299656.858 6         3.949          37.000    39809716.766 6 160297223.683 6         3.489          40.000
C14  21601486.125 7 112484627.254 7       726.723          46.000    21601484.055 8  86980240.640 8       561.993          48.000
C21  25042703.680 7 130403894.807 7     -2897.211          45.000
C24  23087536.289 8 120222885.997 8      2420.984          51.000
C26  21648975.539 8 112731841.493 8      -487.277          51.000
E01  26551239.523 6 139527711.919 6      3107.980          38.000    26551247.836 6 106910860.930 6      2381.365          36.000
E19  24026990.078 8 126262675.572 8      -246.855          49.000    24026990.227 8  96746734.946 8      -189.167          51.000
E21  24269510.516 8 127537167.932 8      1135.887          51.000    24269513.531 8  97723277.197 8       870.346          51.000
> 2020 05 17 02 11 30.0000000  0 18        .000000000000
G02  23975725.609 7 125993276.153 7     -2574.137          42.000    23975725.578 6  98176575.112 6     -2005.821          41.000
G05  20686177.102 6 108706587.781 6       919.871          37.000    20686174.289 6  84706396.155 6       716.783          37.000
G07  21361960.320 7 112257867.362 7     -1632.055          47.000    21361959.039 7  87473655.654 7     -1271.731          47.000
G13  22608683.508 5 118809422.785 5      2627.898          31.000
G28  23279860.562 6 122336481.169 6      3204.898          38.000    23279852.852 5  95327102.695 5      2497.317          32.000
G30  20380782.750 8 107101739.664 8       344.824          51.000    20380783.875 8  83455965.073 8       268.694          51.000
R01  20466831.812 7 109406934.437 7     -2216.590          47.000    20466836.594 6  85094292.066 6     -1724.014          40.000
R02  19836086.570 5 105849084.042 5      2059.750          30.000
R11  19836777.352 8 106001769.449 8     -1529.363          51.000    19836779.477 8  82445803.908 8     -1189.505          51.000
R12  19891096.250 8 106254681.704 8      2540.738          51.000    19891098.305 7  82642525.140 7      1976.130          47.000
C05  39809734.625 6 207299734.412 6        -4.934          36.000    39809731.711 6 160297283.692 6        -4.347          40.000
C14  21597373.594 7 112463212.812 7       705.035          45.000    21597371.883 8  86963681.639 8       545.157          49.000
C21  25059450.227 7 130491108.769 7     -2912.770          43.000
C24  23073661.070 8 120150634.590 8      2400.078          51.000
C26  21651866.562 8 112746895.854 8      -512.188          51.000
E01  26533551.102 6 139434754.430 6      3093.602          39.000    26533561.203 5 106839633.648 5      2370.682          35.000
E19  24028460.352 8 126270401.106 8      -263.855          49.000    24028460.336 8  96752654.507 8      -202.160          50.000
E21  24263106.055 8 127503512.483 8      1112.070          51.000    24263109.367 8  97697489.248 8       852.112          51.000
> 2020 05 17 02 12  0.0000000  0 16        .000000000000
G02  23990459.953 7 126070703.828 7     -2577.258          42.000    23990459.977 6  98236908.373 6     -2008.253          41.000
G05  20680999.914 5 108679384.015 5       905.273          35.000    20680997.992 5  84685198.399 5       705.408          34.000
G07  21371330.828 7 112307110.142 7     -1639.969          47.000    21371329.516 7  87512026.669 7     -1277.898          47.000
G28  23261600.867 6 122240528.932 6      3202.625          39.000    23261593.047 5  95252334.722 5      2495.561          34.000
G30  20378881.711 8 107091749.434 8       332.082          51.000    20378882.820 8  83448180.488 8       258.765          51.000
R01  20479334.844 7 109473770.099 7     -2228.176          46.000    20479339.656 6  85146275.328 6     -1733.026          41.000
R11  19845451.562 8 106048122.914 8     -1549.918          51.000    19845453.789 8  82481856.613 8     -1205.492          51.000
R12  19876910.266 8 106178901.211 8      2522.098          51.000    19876911.555 7  82583584.731 7      1961.628          47.000
C05  39809786.758 6 207300005.711 6        -2.223          37.000    39809783.781 6 160297493.448 6        -1.586          40.000
C14  21593367.406 7 112442353.365 7       696.238          46.000    21593366.352 8  86947551.788 8       538.357          50.000
C21  25076267.812 7 130578687.425 7     -2915.156          44.000
C24  23059888.328 8 120078914.700 8      2391.910          51.000
C26  21654882.602 8 112762600.785 8      -524.242          51.000
E01  26515925.211 6 139342126.488 6      3092.473          39.000    26515938.375 5 106768658.930 5      2369.446          35.000
E19  24030008.312 8 126278535.297 8      -267.656          49.000    24030008.156 8  96758887.196 8      -205.063          50.000
E21  24256819.094 8 127470473.118 8      1101.320          51.000    24256822.492 8  97672173.359 8       843.863          51.000
> 2020 05 17 02 12 30.0000000  0 17        .000000000000
G02  24005189.898 7 126148107.129 7     -2574.523          43.000    24005189.961 7  98297222.637 7     -2006.122          43.000
G05  20675885.352 6 108652506.376 6       895.234          38.000    20675884.586 6  84664254.767 6       697.582          38.000
G07  21380723.672 7 112356470.092 7     -1642.035          46.000    21380722.422 7  87550488.964 7     -1279.508          47.000
G13  22578735.492 5 118652061.756 5      2630.473          33.000
G28  23243331.797 6 122144527.058 6      3206.344          39.000    23243324.625 5  95177528.115 5      2498.444          33.000
G30  20377029.820 8 107082017.714 8       325.344          51.000    20377031.102 8  83440597.343 8       253.515          51.000
R01  20491878.758 7 109540825.090 7     -2233.527          46.000    20491883.812 6  85198429.188 6     -1737.188          40.000
R11  19854217.250 8 106094964.544 8     -1564.199          51.000    19854219.547 8  82518289.000 8     -1216.599          50.000
R12  19862805.633 8 106103556.445 8      2509.461          51.000    19862806.617 7  82524983.214 7      1951.803          47.000
C05  39809797.281 6 207300060.817 6         6.785          36.000    39809794.367 6 160297536.044 6         5.558          40.000
C14  21589389.469 7 112421640.246 7       693.039          46.000    21589388.906 8  86931535.074 8       536.053          50.000
C21  25093078.078 7 130666220.230 7     -2911.844          46.000
C24  23046139.367 8 120007317.819 8      2389.695          51.000
C26  21657944.570 8 112778545.453 8      -530.309          51.000
E01  26498282.836 6 139249416.334 6      3097.074          39.000    26498298.492 6 106697621.203 6      2373.032          36.000
E19  24031555.336 8 126286665.202 8      -265.648          49.000    24031555.156 8  96765116.595 8      -203.594          50.000
E21  24250570.492 8 127437636.944 8      1096.418          51.000    24250574.055 8  97647013.182 8       840.136          51.000
> 2020 05 17 02 13  0.0000000  0 16        .000000000000
G02  24019975.922 7 126225804.717 7     -2595.645          45.000    24019975.828 7  98357766.224 7     -2022.580          42.000
G05  20670894.305 6 108626277.871 6       862.844          37.000    20670893.586 6  84643816.966 6       672.343          37.000
G07  21390199.836 7 112406267.193 7     -1667.926          45.000    21390198.383 7  87589291.923 7     -1299.679          45.000
G28  23225114.953 6 122048800.151 6      3185.367          36.000    23225108.664 5  95102935.750 5      2482.107          32.000
G30  20375288.234 8 107072865.651 8       294.598          51.000    20375289.352 8  83433465.876 8       229.557          51.000
R01  20504525.070 8 109608425.649 8     -2263.184          48.000    20504529.594 6  85251007.421 6     -1760.254          40.000
R11  19863135.203 8 106142618.928 8     -1602.836          51.000    19863137.422 8  82555353.527 8     -1246.650          51.000
R12  19848844.055 8 106028976.662 8      2472.422          51.000    19848845.281 8  82466976.742 8      1922.995          48.000
C05  39809827.516 6 207300217.447 6        -7.508          36.000    39809824.609 6 160297657.954 6        -5.896          40.000
C14  21585501.219 7 112401393.309 7       666.270          47.000    21585500.891 8  86915878.840 8       515.292          51.000
C21  25109941.242 7 130754024.824 7     -2932.043          47.000
C24  23032475.227 8 119936163.871 8      2363.668          51.000
C26  21661113.820 8 112795047.633 8      -560.109          51.000
E01  26480685.875 6 139156947.323 6      3077.566          37.000    26480702.508 6 106626768.286 6      2358.129          39.000
E19  24033162.875 8 126295113.074 8      -287.660          49.000    24033162.852 8  96771589.628 8      -220.376          50.000
E21  24244421.766 8 127405326.220 8      1067.508          51.000    24244425.344 8  97622255.626 8       817.955          51.000
> 2020 05 17 02 13 30.0000000  0 17        .000000000000
G02  24034776.836 7 126303581.612 7     -2594.781          46.000    24034776.453 6  98418371.627 6     -2021.907          40.000
G05  20665986.969 6 108600487.450 6       851.500          39.000    20665986.672 6  84623720.505 6       663.506          39.000
G07  21399718.508 7 112456287.489 7     -1671.824          46.000    21399716.844 7  87628268.792 7     -1302.720          46.000
G13  22548879.023 5 118495128.192 5      2612.375          34.000
G28  23206909.969 5 121953139.005 5      3186.527          33.000
G30  20373616.352 8 107064080.579 8       285.895          51.000    20373617.430 8  83426620.361 8       222.775          51.000
R01  20517232.844 7 109676356.051 7     -2270.648          47.000    20517237.172 6  85303842.156 6     -1766.060          40.000
R11  19872164.266 8 106190867.422 8     -1618.934          51.000    19872166.812 8  82592880.152 8     -1259.171          50.000
R12  19834985.922 8 105954948.837 8      2457.594          51.000    19834987.797 8  82409399.594 8      1911.465          48.000
C05  39809837.055 6 207300267.407 6         -.574          37.000    39809834.266 6 160297696.579 6         -.613          40.000
C14  21581662.680 7 112381403.386 7       661.285          47.000    21581662.078 8  86900421.368 8       511.248          50.000
C21  25126815.805 8 130841889.996 8     -2930.551          48.000
C24  23018855.852 8 119865243.899 8      2359.336          51.000
C26  21664349.336 8 112811895.993 8      -568.191          51.000
E01                                                                  26463111.086 6 106555938.863 6      2360.036          40.000
E19  24034790.562 8 126303667.048 8      -287.730          49.000    24034790.914 8  96778143.968 8      -220.505          50.000
E21  24238333.133 8 127373329.425 8      1060.449          51.000    24238336.148 8  97597738.599 8       812.558          51.000
> 2020 05 17 02 14  0.0000000  0 16        .000000000000
G02  24049635.469 7 126381662.651 7     -2603.914          45.000    24049634.672 6  98479214.027 6     -2029.027          40.000
G05  20661206.539 6 108575364.418 6       830.016          40.000    20661205.773 6  84604144.117 6       646.768          40.000
G07  21409322.695 7 112506757.242 7     -1685.945          46.000    21409321.078 7  87667595.862 7     -1313.724          45.000
G28  23188761.414 5 121857774.152 5      3178.270          32.000
G30  20372057.602 8 107055889.852 8       267.004          51.000    20372058.914 8  83420237.978 8       208.055          51.000
R01  20530045.516 7 109744847.039 7     -2288.566          46.000    20530049.242 6  85357112.928 6     -1779.993          38.000
R11  19881347.516 8 106239939.125 8     -1645.496          51.000    19881349.500 8  82631047.023 8     -1279.833          50.000
R12  19821275.047 8 105881706.714 8      2432.188          51.000    19821277.758 8  82352433.518 8      1891.704          49.000
C05  39809869.391 6 207300435.320 6        -3.906          37.000    39809866.539 6 160297826.408 6        -2.897          40.000
