     3.02           OBSERVATION DATA    M (MIXED)           RINEX VERSION / TYPE
SAVERINEX           SC600               20200505 175931 LCL PGM / RUN BY / DATE
       G = GPS       R = GLONASS       C = COMPASS          COMMENT
       S = SBAS      J = QZSS          E = GALILEO          COMMENT
BEAN                                                        MARKER NAME
1                                                           MARKER NUMBER
GEODETIC                                                    MARKER TYPE
Unige DICCA         GTER                                    OBSERVER / AGENCY
SC60291900056       SC600               2.12(191226)        REC # / TYPE / VERS
                    HEMA45          NONE                    ANT # / TYPE
  4509407.8091   693652.4678  4442337.6214                  APPROX POSITION XYZ
        0.0000        0.0000        0.0000                  ANTENNA: DELTA H/E/N
G    8 C1C L1C D1C S1C C2Y L2Y D2Y S2Y                      SYS / # / OBS TYPES
R    8 C1C L1C D1C S1C C2P L2P D2P S2P                      SYS / # / OBS TYPES
C    8 C1I L1I D1I S1I C7I L7I D7I S7I                      SYS / # / OBS TYPES
E    8 C1C L1C D1C S1C C7Q L7Q D7Q S7Q                      SYS / # / OBS TYPES
DBHZ                                                        COMMENT
     30.000                                                 INTERVAL
  2020    05    05    15    00    0.0000000     GPS         TIME OF FIRST OBS
  2020    05    05    15    59   30.0000000     GPS         TIME OF LAST OBS
     0                                                      RCV CLOCK OFFS APPL
G L1C  0.00000                                              SYS / PHASE SHIFT
G L2Y  0.00000                                              SYS / PHASE SHIFT
R L1C  0.00000                                              SYS / PHASE SHIFT
R L2P  0.25000                                              SYS / PHASE SHIFT
C L1I  0.00000                                              SYS / PHASE SHIFT
C L7I  0.00000                                              SYS / PHASE SHIFT
E L1C  0.50000                                              SYS / PHASE SHIFT
E L7Q -0.25000                                              SYS / PHASE SHIFT
 12 R01  1 R06 -4 R07  5 R08  6 R10 -5 R11  0 R12 -1 R13 -2 GLONASS SLOT / FRQ #
    R14 -7 R17  4 R22 -3 R23  3                             GLONASS SLOT / FRQ #
 C1C   71.950 C2C   71.950 C2P   71.950                     GLONASS COD/PHS/BIS
    18                                                      LEAP SECONDS
*** Above antenna height is from mark to ANTENNA BOTTOM.    COMMENT
    17     4        0.0000        ANT MEASURE TYPE/HEIGT    COMMENT
    0.0000    0.0000    0.0458    0.0405    0.0000          COMMENT
                    BASE STATION                            COMMENT
                                                            END OF HEADER
> 2020 05 05 15 00  0.0000000  0 16        .000000000000
G10  23470621.586 6 123338934.444 6      3336.793          36.000    23470626.383 6  96108276.817 6      2600.101          37.000
G18  21304602.133 8 111956515.280 8     -2209.898          51.000    21304602.016 7  87238855.478 7     -1721.999          45.000
G20  21533129.414 8 113157442.570 8      1884.551          49.000    21533129.938 7  88174618.595 7      1468.478          47.000
G21  21642903.961 7 113734253.186 7     -1956.820          47.000    21642902.656 7  88624073.131 7     -1524.795          44.000
G26  20545295.602 8 107966260.383 8     -1293.043          51.000    20545298.211 8  84129556.054 8     -1007.566          51.000
R13  21461902.969 6 114605391.735 6     -3962.914          38.000    21461908.250 7  89137523.111 7     -3082.266          42.000
R14  19893452.508 7 106043297.065 7      -219.867          42.000    19893472.578 4  82478202.442 4      -171.008          25.000
C11  22375030.055 8 116512750.913 8     -1246.129          51.000    22375029.781 8  90095052.338 8      -963.501          51.000
C14  25552141.641 6 133056696.597 6      3099.188          40.000    25552142.422 6 102887899.841 6      2396.476          37.000
C21  24854485.531 5 129423846.754 5       233.246          31.000
C23  23453608.703 8 122129103.470 8     -1779.969          49.000
C28  23855709.367 5 124223043.812 5      2203.867          31.000
E01  24141086.180 8 126862274.632 8     -1490.863          51.000    24141088.266 8  97206144.021 8     -1142.332          51.000
E13  26624283.406 5 139911554.087 5     -2468.852          35.000    26624283.703 5 107204958.941 5     -1891.738          35.000
E21  27134823.477 5 142594459.903 5     -3158.824          33.000    27134832.148 6 109260696.929 6     -2420.428          39.000
E33  24645210.156 7 129511550.856 7      1578.293          42.000    24645208.266 7  99236084.401 7      1209.410          45.000
> 2020 05 05 15 00 30.0000000  0 19        .000000000000
G10  23451586.258 7 123238903.992 7      3335.016          43.000    23451591.477 7  96030331.137 7      2598.717          44.000
G18  21317248.461 8 112022971.901 8     -2217.211          51.000    21317248.258 7  87290639.841 7     -1727.697          46.000
G20  21522414.773 8 113101137.654 8      1872.273          48.000    21522415.031 7  88130744.637 7      1458.914          47.000
G21  21654096.391 7 113793069.519 7     -1960.973          46.000    21654095.180 7  88669904.058 7     -1528.028          45.000
G26  20552725.047 8 108005302.584 8     -1306.562          51.000    20552727.742 8  84159978.521 8     -1018.101          51.000
R07  22978429.242 5 123005234.041 5      -855.027          31.000    22978424.383 4  95670774.463 4      -665.024          27.000
R13  21484200.180 6 114724455.824 6     -3971.699          38.000    21484205.305 7  89230128.491 7     -3089.099          42.000
R14  19894768.875 6 106050300.844 6      -243.750          41.000    19894768.422 5  82483559.975 5      -189.580          31.000
R17  22856052.516 5 122307343.567 5      3010.988          32.000    22856066.250 5  95127973.901 5      2341.880          33.000
R24  19752312.398 5 105624481.712 5       741.895          33.000    19752318.227 4  82152380.233 4       577.032          26.000
C11  22382225.469 8 116550220.103 8     -1248.566          51.000    22382225.305 8  90124025.892 8      -965.537          51.000
C14  25534288.531 6 132963733.118 6      3101.688          40.000    25534288.500 6 102816014.602 6      2398.385          40.000
C21  24853186.781 6 129417088.645 6       220.555          36.000
C23  23463902.664 8 122182705.001 8     -1790.242          50.000
C28  23843025.102 5 124156886.664 5      2203.504          32.000
E01  24149632.398 8 126907185.838 8     -1499.891          51.000    24149634.195 8  97240556.510 8     -1149.330          51.000
E13  26638376.047 5 139985616.494 5     -2465.410          34.000    26638376.320 6 107261708.014 6     -1889.027          37.000
E21  27152863.055 5 142689257.474 5     -3158.594          32.000    27152873.375 6 109333340.798 6     -2419.850          40.000
E33  24636217.500 6 129464299.678 6      1574.695          37.000    24636217.773 7  99199879.004 7      1206.785          46.000
> 2020 05 05 15 01  0.0000000  0 19        .000000000000
G10  23432564.500 7 123138938.749 7      3320.254          47.000    23432569.094 7  95952436.223 7      2587.214          47.000
G18  21329938.219 8 112089656.227 8     -2237.402          51.000    21329938.031 7  87342601.645 7     -1743.430          45.000
G20  21511771.352 8 113045206.618 8      1847.281          48.000    21511771.211 7  88087162.035 7      1439.443          46.000
G21  21665313.680 7 113852016.450 7     -1977.805          47.000    21665311.844 7  88715836.716 7     -1541.147          43.000
G26  20560232.945 8 108044755.730 8     -1332.711          51.000    20560235.453 8  84190721.214 8     -1038.476          51.000
R07  22983292.258 4 123031268.633 4      -889.738          29.000
R13  21506549.430 6 114843794.778 6     -3993.281          39.000    21506554.266 6  89322947.620 6     -3105.888          41.000
R14  19896219.992 6 106058029.593 6      -280.613          41.000    19896218.477 5  82489571.221 5      -218.249          33.000
R17  22839184.000 6 122217079.403 6      2996.598          37.000    22839197.898 5  95057768.397 5      2330.693          31.000
R23  20014714.336 5 107065205.033 5     -1775.289          34.000
C11  22389436.109 8 116587768.869 8     -1263.648          51.000    22389436.070 8  90153060.962 8      -977.067          51.000
C14  25516422.398 6 132870702.100 6      3091.637          39.000    25516421.820 7 102744077.218 7      2390.438          42.000
C21  24851960.781 5 129410718.353 5       195.355          32.000
C23  23474256.773 8 122236617.164 8     -1812.938          51.000
C28  23830359.445 4 124090865.185 4      2189.090          28.000
E01  24158230.906 8 126952372.297 8     -1521.523          51.000    24158232.625 8  97275179.899 8     -1165.879          51.000
E13  26652452.000 5 140059583.089 5     -2474.965          34.000    26652453.148 6 107318389.826 6     -1896.467          38.000
E21                                                                  27170912.422 6 109405975.330 6     -2429.212          40.000
E33  24627243.695 5 129417157.902 5      1558.703          35.000    24627246.969 7  99163757.380 7      1194.358          44.000
> 2020 05 05 15 01 30.0000000  0 18        .000000000000
G10  23413615.312 8 123039356.147 8      3314.852          49.000    23413619.156 8  95874839.489 8      2583.004          49.000
G18  21342730.758 8 112156880.766 8     -2247.988          51.000    21342730.578 7  87394984.390 7     -1751.679          46.000
G20  21501259.711 8 112989966.008 8      1831.656          50.000    21501258.852 7  88044117.435 7      1427.265          45.000
G21  21676615.383 7 113911406.582 7     -1985.348          47.000    21676613.070 7  88762114.719 7     -1547.024          44.000
G26  20567878.734 8 108084933.661 8     -1349.484          51.000    20567881.398 8  84222028.683 8     -1051.546          51.000
R13  21529009.164 6 114963724.196 6     -4005.641          38.000    21529013.609 6  89416226.000 6     -3115.501          40.000
R14  19897866.031 6 106066802.395 6      -307.977          41.000    19897862.180 6  82496394.550 6      -239.528          36.000
R17  22822384.219 6 122127207.628 6      2991.348          36.000    22822404.586 4  94987868.143 4      2326.607          28.000
R23  20024699.195 5 107118540.208 5     -1784.426          33.000
C11  22396721.781 8 116625708.446 8     -1269.340          50.000    22396721.914 8  90182398.254 8      -981.588          51.000
C14  25498603.445 6 132777917.870 6      3090.527          38.000    25498602.727 7 102672330.655 7      2389.798          43.000
C21  24850871.156 5 129405010.662 5       178.270          31.000
C23  23484729.781 8 122291149.935 8     -1826.266          51.000
C28  23817761.664 4 124025334.503 4      2185.715          27.000
E01  24166941.602 8 126998147.872 8     -1533.832          51.000    24166943.188 8  97310254.695 8     -1175.292          51.000
E13  26666571.281 5 140133777.854 5     -2475.199          33.000    26666573.773 6 107375244.933 6     -1896.788          38.000
E21                                                                  27189008.328 6 109478840.404 6     -2431.373          37.000
E33  24618352.398 6 129370440.057 6      1552.148          39.000    24618355.375 7  99127960.564 7      1189.207          43.000
> 2020 05 05 15 02  0.0000000  0 17        .000000000000
G10  23394665.977 8 122939773.584 8      3311.887          51.000    23394667.695 8  95797242.829 8      2580.694          51.000
G18  21355552.281 8 112224257.908 8     -2255.871          51.000    21355551.875 7  87447486.049 7     -1757.822          45.000
G20  21490806.719 8 112935032.800 8      1818.523          51.000    21490805.086 7  88001312.369 7      1417.034          45.000
G21  21687927.773 7 113970853.665 7     -1990.109          47.000    21687925.961 7  88808437.113 7     -1550.735          44.000
G26  20575588.727 8 108125450.154 8     -1363.605          51.000    20575591.492 8  84253599.954 8     -1062.550          51.000
R13  21551504.008 5 115083848.027 5     -4015.301          35.000    21551508.766 6  89509655.626 6     -3123.012          38.000
R14  19899624.461 5 106076233.113 5      -332.273          30.000    19899631.750 6  82503761.612 6      -258.429          36.000
R17  22805584.320 5 122037335.512 5      2987.523          32.000
C11  22404009.102 8 116663656.348 8     -1272.441          50.000    22404009.445 8  90211741.977 8      -983.941          51.000
C14  25480758.875 6 132685000.852 6      3092.117          38.000    25480758.273 7 102600481.470 7      2390.970          43.000
C21  24849840.688 5 129399659.424 5       166.488          31.000
C23  23495247.883 8 122345919.575 8     -1837.023          51.000
C28  23805128.406 5 123959494.469 5      2183.789          34.000
E01  24175690.711 8 127044126.373 8     -1543.414          51.000    24175692.383 8  97345484.960 8     -1182.655          51.000
E13  26680660.188 5 140207815.605 5     -2473.125          32.000    26680664.336 6 107431977.407 6     -1894.624          37.000
E21                                                                  27207088.188 6 109551639.558 6     -2431.260          36.000
E33  24609470.305 6 129323760.472 6      1547.930          41.000    24609471.750 7  99092193.117 7      1186.043          44.000
> 2020 05 05 15 02 30.0000000  0 21        .000000000000
G10  23375774.172 8 122840494.497 8      3310.953          51.000    23375773.320 8  95719882.661 8      2579.967          51.000
G18  21368459.516 8 112292086.059 8     -2261.793          50.000    21368459.094 7  87500339.148 7     -1762.436          45.000
G20  21480469.867 8 112880709.749 8      1807.324          51.000    21480467.930 7  87958982.769 7      1408.308          46.000
G21  21699307.844 8 114030656.136 8     -1992.656          49.000    21699306.336 7  88855036.463 7     -1552.719          44.000
G26  20583420.312 8 108166604.931 8     -1375.727          51.000    20583422.828 8  84285668.621 8     -1071.992          51.000
R01  23499295.453 6 125617199.244 6      3910.480          37.000    23499296.672 4  97702273.075 4      3041.485          26.000
R07  22998795.703 5 123114273.499 5      -955.562          31.000    22998789.500 5  95755572.540 5      -743.215          31.000
R13  21574091.648 6 115204467.529 6     -4021.863          37.000    21574095.555 6  89603470.756 6     -3128.119          36.000
R14  19901575.547 6 106086619.225 6      -354.973          36.000    19901578.484 6  82511815.457 6      -276.081          36.000
R17  22788847.156 5 121947769.406 5      2987.336          32.000
R23  20044723.773 6 107225785.349 6     -1794.062          38.000
C11  22411355.258 8 116701909.902 8     -1273.605          50.000    22411355.773 8  90241322.065 8      -984.760          51.000
C14  25462946.758 6 132592251.449 6      3094.996          37.000    25462946.102 7 102528761.858 7      2393.583          44.000
C21  24848938.867 5 129394962.679 5       154.012          35.000
C23  23505868.406 8 122401222.146 8     -1845.609          51.000
C25  25813719.531 4 134418799.010 4     -3378.070          28.000
C28  23792557.641 5 123894047.797 5      2184.188          32.000
E01  24184535.547 8 127090607.560 8     -1551.035          51.000    24184537.219 8  97381100.393 8     -1188.396          51.000
E13  26694774.695 5 140281988.139 5     -2468.273          32.000    26694781.898 6 107488816.985 6     -1891.529          37.000
E21                                                                  27225208.031 5 109624601.851 5     -2429.898          34.000
E33  24600652.789 7 129277419.671 7      1545.531          42.000    24600654.203 7  99056685.270 7      1184.472          45.000
> 2020 05 05 15 03  0.0000000  0 18        .000000000000
G10  23356898.891 8 122741302.588 8      3312.184          51.000    23356897.547 8  95642590.382 8      2580.925          51.000
G18  21381410.438 8 112360143.888 8     -2265.113          48.000    21381410.375 7  87553371.226 7     -1765.023          45.000
G20  21470207.664 8 112826779.208 8      1798.379          51.000    21470205.500 7  87916959.017 7      1401.334          46.000
G21  21710713.664 8 114090593.431 8     -1992.922          49.000    21710711.922 7  88901740.811 7     -1552.926          44.000
G26  20591331.664 8 108208178.068 8     -1385.457          51.000    20591334.047 8  84318063.271 8     -1079.577          51.000
G27  21944025.984 5 115316632.867 5      2332.789          34.000    21944028.625 5  89857097.431 5      1817.758          33.000
R01  23477369.477 6 125499994.258 6      3913.684          37.000    23477373.789 4  97611113.738 4      3043.979          26.000
R13  21596731.695 6 115325355.997 6     -4026.773          39.000    21596733.469 6  89697494.978 6     -3131.941          36.000
R14  19903663.773 6 106097737.264 6      -375.480          37.000    19903667.305 6  82520462.867 6      -292.037          37.000
R23  20054824.516 7 107279784.609 7     -1795.289          42.000
C11  22418718.461 8 116740251.400 8     -1272.289          50.000    22418718.984 8  90270970.143 8      -983.787          51.000
C14  25445126.070 6 132499454.872 6      3100.895          36.000    25445124.844 7 102457005.796 7      2398.047          42.000
C21  24848101.422 5 129390628.950 5       145.078          35.000
C23  23516549.156 8 122456838.633 8     -1851.812          51.000
E01  24193434.469 8 127137371.430 8     -1556.152          51.000    24193435.656 8  97416932.436 8     -1192.350          51.000
E13  26708877.055 6 140356092.584 6     -2461.422          36.000    26708883.555 6 107545595.159 6     -1885.953          36.000
E21                                                                  27243325.672 5 109697558.170 5     -2425.989          35.000
E33  24591857.859 7 129231198.421 7      1546.121          42.000    24591860.578 7  99021269.013 7      1184.582          46.000
> 2020 05 05 15 03 30.0000000  0 20        .000000000000
G10  23338077.312 8 122642393.429 8      3294.926          50.000    23338076.594 8  95565518.376 8      2567.478          50.000
G18  21394441.398 8 112428621.985 8     -2286.844          48.000    21394441.477 7  87606730.795 7     -1781.956          44.000
G20  21460056.859 8 112773435.913 8      1771.051          51.000    21460054.562 7  87875392.857 7      1380.040          46.000
G21  21722181.430 8 114150855.840 8     -2011.457          49.000    21722179.516 7  88948698.522 7     -1567.369          46.000
G26  20599358.961 8 108250361.444 8     -1413.488          51.000    20599361.250 8  84350933.426 8     -1101.419          51.000
G27  21930800.258 5 115247133.019 5      2315.250          32.000
R01  23455485.727 5 125383013.928 5      3898.160          33.000    23455490.898 4  97520140.077 4      3031.902          27.000
R13  21619457.984 6 115446704.758 6     -4049.598          39.000    21619459.188 6  89791877.238 6     -3149.693          38.000
R14  19905921.883 6 106109785.314 6      -414.309          38.000    19905927.492 5  82529833.490 5      -322.234          35.000
R23  20064992.289 6 107334151.788 6     -1815.395          41.000
C11  22426135.156 8 116778871.156 8     -1289.203          50.000    22426135.422 8  90300833.386 8      -996.948          51.000
C14  25427334.258 5 132406804.503 5      3088.777          35.000    25427331.789 6 102385362.820 6      2388.306          41.000
C21  24847376.258 5 129386825.655 5       117.359          32.000
C23  23527326.164 8 122512958.182 8     -1876.312          50.000
C25  25852686.578 5 134621724.005 5     -3382.082          31.000
C28  23767491.406 5 123763559.891 5      2171.926          34.000
E01  24202423.812 8 127184609.950 8     -1579.750          51.000    24202424.438 8  97453128.173 8     -1210.461          51.000
E13  26723001.141 6 140430304.865 6     -2472.461          37.000    26723005.695 6 107602459.089 6     -1894.998          36.000
E21                                                                  27261479.461 6 109770655.001 6     -2436.641          38.000
E33  24583121.750 6 129185289.341 6      1527.832          41.000    24583126.148 7  98986091.910 7      1170.736          46.000
> 2020 05 05 15 04  0.0000000  0 19        .000000000000
G10  23319262.438 7 122543521.740 7      3285.395          47.000    23319262.711 7  95488475.540 7      2560.048          47.000
G18  21407504.750 8 112497270.025 8     -2300.805          48.000    21407504.438 7  87660222.768 7     -1792.835          44.000
G20  21449970.875 8 112720433.997 8      1751.402          50.000    21449968.656 7  87834092.677 7      1364.732          47.000
G21  21733663.367 8 114211193.564 8     -2022.082          49.000    21733661.727 7  88995714.921 7     -1575.651          46.000
G26  20607455.109 8 108292906.075 8     -1433.910          51.000    20607457.227 8  84384085.063 8     -1117.333          51.000
R01  23433597.328 5 125266010.531 5      3890.898          33.000    23433603.250 4  97429141.509 4      3026.254          26.000
R13  21642222.047 6 115568257.776 6     -4064.801          38.000    21642223.336 6  89886418.397 6     -3161.515          39.000
R14  19908309.578 6 106122511.268 6      -444.992          37.000    19908314.398 5  82539731.484 5      -346.102          33.000
R23  20075179.047 6 107388632.294 6     -1827.566          38.000
C11  22433558.047 8 116817522.883 8     -1298.398          50.000    22433557.797 8  90330721.345 8     -1004.034          51.000
C14  25409524.172 5 132314057.057 5      3083.527          33.000    25409520.414 6 102313644.708 6      2384.454          40.000
C21  24846726.258 5 129383429.844 5        98.000          35.000
C23  23538152.023 8 122569333.048 8     -1892.965          50.000
C25  25872155.562 4 134723103.134 4     -3386.320          28.000
C28  23754966.516 5 123698387.648 5      2162.785          33.000
E01  24211456.203 8 127232074.120 8     -1595.500          51.000    24211456.641 8  97489496.804 8     -1222.538          51.000
E13  26737099.172 6 140504380.204 6     -2476.340          38.000    26737100.734 6 107659218.050 6     -1897.458          36.000
E21                                                                  27279620.586 6 109843701.013 6     -2441.191          38.000
E33  24574397.562 6 129139444.173 6      1517.465          40.000    24574403.016 7  98950963.772 7      1162.763          44.000
> 2020 05 05 15 04 30.0000000  0 20        .000000000000
G10  23300504.023 7 122444950.861 7      3286.316          45.000    23300505.469 7  95411667.075 7      2560.766          46.000
G18  21420649.492 8 112566346.348 8     -2303.914          48.000    21420649.031 7  87714048.481 7     -1795.255          43.000
G20  21439999.555 8 112668035.161 8      1742.301          51.000    21439997.992 8  87793262.427 8      1357.637          48.000
G21  21745208.859 8 114271865.825 8     -2022.305          49.000    21745207.422 7  89042991.999 7     -1575.822          46.000
G26  20615669.586 8 108336071.442 8     -1443.426          51.000    20615671.445 8  84417720.414 8     -1124.747          51.000
G27  21904410.781 6 115108459.317 6      2305.754          38.000
R07  23021377.484 5 123235232.942 5     -1054.199          33.000
R13  21665072.672 5 115690275.232 5     -4068.711          34.000    21665073.859 6  89981320.798 6     -3164.556          39.000
R14  19910872.828 6 106136178.812 6      -465.590          38.000    19910877.656 5  82550361.780 5      -362.122          33.000
R23  20085431.867 6 107443489.764 6     -1829.051          36.000    20085432.766 4  83567178.668 4     -1422.595          25.000
R24  19721427.453 5 105459343.469 5       639.934          31.000    19721430.984 4  82023946.707 4       497.732          26.000
C11  22441036.625 8 116856464.075 8     -1297.199          50.000    22441035.773 8  90360833.141 8     -1003.074          49.000
C14  25391745.055 5 132221473.014 5      3088.652          32.000    25391740.758 6 102242052.898 6      2388.783          40.000
C21  24846184.359 5 129380638.848 5        88.926          34.000
C23  23549075.906 8 122626219.450 8     -1898.934          49.000
C28  23742495.891 5 123633465.018 5      2164.660          32.000
E01  24220580.984 8 127280023.540 8     -1600.648          51.000    24220581.570 8  97526237.248 8     -1226.441          51.000
E13  26751220.289 6 140578578.349 6     -2469.523          37.000    26751219.086 6 107716071.133 6     -1892.244          36.000
E21                                                                  27297797.805 6 109916894.674 6     -2437.737          37.000
E33  24565735.242 6 129093923.241 6      1517.645          40.000    24565739.188 7  98916084.123 7      1162.936          43.000
> 2020 05 05 15 05  0.0000000  0 17        .000000000000
G10  23281779.305 7 122346562.885 7      3269.605          46.000    23281782.656 7  95335001.109 7      2547.745          46.000
G18  21433852.344 8 112635728.065 8     -2324.594          48.000    21433851.859 6  87768112.136 6     -1811.372          41.000
G20  21430120.367 8 112616121.002 8      1715.594          51.000    21430119.477 8  87752809.853 8      1336.826          48.000
G21  21756794.422 8 114332749.119 8     -2039.781          50.000    21756792.984 7  89090433.519 7     -1589.440          45.000
G26  20623978.711 8 108379735.985 8     -1470.660          51.000    20623980.727 8  84451744.708 8     -1145.972          51.000
G27  21891284.930 6 115039482.884 6      2288.828          36.000
R13  21687985.578 5 115812630.469 5     -4091.125          31.000    21687987.422 6  90076485.915 6     -3181.986          38.000
R14  19913590.695 5 106150665.140 5      -502.926          35.000    19913596.500 6  82561628.845 6      -391.164          36.000
R23  20095732.523 6 107498599.800 6     -1848.234          38.000    20095732.945 4  83610041.555 4     -1437.516          28.000
C11  22448547.648 8 116895574.544 8     -1313.328          50.000    22448546.297 8  90391075.829 8     -1015.512          49.000
C14  25373973.000 4 132128935.128 4      3077.750          29.000    25373970.672 7 102170496.856 7      2379.265          42.000
C23  23560074.297 8 122683495.902 8     -1922.465          48.000
C28  23730067.422 5 123568727.566 5      2151.363          32.000
E01  24229775.039 8 127328336.656 8     -1623.285          51.000    24229775.734 8  97563256.371 8     -1243.849          51.000
E13  26765340.922 5 140652815.775 5     -2479.402          30.000    26765338.375 5 107772925.242 5     -1900.385          35.000
E21                                                                  27315988.383 6 109990142.226 6     -2447.782          38.000
E33  24557111.672 6 129048605.660 6      1500.570          41.000    24557113.430 7  98881360.331 7      1149.548          43.000
> 2020 05 05 15 05 30.0000000  0 17        .000000000000
G10  23263104.102 7 122248432.860 7      3272.598          47.000    23263108.695 7  95258536.205 7      2550.079          47.000
G18  21447126.789 7 112705485.238 7     -2325.418          47.000    21447125.953 7  87822468.348 7     -1812.017          42.000
G20  21420347.664 8 112564765.734 8      1708.582          51.000    21420347.008 7  87712792.783 7      1331.363          47.000
G21  21768433.695 8 114393914.606 8     -2037.359          50.000    21768432.148 7  89138094.932 7     -1587.550          45.000
G26  20632396.305 8 108423970.998 8     -1477.906          51.000    20632398.492 8  84486213.513 8     -1151.615          51.000
R07  23033514.781 5 123300222.399 5     -1103.375          31.000
R14  19916475.812 5 106166042.842 5      -521.426          35.000    19916481.680 5  82573589.329 5      -405.547          34.000
R23  20106094.984 6 107554034.264 6     -1847.137          39.000    20106095.109 5  83653157.205 5     -1436.662          30.000
C11  22456104.812 8 116934925.501 8     -1309.656          49.000    22456103.078 8  90421504.495 8     -1012.788          48.000
C14  25356222.773 4 132036510.601 4      3084.250          29.000    25356224.156 7 102099033.801 7      2385.213          43.000
C21  24845402.742 5 129376570.890 5        55.016          33.000
C23  23571161.320 8 122741232.110 8     -1926.141          48.000
C28  23717650.336 5 123504137.120 5      2155.910          31.000
E01  24239051.859 8 127377084.833 8     -1626.062          51.000    24239052.398 8  97600608.865 8     -1245.968          51.000
E13                                                                  26779471.977 5 107829835.182 5     -1893.109          33.000
E21                                                                  27334206.109 6 110063497.804 6     -2442.271          40.000
E33  24548541.109 7 129003563.617 7      1502.801          43.000    24548540.930 7  98846847.619 7      1151.613          44.000
> 2020 05 05 15 06  0.0000000  0 17        .000000000000
G10  23244466.562 8 122150495.505 8      3259.273          48.000    23244471.070 8  95182221.455 8      2539.697          48.000
G18  21460459.297 7 112775547.560 7     -2342.316          47.000    21460458.070 6  87877062.343 6     -1825.182          40.000
G20  21410668.906 8 112513903.418 8      1685.125          51.000    21410668.141 8  87673159.810 8      1313.084          48.000
G21  21780113.414 8 114455292.502 8     -2051.434          49.000    21780111.938 7  89185921.855 7     -1598.520          45.000
G26  20640909.844 8 108468712.324 8     -1501.508          51.000    20640911.852 8  84521076.984 8     -1170.006          51.000
R07  23039799.203 5 123333857.675 5     -1135.664          32.000    23039808.734 4  95926366.976 4      -883.291          27.000
R14  19919514.430 5 106182242.235 5      -555.461          32.000    19919520.578 6  82586188.907 6      -432.028          36.000
R23  20116504.828 6 107609722.121 6     -1862.367          37.000    20116503.727 5  83696469.916 5     -1448.511          31.000
C11  22463694.945 8 116974448.785 8     -1322.156          48.000    22463692.938 7  90452066.398 7     -1022.333          46.000
C14  25338484.672 5 131944148.151 5      3075.961          35.000    25338487.656 6 102027613.395 6      2378.425          40.000
C21  24845151.406 5 129375312.932 5        31.355          32.000
C23  23582323.969 8 122799358.660 8     -1946.062          49.000
C28  23705265.125 5 123439681.169 5      2144.500          31.000
E01  24248398.156 8 127426199.069 8     -1645.070          51.000    24248398.438 8  97638241.824 8     -1260.493          51.000
E13                                                                  26793607.102 5 107886751.249 5     -1898.545          33.000
E21                                                                  27352437.398 6 110136908.050 6     -2449.407          40.000
E33  24540009.945 7 128958728.691 7      1489.129          42.000    24540008.781 7  98812493.645 7      1141.084          43.000
> 2020 05 05 15 06 30.0000000  0 20        .000000000000
G10  23225863.523 8 122052736.027 8      3256.699          49.000    23225867.562 8  95106045.322 8      2537.688          49.000
G18  21473846.070 7 112845895.324 7     -2348.637          46.000    21473845.047 6  87931878.754 6     -1830.110          40.000
G20  21401080.656 8 112463518.023 8      1672.613          50.000    21401080.164 8  87633898.491 8      1303.338          48.000
G21  21791830.008 8 114516863.538 8     -2054.449          49.000    21791828.766 7  89233899.290 7     -1600.870          45.000
G26  20649513.922 8 108513928.512 8     -1514.273          51.000    20649516.352 8  84556315.707 8     -1179.953          51.000
G27  21852164.922 4 114833903.428 4      2276.102          29.000
R01  23324670.250 5 124683761.479 5      3871.188          32.000    23324682.727 4  96976283.616 4      3010.927          29.000
R07  23046214.156 4 123368204.818 4     -1155.711          29.000    23046223.703 5  95953081.656 5      -898.880          31.000
R13  21757139.305 5 116181874.371 5     -4118.016          33.000    21757134.109 5  90363691.149 5     -3202.904          31.000
R14  19922703.828 5 106199244.926 5      -579.230          35.000    19922711.484 5  82599413.162 5      -450.519          34.000
R23  20126956.281 5 107665644.137 5     -1866.895          34.000    20126957.430 5  83739964.855 5     -1452.026          31.000
C11  22471314.594 7 117014126.401 7     -1324.117          47.000    22471312.273 7  90482747.643 7     -1023.946          45.000
C14  25320754.836 6 131851826.013 6      3077.484          37.000    25320757.664 6 101956224.035 6      2379.915          41.000
C21  24844996.273 6 129374528.151 6        19.594          36.000
C23  23593558.094 8 122857856.174 8     -1955.039          50.000
C28  23692905.500 5 123375342.634 5      2143.910          34.000
E01  24257810.391 8 127475660.874 8     -1653.477          51.000    24257810.570 8  97676141.091 8     -1266.988          51.000
E13                                                                  26807739.086 5 107943653.321 5     -1895.713          34.000
E21                                                                  27370678.688 6 110210358.268 6     -2448.287          40.000
E33  24531514.055 6 128914083.331 6      1486.031          40.000    24531513.062 7  98778284.912 7      1138.662          43.000
> 2020 05 05 15 07  0.0000000  0 21        .000000000000
G10  23207305.969 8 121955212.781 8      3248.945          51.000    23207310.023 8  95030053.260 8      2531.649          51.000
G16  20539220.227 6 107934339.260 6       728.355          38.000    20539216.711 5  84104665.145 5       567.547          31.000
G18  21487297.164 7 112916581.732 7     -2359.539          45.000    21487296.688 6  87986959.103 6     -1838.599          41.000
G20  21391594.125 8 112413666.863 8      1655.012          51.000    21391593.742 8  87595053.467 8      1289.623          48.000
G21  21803593.547 8 114578680.968 8     -2062.402          49.000    21803592.180 7  89282068.708 7     -1607.067          45.000
G26  20658220.195 8 108559684.991 8     -1532.031          51.000    20658223.219 8  84591970.099 8     -1193.791          51.000
R01  23302969.234 4 124567761.308 4      3863.535          29.000    23302987.523 4  96886066.968 4      3004.978          28.000
R07  23052775.609 5 123403319.446 5     -1181.469          35.000    23052782.914 4  95980393.204 4      -918.914          29.000
R13  21780318.320 5 116305644.416 5     -4128.961          33.000    21780313.445 5  90459951.579 5     -3211.417          30.000
R14  19926055.148 6 106217106.577 6      -607.527          39.000    19926062.523 5  82613305.697 5      -472.518          32.000
R17  22639670.539 5 121149471.487 5      2928.656          32.000    22639704.164 4  94227473.525 4      2277.847          29.000
R23  20137461.570 6 107721855.068 6     -1876.316          39.000    20137466.617 5  83783684.505 5     -1459.360          32.000
C11  22478974.453 7 117054012.844 7     -1330.852          47.000    22478971.594 7  90513590.373 7     -1029.051          44.000
C14  25303043.750 6 131759601.495 6      3074.758          39.000    25303046.938 7 101884910.251 7      2377.592          42.000
C21  24844943.305 5 129374271.879 5         2.301          30.000
C23  23604873.320 8 122916777.653 8     -1968.863          49.000
C28  23680580.414 5 123311176.657 5      2138.461          34.000
E01  24267298.945 8 127525524.810 8     -1666.625          51.000    24267299.117 8  97714348.487 8     -1276.988          50.000
E13                                                                  26821878.781 5 108000586.505 5     -1896.557          34.000
E21                                                                  27388940.039 6 110283889.781 6     -2450.715          39.000
E33  24523063.953 6 128869682.870 6      1478.051          41.000    24523063.906 7  98744263.738 7      1132.592          42.000
> 2020 05 05 15 07 30.0000000  0 20        .000000000000
G10  23188763.477 8 121857767.560 8      3242.102          51.000    23188767.672 8  94954121.985 8      2526.316          51.000
G16  20535100.031 6 107912685.404 6       710.082          38.000    20535098.969 5  84087792.039 5       553.314          32.000
G18  21500781.555 7 112987443.707 7     -2369.703          46.000    21500781.336 6  88042176.216 6     -1846.522          41.000
G20  21382178.977 8 112364190.375 8      1638.332          51.000    21382178.547 7  87556500.386 7      1276.625          47.000
G21  21815372.938 8 114640582.202 8     -2069.504          49.000    21815371.289 7  89330303.426 7     -1612.600          44.000
G26  20666998.578 8 108605816.731 8     -1548.723          51.000    20667001.758 8  84627916.917 8     -1206.797          51.000
R01  23281286.336 5 124451823.044 5      3859.090          31.000    23281298.836 4  96795903.841 4      3001.514          28.000
R07  23059448.406 5 123439036.073 5     -1205.043          33.000    23059453.828 4  96008172.840 4      -937.250          27.000
R13  21803533.875 4 116429609.456 4     -4140.160          29.000    21803531.469 5  90556368.736 5     -3220.128          33.000
R14  19929536.906 6 106235663.130 6      -634.672          37.000    19929543.680 4  82627738.450 4      -493.646          27.000
R17  22623247.594 5 121061603.031 5      2923.332          31.000    22623289.461 4  94159171.873 4      2273.697          26.000
R23  20147992.625 7 107778189.415 7     -1884.602          42.000    20147998.273 5  83827500.045 5     -1465.801          32.000
C11  22486643.719 7 117093948.061 7     -1336.469          45.000    22486640.602 7  90544470.832 7     -1033.575          45.000
C14  25285321.219 6 131667317.582 6      3072.016          39.000    25285324.688 7 101813550.530 7      2375.955          42.000
C23  23616239.086 8 122975961.630 8     -1981.832          50.000
C28  23668258.633 5 123247023.680 5      2133.285          33.000
E01  24276832.805 8 127575628.877 8     -1678.824          51.000    24276833.453 8  97752739.897 8     -1286.396          51.000
E13                                                                  26835996.094 5 108057426.820 5     -1896.605          35.000
E21                                                                  27407190.828 6 110357378.024 6     -2452.460          39.000
E33  24514631.203 7 128825365.993 7      1471.176          44.000    24514630.578 6  98710306.641 6      1127.423          41.000
> 2020 05 05 15 08  0.0000000  0 19        .000000000000
G10  23170277.242 8 121760618.089 8      3236.883          51.000    23170281.344 8  94878421.142 8      2522.246          51.000
G16  20531098.578 6 107891656.771 6       694.324          38.000    20531095.148 5  84071406.055 5       541.029          31.000
G18  21514340.023 7 113058693.954 7     -2378.012          46.000    21514339.680 6  88097695.875 6     -1852.993          39.000
G20  21372876.461 8 112315305.503 8      1623.109          51.000    21372876.281 7  87518408.306 7      1264.761          47.000
G21  21827208.750 8 114702780.304 8     -2074.652          50.000    21827207.000 7  89378769.469 7     -1616.612          44.000
G26  20675889.164 8 108652537.632 8     -1563.695          51.000    20675892.281 8  84664322.822 8     -1218.461          51.000
R01  23259649.109 6 124336158.893 6      3855.602          37.000    23259656.570 4  96705921.810 4      2998.807          26.000
R07  23066274.984 4 123475463.831 4     -1227.910          28.000
R14  19933190.328 6 106255131.564 6      -660.410          37.000
R17  22606881.172 5 120973973.012 5      2918.684          30.000    22606894.422 4  94090901.652 4      2270.087          27.000
R23  20158588.273 6 107834864.468 6     -1891.270          40.000    20158593.727 5  83871580.571 5     -1470.987          32.000
C11  22494362.977 7 117134144.412 7     -1340.746          44.000    22494360.211 7  90575553.191 7     -1036.762          46.000
C14  25267628.852 6 131575189.650 6      3072.176          39.000    25267632.156 7 101742311.489 7      2375.142          42.000
C21  24845115.711 5 129375016.850 5       -29.652          32.000
C23  23627696.680 8 123035619.141 8     -1993.012          51.000
E01  24286452.781 8 127626187.103 8     -1689.383          51.000    24286454.539 8  97791479.306 8     -1294.465          51.000
E13                                                                  26850130.258 5 108114338.418 5     -1895.635          34.000
E21                                                                  27425471.977 6 110430986.366 6     -2452.927          40.000
E33  24506255.609 7 128781347.453 7      1465.832          44.000    24506254.148 6  98676578.169 6      1123.122          40.000
> 2020 05 05 15 08 30.0000000  0 18        .000000000000
G10  23151818.188 8 121663612.874 8      3234.609          51.000    23151822.211 8  94802832.702 8      2520.478          51.000
G16  20527186.820 6 107871099.996 6       680.949          38.000    20527183.281 5  84055387.845 5       530.610          35.000
G18  21527942.656 7 113130175.954 7     -2382.758          46.000    21527942.219 6  88153396.114 6     -1856.697          39.000
G20  21363657.492 8 112266859.826 8      1611.070          51.000    21363657.594 7  87480658.466 7      1255.379          47.000
G21  21839071.383 8 114765119.201 8     -2076.684          50.000    21839069.500 7  89427345.229 7     -1618.195          43.000
G26  20684862.352 8 108699692.348 8     -1575.410          51.000    20684865.500 8  84701066.736 8     -1227.592          51.000
R01  23238028.031 6 124220572.095 6      3854.902          37.000    23238032.219 4  96616022.024 4      2998.257          28.000
R14  19936984.844 6 106275354.521 6      -683.312          37.000    19937008.719 4  82658703.476 4      -531.465          26.000
R23  20169216.695 6 107891721.351 6     -1894.719          36.000    20169222.180 5  83915802.673 5     -1473.661          30.000
C11  22502102.898 7 117174448.509 7     -1341.598          43.000    22502100.633 7  90606718.873 7     -1037.366          46.000
C14  25249937.891 6 131483067.302 6      3074.145          38.000    25249940.742 6 101671076.717 6      2377.151          41.000
C21  24845340.438 6 129376141.256 6       -40.918          36.000
C23  23639215.547 8 123095595.286 8     -2000.953          51.000
C28  23643748.391 5 123119199.394 5      2131.102          31.000
E01  24296130.031 8 127677044.215 8     -1696.598          51.000    24296132.523 8  97830447.725 8     -1299.972          51.000
E13                                                                  26864253.312 5 108171202.440 5     -1891.948          34.000
E21  27443746.602 5 144217858.972 5     -3198.664          34.000    27443753.172 6 110504595.425 6     -2450.921          39.000
E33  24497906.961 7 128737472.802 7      1463.613          43.000    24497905.562 6  98642959.968 6      1121.554          40.000
> 2020 05 05 15 09  0.0000000  0 19        .000000000000
G10  23133415.859 8 121566906.930 8      3221.578          51.000    23133419.719 8  94727477.466 8      2510.321          51.000
G16  20523393.438 6 107851168.737 6       657.012          37.000    20523391.234 5  84039856.944 5       511.957          31.000
G18  21541617.844 7 113202039.762 7     -2398.781          46.000    21541617.906 6  88209393.879 6     -1869.180          37.000
G20  21354551.367 8 112219007.550 8      1588.312          51.000    21354551.719 7  87443371.006 7      1237.646          47.000
G21  21850989.531 8 114827749.625 8     -2089.469          51.000    21850987.625 7  89476148.141 7     -1628.157          43.000
G26  20693947.016 8 108747431.982 8     -1597.934          51.000    20693950.164 8  84738266.437 8     -1245.143          51.000
R01  23216455.047 6 124105243.968 6      3843.031          38.000    23216457.883 5  96526322.436 5      2989.024          30.000
R13  21873573.500 5 116803670.642 5     -4170.609          34.000    21873574.773 5  90847291.813 5     -3243.810          33.000
R14  19940948.773 6 106296485.850 6      -716.301          36.000    19940959.008 5  82675080.990 5      -557.117          30.000
R17  22574242.211 5 120799311.009 5      2906.461          30.000
R23  20179907.211 7 107948913.594 7     -1908.684          42.000    20179913.281 5  83960285.457 5     -1484.538          31.000
C11  22509892.266 7 117215010.625 7     -1353.430          42.000    22509890.500 7  90638084.109 7     -1046.431          47.000
C14  25232277.750 6 131391103.755 6      3065.781          38.000    25232279.945 6 101599964.747 6      2370.780          41.000
C23  23650823.602 8 123156038.874 8     -2019.531          51.000
C25  26067098.492 5 135738210.455 5     -3382.031          32.000
E01  24305893.648 8 127728351.444 8     -1714.609          51.000    24305896.133 8  97869761.051 8     -1313.765          51.000
E13                                                                  26878393.242 5 108228134.991 5     -1896.258          34.000
E21  27462056.664 5 144314081.632 5     -3206.297          34.000    27462062.672 6 110578320.611 6     -2457.288          37.000
E33  24489614.414 7 128693894.107 7      1450.801          43.000    24489613.516 6  98609568.529 6      1111.629          40.000
> 2020 05 05 15 09 30.0000000  0 21        .000000000000
G10  23115046.883 8 121470376.411 8      3212.941          51.000    23115050.227 8  94652258.932 8      2503.591          51.000
G16  20519694.961 6 107831737.366 6       637.820          38.000    20519693.180 5  84024715.572 5       497.000          35.000
G18  21555341.188 7 113274156.533 7     -2409.895          46.000    21555341.586 6  88265588.748 6     -1877.840          38.000
G20  21345534.484 8 112171623.234 8      1569.910          51.000    21345534.906 8  87406448.172 8      1223.307          48.000
G21  21862938.766 8 114890542.965 8     -2097.621          51.000    21862937.023 7  89525077.994 7     -1634.510          43.000
G26  20703118.758 8 108795628.807 8     -1615.945          51.000    20703121.844 8  84775822.386 8     -1259.181          51.000
R01  23194906.398 6 123990050.405 6      3835.648          38.000    23194909.227 5  96436727.560 5      2983.288          33.000
R13  21897038.062 5 116928959.544 5     -4182.910          35.000    21897037.008 5  90944738.667 5     -3253.378          31.000
R14  19945058.656 5 106318396.069 5      -745.812          35.000    19945068.406 4  82692122.295 4      -580.079          29.000
R17  22557969.062 5 120712234.771 5      2898.582          31.000
R23  20190637.281 7 108006310.866 7     -1918.410          43.000    20190643.500 5  84004927.719 5     -1492.100          33.000
C11  22517706.867 6 117255704.691 6     -1360.629          41.000    22517705.617 7  90669551.372 7     -1051.998          47.000
C14  25214623.625 5 131299176.033 5      3061.867          33.000    25214625.992 6 101528880.539 6      2367.705          40.000
C21  24846077.430 5 129380047.910 5       -81.012          34.000
C23  23662496.312 8 123216822.376 8     -2033.512          50.000
C25  26086583.375 4 135839670.928 4     -3383.605          28.000
C28  23619312.234 5 122991954.349 5      2114.637          30.000
E01  24315719.164 8 127779981.195 8     -1728.145          51.000    24315721.297 8  97909321.506 8     -1324.133          51.000
E13  26892522.953 5 141321167.960 5     -2476.547          34.000    26892525.656 5 108285038.612 5     -1897.503          35.000
E21  27480371.438 5 144410325.626 5     -3210.004          34.000    27480376.688 6 110652063.626 6     -2459.703          37.000
E33  24481353.633 7 128650484.502 7      1442.320          42.000    24481353.859 6  98576306.677 6      1105.122          40.000
> 2020 05 05 15 10  0.0000000  0 20        .000000000000
G10  23096730.922 8 121374123.832 8      3207.039          51.000    23096733.742 8  94577257.002 8      2498.995          51.000
G16  20516111.250 6 107812906.532 6       620.973          36.000    20516108.828 5  84010042.234 5       483.872          35.000
G18  21569131.109 7 113346623.818 7     -2418.211          46.000    21569131.609 6  88322056.768 6     -1884.320          37.000
G20  21336625.766 8 112124808.371 8      1554.152          50.000    21336626.406 7  87369969.060 7      1211.028          46.000
G21  21874937.633 8 114953597.081 8     -2102.852          50.000    21874935.992 7  89574211.064 7     -1638.586          45.000
G26  20712396.164 8 108844381.390 8     -1631.047          51.000    20712399.375 8  84813811.386 8     -1270.946          51.000
R01  23173401.852 6 123875096.993 6      3831.098          37.000    23173404.758 5  96347319.474 5      2979.746          33.000
R13  21920569.234 5 117054611.678 5     -4191.027          35.000    21920566.844 4  91042469.572 4     -3259.688          29.000
R14  19949332.750 5 106341185.118 5      -770.758          33.000    19949338.117 4  82709847.143 4      -599.475          29.000
R17  22541740.695 6 120625400.155 6      2893.762          36.000
R23  20201424.422 7 108064013.037 7     -1925.320          42.000    20201430.922 5  84049807.175 5     -1497.474          34.000
C11  22525565.852 6 117296629.131 6     -1365.004          39.000    22525564.891 7  90701196.747 7     -1055.314          47.000
C14  25196994.438 5 131207385.348 5      3061.457          33.000    25196996.703 6 101457902.340 6      2366.443          37.000
C21  24846600.594 5 129382762.407 5       -97.203          30.000
C23  23674252.680 8 123278042.584 8     -2044.715          51.000
C28  23607149.531 5 122928631.365 5      2110.004          31.000
E01  24325624.891 8 127832032.185 8     -1738.750          51.000    24325626.812 8  97949204.727 8     -1332.283          51.000
E13  26906665.086 5 141395493.195 5     -2474.809          34.000    26906669.922 6 108341989.072 6     -1896.512          36.000
E21  27498709.656 5 144506693.029 5     -3211.105          35.000    27498714.383 6 110725899.677 6     -2460.272          36.000
E33  24473143.453 6 128607343.501 6      1436.715          41.000    24473145.930 6  98543250.609 6      1100.997          40.000
> 2020 05 05 15 10 30.0000000  0 20        .000000000000
G10  23078449.703 8 121278054.388 8      3198.887          51.000    23078452.477 8  94502397.778 8      2492.642          51.000
G16  20512623.594 6 107794579.832 6       602.203          38.000    20512621.234 5  83995761.676 5       469.246          35.000
G18  21582968.883 7 113419341.834 7     -2428.480          46.000    21582969.102 6  88378720.115 6     -1892.322          38.000
G20  21327807.188 8 112078467.189 8      1536.375          51.000    21327807.656 7  87333859.048 7      1197.172          46.000
G21  21886967.164 8 115016812.617 8     -2110.242          50.000    21886965.469 7  89623469.919 7     -1644.342          44.000
G26  20721760.719 8 108893590.987 8     -1648.410          51.000    20721763.734 8  84852156.513 8     -1284.475          51.000
R01  23151921.492 5 123760289.205 5      3824.375          32.000    23151927.336 5  96258024.598 5      2974.517          32.000
R13  21944149.055 5 117180523.938 5     -4201.625          34.000    21944146.477 4  91140402.249 4     -3267.934          26.000
R14  19953753.359 5 106364753.264 5      -799.621          31.000    19953757.891 5  82728145.946 5      -621.928          34.000
R17  22525538.914 6 120538708.151 6      2886.871          37.000
R23  20212249.453 5 108121919.106 5     -1934.098          35.000    20212256.227 5  84094845.231 5     -1504.298          34.000
C11  22533450.672 6 117337686.603 6     -1371.379          39.000    22533449.781 8  90732944.993 8     -1060.205          48.000
C14  25179373.578 6 131115637.607 6      3057.008          36.000    25179374.508 6 101386957.206 6      2364.090          39.000
C21  24847223.734 6 129385934.565 6      -113.621          36.000
C23  23686074.398 8 123339600.766 8     -2057.953          51.000
C28  23595011.008 6 122865401.032 6      2105.289          36.000
E01  24335591.812 8 127884405.806 8     -1751.578          51.000    24335593.742 8  97989335.147 8     -1342.112          51.000
E13  26920801.859 5 141469766.402 5     -2476.484          34.000    26920805.859 6 108398911.126 6     -1897.003          36.000
E21  27517051.688 5 144603079.624 5     -3213.926          35.000    27517056.180 6 110799752.695 6     -2462.391          37.000
E33  24464965.000 6 128564373.286 6      1429.273          38.000    24464969.906 6  98510325.358 6      1095.008          41.000
> 2020 05 05 15 11  0.0000000  0 19        .000000000000
G10  23060224.945 8 121182283.222 8      3191.949          51.000    23060228.055 8  94427770.959 8      2487.233          51.000
G16  20509253.438 6 107776870.667 6       584.641          38.000    20509251.180 5  83981962.376 5       455.564          35.000
G18  21596875.492 7 113492420.767 7     -2437.453          46.000    21596875.281 6  88435664.724 6     -1899.314          37.000
G20  21319100.797 8 112032713.874 8      1519.902          51.000    21319100.680 7  87298207.140 7      1184.339          46.000
G21  21899048.469 8 115080300.176 8     -2116.191          51.000    21899046.641 7  89672940.734 7     -1648.980          44.000
G26  20731233.305 8 108943368.792 8     -1664.277          51.000    20731235.867 8  84890944.403 8     -1296.839          51.000
R01  23130490.180 5 123645745.455 5      3818.332          34.000    23130499.664 5  96168935.085 5      2969.814          32.000
R07  23110085.312 5 123710023.819 5     -1373.125          31.000    23110084.344 4  96218947.293 4     -1067.995          29.000
R13  21967798.266 5 117306805.363 5     -4211.141          33.000
R14  19958341.938 5 106389176.481 5      -825.523          35.000    19958348.852 5  82747160.363 5      -642.068          35.000
R17  22509385.039 4 120452273.668 4      2881.562          29.000
C11  22541382.219 6 117378987.931 6     -1376.496          38.000    22541381.547 7  90764881.792 7     -1064.225          47.000
C14  25161784.273 6 131024046.296 6      3055.008          39.000    25161784.336 6 101316133.120 6      2362.184          41.000
C21  24847946.266 6 129389675.465 6      -129.785          39.000
C23  23697982.219 8 123401606.182 8     -2069.750          51.000
E01  24345641.000 8 127937213.347 8     -1762.910          51.000    24345643.086 8  98029798.055 8     -1350.795          51.000
E13  26934953.867 5 141544131.019 5     -2475.637          35.000    26934955.523 6 108455890.311 6     -1896.994          37.000
E21  27535419.070 5 144699601.085 5     -3214.707          35.000    27535422.438 5 110873707.564 5     -2463.292          35.000
E33  24456841.086 6 128521686.110 6      1422.613          39.000    24456848.336 7  98477616.908 7      1090.189          43.000
> 2020 05 05 15 11 30.0000000  0 20        .000000000000
G10  23042027.680 8 121086657.301 8      3183.273          50.000    23042031.062 8  94353257.300 8      2480.473          50.000
G16  20505971.477 6 107759624.300 6       565.473          39.000    20505969.289 6  83968523.622 6       440.625          37.000
G18  21610820.773 7 113565702.632 7     -2448.117          45.000    21610820.438 6  88492767.468 6     -1907.627          38.000
G20  21310477.016 8 111987393.853 8      1501.629          51.000    21310476.203 7  87262892.892 7      1170.103          46.000
G21  21911151.570 8 115143902.168 8     -2123.816          51.000    21911149.727 7  89722500.724 7     -1654.922          44.000
G26  20740783.898 8 108993557.860 8     -1681.785          50.000    20740786.227 8  84930052.723 8     -1310.482          49.000
R01  23109081.750 6 123531311.845 6      3810.887          37.000    23109092.367 5  96079931.262 5      2964.023          32.000
R07  23117854.391 5 123751614.542 5     -1398.453          35.000    23117852.227 4  96251295.556 4     -1087.683          26.000
R13  21991486.219 4 117433293.863 4     -4222.012          29.000
R14  19963067.031 5 106414369.249 5      -853.957          34.000    19963072.930 5  82766754.817 5      -664.186          35.000
R23  20234045.781 5 108238480.798 5     -1949.988          34.000    20234053.734 5  84185520.304 5     -1516.661          33.000
R24  19678456.281 4 105229517.838 4       459.914          28.000    19678455.398 4  81845199.764 4       357.711          29.000
C11  22549330.312 6 117420378.339 6     -1383.180          36.000    22549330.336 8  90796887.457 8     -1069.475          48.000
C14  25144197.047 6 130932459.662 6      3050.930          41.000    25144196.492 7 101245312.604 7      2359.121          43.000
C21  24848746.484 5 129393831.180 5      -147.309          35.000
C23  23709946.094 8 123463902.419 8     -2083.234          51.000
E01  24355742.445 8 127990298.034 8     -1775.996          51.000    24355744.852 8  98070473.317 8     -1360.807          51.000
E13  26949089.594 6 141618411.813 6     -2476.504          37.000    26949089.898 6 108512806.678 6     -1897.590          37.000
E21  27553781.789 5 144796099.122 5     -3217.703          34.000    27553783.680 5 110947643.723 5     -2465.576          34.000
E33  24448742.859 6 128479125.780 6      1414.832          41.000    24448750.805 7  98445005.744 7      1084.065          43.000
> 2020 05 05 15 12  0.0000000  0 17        .000000000000
G10  23023881.961 8 120991302.075 8      3174.398          49.000    23023885.281 8  94278954.571 8      2473.557          49.000
G16  20502801.070 6 107742964.357 6       545.820          39.000    20502799.336 6  83955541.838 6       425.318          39.000
G18  21624827.531 7 113639307.848 7     -2458.508          44.000    21624827.125 6  88550122.182 6     -1915.720          37.000
G20  21301959.211 8 111942631.535 8      1483.129          51.000    21301957.789 7  87228013.204 7      1155.685          45.000
G21  21923299.461 8 115207739.654 8     -2131.453          51.000    21923297.648 7  89772244.215 7     -1660.873          44.000
G26  20750435.859 8 109044279.670 8     -1699.254          50.000    20750438.305 8  84969576.164 8     -1324.094          50.000
R01  23087719.789 6 123417117.927 6      3802.656          39.000    23087729.820 5  95991113.799 5      2957.625          31.000
R14  19967953.398 5 106440418.103 5      -882.000          34.000    19967961.258 6  82787015.051 6      -686.003          38.000
R23  20245013.562 6 108297140.135 6     -1959.414          39.000    20245019.008 5  84231144.178 5     -1523.995          31.000
C11  22557318.836 5 117461978.630 5     -1390.230          35.000    22557319.258 7  90829055.390 7     -1074.743          47.000
C14  25126634.461 6 130841001.698 6      3046.617          41.000    25126633.844 7 101174591.532 7      2355.901          46.000
C21  24849648.578 5 129398523.125 5      -165.047          34.000
C23  23721988.148 8 123526608.952 8     -2096.578          51.000
E01  24365919.445 8 128043781.422 8     -1788.977          51.000    24365922.234 8  98111454.069 8     -1370.831          51.000
E13  26963232.211 5 141692732.638 5     -2477.883          35.000    26963232.219 6 108569753.757 6     -1898.506          38.000
E21  27572162.953 5 144892692.830 5     -3220.488          32.000    27572163.898 5 111021653.904 5     -2468.030          33.000
E33  24440692.344 6 128436814.903 6      1406.363          40.000    24440699.719 6  98412585.680 6      1077.747          40.000
> 2020 05 05 15 12 30.0000000  0 18        .000000000000
G10  23005780.586 8 120896178.849 8      3167.766          48.000    23005782.344 8  94204832.702 8      2468.395          48.000
G16  20499735.047 6 107726850.797 6       528.762          40.000    20499734.148 6  83942985.837 6       412.019          39.000
