     3.02           OBSERVATION DATA    M (MIXED)           RINEX VERSION / TYPE
SAVERINEX           SC600               20200507 105933 LCL PGM / RUN BY / DATE
       G = GPS       R = GLONASS       C = COMPASS          COMMENT
       S = SBAS      J = QZSS          E = GALILEO          COMMENT
BEAN                                                        MARKER NAME
1                                                           MARKER NUMBER
GEODETIC                                                    MARKER TYPE
Unige DICCA         GTER                                    OBSERVER / AGENCY
SC60291900056       SC600               2.12(191226)        REC # / TYPE / VERS
                    HEMA45          NONE                    ANT # / TYPE
  4509407.8091   693652.4678  4442337.6214                  APPROX POSITION XYZ
        0.0000        0.0000        0.0000                  ANTENNA: DELTA H/E/N
G    8 C1C L1C D1C S1C C2Y L2Y D2Y S2Y                      SYS / # / OBS TYPES
R    8 C1C L1C D1C S1C C2P L2P D2P S2P                      SYS / # / OBS TYPES
C    4 C1I L1I D1I S1I                                      SYS / # / OBS TYPES
E    8 C1C L1C D1C S1C C7Q L7Q D7Q S7Q                      SYS / # / OBS TYPES
DBHZ                                                        COMMENT
     30.000                                                 INTERVAL
  2020    05    07    08    00    0.0000000     GPS         TIME OF FIRST OBS
  2020    05    07    08    59   30.0000000     GPS         TIME OF LAST OBS
     0                                                      RCV CLOCK OFFS APPL
G L1C  0.00000                                              SYS / PHASE SHIFT
G L2Y  0.00000                                              SYS / PHASE SHIFT
R L1C  0.00000                                              SYS / PHASE SHIFT
R L2P  0.25000                                              SYS / PHASE SHIFT
C L1I  0.00000                                              SYS / PHASE SHIFT
E L1C  0.50000                                              SYS / PHASE SHIFT
E L7Q -0.25000                                              SYS / PHASE SHIFT
 13 R01  1 R02 -4 R03  5 R08  6 R09 -2 R10 -5 R11  0 R12 -1 GLONASS SLOT / FRQ #
    R19  3 R20  2 R21  4 R22 -3 R23  3                      GLONASS SLOT / FRQ #
 C1C   71.950 C2C   71.950 C2P   71.950                     GLONASS COD/PHS/BIS
    18                                                      LEAP SECONDS
*** Above antenna height is from mark to ANTENNA BOTTOM.    COMMENT
    17     4        0.0000        ANT MEASURE TYPE/HEIGT    COMMENT
    0.0000    0.0000    0.0458    0.0405    0.0000          COMMENT
                    BASE STATION                            COMMENT
                                                            END OF HEADER
> 2020 05 07 08 00  0.0000000  0 17        .000000000000
G12  20697870.641 8 108768027.785 8      1770.914          51.000    20697869.148 8  84754309.464 8      1379.933          51.000
G15  22907965.094 8 120382138.959 8     -3429.637          51.000    22907960.781 8  93804265.108 8     -2672.447          50.000
G19  21640457.531 5 113721369.833 5      -791.336          31.000    21640456.023 4  88614049.035 4      -616.595          29.000
G24  20146476.992 8 105870420.431 8        61.047          51.000    20146478.109 8  82496437.747 8        47.569          51.000
G25  22912466.859 7 120405815.585 7      3087.348          45.000    22912468.977 7  93822726.068 7      2405.728          43.000
R02  21161632.891 8 112922490.080 8     -3319.477          51.000    21161635.469 7  87828623.752 7     -2581.815          46.000
R11  22302106.781 6 119175658.147 6     -2838.371          36.000    22302118.195 4  92692253.967 4     -2207.625          25.000
R12  19719584.242 6 105338496.345 6      -642.652          37.000    19719593.766 5  81929943.551 5      -499.838          35.000
R22  21456837.031 6 114538073.003 6      3040.227          41.000    21456839.102 6  89085166.948 6      2364.621          37.000
C22  24535411.172 7 127762291.915 7     -2090.445          44.000
C27  23796596.922 4 123915123.518 4      -354.285          28.000
C30  23504375.102 8 122393505.113 8      2407.582          50.000
E01  25758034.883 6 135359370.049 6     -2013.078          37.000    25758040.227 6 103716966.851 6     -1542.611          36.000
E04  26850794.711 6 141101875.142 6     -3101.832          39.000    26850797.023 6 108117034.048 6     -2376.749          39.000
E09  22611795.609 8 118825802.779 8     -1348.480          51.000    22611798.570 8  91048323.326 8     -1033.284          51.000
E31  23505925.844 8 123524475.929 8       -35.691          50.000    23505928.719 8  94648678.414 8       -27.390          51.000
E33  27182688.305 6 142845973.606 6      2699.055          39.000    27182686.883 6 109453431.762 6      2068.140          39.000
> 2020 05 07 08 00 30.0000000  0 16        .000000000000
G12  20687804.852 8 108715130.985 8      1756.270          50.000    20687803.891 8  84713091.151 8      1368.519          50.000
G15  22927569.516 8 120485159.665 8     -3437.680          50.000    22927563.781 8  93884540.858 8     -2678.714          50.000
G19  21645042.039 5 113745477.908 5      -813.441          34.000
G24  20146171.539 8 105868815.421 8        46.641          51.000    20146172.703 8  82495187.079 8        36.343          51.000
G25  22894868.906 7 120313337.795 7      3078.602          43.000    22894870.852 7  93750665.473 7      2398.910          43.000
R02  21180347.047 8 113022349.011 8     -3337.102          50.000    21180348.914 7  87906291.729 7     -2595.526          46.000
R12  19723229.469 6 105357961.579 6      -653.898          39.000    19723238.156 5  81945083.153 5      -508.588          34.000
R22  21439807.695 6 114447173.377 6      3020.496          40.000    21439811.391 5  89014467.195 5      2349.272          33.000
C22  24547492.586 7 127825196.220 7     -2102.672          46.000
C27  23798690.945 5 123926028.116 5      -372.348          34.000
C30  23490541.680 8 122321471.575 8      2395.324          48.000
E01  25769538.773 5 135419838.890 5     -2016.098          33.000    25769544.070 6 103763287.077 6     -1545.009          37.000
E04  26868515.383 6 141194994.894 6     -3105.578          38.000    26868516.922 6 108188385.503 6     -2379.725          40.000
E09  22619535.883 8 118866476.828 8     -1362.520          51.000    22619536.805 8  91079489.114 8     -1043.994          51.000
E31  23506152.109 8 123525664.686 8       -42.922          51.000    23506155.180 8  94649589.256 8       -32.930          51.000
E33  27167297.859 6 142765092.816 6      2693.395          39.000    27167296.000 6 109391458.213 6      2063.785          40.000
> 2020 05 07 08 01  0.0000000  0 16        .000000000000
G12  20677810.609 8 108662611.027 8      1744.051          50.000    20677809.883 8  84672166.480 8      1359.001          50.000
G13  24552098.047 5 129022137.063 5     -3850.000          33.000
G15  22947206.281 8 120588352.406 8     -3442.844          49.000    22947202.203 8  93964950.723 8     -2682.735          49.000
G19  21649742.531 5 113770178.317 5      -833.945          34.000    21649742.859 5  88652082.534 5      -649.837          34.000
G24  20145935.242 8 105867573.477 8        35.062          51.000    20145936.359 8  82494219.323 8        27.321          51.000
G25  22877307.188 6 120221053.203 6      3072.551          41.000    22877309.609 6  93678755.368 6      2394.195          40.000
R02  21199146.391 7 113122669.127 7     -3351.961          47.000    21199148.086 7  87984318.441 7     -2607.081          45.000
R12  19726925.211 7 105377693.012 7      -662.371          42.000    19726930.195 5  81960429.789 5      -515.178          31.000
R22  21422877.695 6 114356805.543 6      3003.070          39.000    21422882.742 5  88944181.141 5      2335.724          32.000
C22  24559632.047 7 127888401.755 7     -2112.188          47.000
C30  23476765.508 7 122249740.391 7      2385.691          47.000
E01  25781047.258 5 135480317.259 5     -2016.695          34.000    25781053.469 6 103809627.710 6     -1544.958          36.000
E04  26886243.438 6 141288157.274 6     -3106.562          36.000    26886245.922 6 108259769.666 6     -2380.206          41.000
E09  22627343.375 8 118907503.734 8     -1373.695          51.000    22627342.602 8  91110925.292 8     -1052.590          51.000
E31  23506407.109 8 123527004.097 8       -47.473          51.000    23506410.359 8  94650615.548 8       -36.324          51.000
E33  27151927.203 6 142684317.366 6      2690.297          37.000    27151925.695 6 109329565.398 6      2061.441          40.000
> 2020 05 07 08 01 30.0000000  0 17        .000000000000
G12  20667888.320 8 108610469.585 8      1730.508          50.000    20667887.328 8  84631536.791 8      1348.451          50.000
G13  24574084.305 5 129137672.210 5     -3852.734          35.000
G15  22966875.164 8 120691716.052 8     -3449.492          48.000    22966873.695 8  94045493.771 8     -2687.916          48.000
G24  20145768.391 8 105866696.315 8        21.902          51.000    20145769.391 8  82493535.822 8        17.067          51.000
G25  22859782.500 7 120128964.157 7      3065.273          42.000    22859786.109 7  93606997.664 7      2388.528          42.000
R02  21218030.969 8 113223447.074 8     -3368.074          48.000    21218033.914 7  88062701.270 7     -2619.613          47.000
R11  22349992.031 4 119431575.119 4     -2847.246          29.000
R12  19730670.344 7 105397691.567 7      -672.234          42.000    19730667.750 4  81975986.197 4      -522.849          29.000
R22  21406047.039 5 114266974.996 5      2983.805          33.000    21406051.953 4  88874313.122 4      2320.731          29.000
C22  24571828.156 7 127951907.610 7     -2123.109          45.000
C27  23803173.305 5 123949374.406 5      -404.820          34.000
C30  23463048.398 8 122178315.121 8      2374.496          49.000
E01                                                                  25792566.656 5 103855989.501 5     -1546.604          35.000
E04  26903978.875 5 141381364.134 5     -3108.891          32.000    26903982.797 6 108331186.240 6     -2382.095          39.000
E09  22635217.812 8 118948883.895 8     -1386.453          51.000    22635216.906 8  91142632.135 8     -1062.329          51.000
E31  23506691.094 8 123528495.072 8       -53.469          51.000    23506694.281 8  94651757.982 8       -40.961          51.000
E33  27136576.484 5 142603672.755 5      2685.930          33.000    27136576.336 6 109267755.933 6      2057.876          39.000
> 2020 05 07 08 02  0.0000000  0 18        .000000000000
G12  20658054.617 8 108558793.621 8      1716.562          51.000    20658053.070 8  84591269.830 8      1337.581          51.000
G15  22986592.844 8 120795334.636 8     -3456.480          48.000    22986593.125 8  94126235.489 8     -2693.361          48.000
G19  21659516.859 4 113821528.563 4      -877.922          28.000
G24  20145687.438 8 105866270.605 8         8.535          51.000    20145688.414 8  82493204.093 8         6.651          51.000
G25  22842312.430 7 120037157.974 7      3057.445          45.000    22842316.102 7  93535460.376 7      2382.425          42.000
R02  21237017.797 8 113324766.254 8     -3384.355          48.000    21237022.195 7  88141505.032 7     -2632.280          47.000
R11  22365992.812 5 119517095.789 5     -2851.473          33.000
R12  19734480.414 6 105418044.842 6      -682.324          40.000    19734476.727 4  81991788.451 4      -530.700          29.000
R21  21768218.516 5 116486117.259 5     -1011.309          33.000    21768219.250 4  90600314.763 4      -786.573          27.000
R22  21389336.141 6 114177773.942 6      2964.551          37.000    21389340.219 5  88804934.423 5      2305.762          34.000
C22  24584096.117 7 128015797.178 7     -2134.227          44.000
C30  23449407.359 8 122107283.525 8      2363.059          50.000
E01                                                                  25804101.891 6 103902438.214 6     -1548.262          36.000
E04                                                                  26921743.461 6 108402700.082 6     -2384.074          39.000
E09  22643175.562 8 118990702.675 8     -1399.406          51.000    22643175.516 8  91174675.084 8     -1072.302          51.000
E24  23935213.047 5 125780390.394 5      1909.230          34.000    23935228.680 6  96377235.406 6      1463.043          37.000
E31  23507020.273 8 123530223.555 8       -59.773          51.000    23507023.180 8  94653082.396 8       -45.765          51.000
E33                                                                  27121264.703 6 109206097.672 6      2054.069          39.000
> 2020 05 07 08 02 30.0000000  0 19        .000000000000
G12  20648274.570 8 108507399.136 8      1701.168          51.000    20648272.812 8  84551222.185 8      1325.588          51.000
G13  24618093.023 5 129368975.110 5     -3859.566          35.000
G15  23006323.711 8 120899021.115 8     -3464.574          48.000    23006324.945 8  94207030.116 8     -2699.671          48.000
G24  20145657.445 8 105866112.888 8        -6.543          51.000    20145658.398 8  82493081.182 8        -5.098          51.000
G25  22824861.617 7 119945451.357 7      3047.898          46.000    22824864.805 6  93464000.687 6      2374.986          41.000
R02  21256070.672 8 113426435.480 8     -3402.117          50.000    21256075.484 7  88220581.065 7     -2646.091          47.000
R03  20992074.258 5 112372173.104 5       301.648          33.000
R12  19738321.734 6 105438564.872 6      -694.367          41.000    19738320.094 5  82007748.466 5      -540.060          32.000
R21  21773948.789 5 116516762.192 5     -1039.914          35.000    21773952.211 4  90624149.650 4      -808.825          27.000
R22  21372710.211 6 114089019.605 6      2943.660          39.000    21372713.773 5  88735903.219 5      2289.513          33.000
C22  24596401.609 7 128079885.408 7     -2146.699          45.000
C27  23808038.344 6 123974723.182 6      -440.754          38.000
C30  23435807.742 8 122036465.133 8      2349.844          51.000
E01                                                                  25815624.070 6 103948832.241 6     -1551.324          37.000
E04                                                                  26939492.367 6 108474168.634 6     -2387.114          39.000
E09  22651181.484 8 119032774.709 8     -1413.887          51.000    22651182.273 8  91206912.089 8     -1083.407          51.000
E24  23924309.422 5 125723093.221 5      1902.477          33.000    23924320.312 6  96333319.385 6      1458.454          37.000
E31  23507359.078 8 123532004.720 8       -67.555          51.000    23507361.898 8  94654447.184 8       -51.754          51.000
E33  27105955.602 5 142442757.411 5      2674.125          32.000    27105956.484 6 109144451.026 6      2049.286          38.000
> 2020 05 07 08 03  0.0000000  0 19        .000000000000
G12  20638624.344 8 108456687.733 8      1681.801          51.000    20638623.039 8  84511706.828 8      1310.494          50.000
G13  24640151.523 5 129484896.282 5     -3867.109          34.000
G15  23026143.383 7 121003174.111 7     -3476.695          47.000    23026145.305 7  94288188.259 7     -2709.113          47.000
G24  20145754.805 8 105866624.864 8       -25.488          51.000    20145755.750 8  82493480.112 8       -19.861          51.000
G25  22807506.133 7 119854246.475 7      3034.574          45.000    22807508.750 6  93392931.972 6      2364.606          40.000
R02  21275265.047 8 113528857.594 8     -3423.754          50.000    21275269.758 7  88300242.678 7     -2662.920          47.000
R03  20990472.047 5 112363637.389 5       268.480          31.000
R12  19742270.164 6 105459659.134 6      -709.645          39.000    19742271.445 5  82024155.143 5      -551.943          33.000
R21  21779877.477 5 116548486.736 5     -1072.926          33.000
R22  21356244.383 6 114001123.414 6      2918.691          39.000    21356248.672 5  88667539.622 5      2270.096          33.000
C22  24608821.891 7 128144567.652 7     -2163.246          46.000
C27  23810655.102 5 123988330.493 5      -464.215          33.000
C30  23422325.930 8 121966259.720 8      2332.734          51.000
E01  25827207.945 5 135722901.617 5     -2032.133          33.000    25827208.648 6 103995478.603 6     -1556.984          37.000
E04                                                                  26957305.531 6 108545897.877 6     -2393.146          38.000
E09  22659311.852 8 119075500.208 8     -1432.305          51.000    22659312.727 8  91239649.797 8     -1097.486          51.000
E24  23913478.414 4 125666176.804 4      1892.824          28.000    23913484.070 5  96289708.069 5      1450.705          35.000
E31  23507784.000 8 123534239.331 8       -79.324          51.000    23507786.859 8  94656159.417 8       -60.793          51.000
E33                                                                  27090726.086 5 109083125.083 5      2040.909          35.000
> 2020 05 07 08 03 30.0000000  0 20        .000000000000
G12  20629034.773 8 108406294.940 8      1674.934          51.000    20629033.711 8  84472439.739 8      1305.143          51.000
G13  24662203.172 5 129600782.931 5     -3861.324          35.000
G15  23045981.680 7 121107426.078 7     -3476.137          45.000    23045984.078 7  94369423.566 7     -2708.678          45.000
G19  21675102.336 5 113903439.935 5      -941.367          30.000
G24  20145910.383 8 105867442.843 8       -32.012          51.000    20145911.297 8  82494117.484 8       -24.944          51.000
G25  22790176.703 7 119763179.443 7      3033.508          45.000    22790179.648 6  93321970.684 6      2363.775          41.000
R02  21294529.992 8 113631657.856 8     -3432.414          51.000    21294534.664 7  88380198.389 7     -2669.658          47.000
R03  20989015.867 5 112355848.210 5       248.090          31.000    20989012.766 4  87387861.140 4       192.962          28.000
R11  22414144.719 5 119774357.389 5     -2862.574          33.000
R12  19746256.602 6 105480956.313 6      -712.688          38.000    19746259.422 5  82040719.556 5      -554.316          34.000
R21  21785935.977 4 116580917.719 4     -1091.711          27.000    21785933.203 4  90674048.698 4      -849.105          25.000
R22  21339870.625 5 113913719.706 5      2905.422          30.000    21339875.281 4  88599546.909 4      2259.773          26.000
C22  24621287.391 7 128209480.091 7     -2167.109          47.000
C30  23408892.805 8 121896307.947 8      2327.832          51.000
E01  25838787.383 5 135783737.262 5     -2026.762          34.000    25838785.898 5 104042097.440 5     -1553.135          35.000
E04                                                                  26975113.602 6 108617606.972 6     -2389.515          36.000
E09  22667496.891 8 119118513.256 8     -1438.082          51.000    22667497.719 8  91272607.853 8     -1101.931          51.000
E24                                                                  23902655.266 5  96246121.856 5      1452.728          34.000
E31  23508225.906 8 123536562.080 8       -78.496          51.000    23508228.703 8  94657939.162 8       -60.086          51.000
E33                                                                  27075505.594 5 109021841.978 5      2041.917          33.000
> 2020 05 07 08 04  0.0000000  0 17        .000000000000
G12  20619521.055 8 108356300.459 8      1658.668          51.000    20619520.016 8  84433482.979 8      1292.469          51.000
G15  23065852.773 7 121211853.356 7     -3484.898          43.000    23065855.922 7  94450795.484 7     -2715.505          43.000
G19  21680545.781 6 113932037.407 6      -964.711          37.000    21680540.602 5  88778191.658 5      -751.735          31.000
G24  20146139.125 8 105868645.540 8       -47.617          51.000    20146139.953 8  82495054.641 8       -37.104          51.000
G25  22772888.570 7 119672330.349 7      3023.664          45.000    22772892.000 6  93251179.260 6      2356.102          40.000
R02  21313880.383 8 113734911.973 8     -3450.449          51.000    21313884.203 7  88460507.139 7     -2683.686          47.000
R03  20987712.250 5 112348864.516 5       218.090          34.000
R12  19750296.422 6 105502536.545 6      -725.203          40.000    19750299.008 5  82057504.161 5      -564.047          33.000
R21  21792140.922 5 116614140.735 5     -1121.176          30.000    21792141.383 4  90699892.526 4      -872.029          24.000
C22  24633812.164 8 128274698.894 8     -2180.164          49.000
C30  23395523.719 8 121826690.411 8      2313.934          51.000
E01  25850376.383 6 135844632.672 6     -2031.145          36.000    25850370.336 5 104088749.080 5     -1556.185          33.000
E04                                                                  26992930.820 5 108689355.225 5     -2392.762          33.000
E09  22675751.516 8 119161891.957 8     -1453.156          51.000    22675752.820 8  91305846.079 8     -1113.389          51.000
E24  23891859.195 5 125552565.208 5      1889.566          32.000    23891851.016 5  96202621.327 5      1447.682          33.000
E31  23508699.633 8 123539051.653 8       -86.785          51.000    23508702.531 8  94659846.739 8       -66.531          51.000
E33                                                                  27060312.297 5 108960663.919 5      2036.308          31.000
> 2020 05 07 08 04 30.0000000  0 17        .000000000000
G12  20610085.070 8 108306714.612 8      1646.012          51.000    20610084.172 8  84394844.628 8      1282.607          51.000
G15  23085758.883 7 121316464.210 7     -3490.055          44.000    23085762.570 7  94532310.450 7     -2719.523          43.000
G19  21686109.969 6 113961274.282 6      -985.285          36.000    21686107.070 5  88800973.629 5      -767.752          35.000
G24  20146443.180 8 105870244.146 8       -59.941          51.000    20146444.055 8  82496300.296 8       -46.708          51.000
G25  22755644.102 7 119581710.593 7      3016.957          44.000    22755647.766 7  93180566.505 7      2350.879          42.000
R02  21333316.734 8 113838626.357 8     -3464.820          51.000    21333320.172 7  88541173.811 7     -2694.863          47.000
R03  20986559.625 4 112342696.726 4       192.215          29.000
R12  19754391.508 6 105524409.894 6      -733.891          41.000    19754395.328 5  82074516.790 5      -570.804          35.000
R22  21307455.266 6 113740598.728 6      2864.590          41.000    21307455.703 5  88464918.537 5      2228.014          35.000
C22  24646397.539 8 128340232.004 8     -2189.645          50.000
C30  23382220.695 8 121757419.531 8      2303.270          49.000
E01  25861973.828 6 135905569.642 6     -2031.973          36.000    25861966.531 5 104135441.092 5     -1557.256          33.000
E04                                                                  27010759.398 5 108761149.205 5     -2393.807          31.000
E09  22684077.641 8 119205645.652 8     -1464.617          51.000    22684079.930 8  91339371.615 8     -1122.188          51.000
E24                                                                  23881072.141 5  96159214.388 5      1445.506          32.000
E31  23509206.867 8 123541717.978 8       -91.742          51.000    23509210.070 8  94661889.760 8       -70.311          51.000
E33  27045142.766 5 142123183.239 5      2654.211          33.000    27045147.070 5 108899599.411 5      2033.872          33.000
> 2020 05 07 08 05  0.0000000  0 17        .000000000000
G12  20600724.031 8 108257521.817 8      1632.113          51.000    20600723.430 8  84356512.590 8      1271.777          51.000
G15  23105697.289 7 121421239.764 7     -3496.375          44.000    23105700.320 7  94613953.745 7     -2724.448          44.000
G19  21691791.031 6 113991127.015 6     -1006.336          40.000    21691789.609 5  88824235.544 5      -784.158          32.000
G24  20146819.547 8 105872223.037 8       -73.418          51.000    20146820.586 8  82497842.269 8       -57.212          51.000
G25  22738440.547 7 119491305.138 7      3008.793          43.000    22738443.203 6  93110120.722 6      2344.517          40.000
R02  21352835.070 8 113942780.141 8     -3480.168          51.000    21352838.258 7  88622182.259 7     -2706.800          46.000
R03  20985557.914 5 112337328.702 5       164.469          34.000
R12  19758538.359 6 105546559.766 6      -744.008          40.000    19758543.359 5  82091744.434 5      -578.676          35.000
R22  21291409.352 6 113654942.336 6      2844.484          39.000    21291411.953 6  88398297.045 6      2212.377          37.000
C22  24659039.719 8 128406061.273 8     -2200.332          49.000
C30  23368981.289 7 121688481.650 7      2291.219          46.000
E01                                                                  25873571.773 5 104182149.811 5     -1558.145          32.000
E04                                                                  27028596.820 5 108832959.292 5     -2395.214          32.000
E09  22692471.977 8 119249757.287 8     -1477.457          51.000    22692475.039 8  91373171.424 8     -1132.065          51.000
E24                                                                  23870311.953 4  96115855.801 4      1442.136          29.000
E31  23509744.648 8 123544544.620 8       -97.977          51.000    23509747.867 8  94664055.628 8       -75.085          51.000
E33  27030003.664 5 142043627.911 5      2648.312          33.000    27030008.500 6 108838639.974 6      2029.370          36.000
> 2020 05 07 08 05 30.0000000  0 16        .000000000000
G12  20591441.117 8 108208738.394 8      1619.355          51.000    20591440.508 8  84318499.539 8      1261.835          51.000
G15  23125670.430 7 121526193.612 7     -3501.258          46.000    23125671.781 7  94695735.954 7     -2728.253          46.000
G19  21697592.234 6 114021610.619 6     -1026.523          40.000    21697590.586 6  88847988.966 6      -799.888          36.000
G24  20147271.500 8 105874598.833 8       -85.695          51.000    20147272.641 8  82499693.527 8       -66.779          51.000
G25  22721280.789 7 119401130.939 7      3001.883          42.000    22721281.672 6  93039855.131 6      2339.126          41.000
R02  21372437.453 8 114047385.174 8     -3494.176          51.000    21372440.922 7  88703541.685 7     -2717.695          46.000
R03  20984709.148 5 112332777.148 5       138.301          32.000
R12  19762740.062 6 105569002.042 6      -752.852          41.000    19762745.227 5  82109199.576 5      -585.548          34.000
R22  21275475.789 6 113569886.023 6      2825.371          41.000    21275476.758 6  88332141.993 6      2197.502          36.000
C22  24671740.891 8 128472200.263 8     -2209.719          48.000
C30  23355808.094 7 121619894.795 7      2280.480          43.000
E01  25885184.406 6 136027562.260 6     -2034.953          36.000
E09  22700937.469 8 119294241.745 8     -1488.977          51.000    22700940.781 8  91407256.911 8     -1140.928          51.000
E24  23859582.086 5 125382948.716 5      1878.457          32.000
E31  23510316.062 8 123547547.121 8      -102.867          51.000    23510318.922 8  94666356.250 8       -78.859          51.000
E33  27014894.023 5 141964223.512 5      2643.789          33.000    27014898.914 6 108777798.421 6      2026.141          37.000
> 2020 05 07 08 06  0.0000000  0 16        .000000000000
G12  20582241.656 8 108160394.348 8      1604.691          51.000    20582240.484 8  84280828.856 8      1250.409          51.000
G15  23145682.758 7 121631352.453 7     -3508.289          47.000    23145682.117 8  94777677.876 8     -2733.732          48.000
G19  21703518.695 6 114052753.224 6     -1048.867          37.000    21703513.992 5  88872255.891 5      -817.296          31.000
G24  20147804.773 8 105877401.484 8       -99.977          51.000    20147806.023 8  82501877.402 8       -77.904          51.000
G25  22704170.570 6 119311218.532 6      2993.090          38.000    22704170.859 6  92969793.548 6      2332.278          38.000
R02  21392129.352 8 114152467.322 8     -3510.129          51.000    21392133.336 7  88785272.210 7     -2730.100          45.000
R03  20984018.945 4 112329072.115 4       109.914          28.000
R11  22494738.219 5 120205072.583 5     -2880.223          33.000
R12  19767001.836 6 105591766.323 6      -763.742          41.000    19767006.859 5  82126905.154 5      -594.025          33.000
R22  21259660.695 6 113485463.854 6      2803.781          41.000    21259661.789 6  88266480.279 6      2180.722          36.000
C22  24684506.055 7 128538675.921 7     -2221.066          47.000
C30  23342707.852 7 121551690.362 7      2267.637          44.000
E01  25896811.742 6 136088668.239 6     -2037.625          38.000
E09  22709479.148 8 119339127.512 8     -1502.441          51.000    22709482.281 8  91441649.882 8     -1151.263          51.000
E31  23510926.602 8 123550754.660 8      -109.934          51.000    23510929.102 8  94668813.961 8       -84.208          51.000
E33                                                                  26999823.547 6 108717099.078 6      2021.370          38.000
> 2020 05 07 08 06 30.0000000  0 14        .000000000000
G12  20573122.500 8 108112474.219 8      1590.477          50.000    20573120.531 8  84243488.496 8      1239.332          50.000
G15  23165730.367 8 121736698.081 8     -3514.305          48.000    23165727.672 7  94859765.360 7     -2738.419          46.000
G19  21709567.062 7 114084538.118 7     -1069.887          43.000    21709560.031 5  88897023.387 5      -833.684          31.000
G24  20148416.469 8 105880616.052 8      -113.699          51.000    20148417.828 8  82504382.242 8       -88.597          51.000
G25  22687107.523 6 119221553.088 6      2984.766          39.000    22687108.633 6  92899924.340 6      2325.788          39.000
R02  21411907.344 8 114258005.791 8     -3525.367          51.000    21411910.773 7  88867357.681 7     -2741.952          44.000
R12  19771320.820 6 105614836.096 6      -773.762          41.000    19771326.070 5  82144848.349 5      -601.812          33.000
R22  21243961.297 7 113401663.770 7      2783.355          42.000    21243960.906 5  88201302.444 5      2164.832          33.000
C22  24697332.289 7 128605470.275 7     -2231.461          47.000
C30  23329680.711 7 121483854.790 7      2255.199          47.000
E01  25908452.914 5 136149838.953 5     -2039.828          35.000
E09  22718093.719 8 119384397.654 8     -1515.094          51.000    22718096.195 8  91476337.366 8     -1160.895          51.000
E31  23511573.172 8 123554150.920 8      -116.074          51.000    23511575.562 8  94671416.282 8       -88.928          51.000
E33  26984776.469 5 141805954.973 5      2632.211          33.000    26984781.312 6 108656531.490 6      2016.871          37.000
> 2020 05 07 08 07  0.0000000  0 18        .000000000000
G12  20564076.977 8 108064940.807 8      1577.219          50.000    20564074.531 8  84206449.481 8      1229.002          50.000
G15  23185805.523 7 121842190.654 7     -3519.594          47.000    23185801.516 7  94941967.298 7     -2742.544          42.000
G19  21715730.344 6 114116926.460 6     -1090.262          41.000    21715725.297 5  88922261.010 5      -849.555          35.000
G24  20149099.398 8 105884205.023 8      -126.688          51.000    20149100.781 8  82507178.831 8       -98.718          51.000
G25  22670085.469 7 119132098.087 7      2977.512          42.000    22670087.391 6  92830219.108 6      2320.139          40.000
R02  21431762.859 8 114363958.410 8     -3539.445          50.000    21431765.586 7  88949765.240 7     -2752.905          43.000
R12  19775689.961 7 105638173.013 7      -783.188          43.000    19775696.281 5  82162999.258 5      -609.146          33.000
R21  21832475.352 5 116829984.760 5     -1279.145          31.000
R22  21228372.703 7 113318452.096 7      2762.977          42.000    21228372.805 5  88136582.371 5      2148.985          34.000
C22  24710212.938 7 128672543.934 7     -2241.082          47.000
C27  23834925.820 6 124114670.225 6      -594.480          36.000
C30  23316718.586 8 121416353.126 8      2243.656          49.000
E01  25920100.367 5 136211045.662 5     -2041.203          33.000    25920101.344 5 104369506.565 5     -1563.988          31.000
E04  27100082.070 5 142411891.018 5     -3134.004          33.000
E09  22726773.844 8 119430013.753 8     -1527.098          51.000    22726775.570 8  91511289.936 8     -1170.147          51.000
E24  23827520.391 6 125214431.134 6      1865.242          37.000
E31  23512248.344 8 123557698.089 8      -121.480          50.000    23512250.844 8  94674134.245 8       -93.148          51.000
E33                                                                  26969765.133 6 108596068.630 6      2012.902          37.000
> 2020 05 07 08 07 30.0000000  0 16        .000000000000
G12  20555116.508 8 108017853.210 8      1562.539          51.000    20555114.320 8  84169757.863 8      1217.563          51.000
G15  23205918.852 7 121947886.148 7     -3526.094          46.000    23205912.523 6  95024327.352 6     -2747.609          36.000
G19  21722019.180 6 114149975.670 6     -1112.398          41.000    21722014.914 4  88948013.709 4      -866.804          29.000
G24  20149864.992 8 105888227.817 8      -140.898          51.000    20149866.367 8  82510313.458 8      -109.791          51.000
G25  22653114.523 7 119042913.069 7      2968.613          42.000    22653117.133 6  92760724.298 6      2313.205          39.000
R02  21451706.180 8 114470379.698 8     -3554.770          49.000    21451708.867 7  89032537.299 7     -2764.824          43.000
R12  19780120.250 6 105661836.466 6      -793.750          41.000    19780124.188 5  82181404.118 5      -617.364          31.000
R22  21212905.562 6 113235892.404 6      2741.406          36.000    21212906.156 5  88072369.435 5      2132.214          35.000
C22  24723158.453 8 128739952.688 8     -2252.105          48.000
C30  23303832.672 8 121349245.648 8      2230.672          51.000
E01  25931760.375 6 136272328.305 6     -2044.090          36.000
E04  27117981.031 6 142505952.581 6     -3136.273          36.000
E09  22735530.781 8 119476033.310 8     -1540.332          51.000    22735532.375 8  91546551.647 8     -1180.248          51.000
E24  23816891.734 6 125158552.230 6      1860.359          36.000    23816890.164 5  95900747.171 5      1425.240          30.000
E31  23512963.258 8 123561454.392 8      -128.277          51.000    23512965.805 8  94677012.448 8       -98.341          51.000
E33                                                                  26954785.922 5 108535757.145 5      2008.077          34.000
> 2020 05 07 08 08  0.0000000  0 14        .000000000000
G12  20546233.352 8 107971171.760 8      1549.672          51.000    20546231.781 8  84133382.724 8      1207.537          51.000
G15  23226062.047 7 122053741.930 7     -3530.840          44.000    23226049.875 5  95106812.265 5     -2751.310          33.000
G19  21728426.031 6 114183644.439 6     -1132.004          40.000    21728420.891 5  88974249.057 5      -882.084          34.000
G24  20150705.695 8 105892645.123 8      -153.387          51.000    20150707.141 8  82513755.493 8      -119.522          51.000
G25  22636187.266 6 118953959.143 6      2961.582          39.000    22636189.109 6  92691409.569 6      2307.726          38.000
R02  21471729.227 8 114577225.645 8     -3568.113          49.000    21471732.117 7  89115639.670 7     -2775.199          43.000
R12  19784603.430 6 105685785.394 6      -802.801          38.000    19784606.750 5  82200030.997 5      -624.401          31.000
C22  24736160.477 8 128807654.661 8     -2261.223          48.000
C27  23841961.445 5 124151344.514 5      -627.543          32.000
C30  23291015.344 8 121282494.964 8      2219.480          51.000
E04  27135885.852 5 142600041.646 5     -3136.516          35.000    27135879.609 6 109264943.496 6     -2403.397          36.000
E09  22744357.156 8 119522415.290 8     -1551.660          51.000    22744359.000 8  91582091.070 8     -1188.943          51.000
E31  23513710.422 8 123565379.483 8      -133.195          51.000    23513712.742 8  94680019.977 8      -102.089          51.000
E33  26939829.234 4 141569757.212 4      2615.633          29.000
> 2020 05 07 08 08 30.0000000  0 18        .000000000000
G12  20537433.703 8 107924928.356 8      1533.562          51.000    20537432.305 8  84097348.899 8      1194.984          51.000
G15  23246240.891 6 122159787.342 6     -3538.555          41.000    23246224.430 4  95189444.876 4     -2757.318          29.000
G19  21734956.414 6 114217963.120 6     -1155.809          39.000    21734952.242 5  89000990.881 5      -900.630          34.000
G24  20151627.547 8 105897489.160 8      -169.199          51.000    20151629.109 8  82517530.059 8      -131.844          51.000
G25  22619309.617 6 118865269.040 6      2951.484          39.000    22619310.227 5  92622300.454 5      2299.861          35.000
R02  21491836.992 8 114684523.628 8     -3584.719          49.000    21491840.312 7  89199093.615 7     -2788.118          43.000
R11  22575837.859 4 120638429.920 4     -2898.676          29.000    22575832.117 4  93829865.867 4     -2254.541          26.000
R12  19789144.992 5 105710051.850 5      -814.938          35.000    19789150.266 5  82218904.903 5      -633.837          31.000
R22  21182322.961 6 113072666.063 6      2698.453          37.000    21182323.750 5  87945426.406 5      2098.797          33.000
C22  24749224.422 8 128875679.014 8     -2273.480          48.000
C27  23845630.320 5 124170461.280 5      -647.832          34.000
C30  23278272.727 8 121216134.639 8      2204.918          51.000
E01  25955116.195 5 136395052.613 5     -2048.828          32.000
E04  27153805.266 6 142694212.456 6     -3141.180          36.000    27153799.156 6 109337102.771 6     -2406.627          37.000
E09  22753258.445 8 119569190.340 8     -1566.312          51.000    22753261.031 8  91617931.670 8     -1200.096          51.000
E24  23795704.609 5 125047278.632 5      1850.766          34.000
E31  23514495.500 8 123569504.781 8      -141.398          51.000    23514497.719 8  94683180.896 8      -108.326          51.000
E33  26924923.359 5 141491426.734 5      2608.250          34.000
> 2020 05 07 08 09  0.0000000  0 17        .000000000000
G12  20528712.383 8 107879096.480 8      1521.910          51.000    20528710.961 8  84061635.734 8      1185.904          51.000
G15  23266449.844 6 122265992.892 6     -3542.184          39.000    23266440.133 6  95272202.293 6     -2760.143          38.000
G19  21741605.398 6 114252903.756 6     -1174.133          36.000    21741601.438 5  89028217.364 5      -914.906          35.000
G24  20152625.484 8 105902733.552 8      -180.496          51.000    20152627.203 8  82521616.574 8      -140.649          51.000
G25  22602477.883 6 118776816.971 6      2945.461          40.000    22602475.594 5  92553376.807 5      2295.164          30.000
R02  21512023.320 7 114792241.978 7     -3596.656          47.000    21512026.531 7  89282874.519 7     -2797.399          42.000
R11  22592108.297 5 120725360.524 5     -2899.645          33.000    22592106.031 5  93897487.888 5     -2255.282          31.000
R12  19793740.680 5 105734608.137 5      -822.215          34.000    19793746.422 5  82238004.178 5      -639.503          31.000
R22  21167216.969 6 112992003.056 6      2679.477          40.000    21167213.844 5  87882688.588 5      2084.040          31.000
C22  24762344.523 8 128943996.845 8     -2281.211          48.000
C27  23849404.992 6 124190115.802 6      -662.820          37.000
C30  23265599.703 8 121150140.210 8      2194.641          51.000
E01  25966806.938 6 136456503.229 6     -2048.098          37.000
E04  27171732.961 6 142788429.238 6     -3140.477          36.000    27171729.398 6 109409294.835 6     -2406.213          37.000
E09  22762228.875 8 119616330.494 8     -1576.328          51.000    22762232.422 8  91654052.028 8     -1207.842          51.000
E31  23515313.273 8 123573803.015 8      -145.125          51.000    23515315.656 8  94686474.334 8      -111.176          51.000
E33  26910043.953 6 141413237.354 6      2604.477          36.000    26910048.141 5 108355599.130 5      1995.820          35.000
> 2020 05 07 08 09 30.0000000  0 16        .000000000000
G12  20520067.727 8 107833669.405 8      1505.441          51.000    20520066.422 8  84026238.000 8      1173.071          51.000
G15  23286687.805 6 122372349.159 6     -3550.070          36.000    23286686.242 6  95355077.255 6     -2766.289          36.000
G19  21748371.094 6 114288458.092 6     -1197.574          38.000    21748367.125 5  89055921.968 5      -933.178          30.000
G24  20153698.328 8 105908371.479 8      -196.621          51.000    20153700.070 8  82526009.752 8      -153.211          51.000
G25  22585690.445 6 118688596.831 6      2934.965          40.000    22585687.812 5  92484633.882 5      2286.986          34.000
R02  21532285.961 7 114900368.996 7     -3613.012          47.000    21532289.016 6  89366973.267 6     -2810.120          41.000
R03  20983472.820 5 112326163.457 5       -84.031          32.000    20983474.133 4  87364799.504 4       -65.358          29.000
R12  19798390.656 6 105759446.882 6      -834.879          37.000    19798396.711 5  82257323.200 5      -649.353          33.000
R22  21152223.523 6 112911965.814 6      2655.348          39.000    21152218.805 5  87820437.402 5      2065.270          32.000
C22  24775519.094 8 129012598.887 8     -2293.496          48.000
C30  23252995.461 8 121084506.906 8      2179.648          51.000
E01  25978506.086 6 136517997.444 6     -2052.320          39.000
E04  27189667.523 5 142882666.424 5     -3144.051          33.000    27189666.164 6 109481514.025 6     -2409.350          38.000
E09  22771266.711 8 119663827.704 8     -1591.156          49.000    22771271.055 8  91690445.984 8     -1219.114          51.000
E31  23516162.531 8 123578266.814 8      -153.527          51.000    23516165.164 8  94689894.641 8      -117.593          51.000
E33  26895195.555 5 141335206.133 5      2595.703          35.000    26895201.367 6 108295813.612 6      1989.340          36.000
> 2020 05 07 08 10  0.0000000  0 15        .000000000000
G12  20511509.383 8 107788696.375 8      1497.566          51.000    20511508.398 8  83991194.074 8      1166.935          51.000
G15  23306963.227 5 122478902.191 5     -3549.258          33.000    23306968.125 5  95438105.639 5     -2765.649          33.000
G24  20154855.656 8 105914453.207 8      -204.066          51.000    20154857.367 8  82530748.747 8      -159.013          51.000
G25  22568956.117 6 118600658.457 6      2932.613          37.000    22568955.578 5  92416110.467 5      2285.156          35.000
R02  21552634.219 7 115008949.787 7     -3620.898          46.000    21552637.383 7  89451424.930 7     -2816.257          42.000
R12  19803103.305 5 105784617.506 5      -838.527          34.000    19803108.883 5  82276900.346 5      -652.188          32.000
R22  21137357.883 6 112832608.158 6      2640.062          39.000    21137356.562 6  87758714.858 6      2053.385          37.000
C22  24788756.711 7 129081531.193 7     -2297.395          47.000
C27  23857279.250 6 124231081.585 6      -692.875          39.000
C30  23240469.750 8 121019285.153 8      2173.082          50.000
E01  25990225.289 5 136579554.806 5     -2048.699          31.000
E04  27207617.516 5 142976997.172 5     -3139.996          31.000    27207617.055 6 109553796.404 6     -2405.699          37.000
E09  22780381.609 8 119711729.608 8     -1597.473          49.000    22780385.977 8  91727150.044 8     -1224.094          51.000
E31  23517052.656 8 123582944.627 8      -153.555          51.000    23517055.484 8  94693478.941 8      -117.632          51.000
E33  26880389.078 6 141257395.985 6      2595.965          37.000    26880394.586 5 108236192.912 5      1989.050          35.000
> 2020 05 07 08 10 30.0000000  0 15        .000000000000
G12  20502979.242 8 107743869.899 8      1479.254          51.000    20502978.391 8  83956264.344 8      1152.665          51.000
G15  23327217.672 5 122585341.895 5     -3559.293          34.000    23327225.688 5  95521045.774 5     -2773.475          34.000
G19  21762247.734 6 114361367.047 6     -1237.191          37.000
G24  20156038.961 8 105920670.692 8      -222.066          51.000    20156040.438 8  82535593.528 8      -173.039          51.000
G25  22552216.977 6 118512694.957 6      2920.371          36.000    22552218.984 5  92347567.486 5      2275.614          35.000
R02  21573007.688 7 115117668.122 7     -3638.938          43.000    21573012.266 7  89535983.558 7     -2830.285          42.000
R03  20984663.375 5 112332530.112 5      -136.809          31.000
R12  19807818.016 6 105809806.806 6      -852.977          36.000    19807823.695 5  82296491.990 5      -663.429          31.000
R22  21122561.570 6 112753621.280 6      2613.770          37.000    21122561.172 5  87697280.540 5      2032.929          35.000
C22  24801998.094 7 129150486.471 7     -2311.379          45.000
C27  23861293.445 6 124252017.694 6      -714.234          38.000
C30  23227964.938 8 120954172.092 8      2156.145          50.000
E04                                                                  27225524.047 6 109625904.957 6     -2410.287          38.000
E09  22789515.414 8 119759727.349 8     -1614.020          50.000    22789518.766 8  91763927.505 8     -1236.698          51.000
E31  23517924.930 8 123587528.303 8      -163.734          51.000    23517927.797 8  94696991.099 8      -125.441          51.000
> 2020 05 07 08 11  0.0000000  0 17        .000000000000
G12  20494610.969 8 107699893.869 8      1463.801          51.000    20494610.062 8  83921997.294 8      1140.624          51.000
G15  23347584.844 6 122692369.288 6     -3564.762          37.000    23347593.680 6  95604443.725 6     -2777.736          37.000
G19  21769378.867 5 114398857.889 5     -1258.523          32.000
G24  20157382.102 8 105927727.945 8      -237.195          51.000    20157383.398 8  82541092.685 8      -184.828          51.000
G25  22535606.344 5 118425410.760 5      2910.367          35.000    22535609.742 5  92279553.922 5      2267.828          35.000
R02  21593538.836 7 115227232.794 7     -3653.980          42.000    21593545.336 6  89621200.501 6     -2841.985          41.000
R11  22657376.641 5 121074116.380 5     -2914.559          35.000    22657378.516 4  94168792.299 4     -2266.885          29.000
R12  19812669.203 6 105835729.534 6      -864.012          39.000    19812674.789 5  82316699.136 5      -672.009          31.000
R21  21894600.211 5 117162389.095 5     -1489.855          31.000    21894597.781 4  91126324.124 4     -1158.776          27.000
R22  21107968.289 6 112675723.939 6      2590.418          41.000    21107968.703 6  87636693.641 6      2014.766          38.000
C22  24815377.281 7 129220159.490 7     -2322.352          46.000
C27  23865479.836 4 124273822.482 4      -733.180          28.000
C30  23215615.438 8 120889866.950 8      2141.930          49.000
E04                                                                  27243521.977 6 109698377.305 6     -2412.301          38.000
E09  22798801.539 8 119808523.266 8     -1627.711          51.000    22798803.250 8  91801316.550 8     -1247.192          51.000
E31  23518913.094 8 123592720.989 8      -171.086          51.000    23518915.836 8  94700969.897 8      -131.086          51.000
E33  26850858.438 6 141102218.087 6      2577.930          36.000    26850861.648 5 108117289.286 5      1975.554          35.000
> 2020 05 07 08 11 30.0000000  0 17        .000000000000
G12  20486295.289 8 107656195.090 8      1449.242          51.000    20486294.344 8  83887946.299 8      1129.280          51.000
G15  23367954.438 6 122799408.608 6     -3570.832          38.000    23367962.742 6  95687851.017 6     -2782.463          38.000
G24  20158775.984 8 105935052.235 8      -251.340          51.000    20158777.234 8  82546799.918 8      -195.852          51.000
G25  22519016.250 5 118338228.903 5      2901.484          30.000    22519020.984 5  92211623.837 5      2260.897          30.000
R02  21614118.383 7 115337057.902 7     -3667.965          42.000    21614126.430 6  89706620.072 6     -2852.862          40.000
R03  20986544.992 5 112342599.028 5      -193.738          34.000    20986541.797 4  87377593.915 4      -150.682          27.000
R11  22673747.422 5 121161588.365 5     -2919.008          30.000    22673751.219 4  94236816.269 4     -2270.339          28.000
R12  19817549.859 7 105861802.684 7      -874.543          43.000    19817556.094 5  82336978.246 5      -680.200          33.000
R22  21093469.078 6 112598337.810 6      2568.113          38.000    21093471.586 6  87576504.419 6      1997.421          36.000
C22  24828785.258 7 129289979.931 7     -2332.559          46.000
C27  23869739.750 6 124296061.711 6      -750.117          36.000
C30  23203312.453 8 120825803.806 8      2128.699          49.000
E01  26025430.938 5 136764561.884 5     -2060.152          34.000
E04                                                                  27261501.625 6 109770773.026 6     -2413.873          37.000
E09  22808130.281 8 119857543.050 8     -1640.461          51.000    22808130.930 8  91838877.119 8     -1257.004          51.000
E31  23519907.883 8 123597949.113 8      -177.664          51.000    23519910.570 8  94704975.844 8      -136.120          51.000
E33  26836159.727 6 141024976.995 6      2571.234          37.000    26836162.734 5 108058104.562 5      1969.969          35.000
> 2020 05 07 08 12  0.0000000  0 18        .000000000000
G12  20478047.836 8 107612853.336 8      1438.004          51.000    20478046.430 8  83854173.514 8      1120.526          51.000
G15  23388341.078 6 122906536.629 6     -3573.688          39.000    23388348.891 6  95771327.384 6     -2784.692          39.000
G19  21783987.234 5 114475624.845 5     -1298.422          32.000
G24  20160235.820 8 105942723.309 8      -262.297          51.000    20160237.164 8  82552777.356 8      -204.387          51.000
G25  22502463.570 6 118251239.612 6      2895.387          37.000    22502467.617 6  92143839.830 6      2256.145          37.000
R02  21634763.672 7 115447219.516 7     -3678.469          44.000    21634770.195 6  89792301.300 6     -2861.031          40.000
R03  20987691.875 4 112348741.484 4      -218.906          26.000    20987693.195 4  87382371.422 4      -170.266          27.000
R11  22690132.016 6 121249117.192 6     -2918.902          36.000    22690130.680 4  94304916.497 4     -2270.263          24.000
R12  19822474.359 7 105888106.723 7      -881.582          45.000    19822481.250 6  82357436.932 6      -685.675          36.000
R22  21079081.148 6 112521547.430 6      2549.109          39.000    21079085.555 6  87516778.623 6      1982.644          36.000
C22  24842236.797 8 129360024.072 8     -2339.293          48.000
C27  23874091.453 5 124318746.399 5      -764.352          34.000
C30  23191071.781 8 120762063.405 8      2118.477          50.000
E01  26037185.688 5 136826316.590 5     -2059.547          35.000
E04                                                                  27279477.547 6 109843151.591 6     -2413.211          36.000
E09  22817516.445 8 119906864.835 8     -1649.973          51.000    22817516.578 8  91876669.112 8     -1264.238          51.000
E31  23520924.391 8 123603291.649 8      -180.875          51.000    23520927.266 8  94709069.452 8      -138.578          51.000
E33  26821484.578 5 140947852.534 5      2567.754          35.000    26821490.141 5 107999016.072 5      1967.353          35.000
> 2020 05 07 08 12 30.0000000  0 17        .000000000000
G12  20469872.938 8 107569892.523 8      1426.082          51.000    20469871.172 8  83820697.562 8      1111.230          51.000
G15  23408748.461 6 123013774.737 6     -3576.359          38.000    23408755.906 6  95854889.573 6     -2786.774          38.000
G24  20161766.383 8 105950766.357 8      -273.848          51.000    20161767.852 8  82559044.666 8      -213.388          51.000
G25  22485950.922 6 118164462.506 6      2889.410          40.000    22485955.289 6  92076221.323 6      2251.485          39.000
R02  21655476.312 7 115557737.443 7     -3689.535          42.000    21655481.266 6  89878259.635 6     -2869.641          41.000
R03  20988991.383 5 112355706.411 5      -243.871          33.000
R11  22706524.477 6 121336703.616 6     -2919.906          37.000    22706524.609 4  94373052.190 4     -2271.041          27.000
R12  19827446.938 7 105914666.028 7      -889.039          46.000    19827454.375 6  82378094.138 6      -691.475          37.000
R22  21064812.383 6 112445381.245 6      2528.988          41.000    21064816.391 6  87457538.177 6      1966.985          37.000
C22  24855735.562 8 129430313.385 8     -2346.637          49.000
C27  23878534.969 5 124341899.734 5      -779.020          30.000
C30  23178898.477 8 120698671.537 8      2107.652          51.000
E01  26048942.102 5 136888084.541 5     -2059.129          35.000
E04                                                                  27297453.758 5 109915530.083 5     -2412.493          35.000
E09  22826964.383 8 119956511.487 8     -1659.895          51.000    22826964.648 8  91914710.052 8     -1271.894          51.000
E31  23521967.273 8 123608772.271 8      -184.625          51.000    23521970.453 8  94713268.882 8      -141.448          51.000
E33  26806839.289 6 140870889.070 6      2563.031          37.000    26806848.094 5 107940043.977 5      1964.243          35.000
> 2020 05 07 08 13  0.0000000  0 15        .000000000000
G12  20461780.297 8 107527365.894 8      1417.555          51.000    20461778.719 8  83787559.921 8      1104.588          51.000
G15  23429186.398 6 123121173.113 6     -3575.266          36.000    23429192.891 5  95938576.708 5     -2785.921          35.000
G24  20163377.625 8 105959233.925 8      -282.121          51.000    20163379.297 8  82565642.769 8      -219.835          51.000
R02  21676263.203 7 115668661.585 7     -3696.836          42.000    21676268.867 6  89964533.932 6     -2875.317          41.000
R03  20990445.484 5 112363462.716 5      -264.762          31.000
R11  22722934.922 5 121424400.094 5     -2917.820          35.000    22722935.625 5  94441260.557 5     -2269.413          31.000
R12  19832477.352 7 105941533.554 7      -893.379          44.000    19832482.688 6  82398991.066 6      -694.853          36.000
R22  21050671.375 7 112369896.758 7      2511.926          43.000    21050675.578 6  87398828.093 6      1953.720          38.000
C22  24869290.875 8 129500897.787 8     -2350.613          49.000
C27  23883110.148 5 124365604.400 5      -789.805          33.000
C30  23166802.734 8 120635682.533 8      2100.059          51.000
E04  27315436.227 5 143543588.004 5     -3144.270          33.000    27315439.508 5 109987947.700 5     -2409.213          35.000
E09  22836483.898 8 120006534.598 8     -1666.547          51.000    22836484.133 8  91953039.443 8     -1276.988          51.000
E31  23523046.469 8 123614443.373 8      -185.090          51.000    23523049.742 8  94717614.266 8      -141.834          51.000
E33  26792233.484 6 140794132.421 6      2562.199          36.000    26792245.297 6 107881230.322 6      1963.016          36.000
> 2020 05 07 08 13 30.0000000  0 17        .000000000000
G12  20453771.625 8 107485280.919 8      1382.793          51.000    20453770.391 8  83754766.434 8      1077.501          51.000
G15  23449656.289 6 123228769.805 6     -3600.875          38.000    23449661.711 6  96022392.605 6     -2805.877          38.000
G19  21806746.469 5 114595229.640 5     -1372.824          32.000
G24  20165071.117 8 105968133.654 8      -316.629          51.000    20165072.844 8  82572577.616 8      -246.724          51.000
G25  22453092.484 5 117991797.028 5      2857.203          34.000
R02  21697126.930 7 115779993.938 7     -3730.809          43.000    21697132.773 6  90051125.762 6     -2901.740          39.000
R11  22739367.812 6 121512285.788 6     -2941.809          38.000    22739369.852 4  94509559.582 4     -2288.070          28.000
R12  19837566.680 7 105968716.550 7      -924.164          44.000    19837569.336 6  82420133.364 6      -718.797          36.000
R22  21036660.391 7 112295105.098 7      2468.594          42.000    21036664.875 6  87340656.821 6      1920.020          37.000
C22  24882903.680 8 129571782.048 8     -2380.418          49.000
C27  23887758.039 6 124389804.318 6      -828.402          37.000
C30  23154786.273 8 120573105.612 8      2066.426          51.000
E04                                                                  27333435.914 5 110060408.560 5     -2425.651          35.000
E09  22846075.828 8 120056940.165 8     -1699.203          51.000    22846075.703 8  91991661.874 8     -1301.882          51.000
E24  23691165.328 5 124497916.819 5      1797.070          32.000
E31  23524163.125 8 123620311.821 8      -211.484          51.000    23524166.336 8  94722110.863 8      -162.058          51.000
E33  26777668.734 5 140717595.988 5      2535.117          34.000
> 2020 05 07 08 14  0.0000000  0 17        .000000000000
G12  20445847.414 8 107443638.887 8      1378.262          51.000    20445846.211 8  83722318.089 8      1073.967          51.000
G15  23470157.398 6 123336496.996 6     -3596.039          40.000    23470162.438 6  96106335.891 6     -2802.108          39.000
G19  21814574.383 5 114636364.695 5     -1385.465          30.000
G24  20166847.195 8 105977467.223 8      -320.762          51.000    20166848.820 8  82579850.549 8      -249.944          51.000
G25  22436720.570 6 117905773.416 6      2858.512          38.000    22436723.414 5  91874634.600 5      2227.403          33.000
R02  21718067.469 7 115891731.182 7     -3733.617          43.000    21718071.336 6  90138032.515 6     -2903.924          38.000
R11  22755820.625 6 121600210.260 6     -2935.477          36.000    22755823.844 4  94577952.211 4     -2283.145          27.000
R12  19842714.953 7 105996215.760 7      -924.199          44.000    19842715.750 6  82441521.602 6      -718.822          38.000
R22  21022780.047 7 112221011.100 7      2455.613          44.000    21022785.023 6  87283028.204 6      1909.921          37.000
C22  24896573.922 8 129642964.842 8     -2380.055          49.000
C27  23892506.805 5 124414531.670 5      -835.750          33.000
C30  23142849.281 8 120510943.872 8      2062.758          51.000
E01  26084302.789 6 137073903.904 6     -2069.484          39.000
E04  27351439.305 6 143732775.364 6     -3157.480          37.000    27351443.078 5 110132912.330 5     -2419.039          33.000
E09  22855739.672 8 120107728.019 8     -1701.539          51.000    22855739.391 8  92030577.216 8     -1303.756          51.000
E31  23525317.312 8 123626378.285 8      -207.781          51.000    23525320.383 8  94726759.185 8      -159.248          51.000
E33  26763145.242 5 140641277.016 5      2538.246          35.000
> 2020 05 07 08 14 30.0000000  0 18        .000000000000
G12  20438004.672 8 107402426.684 8      1369.020          51.000    20438003.734 8  83690204.667 8      1066.768          51.000
G15  23490686.492 6 123444372.223 6     -3596.238          40.000    23490690.875 6  96190394.495 6     -2802.264          40.000
G17  23701766.883 5 124553626.145 5     -2625.273          31.000    23701773.133 5  97054787.865 5     -2045.668          32.000
G19  21822521.133 6 114678126.331 6     -1400.023          37.000
