     3.02           OBSERVATION DATA    M (MIXED)           RINEX VERSION / TYPE
SAVERINEX           SC600               20200501 045931 LCL PGM / RUN BY / DATE
       G = GPS       R = GLONASS       C = COMPASS          COMMENT
       S = SBAS      J = QZSS          E = GALILEO          COMMENT
BEAN                                                        MARKER NAME
1                                                           MARKER NUMBER
GEODETIC                                                    MARKER TYPE
Unige DICCA         GTER                                    OBSERVER / AGENCY
SC60291900056       SC600               2.12(191226)        REC # / TYPE / VERS
                    HEMA45          NONE                    ANT # / TYPE
  4509407.8091   693652.4678  4442337.6214                  APPROX POSITION XYZ
        0.0000        0.0000        0.0000                  ANTENNA: DELTA H/E/N
G    8 C1C L1C D1C S1C C2Y L2Y D2Y S2Y                      SYS / # / OBS TYPES
R    8 C1C L1C D1C S1C C2P L2P D2P S2P                      SYS / # / OBS TYPES
C    8 C1I L1I D1I S1I C7I L7I D7I S7I                      SYS / # / OBS TYPES
E    8 C1C L1C D1C S1C C7Q L7Q D7Q S7Q                      SYS / # / OBS TYPES
DBHZ                                                        COMMENT
     30.000                                                 INTERVAL
  2020    05    01    02    00    0.0000000     GPS         TIME OF FIRST OBS
  2020    05    01    02    59   30.0000000     GPS         TIME OF LAST OBS
     0                                                      RCV CLOCK OFFS APPL
G L1C  0.00000                                              SYS / PHASE SHIFT
G L2Y  0.00000                                              SYS / PHASE SHIFT
R L1C  0.00000                                              SYS / PHASE SHIFT
R L2P  0.25000                                              SYS / PHASE SHIFT
C L1I  0.00000                                              SYS / PHASE SHIFT
C L7I  0.00000                                              SYS / PHASE SHIFT
E L1C  0.50000                                              SYS / PHASE SHIFT
E L7Q -0.25000                                              SYS / PHASE SHIFT
 13 R01  1 R02 -4 R06 -4 R07  5 R08  6 R09 -2 R10 -7 R11  0 GLONASS SLOT / FRQ #
    R12 -1 R16 -1 R21  4 R22 -3 R23  3                      GLONASS SLOT / FRQ #
 C1C   71.950 C2C   71.950 C2P   71.950                     GLONASS COD/PHS/BIS
    18                                                      LEAP SECONDS
*** Above antenna height is from mark to ANTENNA BOTTOM.    COMMENT
    17     4        0.0000        ANT MEASURE TYPE/HEIGT    COMMENT
    0.0000    0.0000    0.0458    0.0405    0.0000          COMMENT
                    BASE STATION                            COMMENT
                                                            END OF HEADER
> 2020 05 01 02 00  0.0000000  0 15        .000000000000
G02  22445283.508 5 117950756.014 5      -631.082          33.000
G06  22390226.719 8 117661431.256 8     -2759.691          49.000    22390228.703 8  91684295.083 8     -2150.409          49.000
G07  20840504.922 8 109517581.829 8       592.371          51.000    20840503.383 8  85338361.194 8       461.588          51.000
G09  21239898.797 7 111616500.108 7     -1843.320          44.000    21239898.039 7  86973885.389 7     -1436.353          44.000
G30  21746107.273 8 114276571.135 8      2654.156          51.000    21746104.062 8  89046693.314 8      2068.177          51.000
R01  19527652.445 7 104386487.203 7       -23.840          43.000    19527655.891 6  81189492.333 6       -18.542          38.000
R11  20226818.906 8 108085994.042 8      2406.070          51.000    20226821.508 7  84066948.094 7      1871.391          43.000
R24  22948870.312 7 122717970.255 7     -3675.082          42.000    22948875.805 7  95447288.789 7     -2858.400          43.000
C05                                                                  39771329.180 6 160142671.414 6       -17.522          40.000
C23  24702532.539 7 128632575.927 7      3246.969          42.000
C24  24468249.938 5 127412576.221 5     -2161.129          33.000
C25  22373880.672 8 116506686.515 8       954.789          51.000
E07  23483776.109 8 123408055.027 8       -36.570          51.000    23483778.102 8  94559447.679 8       -28.039          51.000
E26  25064572.852 7 131715280.527 7     -2457.484          46.000    25064576.734 8 100924641.715 8     -1882.951          51.000
E30  23985412.820 8 126044197.018 8      1961.238          51.000    23985414.797 8  96579335.017 8      1502.797          51.000
> 2020 05 01 02 00 30.0000000  0 15        .000000000000
G02  22448892.922 5 117969738.606 5      -639.465          31.000
G06  22405975.328 8 117744191.006 8     -2762.922          50.000    22405978.172 8  91748783.200 8     -2152.926          50.000
G07  20837129.445 8 109499842.618 8       585.012          51.000    20837127.578 8  85324538.426 8       455.853          51.000
G09  21250403.094 7 111671700.876 7     -1842.191          44.000    21250402.812 7  87016898.987 7     -1435.474          44.000
G30  21730949.195 8 114196913.970 8      2651.012          51.000    21730946.344 8  88984622.818 8      2065.723          51.000
R01  19527780.820 7 104387175.913 7       -27.387          43.000    19527783.930 6  81190027.983 6       -21.298          38.000
R11  20213334.414 8 108013933.988 8      2392.586          51.000    20213335.820 7  84010901.452 7      1860.903          44.000
R24  22969472.039 7 122828139.721 7     -3675.082          43.000    22969475.906 6  95532976.123 6     -2858.397          40.000
C05  39771420.844 6 207100224.504 6       -13.926          36.000    39771419.188 6 160143034.021 6       -10.669          41.000
C23  24683803.688 7 128535043.052 7      3250.223          43.000
C24  24480693.422 5 127477368.853 5     -2163.547          32.000
C25  22368386.328 8 116478075.260 8       947.453          51.000
E07  23483959.883 8 123409021.527 8       -33.234          51.000    23483962.211 8  94560188.244 8       -25.459          51.000
E26  25078583.273 7 131788906.722 7     -2456.305          47.000    25078587.867 8 100981056.600 8     -1882.116          51.000
E30  23974207.594 8 125985312.758 8      1959.078          51.000    23974209.062 8  96534215.934 8      1501.031          51.000
> 2020 05 01 02 01  0.0000000  0 16        .000000000000
G02  22452597.477 6 117989208.440 6      -656.523          36.000
G06  22421788.125 8 117827288.568 8     -2774.312          50.000    22421791.094 8  91813534.524 8     -2161.802          50.000
G07  20833841.883 8 109482566.137 8       569.465          51.000    20833839.781 8  85311076.223 8       443.739          51.000
G09  21260947.023 6 111727110.997 6     -1849.172          40.000    21260947.281 6  87060075.686 6     -1440.916          40.000
G30  21715855.312 8 114117595.083 8      2639.605          51.000    21715853.438 8  88922815.889 8      2056.835          51.000
R01  19527975.672 7 104388219.544 7       -39.434          43.000    19527979.219 6  81190839.703 6       -30.671          38.000
R11  20199972.492 8 107942528.827 8      2370.465          51.000    20199973.805 8  83955364.137 8      1843.695          48.000
R24  22990118.820 7 122938547.770 7     -3682.934          44.000    22990120.281 6  95618849.016 6     -2864.507          39.000
C05  39771505.094 6 207100663.094 6       -13.062          36.000    39771503.469 6 160143373.194 6       -10.025          41.000
C23  24665101.617 7 128437651.405 7      3245.133          43.000
C24  24493202.977 5 127542533.882 5     -2175.688          32.000
C25  22362980.289 8 116449925.104 8       931.879          51.000
E07  23484170.328 8 123410127.792 8       -37.973          51.000    23484172.891 8  94561035.901 8       -29.099          51.000
E08  23823921.133 5 125195545.114 5     -1912.734          33.000
E26  25092633.633 8 131862741.233 8     -2463.371          48.000    25092638.805 8 101037631.078 8     -1887.473          51.000
E30  23963061.016 8 125926738.693 8      1948.500          51.000    23963062.109 8  96489334.539 8      1493.006          50.000
> 2020 05 01 02 01 30.0000000  0 16        .000000000000
G02  22456394.656 6 118009162.921 6      -676.012          36.000
G06  22437664.281 8 117910719.944 8     -2789.488          49.000    22437666.812 8  91878545.955 8     -2173.630          49.000
G07  20830642.008 8 109465751.238 8       549.652          51.000    20830640.203 8  85297973.713 8       428.304          51.000
G09  21271530.500 6 111782728.547 6     -1860.465          41.000    21271530.922 6  87103413.983 6     -1449.713          41.000
G30  21700825.695 8 114038615.090 8      2623.988          50.000    21700825.094 8  88861273.021 8      2044.666          50.000
R01  19528237.336 7 104389617.944 7       -55.617          45.000    19528241.219 6  81191927.352 6       -43.258          38.000
R11  20186733.477 8 107871780.645 8      2344.238          51.000    20186735.203 8  83900337.775 8      1823.293          49.000
R24  23010809.844 7 123049188.785 7     -3694.812          45.000    23010809.047 6  95704903.119 6     -2873.743          38.000
C05  39771583.352 6 207101070.303 6       -15.633          36.000    39771581.625 6 160143688.082 6       -12.671          41.000
C23  24646426.695 7 128340401.934 7      3236.273          42.000
C24  24505775.953 5 127607990.625 5     -2190.340          31.000
C25  22357662.688 8 116422235.555 8       912.281          51.000
E07  23484407.281 8 123411372.825 8       -46.883          51.000    23484409.945 8  94561989.886 8       -35.908          51.000
E08  23834847.195 5 125252989.205 5     -1918.980          34.000
E26  25106722.820 7 131936780.959 7     -2474.395          47.000    25106728.664 8 101094362.814 8     -1896.010          51.000
E30  23951973.586 8 125868475.327 8      1933.855          51.000    23951974.242 8  96444691.196 8      1481.803          50.000
> 2020 05 01 02 02  0.0000000  0 14        .000000000000
G06  22453622.312 8 117994582.181 8     -2803.777          49.000    22453624.672 8  91943893.163 8     -2184.762          49.000
G07  20827549.055 8 109449497.736 8       531.023          51.000    20827547.336 8  85285308.643 8       413.784          51.000
G09  21282172.617 6 111838652.550 6     -1870.516          39.000    21282171.953 6  87146991.098 6     -1457.548          39.000
G30  21685880.062 8 113960075.695 8      2609.297          51.000    21685880.461 8  88800073.491 8      2033.218          51.000
R01  19528584.719 7 104391473.745 7       -70.875          44.000    19528588.297 6  81193370.736 6       -55.125          38.000
R11  20173636.984 8 107801793.992 8      2318.680          51.000    20173639.008 8  83845903.692 8      1803.414          50.000
R24  23031562.891 7 123160159.805 7     -3705.715          43.000    23031559.859 6  95791213.924 6     -2882.220          37.000
C05  39771674.523 6 207101545.143 6       -18.266          36.000    39771672.797 6 160144055.242 6       -14.100          41.000
C23  24627797.453 6 128243395.789 6      3228.500          39.000
C25  22352452.664 8 116395106.252 8       893.637          51.000
E07  23484689.766 8 123412856.705 8       -54.723          51.000    23484692.453 8  94563126.887 8       -41.951          51.000
E08  23845799.289 5 125310522.031 5     -1924.285          31.000
E26  25120869.617 7 132011123.831 7     -2484.398          47.000    25120875.430 8 101151326.840 8     -1903.609          51.000
E30  23940964.734 8 125810624.204 8      1920.207          51.000    23940964.969 8  96400363.706 8      1471.351          49.000
> 2020 05 01 02 02 30.0000000  0 14        .000000000000
G06  22469650.727 8 118078813.002 8     -2809.992          48.000    22469653.227 8  92009527.577 8     -2189.604          48.000
G07  20824551.680 8 109433746.560 8       520.438          51.000    20824549.852 8  85273034.996 8       405.536          51.000
G09  21292861.562 6 111894822.788 6     -1872.508          41.000    21292860.812 6  87190760.107 6     -1459.097          41.000
G30  21671007.531 8 113881919.133 8      2602.648          51.000    21671008.312 8  88739172.286 8      2028.038          51.000
R01  19529006.547 7 104393727.006 7       -77.863          45.000    19529009.945 6  81195123.283 6       -60.563          38.000
R10  21035076.531 6 112128701.182 6     -2260.980          36.000
R11  20160672.242 8 107732511.144 8      2301.629          51.000    20160674.055 8  83792016.990 8      1790.156          50.000
R24  23052365.023 6 123271395.591 6     -3708.227          41.000    23052361.297 6  95877730.638 6     -2884.176          38.000
C05  39771767.289 6 207102028.754 6       -12.637          36.000    39771765.680 6 160144429.188 6        -9.630          40.000
C23  24609202.500 6 128146576.102 6      3228.008          39.000
C25  22347339.055 8 116368478.864 8       882.992          51.000
E07  23485006.430 8 123414520.150 8       -54.660          51.000    23485009.125 8  94564401.466 8       -41.847          51.000
E26  25135062.742 8 132085708.436 8     -2486.246          48.000    25135067.102 8 101208476.091 8     -1905.112          49.000
E30  23930023.672 8 125753127.465 8      1914.496          51.000    23930023.938 8  96356307.775 8      1466.913          51.000
> 2020 05 01 02 03  0.0000000  0 15        .000000000000
G04  23972007.344 5 125973723.495 5     -2946.117          35.000
G06  22485719.344 8 118163253.786 8     -2823.586          50.000    22485722.008 8  92075325.588 8     -2200.197          50.000
G07  20821620.086 8 109418341.193 8       502.223          51.000    20821618.281 8  85261030.813 8       391.342          51.000
G09  21303567.336 6 111951082.713 6     -1881.809          38.000    21303567.617 6  87234598.975 6     -1466.347          38.000
G30  21656178.617 8 113803991.399 8      2588.379          51.000    21656179.469 8  88678449.394 8      2016.922          51.000
R01  19529473.328 7 104396220.554 7       -92.723          47.000    19529476.672 6  81197062.711 6       -72.118          39.000
R10  21047861.242 6 112196847.712 6     -2286.043          36.000
R11  20147809.828 8 107663777.001 8      2276.441          51.000    20147811.820 8  83738557.086 8      1770.566          50.000
R24  23073185.000 6 123382733.234 6     -3718.480          40.000    23073182.992 6  95964326.587 6     -2892.151          41.000
C05  39771832.266 6 207102365.775 6       -14.211          36.000    39771830.625 6 160144690.552 6       -10.853          41.000
C23  24590612.828 6 128049790.614 6      3220.121          38.000
C25  22342292.320 8 116342199.672 8       864.766          51.000
E07  23485327.617 8 123416207.529 8       -62.027          51.000    23485330.297 8  94565694.395 8       -47.557          51.000
E26  25149271.969 8 132160377.030 8     -2495.770          48.000    25149274.500 8 101265689.689 8     -1912.370          49.000
E30  23919120.711 8 125695830.923 8      1901.070          51.000    23919121.719 8  96312405.254 8      1456.670          51.000
> 2020 05 01 02 03 30.0000000  0 15        .000000000000
G04  23988838.250 6 126062170.022 6     -2948.938          36.000
G06  22501880.086 8 118248177.527 8     -2835.953          50.000    22501882.367 8  92141499.940 8     -2209.834          50.000
G07  20818807.023 8 109403558.183 8       485.207          51.000    20818805.359 8  85249511.591 8       378.083          51.000
G09  21314342.375 6 112007707.400 6     -1890.273          39.000    21314343.570 6  87278722.060 6     -1472.943          39.000
G30  21641445.883 8 113726570.011 8      2575.043          51.000    21641446.625 8  88618121.040 8      2006.527          51.000
R01  19530037.766 7 104399235.883 7      -106.266          47.000    19530040.859 6  81199407.950 6       -82.651          39.000
R10  21060798.656 5 112265816.095 5     -2309.543          31.000
R11  20135102.906 8 107595874.737 8      2252.355          51.000    20135104.836 8  83685744.190 8      1751.832          48.000
R24  23094074.570 6 123494448.700 6     -3726.961          40.000    23094075.977 7  96051216.424 7     -2898.747          43.000
C05  39771921.641 6 207102832.130 6       -14.883          36.000    39771920.062 6 160145050.812 6       -11.523          41.000
C23  24572082.094 6 127953314.766 6      3213.176          36.000
C25  22337365.219 8 116316542.582 8       847.680          51.000
E07  23485705.859 8 123418194.910 8       -68.410          51.000    23485708.430 8  94567217.196 8       -52.403          51.000
E26  25163548.844 7 132235403.518 7     -2504.074          45.000    25163550.688 8 101323177.512 8     -1918.628          49.000
E30  23908308.570 8 125639012.071 8      1888.836          51.000    23908310.031 8  96268868.752 8      1447.242          51.000
> 2020 05 01 02 04  0.0000000  0 15        .000000000000
G04  24005673.945 6 126150638.652 6     -2949.559          36.000
G06  22518101.000 8 118333418.449 8     -2846.699          49.000    22518102.656 8  92207921.442 8     -2218.207          49.000
G07  20816081.242 8 109389234.254 8       469.652          51.000    20816079.844 8  85238350.090 8       365.963          51.000
G09  21325155.906 6 112064533.091 6     -1897.637          41.000    21325156.898 6  87323001.837 6     -1478.678          41.000
G30  21626778.555 8 113649493.895 8      2563.285          50.000    21626779.359 8  88558061.761 8      1997.365          50.000
R01  19530669.031 8 104402608.243 8      -118.520          48.000    19530671.766 6  81202030.909 6       -92.182          40.000
R10  21073859.805 5 112335437.757 5     -2331.801          31.000
R11  20122520.828 8 107528641.813 8      2229.754          51.000    20122522.555 7  83633451.912 7      1734.253          46.000
R24  23115003.773 7 123606371.720 7     -3734.379          42.000    23115007.820 7  96138267.682 7     -2904.514          45.000
C05  39772004.648 6 207103263.949 6       -13.883          36.000    39772003.008 6 160145385.085 6       -10.874          40.000
C23  24553582.219 6 127856989.066 6      3208.113          38.000
C25  22332526.758 8 116291346.765 8       831.977          51.000
E07  23486110.188 8 123420319.530 8       -73.262          51.000    23486112.664 8  94568845.151 8       -56.106          51.000
E26  25177862.047 7 132310623.000 7     -2510.734          43.000    25177864.352 8 101380813.207 8     -1923.747          48.000
E30  23897556.562 8 125582509.622 8      1877.941          51.000    23897557.852 8  96225574.642 8      1438.933          51.000
> 2020 05 01 02 04 30.0000000  0 15        .000000000000
G04  24022521.094 6 126239165.957 6     -2951.766          37.000
G06  22534388.430 8 118419010.625 8     -2858.883          49.000    22534389.781 8  92274616.644 8     -2227.701          49.000
G07  20813449.828 8 109375406.093 8       452.711          51.000    20813448.578 8  85227574.913 8       352.762          51.000
G09  21336014.508 7 112121595.992 7     -1906.090          42.000    21336015.125 7  87367466.447 7     -1485.268          42.000
G30  21612184.141 8 113572801.725 8      2549.953          50.000    21612185.250 8  88498301.635 8      1986.976          50.000
R01  19531373.641 7 104406376.331 7      -132.223          46.000    19531376.852 6  81204961.639 6      -102.840          39.000
R11  20110071.617 8 107462118.560 8      2205.625          51.000    20110073.094 7  83581711.605 7      1715.486          46.000
R12  22921196.008 6 122440918.151 6      4525.102          38.000    22921197.133 4  95231827.231 4      3519.523          29.000
R24  23135979.047 7 123718535.427 7     -3742.602          43.000    23135984.125 7  96225506.123 7     -2910.912          45.000
C05  39772088.281 6 207103699.805 6       -14.383          36.000    39772086.633 6 160145721.743 6       -11.369          41.000
C23  24535120.250 6 127760852.315 6      3201.574          40.000
C25  22327783.789 8 116266649.368 8       814.898          51.000
E07  23486547.648 8 123422618.549 8       -79.586          51.000    23486550.219 8  94570606.737 8       -60.963          51.000
E26  25192219.102 7 132386070.416 7     -2518.922          45.000    25192221.852 8 101438623.598 8     -1929.984          48.000
E30  23886871.914 8 125526362.085 8      1865.586          51.000    23886873.688 8  96182552.502 8      1429.484          51.000
> 2020 05 01 02 05  0.0000000  0 16        .000000000000
G02  22485756.617 5 118163427.359 5      -787.793          33.000
G04  24039370.742 5 126327706.657 5     -2946.676          33.000
G06  22550733.625 8 118504906.620 8     -2864.113          49.000    22550735.273 8  92341548.576 8     -2231.777          49.000
G07  20810904.453 8 109362029.341 8       442.461          51.000    20810903.258 8  85217151.473 8       344.775          51.000
G09  21346909.688 7 112178850.822 7     -1907.586          42.000    21346910.266 7  87412080.581 7     -1486.431          42.000
G30  21597654.523 8 113496450.625 8      2543.375          50.000    21597656.305 8  88438807.254 8      1981.851          50.000
R01  19532143.945 7 104410495.464 7      -138.938          47.000    19532147.312 6  81208165.402 6      -108.062          40.000
R11  20097747.055 8 107396262.652 8      2188.199          51.000    20097748.727 7  83530490.375 7      1701.933          46.000
R12  22895789.164 6 122305196.334 6      4526.234          39.000    22895792.602 5  95126265.788 5      3520.405          31.000
R24  23156989.539 6 123830889.848 6     -3743.977          41.000    23156995.484 7  96312892.897 7     -2911.982          45.000
C05  39772164.016 6 207104093.706 6        -8.148          36.000    39772162.422 6 160146026.718 6        -6.452          40.000
C23  24516687.641 7 127664862.433 7      3201.203          42.000
C25  22323128.141 8 116242406.813 8       804.531          51.000
E07  23487009.867 8 123425047.592 8       -79.051          51.000    23487012.570 8  94572467.948 8       -60.574          51.000
E26  25206611.148 7 132461699.286 7     -2519.762          46.000    25206613.789 8 101496573.031 8     -1930.843          48.000
E30  23876246.562 8 125470526.468 8      1860.043          51.000    23876249.031 8  96139769.391 8      1425.258          51.000
> 2020 05 01 02 05 30.0000000  0 15        .000000000000
G02  22490361.000 5 118187629.286 5      -816.812          33.000
G06  22567174.727 8 118591305.784 8     -2887.402          50.000    22567177.070 8  92408872.574 8     -2249.924          50.000
G07  20808483.312 8 109349305.782 8       414.285          51.000    20808482.266 8  85207237.046 8       322.823          51.000
G09  21357879.938 7 112236498.828 7     -1926.867          43.000    21357880.391 7  87457001.111 7     -1501.452          43.000
G30  21583229.070 8 113420644.408 8      2518.738          51.000    21583230.977 8  88379737.445 8      1962.653          51.000
R01  19533018.461 7 104415172.496 7      -164.039          46.000    19533021.961 6  81211803.083 6      -127.586          40.000
R11  20085586.266 8 107331282.347 8      2152.418          51.000    20085588.062 7  83479950.159 7      1674.103          47.000
R12  22870436.508 6 122169783.211 6      4509.520          37.000    22870441.844 5  95020944.508 5      3507.404          30.000
R24  23178073.109 6 123943635.967 6     -3763.551          41.000    23178079.961 7  96400584.359 7     -2927.206          45.000
C05  39772270.430 6 207104647.468 6       -20.191          36.000    39772268.742 6 160146454.905 6       -15.426          41.000
C23  24498322.656 7 127569221.819 7      3182.973          42.000
C25  22318598.312 8 116218819.907 8       776.262          51.000
E07  23487535.328 8 123427808.998 8       -96.598          51.000    23487538.055 8  94574583.836 8       -74.001          51.000
E26  25221075.633 7 132537709.843 7     -2539.066          46.000    25221078.086 8 101554814.845 8     -1945.456          48.000
E30  23865719.578 8 125415206.556 8      1836.379          51.000    23865722.398 8  96097381.437 8      1407.078          51.000
> 2020 05 01 02 06  0.0000000  0 14        .000000000000
G06  22583652.414 8 118677896.091 8     -2890.598          50.000    22583655.477 8  92476345.520 8     -2252.414          50.000
G07  20806127.688 8 109336926.234 8       405.875          51.000    20806126.672 8  85197590.648 8       316.266          51.000
G09  21368866.117 6 112294230.265 6     -1926.836          41.000    21368866.227 6  87501986.680 6     -1501.431          40.000
G30  21568849.203 8 113345075.620 8      2513.844          51.000    21568850.727 8  88320852.698 8      1958.839          51.000
R01  19533938.953 7 104420093.787 7      -169.172          46.000    19533942.703 6  81215630.747 6      -131.578          40.000
R11  20073531.633 8 107266866.352 8      2136.715          51.000    20073533.547 7  83429848.822 7      1661.889          47.000
R12  22845086.219 6 122034368.541 6      4512.621          41.000    22845091.812 5  94915621.938 5      3509.816          31.000
R24  23199171.523 7 124056455.162 7     -3762.910          43.000    23199178.336 7  96488332.622 7     -2926.708          45.000
C05  39772348.523 6 207105055.369 6       -11.883          36.000    39772346.836 6 160146769.550 6        -9.424          41.000
C23  24479965.398 6 127473626.260 6      3184.656          39.000
C25  22314135.781 8 116195582.929 8       767.676          51.000
E07  23488065.289 8 123430593.887 8       -94.254          51.000    23488067.898 8  94576717.710 8       -72.218          51.000
E26  25235553.469 8 132613790.915 8     -2538.258          48.000    25235555.742 8 101613110.702 8     -1944.896          49.000
E30  23855232.195 8 125360094.810 8      1832.566          51.000    23855235.055 8  96055152.984 8      1404.126          51.000
> 2020 05 01 02 06 30.0000000  0 14        .000000000000
G06  22600199.906 8 118764852.607 8     -2903.785          51.000    22600203.477 8  92544103.835 8     -2262.690          50.000
G07  20803871.391 8 109325069.037 8       387.379          51.000    20803870.367 8  85188351.280 8       301.854          51.000
G09  21379902.000 6 112352222.453 6     -1936.762          41.000    21379901.625 6  87547175.346 6     -1509.165          41.000
G30  21554548.734 8 113269923.951 8      2498.863          51.000    21554549.836 8  88262292.989 8      1947.166          51.000
R01  19534939.219 7 104425441.519 7      -184.613          47.000    19534942.984 6  81219790.089 6      -143.588          40.000
R11  20061617.031 8 107203198.438 8      2110.504          51.000    20061619.180 7  83380329.353 7      1641.503          47.000
R12  22819770.812 6 121899137.470 6      4505.348          39.000    22819778.141 4  94810442.198 4      3504.159          28.000
R24  23220317.516 7 124169523.708 7     -3772.234          42.000    23220323.617 7  96576274.825 7     -2933.960          44.000
C05  39772432.430 6 207105491.866 6       -14.367          36.000    39772430.688 6 160147107.070 6       -11.085          41.000
C23  24461648.258 6 127378254.278 6      3175.777          37.000
C25  22309774.523 8 116172872.699 8       749.035          51.000
E07  23488633.602 8 123433580.443 8      -102.113          51.000    23488636.219 8  94579006.111 8       -78.264          51.000
E26  25250078.227 8 132690118.522 8     -2547.496          48.000    25250080.453 8 101671595.474 8     -1952.022          49.000
E30  23844818.383 8 125305370.772 8      1818.488          50.000    23844820.906 8  96013221.586 8      1393.363          50.000
> 2020 05 01 02 07  0.0000000  0 17        .000000000000
G04  24106907.109 5 126682642.414 5     -2956.594          33.000
G06  22616803.641 8 118852103.883 8     -2910.957          50.000    22616807.328 8  92612091.844 8     -2268.278          50.000
G07  20801701.195 8 109313665.133 8       374.883          51.000    20801700.375 8  85179465.142 8       292.116          51.000
G09  21390974.156 6 112410405.911 6     -1940.262          40.000    21390974.070 6  87592513.089 6     -1511.892          40.000
G30  21540314.828 8 113195122.508 8      2489.781          51.000    21540315.562 8  88204006.179 8      1940.092          51.000
R01  19536006.383 7 104431146.608 7      -193.855          46.000    19536010.438 6  81224227.377 6      -150.780          40.000
R08  21610681.188 5 115724193.422 5     -2516.324          30.000    21610679.062 4  90007721.365 4     -1957.141          25.000
R11  20049829.914 8 107140211.407 8      2090.500          51.000    20049832.414 7  83331339.479 7      1625.944          46.000
R12  22794477.094 6 121764023.917 6      4504.180          39.000    22794483.781 4  94705364.811 4      3503.251          26.000
R24  23241495.219 6 124282767.393 6     -3775.520          39.000    23241501.352 7  96664353.293 7     -2936.512          43.000
C05  39772508.789 6 207105890.056 6       -10.711          36.000    39772507.211 6 160147414.968 6        -8.026          41.000
C23  24443360.734 6 127283039.919 6      3173.320          39.000
C25  22305501.422 8 116150621.757 8       736.328          51.000
E07  23489227.273 8 123436700.292 8      -103.922          51.000    23489229.969 8  94581396.640 8       -79.619          51.000
E08  23956330.695 6 125891368.696 6     -1947.336          36.000
E26  25264636.312 8 132766622.116 8     -2550.664          48.000    25264638.742 8 101730215.084 8     -1954.429          49.000
E30  23834465.422 8 125250967.481 8      1810.418          48.000    23834467.836 8  95971535.928 8      1387.197          51.000
> 2020 05 01 02 07 30.0000000  0 18        .000000000000
G02  22509615.008 5 118288838.855 5      -880.172          35.000
G04  24123802.375 5 126771437.053 5     -2964.062          32.000
G06  22633466.500 8 118939665.198 8     -2927.617          50.000    22633469.750 8  92680321.452 8     -2281.260          50.000
G07  20799620.719 8 109302732.568 8       352.770          51.000    20799620.039 8  85170946.269 8       274.885          51.000
G09  21402085.711 6 112468798.061 6     -1953.715          38.000    21402086.602 6  87638013.424 6     -1522.378          38.000
G30  21526151.039 8 113120691.161 8      2471.043          50.000    21526151.625 8  88146007.722 8      1925.488          50.000
R01  19537144.055 7 104437228.724 7      -212.816          46.000    19537148.148 6  81228957.918 6      -165.524          41.000
R08  21624812.695 5 115799888.830 5     -2531.250          30.000
R11  20038174.023 8 107077926.631 8      2060.594          50.000    20038176.680 7  83282895.793 7      1602.684          46.000
R12  22769209.742 6 121629050.409 6      4493.273          39.000
R24  23262706.969 6 124396200.158 6     -3788.000          39.000    23262713.820 6  96752578.828 6     -2946.222          40.000
C05  39772581.312 5 207106266.942 5       -16.145          35.000    39772579.734 6 160147707.169 6       -12.248          41.000
C23  24425109.844 7 127188003.261 7      3160.930          42.000
C24  24661963.375 5 128421291.625 5     -2329.145          33.000
C25  22301320.211 8 116128848.606 8       714.094          51.000
E07  23489849.828 8 123439971.813 8      -115.363          51.000    23489852.523 8  94583903.384 8       -88.389          51.000
E26  25279231.078 8 132843317.914 8     -2563.496          48.000    25279233.773 8 101788981.958 8     -1964.159          49.000
E30  23824176.438 7 125196904.618 7      1792.703          47.000    23824180.125 8  95930111.117 8      1373.567          51.000
> 2020 05 01 02 08  0.0000000  0 18        .000000000000
G02  22514688.445 6 118315492.320 6      -892.945          37.000
G06  22650210.992 8 119027655.422 8     -2934.199          50.000    22650213.539 8  92748885.287 8     -2286.386          49.000
G07  20797652.906 8 109292392.967 8       340.684          51.000    20797652.305 8  85162889.445 8       265.471          51.000
G09  21413259.938 5 112527520.039 5     -1956.926          35.000    21413259.836 5  87683770.730 5     -1524.880          35.000
G30  21512080.375 8 113046753.366 8      2462.195          49.000    21512081.273 8  88088393.830 8      1918.594          48.000
R01  19538375.742 7 104443812.570 7      -221.898          47.000    19538379.539 6  81234078.681 6      -172.588          41.000
R08  21639012.422 4 115875953.355 4     -2535.930          29.000
R11  20026672.641 8 107016470.327 8      2040.652          49.000    20026675.805 7  83235096.494 7      1587.174          47.000
R12  22743992.984 6 121494344.714 6      4491.512          38.000
R24  23283977.523 6 124509941.441 6     -3790.469          40.000    23283982.883 6  96841044.262 6     -2948.142          37.000
C05  39772673.164 5 207106745.326 5       -11.930          35.000    39772671.672 6 160148077.109 6        -9.331          40.000
C23  24406917.750 7 127093267.053 7      3158.379          42.000
C24  24675421.805 5 128491351.514 5     -2337.195          32.000
C25  22297253.789 8 116107674.301 8       701.613          51.000
E07  23490524.508 8 123443516.989 8      -117.020          51.000    23490527.086 8  94586619.820 8       -89.673          51.000
E08  23978645.961 5 126008640.214 5     -1954.961          32.000
E26  25293885.453 8 132920325.699 8     -2566.340          50.000    25293888.375 8 101847987.900 8     -1966.485          49.000
E30  23813976.242 8 125143305.501 8      1784.574          48.000    23813980.828 8  95889041.637 8      1367.488          51.000
> 2020 05 01 02 08 30.0000000  0 18        .000000000000
G02  22519831.234 5 118342516.774 5      -908.648          35.000    22519830.883 5  92214942.079 5      -708.038          34.000
G04  24157639.180 5 126949227.027 5     -2961.621          32.000
G06  22666992.008 8 119115838.992 8     -2944.211          48.000    22666994.156 8  92817599.767 8     -2294.190          48.000
G07  20795753.492 8 109282413.219 8       325.207          50.000    20795753.086 8  85155113.024 8       253.408          51.000
G09  21424452.562 6 112586338.383 6     -1963.770          37.000    21424450.914 6  87729603.144 6     -1530.207          37.000
G30  21498059.570 8 112973078.036 8      2449.910          49.000    21498060.688 8  88030984.454 8      1909.021          49.000
R01  19539657.344 8 104450662.251 8      -234.262          49.000    19539661.242 7  81239406.204 7      -182.204          42.000
R11  20015282.539 8 106955608.976 8      2017.277          48.000    20015286.672 8  83187759.889 8      1568.993          49.000
R12  22718783.086 6 121359674.394 6      4486.703          37.000    22718792.039 5  94390882.456 5      3489.661          31.000
R24  23305262.250 7 124623750.113 7     -3796.453          42.000    23305262.547 5  96929562.051 5     -2952.797          33.000
C05  39772739.992 5 207107093.666 5       -10.605          35.000    39772738.578 6 160148346.450 6        -8.418          41.000
C23  24388739.633 7 126998602.775 7      3152.695          44.000
C24  24688917.844 4 128561673.206 4     -2348.137          28.000
C25  22293258.391 8 116086868.724 8       685.855          51.000
E07  23491207.039 8 123447103.358 8      -121.770          51.000    23491209.477 8  94589367.811 8       -93.250          51.000
E08  23989817.289 4 126067340.266 4     -1955.887          29.000
E26  25308554.664 8 132997410.785 8     -2572.285          50.000    25308557.891 8 101907053.053 8     -1970.960          49.000
E30  23803821.438 8 125089938.935 8      1773.434          50.000    23803825.711 8  95848150.376 8      1358.901          51.000
> 2020 05 01 02 09  0.0000000  0 18        .000000000000
G02  22525081.773 6 118370110.103 6      -928.543          36.000    22525084.242 5  92236456.353 5      -723.525          34.000
G04  24174570.352 5 127038223.986 5     -2966.902          32.000
G06  22683846.695 7 119204412.176 7     -2957.953          47.000    22683848.508 7  92886617.842 7     -2304.899          47.000
G07  20793960.406 8 109272992.344 8       305.711          50.000    20793960.430 8  85147772.070 8       238.216          50.000
G09  21435701.094 6 112645451.433 6     -1974.410          37.000    21435702.984 6  87775665.269 6     -1538.498          36.000
G30  21484127.969 8 112899865.988 8      2433.672          51.000    21484128.812 8  87973936.115 8      1896.368          51.000
R01  19541026.766 8 104457981.776 8      -250.957          49.000    19541030.516 7  81245099.166 7      -195.192          42.000
R08  21667541.047 5 116028682.661 5     -2555.805          32.000
R11  20004041.789 7 106895547.637 7      1989.547          47.000    20004047.008 8  83141045.474 8      1547.422          49.000
R12  22693619.367 6 121225245.905 6      4478.000          38.000    22693626.008 5  94286326.964 5      3482.886          31.000
R24  23326597.242 7 124737824.191 7     -3805.750          43.000    23326590.219 5  97018263.219 5     -2960.031          31.000
C05  39772819.898 6 207107509.996 6       -13.824          36.000    39772818.398 6 160148668.003 6       -10.753          40.000
C23  24370613.383 7 126904209.953 7      3142.910          44.000
C24  24702489.453 4 128632343.634 4     -2362.012          27.000
C25  22289371.867 8 116066629.733 8       666.121          51.000
E07  23491935.328 8 123450930.399 8      -130.676          51.000    23491937.617 8  94592300.227 8      -100.140          51.000
E26  25323275.867 8 133074770.465 8     -2582.316          50.000    25323279.633 8 101966328.632 8     -1978.628          49.000
E30  23793749.266 8 125037005.643 8      1758.137          50.000    23793752.766 8  95807591.139 8      1347.147          51.000
> 2020 05 01 02 09 30.0000000  0 16        .000000000000
G02  22530441.500 6 118398275.979 6      -944.281          37.000    22530446.969 4  92258403.963 4      -735.788          29.000
G06  22700775.578 7 119293376.988 7     -2967.500          47.000    22700776.422 7  92955941.087 7     -2312.338          47.000
G07  20792274.680 8 109264135.341 8       290.230          49.000    20792274.820 8  85140870.489 8       226.151          49.000
G09  21447005.891 6 112704863.620 6     -1981.051          36.000    21447012.102 6  87821960.449 6     -1543.679          36.000
G30  21470286.234 8 112827123.798 8      2421.281          51.000    21470286.867 8  87917253.903 8      1886.713          51.000
R01  19542485.000 8 104465776.690 8      -263.371          49.000    19542488.555 7  81251161.870 7      -204.844          42.000
R11  19992953.461 8 106836293.830 8      1966.070          50.000    19992958.633 8  83094959.130 8      1529.163          50.000
R12  22668502.469 5 121091068.360 5      4472.918          33.000    22668505.664 5  94181966.672 5      3478.939          32.000
R24  23347982.062 7 124852164.260 7     -3811.508          43.000    23347970.266 5  97107194.304 5     -2964.509          31.000
C05  39772913.781 6 207107997.770 6       -13.250          36.000    39772912.141 6 160149045.570 6       -10.055          41.000
C23  24352540.383 7 126810095.532 7      3136.848          45.000
C24  24716138.930 4 128703419.148 4     -2371.219          29.000
C25  22285595.172 8 116046962.620 8       650.336          51.000
E07  23492710.344 8 123455003.262 8      -135.391          51.000    23492712.461 8  94595420.988 8      -103.741          51.000
E26  25338049.469 8 133152407.636 8     -2588.051          49.000    25338054.102 8 102025816.879 8     -1983.106          49.000
E30  23783760.500 8 124984512.137 8      1746.941          50.000    23783763.062 8  95767368.862 8      1338.527          51.000
> 2020 05 01 02 10  0.0000000  0 15        .000000000000
G02  22535880.031 5 118426851.782 5      -961.301          35.000    22535886.391 5  92280670.884 5      -749.053          34.000
G06  22717747.781 7 119382568.848 7     -2979.426          47.000    22717746.703 7  93025441.215 7     -2321.630          47.000
G07  20790665.664 8 109255680.389 8       272.605          50.000    20790665.664 8  85134282.207 8       212.420          50.000
G09  21458337.602 6 112764412.358 6     -1989.602          39.000    21458342.789 6  87868362.119 6     -1550.339          38.000
G30  21456503.273 8 112754691.317 8      2406.746          51.000    21456503.914 8  87860813.023 8      1875.390          51.000
R01  19544001.703 8 104473883.549 8      -278.043          50.000    19544005.219 7  81257467.211 7      -216.256          43.000
R11  19981986.711 8 106777685.489 8      1940.207          51.000    19981991.164 8  83049374.856 8      1509.050          50.000
R24  23369384.984 7 124966601.411 7     -3818.852          42.000    23369372.344 5  97196200.910 5     -2970.221          33.000
C05  39772990.539 6 207108398.256 6       -14.137          36.000    39772989.070 6 160149355.251 6       -11.110          41.000
C23  24334490.422 7 126716101.323 7      3128.578          46.000
C24  24729834.398 4 128774736.209 4     -2382.500          26.000
C25  22281897.516 8 116027707.470 8       632.484          51.000
E07  23493501.383 8 123459160.426 8      -142.535          51.000    23493503.359 8  94598606.350 8      -109.212          51.000
E26  25352844.359 8 133230158.559 8     -2596.141          48.000    25352850.070 8 102085392.270 8     -1989.197          50.000
E30  23773825.016 8 124932298.215 8      1733.238          51.000    23773827.148 8  95727360.807 8      1328.048          51.000
> 2020 05 01 02 10 30.0000000  0 15        .000000000000
G02  22541414.289 5 118455931.062 5      -977.801          33.000    22541417.734 5  92303329.208 5      -761.923          30.000
G06  22734780.516 7 119472078.488 7     -2988.660          46.000    22734778.156 7  93095188.951 7     -2328.826          46.000
G07  20789151.125 8 109247720.532 8       257.332          51.000    20789150.852 8  85128079.719 8       200.518          51.000
G09  21469713.492 7 112824190.780 7     -1996.172          42.000    21469717.219 6  87914942.714 6     -1555.459          41.000
G30  21442796.938 8 112682663.946 8      2394.371          51.000    21442798.109 8  87804687.816 8      1865.744          51.000
R01  19545594.711 8 104482398.786 8      -290.359          50.000    19545598.086 7  81264090.186 7      -225.832          43.000
R10  21255085.008 5 113301509.543 5     -2617.871          33.000
R11  19971159.266 8 106719820.901 8      1916.660          51.000    19971162.695 8  83004369.061 8      1490.733          50.000
R24  23390823.102 6 125081226.315 6     -3823.598          40.000    23390811.289 5  97285353.561 5     -2973.909          35.000
C05  39773068.461 5 207108803.909 5       -13.531          35.000    39773066.977 6 160149668.918 6       -10.354          41.000
C23  24316481.477 7 126622322.265 7      3122.691          47.000
C25  22278296.828 8 116008957.562 8       616.898          51.000
E07  23494326.344 8 123463495.892 8      -147.102          51.000    23494328.250 8  94601928.330 8      -112.756          51.000
E26  25367678.438 8 133308114.981 8     -2601.730          48.000    25367684.719 8 102145125.132 8     -1993.438          51.000
E30  23763960.680 8 124880459.076 8      1721.984          51.000    23763962.680 8  95687639.915 8      1319.458          51.000
> 2020 05 01 02 11  0.0000000  0 15        .000000000000
G02  22547037.758 6 118485479.469 6      -993.910          36.000    22547039.680 5  92326353.943 5      -774.491          32.000
G06  22751867.172 7 119561872.259 7     -2999.066          44.000    22751865.625 7  93165158.101 7     -2336.935          44.000
G07  20787724.922 8 109240224.996 8       241.062          51.000    20787724.406 8  85122239.038 8       187.841          51.000
G09  21481126.922 6 112884167.241 6     -2003.961          40.000    21481132.016 6  87961677.601 6     -1561.531          40.000
G30  21429161.781 8 112611012.453 8      2380.945          51.000    21429163.562 8  87748855.488 8      1855.285          51.000
R01  19547258.156 8 104491291.862 8      -303.848          50.000    19547261.742 7  81271007.019 7      -236.326          43.000
R10  21269875.859 4 113380347.522 4     -2638.270          29.000
R11  19960465.359 8 106662670.830 8      1891.941          51.000    19960468.055 8  82959919.020 8      1471.513          49.000
R24  23412288.742 6 125196003.269 6     -3829.922          39.000    23412278.289 6  97374624.491 6     -2978.828          36.000
C05  39773141.594 6 207109184.319 6       -13.352          36.000    39773140.031 6 160149963.065 6       -10.339          41.000
C23  24298508.414 8 126528729.900 8      3115.414          49.000
C25  22274787.250 8 115990682.749 8       600.078          51.000
E07  23495179.422 8 123467979.084 8      -152.992          51.000    23495181.297 8  94605363.495 8      -117.213          51.000
E26  25382545.938 8 133386244.159 8     -2608.332          50.000    25382551.773 8 102204990.356 8     -1998.562          49.000
E30  23754162.055 8 124828965.396 8      1709.629          51.000    23754163.695 8  95648183.721 8      1309.945          51.000
> 2020 05 01 02 11 30.0000000  0 17        .000000000000
G02  22552762.203 5 118515560.211 5     -1011.520          34.000    22552762.844 5  92349793.382 5      -788.203          32.000
G04  24259368.898 5 127483842.998 5     -2974.977          32.000
G06  22769019.531 7 119652010.369 7     -3009.992          43.000    22769020.359 7  93235395.609 7     -2345.448          43.000
G07  20786399.117 8 109233256.624 8       223.703          51.000    20786398.336 8  85116809.146 8       174.314          51.000
G09  21492590.195 6 112944404.353 6     -2011.852          39.000    21492593.992 6  88008615.600 6     -1567.673          38.000
G30  21415610.508 8 112539801.755 8      2366.523          51.000    21415612.656 8  87693366.625 8      1844.041          51.000
R01  19549004.586 8 104500628.161 8      -318.434          50.000    19549008.281 7  81278268.574 7      -247.671          44.000
R10  21284787.719 5 113459859.494 5     -2661.738          33.000
R11  19949917.438 8 106606302.276 8      1866.117          51.000    19949919.398 8  82916076.830 8      1451.424          48.000
R24  23433792.688 5 125310992.072 5     -3835.895          35.000    23433784.023 5  97464060.218 5     -2983.470          35.000
C05  39773221.836 6 207109602.232 6       -14.805          36.000    39773220.312 6 160150286.205 6       -11.043          40.000
C23  24280583.836 8 126435388.958 8      3107.340          50.000
C24  24771281.961 5 128990534.521 5     -2415.480          31.000
C25  22271381.211 8 115972946.045 8       582.504          51.000
E07  23496072.750 8 123472673.499 8      -159.785          51.000    23496074.562 8  94608960.516 8      -122.436          51.000
E26  25397458.516 8 133464607.379 8     -2615.789          51.000    25397462.961 8 102265034.915 8     -2004.321          49.000
E30  23744441.445 8 124777881.953 8      1696.094          51.000    23744442.211 8  95609041.856 8      1299.604          51.000
> 2020 05 01 02 12  0.0000000  0 15        .000000000000
G04  24276340.141 5 127573000.294 5     -2972.246          33.000
G06  22786211.320 7 119742352.855 7     -3015.582          44.000    22786214.312 7  93305792.347 7     -2349.804          44.000
G07  20785147.492 8 109226678.010 8       212.113          51.000    20785146.234 8  85111682.949 8       165.283          51.000
G09  21504076.781 6 113004764.227 6     -2014.379          39.000    21504077.062 6  88055649.294 6     -1569.649          38.000
G30  21402117.500 8 112468896.151 8      2357.742          51.000    21402119.445 8  87638115.483 8      1837.199          51.000
R01  19550808.148 8 104510269.090 8      -327.082          50.000    19550812.008 7  81285767.067 7      -254.400          44.000
R02  21733446.180 5 115973834.936 5      2978.426          33.000    21733463.469 4  90201885.738 4      2316.556          25.000
R11  19939489.602 8 106550578.028 8      1846.020          51.000    19939491.531 8  82872735.787 8      1435.793          48.000
C05  39773283.242 6 207109921.736 6        -9.688          36.000    39773281.672 6 160150533.277 6        -7.576          41.000
C23  24262681.812 8 126342165.551 8      3104.816          50.000
C24  24785208.867 5 129063057.669 5     -2422.000          34.000
C25  22268052.562 8 115955611.844 8       570.453          51.000
E07  23496980.258 8 123477442.202 8      -160.832          51.000    23496982.031 8  94612614.462 8      -123.241          51.000
E26  25412389.266 8 133543065.428 8     -2617.551          51.000    25412392.148 8 102325152.110 8     -2005.578          49.000
E30  23734773.039 8 124727073.032 8      1688.434          51.000    23734773.531 8  95570110.349 8      1293.741          51.000
> 2020 05 01 02 12 30.0000000  0 15        .000000000000
G04  24293332.578 5 127662324.761 5     -2977.473          31.000
G06  22803476.945 7 119833083.154 7     -3029.262          43.000    22803481.492 7  93376491.286 7     -2360.464          44.000
G07  20784005.430 8 109220675.261 8       192.070          51.000    20784003.938 8  85107005.490 8       149.665          51.000
G09  21515621.617 5 113065432.605 5     -2026.215          34.000    21515621.617 5  88102923.323 5     -1578.875          33.000
G30  21388718.461 8 112398483.633 8      2340.477          51.000    21388719.648 8  87583248.578 8      1823.748          51.000
R01  19552704.305 8 104520405.004 8      -344.562          50.000    19552708.422 7  81293650.539 7      -267.993          44.000
R11  19929217.930 8 106495690.179 8      1817.246          51.000    19929220.008 8  82830045.259 8      1413.414          48.000
C05  39773361.188 5 207110327.709 5       -13.555          35.000    39773359.680 6 160150847.213 6       -10.599          41.000
C23  24244837.812 8 126249246.492 8      3093.770          50.000
C24  24799214.383 5 129135985.898 5     -2435.688          35.000
C25  22264836.648 8 115938865.138 8       550.004          51.000
E07  23497937.430 8 123482471.877 8      -170.520          51.000    23497939.234 8  94616468.366 8      -130.658          51.000
E08  24079885.719 5 126540650.206 5     -1984.469          33.000
E26  25427373.039 8 133621802.756 8     -2627.758          50.000    25427374.547 8 102385483.274 8     -2013.444          50.000
E30  23725192.453 8 124676726.503 8      1672.035          51.000    23725192.578 8  95531533.150 8      1281.173          50.000
> 2020 05 01 02 13  0.0000000  0 14        .000000000000
G06  22820828.422 6 119924265.137 6     -3039.008          41.000    22820833.938 6  93447542.210 6     -2368.055          41.000
G07  20782985.539 8 109215314.494 8       175.879          51.000    20782983.758 8  85102828.279 8       137.048          51.000
G09  21527237.484 5 113126475.564 5     -2032.961          35.000    21527239.016 5  88150489.251 5     -1584.125          35.000
G30  21375426.336 8 112328632.645 8      2326.906          51.000    21375426.664 8  87528819.244 8      1813.177          51.000
R01  19554705.961 8 104531104.771 8      -358.004          50.000    19554710.078 7  81301972.572 7      -278.451          44.000
R11  19919115.859 8 106441709.022 8      1792.262          51.000    19919118.109 8  82788059.930 8      1393.981          48.000
R24  23498480.805 4 125656941.115 4     -3851.809          29.000    23498489.023 5  97733213.217 5     -2995.854          31.000
C05  39773468.352 5 207110886.435 5       -13.352          35.000    39773467.016 6 160151279.263 6       -10.279          41.000
C23  24227064.711 8 126156700.095 8      3086.461          50.000
C24  24813308.906 6 129209383.617 6     -2446.555          37.000
C25  22261746.219 8 115922772.490 8       533.348          51.000
E07  23498956.977 8 123487829.621 8      -176.102          51.000    23498958.930 8  94620573.651 8      -134.938          51.000
E26  25442422.133 8 133700884.206 8     -2633.762          50.000    25442422.828 8 102446078.110 8     -2018.074          51.000
E30  23715712.555 8 124626910.653 8      1659.672          51.000    23715712.055 8  95493362.583 8      1271.697          49.000
> 2020 05 01 02 13 30.0000000  0 17        .000000000000
G02  22576585.625 5 118640752.186 5     -1072.305          33.000
G06  22838197.312 7 120015538.696 7     -3045.414          42.000    22838203.641 7  93518664.515 7     -2373.047          42.000
G07  20782019.828 8 109210238.845 8       162.852          51.000    20782017.219 8  85098873.224 8       126.897          51.000
G09  21538856.438 6 113187535.264 6     -2037.605          37.000    21538859.102 5  88198068.259 5     -1587.741          35.000
G30  21362173.492 8 112258987.511 8      2316.449          51.000    21362173.461 8  87474550.327 8      1805.025          51.000
R01  19556745.125 8 104542006.246 8      -368.395          49.000    19556749.359 7  81310451.484 7      -286.529          44.000
R11  19909115.812 8 106388273.842 8      1770.371          51.000    19909118.289 8  82746499.246 8      1376.958          48.000
R12  22468706.055 5 120023779.459 5      4423.820          33.000    22468715.422 4  93351835.327 4      3440.749          29.000
R24  23520097.891 5 125772510.617 5     -3853.766          30.000    23520096.211 4  97823105.163 4     -2997.373          26.000
C05  39773537.070 6 207111244.124 6       -10.172          36.000    39773535.711 6 160151555.832 6        -7.811          40.000
C23  24209295.367 8 126064174.466 8      3082.180          50.000
C24  24827425.586 6 129282894.807 6     -2453.438          37.000
C25  22258713.398 8 115906980.249 8       519.789          51.000
E07  23499971.016 8 123493158.497 8      -178.758          51.000    23499973.180 8  94624656.819 8      -136.967          51.000
E08  24102602.922 6 126660026.422 6     -1987.648          36.000
E26  25457468.203 8 133779950.582 8     -2636.844          49.000    25457468.898 8 102506661.419 8     -2020.454          51.000
E30  23706266.148 8 124577269.768 8      1650.211          51.000    23706265.531 8  95455326.069 8      1264.450          50.000
> 2020 05 01 02 14  0.0000000  0 15        .000000000000
G06  22855608.344 7 120107031.709 7     -3067.066          45.000    22855614.719 7  93589957.790 7     -2389.922          44.000
G07  20781133.062 8 109205578.388 8       134.766          51.000    20781130.164 8  85095241.709 8       105.012          51.000
G09  21550503.117 6 113248741.796 6     -2055.914          37.000    21550504.047 6  88245761.687 6     -1602.005          36.000
G30  21348985.125 8 112189680.539 8      2290.934          51.000    21348985.109 8  87420544.904 8      1785.143          51.000
R01  19558846.992 8 104553243.175 8      -393.957          49.000    19558851.273 7  81319191.311 7      -306.414          44.000
R11  19899242.953 8 106335519.661 8      1733.191          51.000    19899245.891 8  82705468.227 8      1348.038          49.000
R12  22443877.164 6 119891160.176 6      4404.570          37.000    22443890.656 4  93248687.016 4      3425.777          25.000
R24  23541732.961 5 125888163.621 5     -3869.648          31.000
C05  39773591.961 6 207111529.346 6       -21.746          36.000    39773590.602 6 160151777.172 6       -16.970          41.000
C23  24191555.195 8 125971801.203 8      3063.062          49.000
C24  24841588.672 6 129356647.266 6     -2475.934          37.000
C25  22255763.008 8 115891618.240 8       491.453          51.000
E07  23501004.430 8 123498589.558 8      -196.395          51.000    23501006.859 8  94628818.278 8      -150.460          51.000
E26  25472535.508 8 133859130.642 8     -2654.730          48.000    25472537.031 8 102567331.863 8     -2034.189          50.000
E30  23696878.203 8 124527936.034 8      1625.688          51.000    23696878.641 8  95417524.926 8      1245.684          50.000
> 2020 05 01 02 14 30.0000000  0 14        .000000000000
G06  22873115.844 7 120199030.727 7     -3070.387          47.000    22873121.711 7  93661645.311 7     -2392.509          46.000
G07  20780380.352 8 109201622.650 8       124.594          51.000    20780377.461 8  85092159.334 8        97.086          51.000
G09  21562233.172 6 113310384.032 6     -2057.652          38.000    21562232.695 6  88293794.686 6     -1603.362          36.000
G30  21335916.469 8 112121002.760 8      2283.230          51.000    21335916.688 8  87367029.746 8      1779.141          51.000
R01  19561066.992 8 104565111.141 8      -401.609          49.000    19561071.578 7  81328421.928 7      -312.363          45.000
R11  19889553.195 8 106283743.218 8      1714.117          51.000    19889556.703 8  82665197.670 8      1333.202          49.000
R12  22419134.273 6 119758977.930 6      4403.582          38.000
C05  39773688.242 6 207112031.176 6       -15.988          36.000    39773686.984 6 160152165.212 6       -12.427          40.000
C23  24173899.789 8 125879869.279 8      3061.527          48.000
C24  24855852.898 6 129430925.844 6     -2480.074          37.000
C25  22252950.438 8 115876973.595 8       480.605          51.000
E07  23502112.352 8 123504412.561 8      -196.227          51.000    23502115.086 8  94633280.059 8      -150.349          51.000
E26  25487678.422 7 133938711.955 7     -2654.910          46.000    25487681.531 8 102628309.779 8     -2034.246          49.000
E30  23687603.938 8 124479200.433 8      1619.117          49.000    23687605.484 8  95380182.078 8      1240.559          50.000
> 2020 05 01 02 15  0.0000000  0 15        .000000000000
G06  22890652.055 7 120291180.325 7     -3070.336          47.000    22890656.688 8  93733450.178 8     -2392.473          48.000
G07  20779694.539 8 109198018.540 8       117.922          51.000    20779691.250 8  85089350.948 8        91.887          51.000
G09  21573979.109 6 113372108.834 6     -2054.945          40.000    21573979.250 6  88341891.871 6     -1601.256          38.000
G30  21322900.656 8 112052603.206 8      2279.035          51.000    21322901.086 8  87313731.392 8      1775.872          51.000
R01  19563338.445 8 104577252.397 8      -405.520          49.000    19563343.070 7  81337865.127 7      -315.404          45.000
R02  21633433.547 5 115440128.251 5      2961.660          32.000
R11  19879979.914 8 106232588.265 8      1698.656          51.000    19879984.039 8  82625410.500 8      1321.177          50.000
R12  22394404.406 6 119626878.277 6      4405.219          37.000
C05  39773759.023 6 207112399.358 6        -6.219          36.000    39773757.633 6 160152449.934 6        -5.059          40.000
C23  24156262.516 8 125788031.459 8      3063.379          48.000
C24  24870150.977 5 129505379.312 5     -2481.621          35.000
C25  22250208.648 8 115862697.288 8       473.477          51.000
E07  23503227.852 8 123510275.286 8      -192.445          51.000    23503230.867 8  94637772.287 8      -147.461          51.000
E26  25502829.945 7 134018340.024 7     -2651.316          46.000    25502834.859 8 102689323.516 8     -2031.609          50.000
E30  23678376.594 8 124430711.864 8      1615.949          49.000    23678378.602 8  95343028.505 8      1238.123          50.000
> 2020 05 01 02 15 30.0000000  0 15        .000000000000
G06  22908249.305 7 120383650.441 7     -3086.148          46.000    22908252.047 7  93805504.804 7     -2404.791          46.000
G07  20779108.492 8 109194938.627 8        95.395          51.000    20779104.984 8  85086951.016 8        74.333          51.000
G09  21585773.766 6 113434088.305 6     -2068.590          41.000    21585774.609 6  88390187.531 6     -1611.894          36.000
G30  21309970.812 8 111984656.295 8      2258.734          51.000    21309971.523 8  87260785.749 8      1760.053          51.000
R01  19565693.953 8 104589843.787 8      -425.809          48.000    19565698.547 7  81347658.433 7      -331.184          44.000
R02  21616831.367 5 115351546.327 5      2951.918          31.000
