     3.02           OBSERVATION DATA    M (MIXED)           RINEX VERSION / TYPE
SAVERINEX           SC600               20200504 135930 LCL PGM / RUN BY / DATE
       G = GPS       R = GLONASS       C = COMPASS          COMMENT
       S = SBAS      J = QZSS          E = GALILEO          COMMENT
BEAN                                                        MARKER NAME
1                                                           MARKER NUMBER
GEODETIC                                                    MARKER TYPE
Unige DICCA         GTER                                    OBSERVER / AGENCY
SC60291900056       SC600               2.12(191226)        REC # / TYPE / VERS
                    HEMA45          NONE                    ANT # / TYPE
  4509407.8091   693652.4678  4442337.6214                  APPROX POSITION XYZ
        0.0000        0.0000        0.0000                  ANTENNA: DELTA H/E/N
G    8 C1C L1C D1C S1C C2Y L2Y D2Y S2Y                      SYS / # / OBS TYPES
R    8 C1C L1C D1C S1C C2P L2P D2P S2P                      SYS / # / OBS TYPES
C    8 C1I L1I D1I S1I C7I L7I D7I S7I                      SYS / # / OBS TYPES
E    8 C1C L1C D1C S1C C7Q L7Q D7Q S7Q                      SYS / # / OBS TYPES
DBHZ                                                        COMMENT
     30.000                                                 INTERVAL
  2020    05    04    11    00    0.0000000     GPS         TIME OF FIRST OBS
  2020    05    04    11    59   30.0000000     GPS         TIME OF LAST OBS
     0                                                      RCV CLOCK OFFS APPL
G L1C  0.00000                                              SYS / PHASE SHIFT
G L2Y  0.00000                                              SYS / PHASE SHIFT
R L1C  0.00000                                              SYS / PHASE SHIFT
R L2P  0.25000                                              SYS / PHASE SHIFT
C L1I  0.00000                                              SYS / PHASE SHIFT
C L7I  0.00000                                              SYS / PHASE SHIFT
E L1C  0.50000                                              SYS / PHASE SHIFT
E L7Q -0.25000                                              SYS / PHASE SHIFT
 13 R05  1 R06 -4 R07  5 R08  6 R09 -2 R10 -7 R11  0 R16 -1 GLONASS SLOT / FRQ #
    R18 -3 R19  3 R20  2 R21  4 R22 -3                      GLONASS SLOT / FRQ #
 C1C   71.950 C2C   71.950 C2P   71.950                     GLONASS COD/PHS/BIS
    18                                                      LEAP SECONDS
*** Above antenna height is from mark to ANTENNA BOTTOM.    COMMENT
    17     4        0.0000        ANT MEASURE TYPE/HEIGT    COMMENT
    0.0000    0.0000    0.0458    0.0405    0.0000          COMMENT
                    BASE STATION                            COMMENT
                                                            END OF HEADER
> 2020 05 04 11 00  0.0000000  0 15        .000000000000
G02  23129081.805 6 121544137.852 6     -1103.793          39.000
G24  24116433.727 6 126732714.419 6     -3644.355          40.000    24116433.531 6  98752743.348 6     -2839.761          40.000
G25  20197332.297 8 106137714.539 8      -437.418          51.000    20197334.320 8  82704700.911 8      -340.845          51.000
G29  20684625.219 8 108698425.079 8      1638.098          51.000    20684625.164 8  84700078.968 8      1276.440          51.000
G32  22959828.992 7 120654764.123 7     -2166.328          46.000    22959832.328 7  94016672.876 7     -1688.048          42.000
R10  20028055.727 8 106760795.406 8     -1657.324          49.000
R20  20140954.289 6 107702747.354 6     -1925.719          38.000    20140958.320 8  83768815.715 8     -1497.781          49.000
R21  20087385.117 8 107491658.603 8      2751.699          50.000    20087385.406 7  83604635.921 7      2140.211          43.000
C11  21893769.711 7 114006698.788 7       740.656          47.000    21893772.227 8  88157162.127 8       572.589          51.000
C12                                                                  23450400.484 6  94425045.129 6     -1806.902          37.000
C24  25936373.859 7 135057535.808 7     -3028.562          42.000
C25  22042420.883 8 114780676.657 8     -1137.812          51.000
E09                                                                  25897449.023 4 104278293.774 4     -2050.639          29.000
E31  23496665.812 8 123475804.514 8      -101.590          51.000    23496668.250 8  94611335.734 8       -77.877          51.000
E33  24188322.555 8 127110496.630 8       874.836          51.000    24188323.609 8  97396379.518 8       670.359          51.000
> 2020 05 04 11 00 30.0000000  0 15        .000000000000
G02  23135430.914 6 121577505.480 6     -1113.508          39.000    23135402.617 5  94735640.110 5      -867.684          31.000
G24  24137249.422 6 126842102.093 6     -3641.031          39.000    24137249.039 6  98837980.395 6     -2837.170          39.000
G25  20199864.195 8 106151019.624 8      -442.250          51.000    20199866.250 8  82715068.502 8      -344.610          51.000
G29  20675320.578 8 108649528.313 8      1628.973          51.000    20675320.406 8  84661977.574 8      1269.326          51.000
G32  22972235.516 7 120719957.541 7     -2172.398          45.000    22972237.930 6  94067472.920 6     -1692.778          41.000
R10  20037428.695 8 106810759.572 8     -1666.324          48.000
R20  20151824.516 6 107760875.774 6     -1942.336          38.000    20151828.719 8  83814026.712 8     -1510.706          50.000
R21  20072020.266 8 107409437.437 8      2737.059          50.000    20072020.258 7  83540686.146 7      2128.823          45.000
C11  21889550.539 8 113984727.893 8       731.250          48.000    21889552.672 8  88140172.816 8       565.467          51.000
C12  23463927.945 5 122182800.811 5     -2340.047          31.000    23463892.953 6  94479375.150 6     -1809.331          36.000
C24  25953836.016 7 135148460.783 7     -3026.078          42.000
C25  22049013.375 8 114815003.709 8     -1143.605          51.000
E12  24224688.383 7 127301594.691 7      3034.430          42.000    24224688.492 7  97542782.481 7      2325.109          44.000
E31  23497266.875 8 123478962.947 8      -101.793          51.000    23497269.219 8  94613755.828 8       -77.949          51.000
E33  24183370.945 8 127084475.711 8       867.012          51.000    24183371.594 8  97376441.423 8       664.376          51.000
> 2020 05 04 11 01  0.0000000  0 16        .000000000000
G02  23141872.531 6 121611355.536 6     -1141.270          39.000    23141846.391 5  94762016.500 5      -889.310          34.000
G12  21454692.164 6 112745189.104 6     -2155.961          36.000    21454690.336 6  87853375.638 6     -1679.970          36.000
G24  24158084.977 6 126951592.876 6     -3656.133          39.000    24158084.000 6  98923297.740 6     -2848.941          39.000
G25  20202460.383 8 106164662.697 8      -465.129          51.000    20202462.523 8  82725699.470 8      -362.438          51.000
G29  20666104.789 8 108601100.329 8      1601.789          51.000    20666104.859 8  84624241.518 8      1248.150          51.000
G32  22984713.906 7 120785532.091 7     -2196.902          45.000    22984715.898 7  94118569.948 7     -1711.872          43.000
R10  20046889.000 7 106861190.834 7     -1693.723          47.000
R20  20162825.906 6 107819705.399 6     -1977.180          39.000    20162830.164 8  83859783.094 8     -1537.803          50.000
R21  20056774.789 8 107327854.689 8      2704.023          51.000    20056774.953 7  83477232.897 7      2103.132          46.000
C11  21885421.141 7 113963224.734 7       704.301          47.000    21885422.922 8  88123545.204 8       544.634          51.000
C12                                                                  23477440.797 6  94533933.950 6     -1825.823          37.000
C24  25971321.070 7 135239503.384 7     -3041.605          43.000
C25  22055676.195 8 114849696.719 8     -1167.258          51.000
E12  24207419.156 7 127210843.988 7      3017.641          43.000    24207419.188 7  97473246.283 7      2312.167          44.000
E31  23497906.047 8 123482322.218 8      -120.031          51.000    23497908.523 8  94616329.803 8       -92.032          51.000
E33  24178501.156 8 127058884.052 8       841.172          51.000    24178501.359 8  97356832.240 8       644.531          51.000
> 2020 05 04 11 01 30.0000000  0 17        .000000000000
G02  23148411.062 6 121645716.279 6     -1151.938          38.000    23148389.508 5  94788790.862 5      -897.629          30.000
G12  21467002.391 6 112809884.803 6     -2158.430          37.000    21467002.914 6  87903787.905 6     -1681.890          37.000
G24  24178945.438 6 127061214.124 6     -3654.406          41.000    24178942.859 6  99008716.749 6     -2847.589          40.000
G25  20205126.508 8 106178673.404 8      -471.062          51.000    20205128.773 8  82736616.894 8      -367.062          51.000
G29  20656984.250 8 108553171.657 8      1591.297          51.000    20656984.375 8  84586894.537 8      1239.975          51.000
G32  22997270.203 7 120851514.663 7     -2204.000          46.000    22997271.500 7  94169984.931 7     -1717.403          43.000
R10  20056442.492 8 106912119.650 8     -1703.801          48.000
R20  20173963.383 6 107879263.029 6     -1995.156          39.000    20173967.531 8  83906105.689 8     -1551.788          50.000
R21  20041654.633 8 107246942.970 8      2687.910          51.000    20041655.391 7  83414301.579 7      2090.597          46.000
C11  21881386.891 7 113942218.833 7       694.020          47.000    21881388.773 8  88107302.119 8       536.627          51.000
C12                                                                  23491052.039 6  94588738.822 6     -1829.593          36.000
C24  25988834.008 7 135330692.115 7     -3040.129          43.000
C25  22062414.633 8 114884785.155 8     -1174.168          51.000
E01  26269950.633 5 138049520.486 5     -2068.977          35.000    26269952.805 6 105778211.586 6     -1585.472          39.000
E12  24190185.367 7 127120281.511 7      3017.578          42.000    24190185.859 7  97403854.296 7      2312.191          44.000
E31  23498589.164 8 123485912.555 8      -121.449          51.000    23498591.945 8  94619080.824 8       -93.044          51.000
E33  24173718.680 8 127033751.840 8       832.203          51.000    24173718.750 8  97337575.108 8       637.587          51.000
> 2020 05 04 11 02  0.0000000  0 18        .000000000000
G02  23155036.617 5 121680535.882 5     -1170.137          35.000    23155012.984 5  94815910.712 5      -911.810          30.000
G12  21479351.398 5 112874781.894 5     -2167.562          33.000    21479350.133 5  87954357.043 5     -1689.013          32.000
G24  24199821.039 6 127170913.180 6     -3659.348          41.000    24199817.547 6  99094196.436 6     -2851.443          41.000
G25  20207852.812 8 106193000.329 8      -484.195          51.000    20207855.086 8  82747780.722 8      -377.295          51.000
G29  20647948.695 8 108505691.270 8      1573.867          50.000    20647948.844 8  84549896.871 8      1226.393          50.000
G32  23009893.852 7 120917851.220 7     -2218.484          47.000    23009894.430 7  94221675.721 7     -1728.689          42.000
R09  22818582.477 5 121849955.653 5     -3414.449          30.000    22818592.594 5  94772212.993 5     -2655.686          35.000
R10  20066080.141 8 106963493.560 8     -1721.176          49.000
R20  20185226.945 6 107939492.906 6     -2020.031          38.000    20185231.047 8  83952951.136 8     -1571.135          50.000
R21  20026651.016 8 107166652.942 8      2664.637          51.000    20026651.586 7  83351853.798 7      2072.495          46.000
C11  21877438.570 8 113921659.328 8       676.559          48.000    21877440.305 8  88091404.215 8       523.188          51.000
C12                                                                  23504713.750 5  94643750.729 5     -1838.192          35.000
C24  26006364.891 7 135421975.181 7     -3045.648          44.000
C25  22069219.141 8 114920218.084 8     -1188.207          51.000
E01  26281779.039 5 138111683.763 5     -2075.488          34.000    26281783.367 6 105825843.186 6     -1589.998          37.000
E12  24172977.773 6 127029857.641 6      3010.328          41.000    24172978.719 7  97334568.517 7      2306.669          43.000
E31  23499306.555 8 123489683.112 8      -130.027          51.000    23499309.609 8  94621969.948 8       -99.613          51.000
E33  24169013.922 8 127009028.151 8       815.965          51.000    24169013.898 8  97318631.000 8       625.265          51.000
> 2020 05 04 11 02 30.0000000  0 18        .000000000000
G02  23161744.508 6 121715790.373 6     -1186.832          36.000
G12  21491734.391 6 112939857.534 6     -2175.895          37.000    21491734.383 6  88005065.342 6     -1695.496          36.000
G24  24220706.734 6 127280666.038 6     -3663.195          40.000    24220704.539 6  99179718.082 6     -2854.438          40.000
G25  20210634.961 8 106207621.103 8      -496.129          51.000    20210637.336 8  82759173.518 8      -386.594          51.000
G29  20638994.227 8 108458637.908 8      1557.398          50.000    20638994.195 8  84513231.936 8      1213.557          50.000
G32  23022580.070 7 120984516.608 7     -2231.629          46.000    23022580.305 7  94273622.739 7     -1738.932          43.000
R09  22837775.594 6 121952435.839 6     -3423.375          37.000    22837783.438 5  94851919.849 5     -2662.625          33.000
R10  20075797.133 8 107015289.932 8     -1737.555          50.000
R20  20196611.414 6 108000369.766 6     -2043.797          39.000    20196615.164 8  84000299.801 8     -1589.620          50.000
R21  20011759.680 8 107086964.381 8      2642.203          51.000    20011760.000 7  83289873.862 7      2055.050          46.000
C11  21873572.055 8 113901524.075 8       660.211          49.000    21873573.070 8  88075834.358 8       510.496          51.000
C12  23518438.297 5 122466612.672 5     -2387.887          34.000    23518422.875 5  94698951.057 5     -1846.478          31.000
C24  26023909.141 7 135513329.544 7     -3050.121          44.000
C25  22076085.391 8 114955973.304 8     -1201.066          50.000
E01  26293618.750 5 138173900.753 5     -2080.121          32.000    26293630.289 5 105873537.402 5     -1594.036          35.000
E12  24155792.562 7 126939551.835 7      3004.328          42.000    24155793.953 7  97265373.189 7      2301.979          42.000
E31  23500054.094 8 123493612.139 8      -137.547          51.000    23500057.328 8  94624980.480 8      -105.417          51.000
E33  24164383.008 8 126984691.101 8       800.828          51.000    24164382.680 8  97299983.153 8       613.589          51.000
> 2020 05 04 11 03  0.0000000  0 18        .000000000000
G02  23168563.422 5 121751627.739 5     -1201.293          31.000
G12  21504179.641 5 113005225.225 5     -2182.754          34.000    21504180.273 5  88056023.411 5     -1700.850          33.000
G24  24241630.438 6 127390619.072 6     -3665.805          39.000    24241630.664 6  99265395.707 6     -2856.474          38.000
G25  20213501.438 8 106222684.636 8      -507.027          51.000    20213503.859 8  82770911.327 8      -395.086          51.000
G29  20630149.812 8 108412161.014 8      1542.145          50.000    20630149.461 8  84477016.156 8      1201.671          50.000
G32  23035356.375 7 121051657.025 7     -2243.230          45.000    23035356.844 7  94325939.898 7     -1747.975          44.000
R09  22857033.781 6 122055257.333 6     -3430.453          39.000    22857037.516 4  94931892.067 4     -2668.133          26.000
R10  20085621.977 8 107067659.806 8     -1752.719          51.000
R20  20208144.406 6 108062041.184 6     -2066.270          37.000    20208148.195 8  84048266.450 8     -1607.099          50.000
R21  19997008.938 8 107008031.810 8      2621.020          51.000    19997009.305 7  83228481.912 7      2038.574          45.000
C11  21869815.344 8 113881960.678 8       645.070          49.000    21869815.852 8  88060706.712 8       498.824          51.000
C12  23532212.008 5 122538388.141 5     -2397.043          34.000    23532206.070 4  94754452.218 4     -1852.325          29.000
C24  26041495.188 7 135604901.896 7     -3053.754          43.000
C25  22083041.820 8 114992198.459 8     -1212.906          50.000
E01                                                                  26305518.945 5 105921408.262 5     -1596.295          34.000
E12  24138658.297 6 126849514.818 6      2999.289          41.000    24138659.594 6  97196383.835 6      2298.034          41.000
E31  23500860.305 8 123497849.111 8      -143.898          51.000    23500863.648 8  94628226.979 8      -110.257          51.000
E33  24159854.102 8 126960890.081 8       786.891          51.000    24159853.664 8  97281746.021 8       602.909          51.000
> 2020 05 04 11 03 30.0000000  0 17        .000000000000
G12  21516666.062 6 113070840.016 6     -2190.641          39.000    21516666.539 6  88107151.874 6     -1706.990          39.000
G24  24262570.172 6 127500656.240 6     -3669.086          37.000    24262572.250 6  99351138.917 6     -2859.028          36.000
G25  20216430.430 8 106238076.604 8      -518.383          51.000    20216432.695 8  82782905.058 8      -403.935          51.000
G29  20621393.414 8 108366146.530 8      1526.324          50.000    20621393.609 8  84441160.732 8      1189.347          50.000
G32  23048200.656 7 121119155.425 7     -2255.656          46.000    23048201.602 7  94378536.023 7     -1757.654          44.000
R09  22876332.867 6 122158302.730 6     -3438.324          39.000
R10  20095532.562 8 107120486.846 8     -1768.355          51.000
R20  20219803.445 6 108124388.037 6     -2089.262          38.000    20219807.422 8  84096758.450 8     -1624.981          50.000
R21  19982378.336 8 106929741.324 8      2599.191          51.000    19982378.641 7  83167589.336 7      2021.593          46.000
C11  21866146.703 8 113862855.862 8       629.387          50.000    21866147.047 8  88045933.671 8       486.700          51.000
C12  23546041.203 5 122610437.682 5     -2406.168          31.000    23546041.648 4  94810154.411 4     -1860.883          28.000
C24  26059100.445 6 135696578.054 6     -3057.316          40.000
C25  22090066.984 8 115028780.275 8     -1225.203          51.000
E01                                                                  26317425.359 6 105969368.276 6     -1599.998          38.000
E12  24121553.781 6 126759634.082 6      2993.598          41.000    24121553.188 6  97127514.224 6      2293.912          40.000
E31  23501703.586 8 123502280.320 8      -150.715          51.000    23501706.836 8  94631622.317 8      -115.486          51.000
E33  24155405.422 8 126937511.269 8       772.492          51.000    24155404.969 8  97263832.402 8       591.931          51.000
> 2020 05 04 11 04  0.0000000  0 17        .000000000000
G02  23182467.125 6 121824629.232 6     -1233.238          36.000
G12  21529188.172 5 113136648.246 5     -2197.266          32.000    21529189.227 5  88158431.019 5     -1712.155          32.000
G24  24283521.977 6 127610757.496 6     -3671.926          36.000    24283525.273 5  99436932.051 5     -2861.247          35.000
G25  20219418.500 8 106253778.653 8      -529.488          51.000    20219420.617 8  82795140.418 8      -412.588          51.000
G29  20612722.109 8 108320576.959 8      1510.613          51.000    20612722.602 8  84405651.994 8      1177.101          51.000
G32  23061109.219 7 121186990.692 7     -2267.672          47.000    23061110.180 7  94431394.644 7     -1767.020          42.000
R09  22895668.719 6 122261552.319 6     -3446.199          38.000    22895670.383 4  95092371.181 4     -2680.377          28.000
R10  20105525.273 8 107173752.788 8     -1783.707          51.000
R20  20231584.586 6 108187388.393 6     -2111.969          36.000    20231588.781 8  84145758.731 8     -1642.642          50.000
R21  19967865.148 8 106852077.090 8      2577.434          50.000    19967865.109 7  83107183.820 7      2004.671          46.000
C11  21862562.586 8 113844191.579 8       613.879          50.000    21862562.828 8  88031501.267 8       474.633          51.000
C24  26076721.352 6 135788338.988 6     -3060.992          39.000
C25  22097157.102 8 115065700.631 8     -1237.223          51.000
E01                                                                  26329352.156 6 106017403.298 6     -1603.183          38.000
E12  24104476.000 7 126669893.082 7      2987.996          42.000    24104473.438 6  97058751.708 6      2289.474          41.000
E31  23502580.352 8 123506888.006 8      -157.445          51.000    23502583.484 8  94635152.875 8      -120.637          51.000
E33  24151033.727 8 126914536.765 8       758.074          51.000    24151033.367 8  97246228.585 8       580.874          51.000
> 2020 05 04 11 04 30.0000000  0 17        .000000000000
G12  21541757.562 5 113202688.446 5     -2204.961          32.000
G24  24304492.352 5 127720956.988 5     -3675.164          35.000    24304496.227 5  99522801.705 5     -2863.770          35.000
G25  20222472.422 8 106269826.577 8      -540.703          51.000    20222474.320 8  82807645.294 8      -421.327          51.000
G29  20604142.508 8 108275488.262 8      1494.957          51.000    20604142.625 8  84370517.936 8      1164.902          51.000
G32  23074088.203 7 121255195.813 7     -2279.535          46.000    23074089.055 7  94484541.454 7     -1776.264          43.000
R09  22915048.430 6 122365041.298 6     -3453.543          37.000    22915048.148 5  95172862.630 5     -2686.086          33.000
R10  20115607.227 8 107227493.635 8     -1799.266          51.000
R20  20243494.438 6 108251075.124 6     -2134.859          36.000    20243498.477 8  84195292.855 8     -1660.449          50.000
R21  19953475.883 8 106775077.845 8      2555.516          50.000    19953475.898 7  83047295.484 7      1987.623          46.000
C11  21859069.805 8 113826003.245 8       598.367          50.000    21859070.047 8  88017436.913 8       462.683          51.000
C12  23573871.906 5 122755336.642 5     -2424.828          30.000    23573870.375 5  94922182.469 5     -1874.971          33.000
C24  26094364.961 6 135880219.242 6     -3064.656          39.000
C25  22104319.047 8 115102994.922 8     -1249.391          51.000
E01  26341299.141 5 138424460.949 5     -2096.570          31.000    26341304.914 6 106065540.863 6     -1606.385          38.000
E12  24087432.406 7 126580329.406 7      2982.516          43.000    24087429.633 7  96990125.009 7      2285.328          43.000
E31  23503497.477 8 123511708.551 8      -164.227          51.000    23503500.578 8  94638846.534 8      -125.845          51.000
E33  24146745.766 8 126892002.816 8       743.805          51.000    24146745.602 8  97228962.334 8       569.967          51.000
> 2020 05 04 11 05  0.0000000  0 18        .000000000000
G02  23196709.648 5 121899531.228 5     -1264.605          35.000
G12  21554366.016 6 113268940.969 6     -2211.406          37.000    21554361.055 6  88261497.890 6     -1723.168          36.000
G24  24325479.172 6 127831241.705 6     -3676.895          36.000    24325483.133 6  99608737.816 6     -2865.116          36.000
G25  20225590.062 8 106286209.563 8      -551.043          51.000    20225591.602 8  82820411.251 8      -429.384          51.000
G29  20595652.117 8 108230870.258 8      1479.988          50.000    20595652.203 8  84335750.664 8      1153.238          50.000
G32  23087135.031 7 121323757.291 7     -2290.574          47.000    23087135.977 7  94537965.934 7     -1784.863          44.000
R09  22934470.227 5 122468757.465 5     -3460.129          35.000    22934471.266 5  95253530.705 5     -2691.211          34.000
R10  20125775.977 8 107281698.622 8     -1813.863          50.000
R20  20255529.945 5 108315433.983 5     -2155.203          34.000    20255533.789 8  84245349.754 8     -1676.266          49.000
R21  19939209.336 8 106698735.301 8      2534.426          51.000    19939209.844 7  82987917.968 7      1971.220          46.000
C11  21855666.320 8 113808280.114 8       583.582          50.000    21855666.625 8  88003732.285 8       451.257          51.000
C12  23587870.773 5 122828202.109 5     -2432.492          30.000    23587867.312 6  94978526.572 6     -1881.311          37.000
C24  26112029.562 6 135972207.284 6     -3067.250          40.000
C25  22111550.781 8 115140652.415 8     -1260.656          51.000
E01                                                                  26353282.719 6 106113772.704 6     -1608.825          36.000
E12  24070421.477 7 126490933.988 7      2977.461          45.000    24070419.539 7  96921627.257 7      2281.521          45.000
E31  23504453.195 8 123516731.760 8      -170.289          51.000    23504456.281 8  94642695.486 8      -130.466          51.000
E33  24142539.430 8 126869899.034 8       730.137          51.000    24142539.250 8  97212025.693 8       559.455          51.000
> 2020 05 04 11 05 30.0000000  0 16        .000000000000
G24  24346480.914 6 127941605.317 6     -3678.863          37.000    24346484.578 6  99694735.336 6     -2866.650          37.000
G25  20228770.539 8 106302923.006 8      -561.383          51.000    20228771.859 8  82833434.709 8      -437.441          51.000
G29  20587250.297 8 108186718.956 8      1465.172          51.000    20587250.797 8  84301347.050 8      1141.692          51.000
G32  23100248.258 7 121392667.695 7     -2301.566          47.000    23100249.492 7  94591662.304 7     -1793.428          44.000
R09  22953932.719 6 122572695.093 6     -3466.848          37.000    22953934.383 5  95334371.072 5     -2696.434          34.000
R10  20136030.828 8 107336362.671 8     -1828.547          49.000
R20  20267689.438 5 108380457.398 5     -2176.953          34.000    20267693.453 8  84295923.515 8     -1693.186          49.000
R21  19925065.469 8 106623047.197 8      2513.211          51.000    19925066.141 7  82929049.502 7      1954.723          47.000
C11  21852351.266 8 113791017.645 8       568.969          50.000    21852351.672 8  87990383.867 8       439.948          51.000
C12  23601926.125 4 122901394.794 4     -2441.285          29.000    23601914.430 6  95035078.062 6     -1887.497          36.000
C24  26129714.602 6 136064297.618 6     -3070.383          41.000
C25  22118851.125 8 115178668.535 8     -1271.949          51.000
E01                                                                  26365285.258 5 106162095.292 5     -1611.390          35.000
E12  24053442.375 7 126401704.076 7      2972.707          47.000    24053441.328 8  96853256.309 8      2277.800          48.000
E31  23505446.844 8 123521953.566 8      -176.055          51.000    23505449.734 8  94646696.609 8      -134.965          51.000
E33  24138414.305 8 126848221.255 8       716.727          51.000    24138414.000 8  97195415.455 8       549.201          51.000
> 2020 05 04 11 06  0.0000000  0 17        .000000000000
G02  23211336.438 5 121976395.611 5     -1294.324          34.000
G24  24367512.445 6 128052125.957 6     -3680.902          37.000    24367514.969 6  99780855.255 6     -2868.239          37.000
G25  20232029.094 8 106320047.131 8      -572.367          51.000    20232030.352 8  82846778.174 8      -446.003          51.000
G29  20578952.820 8 108143115.117 8      1449.703          51.000    20578953.453 8  84267370.005 8      1129.639          51.000
G32  23113442.242 7 121462004.380 7     -2312.898          46.000    23113444.281 7  94645690.876 7     -1802.259          46.000
R09  22973452.742 5 122676934.525 5     -3473.812          35.000    22973454.609 5  95415446.143 5     -2701.857          35.000
R10  20146386.633 8 107391566.973 8     -1843.848          48.000
R20  20279987.867 5 108446223.316 5     -2198.738          32.000    20279992.219 8  84347074.798 8     -1710.130          48.000
R21  19911060.156 8 106548101.060 8      2491.379          51.000    19911061.945 7  82870752.772 7      1937.739          47.000
C11  21849139.609 8 113774295.195 8       553.754          48.000    21849140.555 8  87977453.018 8       428.186          51.000
C12                                                                  23616027.719 5  95091896.944 5     -1894.208          31.000
C24  26147434.766 7 136156568.890 7     -3073.375          42.000
C25  22126235.391 8 115217122.747 8     -1283.863          51.000
E01                                                                  26377327.156 5 106210570.102 5     -1614.284          34.000
E12  24036510.477 8 126312721.679 8      2967.238          48.000    24036509.891 8  96785075.015 8      2273.613          49.000
E31  23506493.680 8 123527454.862 8      -182.719          51.000    23506496.594 8  94650911.878 8      -140.014          51.000
E33  24134385.523 8 126827050.093 8       702.598          51.000    24134385.414 8  97179193.421 8       538.306          51.000
> 2020 05 04 11 06 30.0000000  0 17        .000000000000
G02  23218784.500 5 122015538.656 5     -1314.406          34.000
G24  24388552.812 6 128162691.182 6     -3688.438          37.000    24388552.438 5  99867009.818 5     -2874.116          35.000
G25  20235344.594 8 106337470.830 8      -588.145          51.000    20235345.914 8  82860355.074 8      -458.294          51.000
G29  20570738.352 8 108099948.095 8      1429.281          51.000    20570738.953 8  84233733.382 8      1113.729          51.000
G32  23126695.258 7 121531653.558 7     -2329.078          45.000    23126698.367 7  94699962.963 7     -1814.869          45.000
R09  22993007.883 6 122781361.845 6     -3485.992          37.000    22993010.516 5  95496667.299 5     -2711.330          35.000
R10  20156822.453 8 107447198.946 8     -1863.832          49.000
R20  20292403.352 5 108512615.020 5     -2226.062          31.000    20292407.914 8  84398712.813 8     -1731.382          48.000
R21  19897170.555 8 106473780.084 8      2464.480          51.000    19897173.273 8  82812947.593 8      1916.818          48.000
C11  21846010.391 8 113758002.739 8       533.621          48.000    21846012.016 8  87964854.673 8       412.527          51.000
C12  23630205.680 5 123048579.394 5     -2462.398          30.000
C24  26165168.828 7 136248910.116 7     -3081.293          42.000
C25  22133682.859 8 115255904.919 8     -1300.461          50.000
E01  26389379.148 5 138677122.744 5     -2115.609          31.000    26389383.555 5 106259112.160 5     -1620.926          32.000
E12  24019604.750 8 126223877.540 8      2956.742          49.000    24019604.359 8  96716999.673 8      2265.547          49.000
E31  23507572.781 8 123533125.138 8      -194.191          51.000    23507575.812 8  94655256.632 8      -148.820          51.000
E33  24130432.031 8 126806274.870 8       683.539          51.000    24130431.977 8  97163274.769 8       523.748          51.000
> 2020 05 04 11 07  0.0000000  0 17        .000000000000
G02  23226323.891 5 122055148.167 5     -1328.980          33.000
G24  24409611.914 6 128273353.895 6     -3689.812          36.000    24409609.047 6  99953240.343 6     -2875.182          36.000
G25  20238727.695 8 106355249.280 8      -598.500          51.000    20238729.062 8  82874208.401 8      -466.364          51.000
G29  20562617.742 8 108057273.723 8      1414.188          51.000    20562617.844 8  84200480.652 8      1101.967          51.000
G32  23140018.117 7 121601667.589 7     -2339.742          47.000    23140021.484 7  94754519.347 7     -1823.176          45.000
R09  23012609.086 6 122886031.541 6     -3493.184          38.000    23012611.484 5  95578077.008 5     -2716.921          31.000
R10  20167349.352 8 107503314.245 8     -1878.488          49.000
R20  20304945.609 5 108579685.449 5     -2247.098          32.000    20304950.445 7  84450878.740 7     -1747.743          47.000
R21  19883407.883 8 106400129.829 8      2443.016          49.000    19883412.961 8  82755671.560 8      1900.123          48.000
C11  21842974.414 7 113742194.919 7       518.723          47.000    21842976.438 8  87952631.048 8       401.294          51.000
C12  23644414.492 5 123122578.760 5     -2470.367          30.000
C24  26182926.500 6 136341375.053 6     -3084.340          41.000
C25  22141203.867 8 115295069.681 8     -1311.734          51.000
E01                                                                  26401465.289 5 106307763.672 5     -1623.401          31.000
E12  24002735.945 8 126135228.576 8      2951.840          49.000    24002735.523 8  96649073.864 8      2261.871          50.000
E31  23508694.898 8 123539020.141 8      -200.117          51.000    23508697.781 8  94659773.577 8      -153.307          51.000
E33  24126564.414 8 126785951.112 8       670.070          51.000    24126564.094 8  97147702.038 8       513.425          51.000
> 2020 05 04 11 07 30.0000000  0 16        .000000000000
G02  23233947.352 5 122095221.141 5     -1343.121          35.000
G24  24430675.914 6 128384043.011 6     -3691.660          36.000    24430671.852 6 100039491.477 6     -2876.624          37.000
G25  20242165.148 8 106373312.972 8      -608.383          51.000    20242166.422 8  82888284.003 8      -474.065          51.000
G29  20554577.734 8 108015022.991 8      1399.773          51.000    20554577.367 8  84167558.039 8      1090.733          51.000
G32  23153397.023 7 121671974.213 7     -2350.004          47.000    23153400.164 7  94809303.679 7     -1831.175          46.000
R09  23032242.453 5 122990872.134 5     -3499.352          35.000    23032244.711 5  95659619.555 5     -2721.724          32.000
R10  20177954.031 8 107559841.883 8     -1892.664          49.000
R20  20317601.242 5 108647360.674 5     -2266.871          30.000    20317605.453 7  84503515.011 7     -1763.122          46.000
R21  19869762.102 7 106327102.101 7      2422.031          47.000    19869767.227 8  82698877.046 8      1883.802          48.000
C11  21840018.055 7 113726802.607 7       504.680          46.000    21840020.664 8  87940728.754 8       390.256          51.000
C12                                                                  23658653.398 5  95263630.618 5     -1917.035          34.000
C24  26200694.141 6 136433893.976 6     -3086.488          40.000
C25  22148785.070 8 115334548.139 8     -1322.707          51.000
E12  23985891.094 8 126046707.106 8      2947.098          49.000    23985890.461 8  96581245.763 8      2258.124          50.000
E31  23509846.703 8 123545071.009 8      -205.801          51.000    23509849.539 8  94664409.968 8      -157.683          51.000
E33  24122769.430 8 126766009.720 8       656.809          51.000    24122769.164 8  97132422.295 8       503.284          51.000
> 2020 05 04 11 08  0.0000000  0 15        .000000000000
G24  24451769.281 6 128494889.221 6     -3696.543          36.000    24451766.055 6 100125865.071 6     -2880.429          37.000
G25  20245682.227 8 106391794.985 8      -622.371          51.000    20245683.367 8  82902685.562 8      -484.964          51.000
G29  20546643.555 8 107973329.368 8      1381.059          51.000    20546643.273 8  84135069.547 8      1076.153          51.000
G32  23166856.477 7 121742703.655 7     -2364.117          47.000    23166859.586 7  94864417.468 7     -1842.172          45.000
R09  23051932.047 5 123096017.463 5     -3509.223          35.000    23051935.102 5  95741399.118 5     -2729.395          33.000
R10  20188661.305 8 107616917.170 8     -1911.012          49.000
R20  20330394.664 5 108715772.623 5     -2292.039          32.000    20330398.734 7  84556724.353 7     -1782.697          45.000
R21  19856258.500 8 106254842.879 8      2396.641          48.000    19856263.758 8  82642674.860 8      1864.051          49.000
C11  21837167.117 7 113711957.785 7       486.395          46.000    21837169.859 8  87929249.806 8       375.984          51.000
C12                                                                  23672955.406 5  95321285.296 5     -1925.589          34.000
C24  26218497.125 6 136526597.832 6     -3092.371          40.000
C25  22156452.031 8 115374472.095 8     -1337.676          51.000
E12  23969095.852 7 125958448.031 7      2938.113          47.000    23969095.461 8  96513618.700 8      2251.329          51.000
E31  23511053.398 8 123551411.412 8      -215.555          51.000    23511056.398 8  94669268.191 8      -165.162          51.000
E33  24119072.531 8 126746584.125 8       639.504          51.000    24119072.836 8  97117537.762 8       490.024          51.000
> 2020 05 04 11 08 30.0000000  0 15        .000000000000
G24  24472876.750 6 128605811.540 6     -3697.977          36.000    24472875.805 6 100212297.953 6     -2881.543          36.000
G25  20249263.750 8 106410615.428 8      -632.516          51.000    20249264.828 8  82917350.844 8      -492.869          51.000
G29  20538800.469 8 107932113.427 8      1366.305          51.000    20538800.023 8  84102953.225 8      1064.653          51.000
G32  23180380.617 7 121813773.214 7     -2374.262          46.000    23180384.094 7  94919796.299 7     -1850.077          45.000
R09  23071662.906 4 123201385.029 4     -3515.777          29.000    23071667.359 5  95823351.709 5     -2734.493          33.000
R10  20199456.148 8 107674459.140 8     -1925.488          49.000
R20  20343310.125 5 108784836.486 5     -2312.316          32.000    20343314.320 7  84610440.705 7     -1798.468          44.000
R21  19842883.477 8 106183261.130 8      2375.164          48.000    19842887.359 8  82587000.140 8      1847.350          49.000
C11  21834406.172 7 113697581.121 7       471.809          46.000    21834408.844 8  87918132.840 8       364.856          51.000
C12                                                                  23687315.594 5  95379144.455 5     -1931.512          33.000
C24  26236319.945 6 136619406.634 6     -3095.184          38.000
C25  22164189.828 8 115414762.281 8     -1348.664          51.000
E12  23952335.188 7 125870373.252 7      2933.238          45.000    23952335.656 8  96446132.853 8      2247.423          50.000
E31  23512299.984 8 123557962.103 8      -221.523          51.000    23512303.070 8  94674287.544 8      -169.730          51.000
E33  24115458.773 8 126727594.811 8       626.141          51.000    24115459.719 8  97102987.512 8       479.731          51.000
> 2020 05 04 11 09  0.0000000  0 16        .000000000000
G12  21656782.328 6 113807159.046 6     -2266.246          36.000    21656773.625 5  88680874.065 5     -1765.903          34.000
G24  24493994.469 5 128716788.121 5     -3695.453          35.000    24493995.320 6 100298773.149 6     -2879.574          36.000
G25  20252905.867 8 106429754.246 8      -638.578          51.000    20252906.992 8  82932264.213 8      -497.593          51.000
G29  20531044.531 8 107891355.292 8      1355.859          51.000    20531043.891 8  84071193.620 8      1056.514          51.000
G32  23193965.047 7 121885159.968 7     -2379.930          45.000    23193969.180 7  94975422.316 7     -1854.494          44.000
R09  23091434.773 5 123306977.672 5     -3517.801          31.000    23091439.055 5  95905434.630 5     -2736.067          33.000
R10  20210334.578 8 107732446.552 8     -1935.539          49.000
R20  20356343.133 5 108854528.486 5     -2328.941          32.000    20356346.922 7  84664645.584 7     -1811.402          42.000
R21  19829630.805 8 106112338.726 8      2357.891          50.000    19829633.633 8  82531838.277 8      1833.915          48.000
C11  21831731.406 7 113683652.622 7       461.496          47.000    21831734.016 8  87907362.435 8       356.900          51.000
C12  23701757.594 4 123421225.372 4     -2501.691          29.000    23701725.758 5  95437191.149 5     -1934.433          31.000
C24  26254158.125 6 136712299.504 6     -3093.383          37.000
C25  22171994.070 8 115455398.755 8     -1355.586          51.000
E12  23935605.398 7 125782464.493 7      2932.484          43.000    23935607.281 8  96378774.194 8      2246.801          49.000
E31  23513582.914 8 123564703.580 8      -223.156          51.000    23513585.836 8  94679453.087 8      -170.978          51.000
E33  24111924.281 8 126709022.001 8       616.922          51.000    24111925.883 8  97088756.399 8       472.706          51.000
> 2020 05 04 11 09 30.0000000  0 15        .000000000000
G12  21669763.945 4 113875393.162 4     -2278.926          28.000    21669759.891 4  88734043.444 4     -1775.789          29.000
G24  24515120.914 6 128827810.742 6     -3702.754          36.000    24515123.430 6 100385284.194 6     -2885.266          37.000
G25  20256607.430 8 106449205.591 8      -654.750          51.000    20256608.602 8  82947421.111 8      -510.195          51.000
G29  20523374.867 8 107851049.894 8      1334.922          51.000    20523374.211 8  84039786.834 8      1040.199          51.000
G32  23207608.188 7 121956855.315 7     -2395.973          45.000    23207612.617 7  95031288.764 7     -1866.992          45.000
R09  23111241.023 5 123412740.182 5     -3529.258          30.000    23111243.984 5  95987694.328 5     -2744.975          32.000
R10  20221295.633 8 107790873.952 8     -1955.891          50.000
R20  20369491.820 5 108924838.931 5     -2354.109          30.000    20369495.445 6  84719331.497 6     -1830.974          41.000
R21  19816500.312 8 106042072.126 8      2330.250          51.000    19816502.539 7  82477186.487 7      1812.417          47.000
C11  21829141.820 8 113670166.270 8       441.102          48.000    21829143.969 8  87896933.938 8       341.230          51.000
C24  26272010.711 6 136805269.784 6     -3101.355          36.000
C25  22179863.477 8 115496375.672 8     -1372.590          51.000
E12  23918906.156 7 125694717.764 7      2921.051          43.000    23918909.758 8  96311539.634 8      2238.375          48.000
E31  23514901.125 8 123571630.648 8      -234.898          51.000    23514903.852 8  94684760.837 8      -180.029          51.000
E33  24108468.023 8 126690860.183 8       597.648          51.000    24108470.109 8  97074840.208 8       457.926          51.000
> 2020 05 04 11 10  0.0000000  0 16        .000000000000
G02  23273472.867 6 122302894.585 6     -1422.328          37.000    23273476.406 5  95300994.481 5     -1108.308          31.000
G12  21682796.875 5 113943893.827 5     -2285.953          35.000    21682795.328 5  88787420.478 5     -1781.262          35.000
G24  24536270.703 5 128938971.954 5     -3704.301          35.000    24536274.805 6 100471890.972 6     -2886.465          36.000
G25  20260383.164 8 106469046.924 8      -665.883          51.000    20260384.375 8  82962881.896 8      -518.870          51.000
G29  20515806.133 8 107811275.074 8      1318.941          51.000    20515805.219 8  84008793.484 8      1027.747          51.000
G32  23221324.414 7 122028933.839 7     -2406.867          46.000    23221328.523 7  95087453.781 7     -1875.481          44.000
R09  23131097.852 5 123518773.939 5     -3537.238          34.000    23131099.438 4  96070161.428 4     -2751.185          28.000
R10  20232353.766 8 107849819.065 8     -1971.426          51.000
R20  20382770.039 5 108995843.377 5     -2376.055          33.000    20382774.547 6  84774557.227 6     -1848.043          40.000
R21  19803507.258 8 105972542.417 8      2307.406          51.000    19803509.070 7  82423107.851 7      1794.649          47.000
C11  21826652.227 8 113657198.750 8       425.613          50.000    21826653.438 8  87886906.633 8       329.160          51.000
C24  26289893.039 6 136898393.363 6     -3104.520          36.000
C25  22187812.945 8 115537769.645 8     -1384.770          51.000
E12  23902253.594 7 125607212.188 7      2914.734          44.000    23902257.820 7  96244489.902 7      2233.568          47.000
E31  23516269.609 8 123578821.376 8      -242.098          51.000    23516271.930 8  94690270.610 8      -185.426          51.000
E33  24105105.195 8 126673187.181 8       583.000          51.000    24105107.094 8  97061298.557 8       446.735          51.000
> 2020 05 04 11 10 30.0000000  0 15        .000000000000
G12  21695866.430 5 114012577.536 5     -2293.691          35.000    21695864.797 5  88840940.257 5     -1787.295          34.000
G24  24557427.023 5 129050149.468 5     -3708.309          32.000    24557434.898 5 100558583.916 5     -2889.588          33.000
G25  20264217.320 8 106489195.333 8      -677.473          51.000    20264218.641 8  82978581.945 8      -527.901          51.000
G29  20508322.266 8 107771948.223 8      1302.562          51.000    20508321.242 8  83978149.203 8      1014.984          51.000
G32  23235097.344 7 122101309.774 7     -2418.289          46.000    23235100.922 7  95143850.556 7     -1884.384          45.000
R09  23150987.781 5 123624982.332 5     -3545.395          30.000    23150989.539 4  96152771.907 4     -2757.529          25.000
R10  20243493.125 8 107909197.585 8     -1987.293          50.000
R20  20396161.898 5 109067454.140 5     -2397.520          34.000    20396165.469 6  84830254.460 6     -1864.740          36.000
R21  19790636.672 8 105903667.692 8      2284.062          51.000    19790638.250 7  82369538.687 7      1776.496          46.000
C11  21824246.383 8 113644667.743 8       409.566          50.000    21824246.867 8  87877216.875 8       316.709          51.000
C24  26307789.695 6 136991587.205 6     -3108.461          38.000
C25  22195826.797 8 115579498.442 8     -1397.340          51.000
E12  23885632.445 7 125519866.656 7      2907.891          45.000    23885635.656 7  96177562.846 7      2228.166          46.000
E31  23517672.672 8 123586193.478 8      -249.641          51.000    23517674.531 8  94695919.369 8      -191.292          51.000
E33  24101819.602 8 126655920.348 8       567.934          51.000    24101821.141 8  97048068.138 8       435.170          51.000
> 2020 05 04 11 11  0.0000000  0 15        .000000000000
G12  21708979.578 6 114081489.115 6     -2300.211          37.000    21708980.250 6  88894637.565 6     -1792.372          37.000
G24  24578598.656 5 129161414.265 5     -3709.820          32.000
G25  20268118.516 8 106509696.194 8      -688.617          51.000    20268120.094 8  82994556.630 8      -536.585          51.000
G29  20500932.109 8 107733114.756 8      1286.848          51.000    20500931.344 8  83947889.380 8      1002.738          51.000
G32  23248934.797 7 122174025.668 7     -2428.988          47.000    23248938.125 7  95200512.257 7     -1892.718          44.000
R09  23170923.477 5 123731445.527 5     -3552.188          30.000
R10  20254722.352 8 107969055.877 8     -2002.680          51.000
R20  20409675.125 5 109139713.597 5     -2419.301          31.000    20409678.703 5  84886456.256 5     -1881.675          35.000
R21  19777897.188 8 105835496.261 8      2261.242          50.000    19777898.492 7  82316516.483 7      1758.744          46.000
C11  21821932.914 8 113632618.046 8       394.176          51.000    21821932.734 8  87867899.298 8       304.817          51.000
C24  26325709.203 6 137084895.365 6     -3111.754          39.000
C25  22203913.469 8 115621606.936 8     -1409.383          51.000
E12  23869051.062 7 125432728.330 7      2901.777          46.000    23869052.641 7  96110794.590 7      2223.398          45.000
E31  23519118.898 8 123593792.937 8      -256.516          51.000    23519120.695 8  94701742.331 8      -196.551          51.000
E33  24098619.750 8 126639105.343 8       553.543          51.000    24098621.250 8  97035183.933 8       424.149          51.000
> 2020 05 04 11 11 30.0000000  0 16        .000000000000
G02  23298225.969 5 122432974.810 5     -1468.727          35.000
G12  21722133.953 5 114150616.536 5     -2308.137          31.000    21722134.992 5  88948503.030 5     -1798.551          33.000
G24  24599786.117 5 129272746.836 5     -3712.488          33.000    24599790.133 5 100732050.692 5     -2892.857          32.000
G25  20272084.562 8 106530537.808 8      -700.484          51.000    20272086.305 8  83010796.841 8      -545.832          51.000
G29  20493633.945 8 107694763.753 8      1270.191          51.000    20493633.539 8  83918005.510 8       989.760          51.000
G32  23262834.164 7 122247066.982 7     -2440.344          47.000    23262837.617 7  95257427.539 7     -1901.567          45.000
R09  23190899.289 5 123838113.017 5     -3559.273          34.000
R10  20266039.406 8 108029381.085 8     -2018.746          50.000
R20  20423306.273 5 109212606.460 5     -2440.016          32.000    20423309.133 4  84943147.237 4     -1897.793          25.000
R21  19765286.820 8 105768018.589 8      2237.586          49.000    19765288.625 7  82264033.845 7      1740.345          46.000
C11  21819709.703 8 113621037.913 8       378.121          51.000    21819708.742 8  87858944.799 8       292.369          51.000
C24  26343648.797 6 137178305.282 6     -3115.551          40.000
C25  22212070.836 8 115664083.423 8     -1422.176          51.000
E12  23852507.156 7 125345787.355 7      2894.766          46.000    23852507.375 7  96044177.544 7      2218.073          45.000
E31  23520606.086 8 123601608.675 8      -264.195          51.000    23520608.234 8  94707731.012 8      -202.447          51.000
E33  24095503.883 8 126622730.796 8       538.418          51.000    24095505.141 8  97022637.212 8       412.557          51.000
> 2020 05 04 11 12  0.0000000  0 14        .000000000000
G12  21735327.055 5 114219946.285 5     -2313.906          35.000    21735327.977 5  89002526.197 5     -1803.044          35.000
G24  24620981.039 5 129384128.323 5     -3712.887          33.000
G25  20276113.039 8 106551707.611 8      -711.086          51.000    20276114.797 8  83027292.779 8      -554.093          51.000
G29  20486425.344 8 107656882.843 8      1254.871          51.000    20486425.219 8  83888487.941 8       977.822          51.000
G32  23276792.422 7 122320418.273 7     -2449.984          47.000    23276796.320 7  95314584.343 7     -1909.082          45.000
R09  23210912.250 5 123944984.282 5     -3565.676          30.000    23210908.016 4  96401639.396 4     -2773.306          27.000
R10  20277441.578 8 108090160.713 8     -2033.543          50.000
R20  20437052.773 5 109286116.346 5     -2460.523          30.000    20437078.680 5  85000346.311 5     -1913.740          30.000
R21  19752804.273 8 105701223.819 8      2215.133          51.000    19752806.445 7  82212082.354 7      1722.881          47.000
C11  21817573.906 8 113609914.654 8       363.246          51.000    21817572.586 8  87850343.599 8       280.855          51.000
C25  22220296.344 8 115706915.274 8     -1433.621          51.000
E12  23835998.328 7 125259032.937 7      2888.848          45.000    23835997.805 7  95977703.430 7      2213.413          45.000
E31  23522131.969 8 123609628.758 8      -270.695          51.000    23522134.586 8  94713876.258 8      -207.434          51.000
E33  24092469.430 8 126606784.373 8       524.477          51.000    24092470.742 8  97010418.536 8       401.884          51.000
> 2020 05 04 11 12 30.0000000  0 14        .000000000000
G24  24642189.938 5 129495579.987 5     -3716.105          33.000
G25  20280206.711 8 106573220.410 8      -723.648          51.000    20280208.672 8  83044055.983 8      -563.885          51.000
G29  20479309.336 8 107619487.102 8      1237.699          51.000    20479309.305 8  83859348.413 8       964.441          51.000
G32  23290811.914 7 122394091.504 7     -2461.863          45.000    23290816.117 7  95371992.000 7     -1918.335          45.000
R09  23230966.922 5 124052072.647 5     -3574.715          32.000    23230965.531 4  96484935.279 4     -2780.340          28.000
R10  20288931.562 8 108151409.446 8     -2050.301          48.000
R20  20450917.406 4 109360254.870 4     -2482.051          29.000    20450943.719 4  85058009.322 4     -1930.475          28.000
R21  19740453.047 8 105635129.237 8      2190.648          51.000    19740455.141 7  82160675.499 7      1703.838          47.000
C11  21815528.430 8 113599262.723 8       346.457          51.000    21815526.945 8  87842106.855 8       267.999          51.000
C12  23804067.164 5 123953868.139 5     -2566.715          32.000
C25  22228592.789 8 115750117.052 8     -1446.988          51.000
E12  23819527.938 7 125172481.643 7      2880.910          45.000    23819527.203 7  95911384.924 7      2207.490          46.000
E31  23523699.734 8 123617868.599 8      -279.074          51.000    23523702.695 8  94720189.885 8      -213.788          51.000
E33  24089518.992 8 126591281.125 8       508.656          51.000    24089520.594 8  96998539.440 8       389.756          51.000
> 2020 05 04 11 13  0.0000000  0 14        .000000000000
G24  24663410.875 5 129607094.839 5     -3717.965          34.000    24663417.414 5 100992541.381 5     -2897.115          31.000
G25  20284366.742 8 106595081.331 8      -733.891          51.000    20284368.781 8  83061090.452 8      -571.863          51.000
G29  20472286.719 8 107582582.184 8      1222.723          51.000    20472286.812 8  83830591.322 8       952.768          51.000
G32  23304893.031 7 122468088.916 7     -2471.410          43.000    23304897.102 7  95429652.285 7     -1925.774          43.000
R09  23251064.094 5 124159382.594 5     -3579.984          33.000    23251060.891 4  96568391.994 4     -2784.429          25.000
R10  20300510.125 8 108213131.844 8     -2064.629          49.000
R20  20464898.867 4 109435009.194 4     -2501.922          29.000
R21  19728234.188 8 105569742.408 8      2168.504          51.000    19728235.828 7  82109819.093 7      1686.614          46.000
C11  21813574.438 8 113589087.041 8       331.953          51.000    21813572.719 8  87834238.389 8       256.681          51.000
C12  23818874.922 5 124030979.348 5     -2573.582          32.000    23818887.648 4  95908791.616 4     -1990.374          29.000
C25  22236961.125 8 115793693.710 8     -1458.164          51.000
E12  23803097.891 7 125086140.392 7      2875.285          45.000    23803097.086 7  95845227.352 7      2203.027          46.000
E31  23525310.438 8 123626333.969 8      -285.223          51.000    23525313.570 8  94726676.327 8      -218.571          51.000
E33  24086653.750 8 126576226.449 8       495.062          51.000    24086655.445 8  96987004.039 8       379.325          51.000
> 2020 05 04 11 13 30.0000000  0 12        .000000000000
G25  20288595.086 8 106617301.217 8      -745.504          51.000    20288596.961 8  83078404.636 8      -580.912          51.000
G29  20465359.484 8 107546179.257 8      1206.281          51.000    20465359.664 8  83802225.407 8       939.959          50.000
G32  23319037.281 7 122542418.529 7     -2481.945          45.000    23319041.039 7  95487571.446 7     -1933.983          44.000
R09  23271205.141 5 124266923.431 5     -3587.594          33.000
R10  20312180.031 8 108275339.118 8     -2080.402          50.000
R21  19716149.648 8 105505076.430 8      2144.746          50.000    19716150.875 7  82059523.347 7      1668.136          45.000
C11  21811713.773 8 113579398.131 8       316.012          50.000    21811711.961 8  87826746.306 8       244.397          51.000
C12                                                                  23833744.820 5  95968623.940 5     -1996.460          33.000
C25  22245403.641 8 115837655.845 8     -1470.660          51.000
E12  23786710.719 7 125000021.774 7      2868.102          46.000    23786709.852 7  95779240.381 7      2197.600          47.000
E31  23526966.258 8 123635036.354 8      -292.910          51.000    23526969.531 8  94733344.374 8      -224.420          51.000
E33  24083876.297 8 126561631.453 8       480.004          51.000    24083878.109 8  96975820.854 8       367.807          51.000
> 2020 05 04 11 14  0.0000000  0 14        .000000000000
G12  21788517.938 6 114499429.063 6     -2343.594          38.000    21788521.688 6  89220348.481 6     -1826.186          36.000
G24  24705890.180 5 129830327.237 5     -3723.098          30.000
G25  20292884.398 8 106639841.712 8      -757.219          51.000    20292886.125 8  83095968.652 8      -590.041          51.000
G29  20458520.695 8 107510240.231 8      1189.785          51.000    20458520.266 8  83774220.975 8       927.105          51.000
G32  23333237.266 7 122617039.089 7     -2492.695          46.000    23333240.648 7  95545717.308 7     -1942.360          45.000
R09  23291380.602 6 124374655.201 6     -3594.664          36.000
R10  20323933.711 8 108337991.432 8     -2096.383          50.000
R21  19704192.664 8 105441094.200 8      2120.762          51.000    19704194.195 7  82009759.443 7      1649.484          46.000
C11  21809938.922 8 113570157.663 8       300.043          50.000    21809937.305 8  87819601.006 8       232.036          51.000
C12                                                                  23848644.094 5  96028630.618 5     -2003.353          31.000
C25  22253912.875 8 115881965.295 8     -1483.312          51.000
E12  23770359.008 7 124914089.232 7      2860.855          46.000    23770358.180 8  95713395.995 8      2192.057          48.000
E31  23528659.984 8 123643937.996 8      -300.508          51.000    23528663.508 8  94740165.094 8      -230.271          51.000
E33  24081179.344 8 126547457.963 8       464.914          51.000    24081181.406 8  96964960.648 8       356.266          51.000
> 2020 05 04 11 14 30.0000000  0 15        .000000000000
G12  21801884.812 5 114569672.542 5     -2334.359          35.000    21801891.562 6  89275083.445 6     -1818.994          36.000
G24  24727110.227 5 129941856.782 5     -3708.875          33.000    24727112.703 5 101253408.317 5     -2890.032          32.000
G25  20297207.711 8 106662560.675 8      -752.809          51.000    20297209.273 8  83113671.732 8      -586.604          51.000
G29  20451743.383 8 107474623.033 8      1189.336          51.000    20451742.055 8  83746467.318 8       926.755          51.000
G32  23347465.211 7 122691805.603 7     -2487.090          47.000    23347468.672 7  95603976.870 7     -1937.995          46.000
R09  23311564.594 5 124482432.039 5     -3586.000          33.000
R10  20335743.547 8 108400944.503 8     -2095.801          50.000
R21  19692336.797 8 105377652.986 8      2113.172          51.000    19692338.711 7  81960416.341 7      1643.581          45.000
C11  21808223.305 8 113561224.526 8       300.059          50.000    21808221.844 8  87812693.335 8       231.991          51.000
C12                                                                  23863559.680 4  96088669.239 4     -1997.321          29.000
C25  22262461.664 8 115926481.065 8     -1479.965          51.000
E12  23754015.875 7 124828202.359 7      2869.574          47.000    23754014.984 7  95647586.612 7      2198.690          47.000
E26  25347657.969 5 133202832.336 5     -2118.488          35.000
E31  23530364.828 8 123652897.411 8      -292.191          51.000    23530368.414 8  94747030.076 8      -223.896          51.000
E33  24078535.758 8 126533564.019 8       465.910          51.000    24078537.703 8  96954314.658 8       356.969          51.000
> 2020 05 04 11 15  0.0000000  0 14        .000000000000
G12  21815332.273 6 114640343.108 6     -2369.910          39.000    21815336.859 6  89330151.417 6     -1846.680          39.000
G24  24748384.992 6 130053653.489 6     -3738.211          36.000    24748388.688 6 101340522.491 6     -2912.898          36.000
G25  20301636.789 8 106685835.502 8      -791.996          51.000    20301638.250 8  83131807.941 8      -617.140          51.000
G29  20445099.070 8 107439705.690 8      1145.227          51.000    20445097.672 8  83719259.013 8       892.384          50.000
