     3.02           OBSERVATION DATA    M (MIXED)           RINEX VERSION / TYPE
SAVERINEX           SC600               20200505 125931 LCL PGM / RUN BY / DATE
       G = GPS       R = GLONASS       C = COMPASS          COMMENT
       S = SBAS      J = QZSS          E = GALILEO          COMMENT
BEAN                                                        MARKER NAME
1                                                           MARKER NUMBER
GEODETIC                                                    MARKER TYPE
Unige DICCA         GTER                                    OBSERVER / AGENCY
SC60291900056       SC600               2.12(191226)        REC # / TYPE / VERS
                    HEMA45          NONE                    ANT # / TYPE
  4509407.8091   693652.4678  4442337.6214                  APPROX POSITION XYZ
        0.0000        0.0000        0.0000                  ANTENNA: DELTA H/E/N
G    8 C1C L1C D1C S1C C2Y L2Y D2Y S2Y                      SYS / # / OBS TYPES
R    8 C1C L1C D1C S1C C2P L2P D2P S2P                      SYS / # / OBS TYPES
C    8 C1I L1I D1I S1I C7I L7I D7I S7I                      SYS / # / OBS TYPES
E    8 C1C L1C D1C S1C C7Q L7Q D7Q S7Q                      SYS / # / OBS TYPES
DBHZ                                                        COMMENT
     30.000                                                 INTERVAL
  2020    05    05    10    00    0.0000000     GPS         TIME OF FIRST OBS
  2020    05    05    10    59   30.0000000     GPS         TIME OF LAST OBS
     0                                                      RCV CLOCK OFFS APPL
G L1C  0.00000                                              SYS / PHASE SHIFT
G L2Y  0.00000                                              SYS / PHASE SHIFT
R L1C  0.00000                                              SYS / PHASE SHIFT
R L2P  0.25000                                              SYS / PHASE SHIFT
C L1I  0.00000                                              SYS / PHASE SHIFT
C L7I  0.00000                                              SYS / PHASE SHIFT
E L1C  0.50000                                              SYS / PHASE SHIFT
E L7Q -0.25000                                              SYS / PHASE SHIFT
 12 R01  1 R06 -4 R07  5 R08  6 R09 -2 R10 -7 R11  0 R16 -1 GLONASS SLOT / FRQ #
    R19  3 R20  2 R21  4 R22 -3                             GLONASS SLOT / FRQ #
 C1C   71.950 C2C   71.950 C2P   71.950                     GLONASS COD/PHS/BIS
    18                                                      LEAP SECONDS
*** Above antenna height is from mark to ANTENNA BOTTOM.    COMMENT
    17     4        0.0000        ANT MEASURE TYPE/HEIGT    COMMENT
    0.0000    0.0000    0.0458    0.0405    0.0000          COMMENT
                    BASE STATION                            COMMENT
                                                            END OF HEADER
> 2020 05 05 10 00  0.0000000  0 15        .000000000000
G06  23488771.656 5 123434333.914 5      -500.801          33.000    23488775.570 5  96182602.250 5      -390.234          32.000
G12  20371514.938 8 107053032.267 8     -1125.688          51.000    20371514.273 8  83417937.070 8      -877.159          51.000
G24  22003854.625 8 115631022.020 8     -2855.723          51.000    22003858.828 8  90102089.196 8     -2225.241          51.000
G25  20325687.484 5 106812202.439 5       841.109          35.000    20325689.430 5  83230303.278 5       655.413          34.000
G29  22246914.758 8 116908320.402 8      3166.688          48.000    22246913.516 8  91097384.349 8      2467.549          48.000
G32  22144544.648 5 116370366.613 5      -260.281          33.000
R11  19491217.195 7 104155132.369 7       307.070          46.000    19491219.781 6  81009580.477 6       238.832          41.000
R21  19789694.805 8 105898608.118 8      1416.777          51.000    19789698.000 8  82365631.105 8      1101.938          48.000
C12  23025688.242 8 119900853.628 8      2678.781          49.000    23025688.031 8  92714940.259 8      2071.385          51.000
C24  21852178.727 8 113790079.974 8       451.504          51.000
C26  22914890.625 8 119323811.768 8     -2064.324          49.000
E13  25890161.672 8 136053696.049 8      2964.324          51.000    25890164.211 8 104248953.599 8      2271.347          51.000
E15  24493678.391 6 128715142.653 6       761.258          40.000    24493682.664 6  98625917.908 6       583.295          38.000
E21  24483513.000 5 128661727.861 5      1396.723          34.000    24483515.672 5  98584975.157 5      1069.995          33.000
E27  23674476.125 8 124410206.538 8      -802.125          51.000    23674478.484 8  95327307.958 8      -614.660          51.000
> 2020 05 05 10 00 30.0000000  0 16        .000000000000
G02  23023782.492 5 120990784.262 5       767.004          34.000
G06  23491693.906 6 123449695.099 6      -524.566          36.000    23491700.148 5  96194571.900 5      -408.750          33.000
G12  20377975.156 8 107086980.710 8     -1139.426          51.000    20377974.297 8  83444390.390 8      -887.864          51.000
G24  22020190.148 8 115716862.778 8     -2869.082          51.000    22020194.133 8  90168978.059 8     -2235.651          51.000
G25  20320923.953 4 106787175.471 4       826.594          29.000    20320926.742 4  83210797.620 4       644.108          27.000
G29  22228871.008 8 116813500.517 8      3152.727          49.000    22228869.336 8  91023498.775 8      2456.673          49.000
G32  22146083.344 6 116378451.529 6      -282.422          36.000
R11  19489533.219 7 104146135.546 7       290.504          46.000    19489536.625 7  81002582.910 7       225.947          42.000
R21  19781831.352 8 105856527.896 8      1386.574          51.000    19781834.359 8  82332902.046 8      1078.444          48.000
C12  23010290.023 8 119820670.101 8      2664.602          49.000    23010289.711 8  92652937.285 8      2060.481          51.000
C24  21849610.188 8 113776705.331 8       438.094          51.000
C26  22926811.023 8 119385884.732 8     -2075.887          49.000
E13  25873258.188 8 135964864.583 8      2955.656          51.000    25873260.547 8 104180887.960 8      2264.751          50.000
E15  24489377.648 6 128692542.968 6       743.285          37.000    24489381.492 6  98608601.360 6       569.542          37.000
E21  24475554.445 5 128619906.438 5      1389.801          32.000    24475555.375 5  98552921.671 5      1064.559          32.000
E27  23679074.000 8 124434368.773 8      -810.742          51.000    23679076.469 8  95345821.862 8      -621.227          51.000
> 2020 05 05 10 01  0.0000000  0 17        .000000000000
G02  23019435.781 5 120967929.445 5       755.285          33.000
G06  23494724.805 5 123465625.257 5      -539.676          31.000    23494734.211 3  96206985.020 3      -420.539          21.000
G12  20384492.312 8 107121228.256 8     -1145.203          51.000    20384491.227 8  83471076.779 8      -892.366          51.000
G24  22036580.156 8 115802991.444 8     -2874.328          51.000    22036583.914 8  90236091.273 8     -2239.736          51.000
G25  20316223.000 4 106762471.434 4       818.008          29.000    20316225.266 4  83191542.640 4       637.409          28.000
G29  22210885.945 8 116718988.076 8      3146.652          50.000    22210884.883 8  90949852.781 8      2451.937          50.000
G32  22147739.625 6 116387140.020 6      -297.582          36.000    22147743.234 5  90691316.790 5      -231.870          34.000
R10  22026235.758 5 117412220.956 5     -2797.555          31.000
R11  19487921.688 7 104137524.460 7       282.086          47.000    19487925.242 7  80995885.403 7       219.400          42.000
R21  19774116.195 8 105815241.109 8      1364.410          50.000    19774119.055 8  82300790.101 8      1061.208          49.000
C12  22994952.172 8 119740801.288 8      2658.438          49.000    22994951.352 8  92591177.680 8      2055.642          49.000
C24  21847097.883 8 113763624.612 8       432.539          51.000
C26  22938776.141 8 119448189.512 8     -2079.281          50.000
E13  25856382.922 8 135876182.304 8      2954.938          51.000    25856384.914 8 104112936.658 8      2264.209          49.000
E15  24485158.414 6 128670371.886 6       733.262          37.000    24485161.617 5  98591613.158 5       561.955          34.000
E21                                                                  24467613.273 5  98520940.694 5      1065.409          31.000
E27  23683699.773 8 124458677.158 8      -811.355          51.000    23683702.352 8  95364447.756 8      -621.646          51.000
> 2020 05 05 10 01 30.0000000  0 14        .000000000000
G02  23015190.180 5 120945614.045 5       739.125          32.000
G12  20391079.453 8 107155843.346 8     -1155.367          51.000    20391078.195 8  83498049.565 8      -900.286          51.000
G24  22053037.422 8 115889475.475 8     -2884.129          49.000    22053040.953 8  90303481.381 8     -2247.376          49.000
G29  22192973.305 8 116624854.674 8      3136.035          50.000    22192973.047 8  90876502.110 8      2443.664          50.000
G32  22149518.641 4 116396472.998 4      -317.695          29.000    22149520.414 4  90698589.161 4      -247.561          26.000
R11  19486395.602 7 104129371.085 7       268.793          46.000    19486399.297 7  80989543.885 7       209.061          42.000
R21  19766562.625 8 105774820.147 8      1337.566          50.000    19766565.914 8  82269351.587 8      1040.329          48.000
R22  22444249.352 5 119808925.456 5      4506.824          32.000    22444252.445 4  93184733.013 4      3505.317          29.000
C12  22979688.352 8 119661317.673 8      2647.625          49.000    22979686.688 8  92529715.927 8      2047.333          49.000
C24  21844655.312 8 113750907.374 8       422.391          51.000
C26  22950798.555 8 119510794.465 8     -2087.195          49.000
E13  25839549.461 8 135787720.545 8      2949.691          51.000    25839550.250 8 104045154.354 8      2260.189          48.000
E15                                                                  24481034.891 5  98575006.876 5       550.611          33.000
E27  23688366.609 8 124483201.167 8      -816.453          51.000    23688369.266 8  95383238.872 8      -625.525          51.000
> 2020 05 05 10 02  0.0000000  0 14        .000000000000
G06  23501108.203 6 123499136.633 6      -578.883          37.000    23501116.711 5  96233102.746 5      -451.081          32.000
G12  20397690.180 8 107190582.425 8     -1166.527          51.000    20397688.820 8  83525118.964 8      -908.982          51.000
G24  22069515.867 8 115976071.380 8     -2894.824          48.000    22069519.312 8  90370958.683 8     -2255.710          48.000
G25  20307004.195 6 106714011.359 6       796.055          36.000    20307003.062 5  83153778.652 5       620.299          34.000
G29  22175086.898 8 116530859.451 8      3124.148          49.000    22175087.391 8  90803259.085 8      2434.401          49.000
R11  19484909.148 7 104121429.551 7       254.465          47.000    19484913.094 7  80983367.123 7       197.917          43.000
R21  19759124.781 8 105735019.252 8      1309.676          51.000    19759128.102 8  82238395.329 8      1018.637          48.000
R22  22418927.633 5 119673772.403 5      4498.520          32.000    22418930.945 4  93079602.542 4      3498.849          25.000
C12  22964452.578 8 119581980.654 8      2635.609          49.000    22964449.844 7  92468367.560 7      2037.933          47.000
C24  21842236.680 8 113738313.991 8       411.230          51.000
C26  22962832.469 8 119573458.786 8     -2096.203          49.000
E13  25822711.992 8 135699238.524 8      2943.137          50.000    25822710.883 7 103977356.548 7      2255.122          47.000
E15                                                                  24476958.328 5  98558570.910 5       538.659          33.000
E27  23693028.398 8 124507698.233 8      -822.672          51.000    23693031.086 8  95402009.343 8      -630.341          51.000
> 2020 05 05 10 02 30.0000000  0 15        .000000000000
G02  23006939.016 6 120902267.734 6       704.570          36.000
G06  23504476.617 4 123516840.704 4      -598.934          29.000    23504483.641 4  96246898.016 4      -466.723          28.000
G12  20404390.102 8 107225790.255 8     -1178.562          51.000    20404388.734 8  83552553.622 8      -918.360          51.000
G24  22086080.711 8 116063122.112 8     -2906.492          48.000    22086084.328 7  90438790.415 7     -2264.796          47.000
G25  20302503.281 5 106690358.563 5       783.168          35.000    20302503.492 5  83135347.908 5       610.264          34.000
G29  22157292.570 8 116437349.823 8      3111.543          50.000    22157293.609 8  90730394.436 8      2424.579          50.000
R11  19483528.641 8 104114052.316 8       239.348          49.000    19483532.461 7  80977629.278 7       186.162          43.000
R21  19751869.148 8 105696191.633 8      1280.859          51.000    19751872.109 7  82208196.064 7       996.224          47.000
R22  22393681.922 5 119539008.044 5      4488.301          32.000    22393687.500 4  92974788.863 4      3490.901          25.000
C12  22949310.367 7 119503134.104 7      2622.922          47.000    22949307.156 8  92407398.428 8      2028.155          48.000
C24  21839907.836 8 113726187.469 8       399.172          51.000
C26  22974943.688 8 119636524.223 8     -2106.035          49.000
E13  25805936.375 8 135611083.467 8      2935.918          49.000    25805935.234 8 103909809.267 8      2249.504          50.000
E15  24472995.445 5 128606458.802 5       686.914          34.000    24472999.656 6  98542620.334 6       526.151          36.000
E27  23697750.828 8 124532513.776 8      -829.648          51.000    23697753.477 8  95421023.844 8      -635.708          51.000
> 2020 05 05 10 03  0.0000000  0 14        .000000000000
G02  23002984.602 5 120881507.316 5       685.754          33.000
G12  20411172.852 8 107261433.852 8     -1191.293          51.000    20411171.656 8  83580327.839 8      -928.280          51.000
G24  22102725.531 7 116150594.336 7     -2918.715          47.000    22102729.453 7  90506950.593 7     -2274.323          47.000
G25  20298088.422 5 106667174.470 5       768.953          30.000    20298090.352 4  83117287.018 4       599.181          27.000
G29  22139584.719 8 116344295.697 8      3098.359          49.000    22139585.680 8  90657884.708 8      2414.303          49.000
R11  19482247.859 8 104107207.886 8       223.438          49.000    19482251.469 7  80972305.814 7       173.782          43.000
R21  19744789.367 8 105658306.228 8      1251.348          51.000    19744792.594 7  82178729.705 7       973.273          46.000
R22  22368502.664 5 119404604.113 5      4478.715          32.000
C12  22934256.312 7 119424748.092 7      2609.340          47.000    22934253.758 8  92346785.433 8      2017.752          49.000
C24  21837662.664 8 113714496.908 8       386.539          51.000
C26  22987125.695 8 119699958.669 8     -2116.500          48.000
E13  25789217.312 8 135523225.329 8      2927.922          48.000    25789218.117 8 103842489.450 8      2243.425          51.000
E15  24469144.930 6 128586215.149 6       669.426          38.000    24469149.031 6  98527108.951 6       512.811          37.000
E27  23702527.695 8 124557615.869 8      -837.312          51.000    23702530.312 8  95440257.900 8      -641.559          51.000
> 2020 05 05 10 03 30.0000000  0 13        .000000000000
G02  22999092.141 4 120861044.146 4       671.629          28.000
G12  20417981.172 8 107297211.832 8     -1199.133          51.000    20417980.102 8  83608206.759 8      -934.389          51.000
G24  22119393.219 7 116238186.573 7     -2926.051          47.000    22119397.336 7  90575204.300 7     -2280.040          47.000
G25  20293710.094 5 106644155.660 5       759.844          35.000    20293706.828 5  83099343.636 5       592.080          34.000
G29  22121906.492 8 116251398.394 8      3089.594          49.000    22121907.266 8  90585497.200 8      2407.476          49.000
R11  19481010.016 8 104100592.269 8       212.270          49.000    19481013.062 7  80967160.349 7       165.099          43.000
R21  19737828.719 8 105621058.463 8      1226.484          51.000    19737831.516 7  82149759.270 7       953.932          45.000
C12  22919234.586 8 119346526.737 8      2600.434          48.000    22919232.875 8  92286299.762 8      2010.687          51.000
C24  21835444.359 8 113702945.558 8       378.383          51.000
C26  22999321.391 8 119763464.164 8     -2122.344          48.000
E13  25772497.828 7 135435365.624 7      2924.301          47.000    25772500.953 8 103775168.421 8      2240.722          51.000
E15  24465345.797 6 128566242.124 6       656.762          40.000    24465347.555 6  98511804.930 6       503.281          37.000
E27  23707301.898 8 124582704.301 8      -840.434          51.000    23707304.422 8  95459481.494 8      -643.972          51.000
> 2020 05 05 10 04  0.0000000  0 13        .000000000000
G02  22995288.336 5 120841049.983 5       663.934          33.000
G12  20424834.094 8 107333224.013 8     -1200.590          51.000    20424833.008 8  83636268.184 8      -935.525          51.000
G24  22136103.242 7 116325998.221 7     -2927.004          47.000    22136107.539 7  90643628.951 7     -2280.785          47.000
G25  20289382.797 5 106621402.539 5       758.586          32.000    20289378.508 5  83081613.806 5       591.100          31.000
G29  22104277.711 8 116158761.010 8      3087.285          49.000    22104278.250 8  90513312.206 8      2405.674          48.000
R11  19479834.344 8 104094309.277 8       207.688          49.000    19479836.883 7  80962273.567 7       161.535          43.000
R21  19731006.789 8 105584552.882 8      1208.289          51.000    19731009.250 7  82121366.070 7       939.780          46.000
C12  22904264.805 8 119268571.890 8      2597.676          49.000    22904263.641 8  92226020.145 8      2008.727          51.000
C24  21833272.234 8 113691634.295 8       376.727          51.000
C26  23011549.570 8 119827140.397 8     -2121.652          48.000
E13  25755797.602 7 135347607.230 7      2927.301          47.000    25755802.430 8 103707924.997 8      2243.012          51.000
E15  24461615.625 6 128546641.244 6       650.707          41.000    24461617.188 6  98496786.103 6       498.899          39.000
E27  23712092.602 8 124607880.142 8      -836.930          51.000    23712095.000 8  95478772.057 8      -641.254          51.000
> 2020 05 05 10 04 30.0000000  0 15        .000000000000
G12  20431773.055 8 107369688.442 8     -1222.410          51.000    20431771.953 8  83664682.015 8      -952.527          51.000
G24  22152896.680 8 116414245.885 8     -2948.273          48.000    22152900.586 8  90712393.319 8     -2297.356          49.000
G25  20285142.375 5 106599141.047 5       735.207          32.000    20285139.453 5  83064254.684 5       572.889          32.000
G29  22086740.961 8 116066603.861 8      3064.492          50.000    22086740.312 8  90441501.440 8      2387.916          50.000
G32  22162455.047 4 116464488.766 4      -438.758          28.000
R10  22137663.445 5 118006204.292 5     -2860.250          30.000
R11  19478762.812 8 104088582.295 8       182.160          50.000    19478764.797 7  80957819.270 7       141.680          44.000
R21  19724365.039 8 105549013.059 8      1169.223          51.000    19724368.070 7  82093724.047 7       909.395          47.000
R22  22293129.359 5 119002240.522 5      4453.875          33.000    22293145.008 5  92557329.359 5      3464.128          30.000
C12  22889388.125 8 119191101.630 8      2574.773          49.000    22889387.281 8  92166115.225 8      1990.927          51.000
C24  21831187.938 8 113680780.512 8       354.727          51.000
C26  23023851.945 8 119891203.467 8     -2141.109          48.000
E13  25739158.672 7 135260170.627 7      2909.637          46.000    25739164.500 8 103640928.120 8      2229.495          51.000
E15  24457998.969 7 128527631.564 7       624.223          42.000    24457999.477 6  98482220.256 6       478.303          39.000
E27  23716941.547 8 124633362.068 8      -853.918          51.000    23716943.766 8  95498297.152 8      -654.346          51.000
> 2020 05 05 10 05  0.0000000  0 15        .000000000000
G12  20438785.922 8 107406541.493 8     -1227.457          51.000    20438784.859 8  83693398.668 8      -956.463          51.000
G24  22169760.961 8 116502865.631 8     -2952.645          50.000    22169763.758 8  90781447.584 8     -2300.765          50.000
G25  20280987.133 5 106577313.756 5       728.160          32.000    20280984.805 5  83047233.061 5       567.391          32.000
G29  22069284.297 8 115974865.921 8      3058.387          51.000    22069282.453 8  90370017.386 8      2383.162          51.000
G32  22165022.422 5 116477991.893 5      -454.004          31.000
R10  22153793.219 5 118092165.735 5     -2863.543          35.000
R11  19477783.312 8 104083348.517 8       173.777          49.000    19477785.352 7  80953748.552 7       135.160          44.000
R21  19717892.312 8 105514376.602 8      1147.051          51.000    19717895.266 7  82066784.599 7       892.151          47.000
R22  22268126.414 5 118868773.446 5      4450.543          31.000    22268143.773 4  92453531.070 4      3461.539          29.000
C12  22874592.531 8 119114055.610 8      2568.535          48.000    22874592.109 8  92106538.356 8      1986.100          51.000
C24  21829179.664 8 113670322.806 8       349.379          51.000
C26  23036216.938 8 119955590.819 8     -2144.266          48.000
E13  25722569.141 7 135172994.900 7      2908.875          44.000    25722575.891 8 103574131.142 8      2228.875          51.000
E15  24454481.883 6 128509150.690 6       614.551          39.000    24454482.953 6  98468059.610 6       470.893          37.000
E27  23721836.898 8 124659087.358 8      -854.109          51.000    23721838.922 8  95518008.722 8      -654.453          51.000
> 2020 05 05 10 05 30.0000000  0 14        .000000000000
G12  20445828.312 8 107443549.846 8     -1230.551          51.000    20445827.250 8  83722236.350 8      -958.871          51.000
G24  22186651.406 8 116591623.126 8     -2955.285          51.000    22186653.000 8  90850609.178 8     -2302.823          51.000
G25  20276864.203 5 106555649.046 5       724.012          34.000    20276863.328 5  83030368.011 5       564.162          34.000
G29  22051863.570 8 115883316.825 8      3054.148          51.000    22051861.398 8  90298680.471 8      2379.856          51.000
G32  22167678.203 5 116491925.129 5      -466.312          34.000
R11  19476852.164 8 104078372.891 8       167.285          49.000    19476854.250 7  80949878.627 7       130.111          45.000
R21  19711544.664 8 105480407.869 8      1126.863          51.000    19711547.141 8  82040364.465 8       876.449          48.000
R22  22243147.953 5 118735418.634 5      4449.254          34.000    22243161.047 5  92349810.750 5      3460.534          30.000
C12  22859834.086 8 119037205.075 8      2564.098          48.000    22859834.289 8  92047112.657 8      1982.666          51.000
C24  21827203.359 8 113660031.664 8       345.820          51.000
C26  23048599.688 8 120020071.679 8     -2145.246          48.000
E13  25705984.992 7 135085849.484 7      2910.043          42.000    25705992.570 8 103507357.386 8      2229.731          51.000
E15  24451021.867 6 128490966.602 6       606.840          40.000    24451022.336 5  98454126.397 5       464.939          35.000
E27  23726734.375 8 124684823.725 8      -852.410          51.000    23726736.234 8  95537728.779 8      -653.107          51.000
> 2020 05 05 10 06  0.0000000  0 13        .000000000000
G12  20452935.672 8 107480899.554 8     -1254.605          51.000    20452934.484 8  83751340.019 8      -977.615          51.000
G24  22203603.391 8 116680704.314 8     -2978.672          51.000    22203603.922 8  90920023.025 8     -2321.043          51.000
G25  20272816.117 5 106534366.184 5       699.168          33.000    20272816.938 5  83013802.374 5       544.806          33.000
G29  22034514.500 8 115792145.821 8      3028.773          51.000    22034512.930 8  90227638.161 8      2360.083          51.000
R11  19476005.430 8 104073846.931 8       139.383          50.000    19476007.680 7  80946358.432 7       108.409          46.000
R21  19705357.805 8 105447298.783 8      1085.352          51.000    19705360.094 8  82014612.972 8       844.162          48.000
R22  22218225.805 5 118602358.064 5      4425.711          31.000    22218233.383 4  92246319.224 4      3442.220          28.000
C12  22845148.906 8 118960737.156 8      2538.660          48.000    22845149.664 8  91987982.839 8      1963.014          51.000
C24  21825294.812 8 113650093.298 8       321.523          51.000
C26  23061035.852 7 120084831.012 7     -2167.082          47.000
E13  25689441.812 6 134998923.474 6      2889.996          40.000    25689450.586 8 103440751.693 8      2214.344          51.000
E15  24447654.344 6 128473266.924 6       578.008          37.000
E27  23731669.609 8 124710758.351 8      -871.711          51.000    23731671.383 8  95557600.762 8      -667.946          51.000
> 2020 05 05 10 06 30.0000000  0 12        .000000000000
G12  20460103.578 8 107518567.097 8     -1259.609          51.000    20460102.078 8  83780691.343 8      -981.514          51.000
G24  22220612.195 8 116770084.318 8     -2982.965          51.000    22220611.875 8  90989669.747 8     -2324.391          51.000
G25  20268834.492 5 106513445.287 5       692.871          33.000    20268839.016 5  82997500.447 5       539.903          33.000
G29  22017232.789 8 115701331.485 8      3022.348          49.000    22017232.430 8  90156873.755 8      2355.076          50.000
R11  19475238.750 8 104069748.232 8       130.824          50.000    19475241.305 7  80943170.559 7       101.752          46.000
R21  19699327.359 8 105415027.197 8      1063.066          51.000    19699329.156 8  81989512.868 8       826.829          48.000
R22  22193352.180 5 118469572.593 5      4423.488          30.000
C12  22830533.188 8 118884630.997 8      2532.113          49.000    22830534.227 8  91929132.762 8      1957.951          51.000
C24  21823449.797 8 113640485.948 8       315.992          51.000
C26  23073520.625 7 120149845.819 7     -2169.906          46.000
E13  25672936.398 7 134912195.988 7      2888.906          42.000    25672946.258 8 103374298.064 8      2213.539          51.000
E27  23736638.320 8 124736868.557 8      -872.020          51.000    23736640.055 8  95577607.277 8      -668.192          51.000
> 2020 05 05 10 07  0.0000000  0 14        .000000000000
G12  20467294.836 8 107556357.378 8     -1271.684          51.000    20467293.078 8  83810138.315 8      -990.925          51.000
G24  22237640.625 8 116859568.378 8     -2994.410          51.000    22237640.555 8  91059397.549 8     -2333.310          51.000
G25  20264885.203 5 106492687.468 5       679.500          30.000    20264888.500 5  82981318.935 5       529.481          30.000
G29  21999981.984 8 115610681.746 8      3008.930          48.000    21999983.008 8  90086237.581 8      2344.621          48.000
G32  22176294.523 5 116537213.992 5      -535.125          34.000    22176299.086 5  90808237.000 5      -416.981          30.000
R10  22218624.680 5 118437767.735 5     -2899.762          30.000
R11  19474515.164 8 104065880.943 8       114.785          50.000    19474517.609 7  80940162.655 7        89.277          46.000
R21  19693416.523 8 105383396.730 8      1033.520          51.000    19693418.109 8  81964911.410 8       803.852          49.000
R22  22168493.031 5 118336869.387 5      4411.641          35.000
C12  22815950.273 8 118808695.795 8      2518.426          49.000    22815951.391 8  91870414.881 8      1947.419          50.000
C24  21821631.562 8 113631018.003 8       303.422          51.000
C26  23086018.180 7 120214923.302 7     -2180.363          47.000
E13  25656434.328 7 134825474.608 7      2880.551          45.000    25656443.219 8 103307849.177 8      2207.196          51.000
E27  23741603.492 8 124762960.319 8      -879.406          51.000    23741605.422 8  95597599.646 8      -673.843          51.000
> 2020 05 05 10 07 30.0000000  0 13        .000000000000
G12  20474600.602 8 107594749.374 8     -1279.023          51.000    20474598.742 8  83840054.164 8      -996.642          51.000
G24  22254779.727 8 116949633.651 8     -3001.008          51.000    22254780.141 8  91129578.267 8     -2338.448          51.000
G25  20261057.969 6 106472572.437 6       671.008          37.000    20261059.055 6  82965641.830 6       522.860          38.000
G29  21982854.633 8 115520678.402 8      3000.086          50.000    21982856.062 8  90016105.091 8      2337.729          50.000
R11  19473926.023 8 104062734.014 8       103.910          50.000    19473928.539 7  80937715.030 7        80.816          46.000
R21  19687716.867 8 105352896.792 8      1008.805          51.000    19687718.852 8  81941189.266 8       784.629          49.000
R22  22143740.797 6 118204739.549 6      4405.578          39.000    22143753.617 4  91937119.603 4      3426.561          29.000
C12  22801492.000 8 118733408.872 8      2509.469          48.000    22801492.477 8  91812198.282 8      1940.480          50.000
C24  21819931.609 8 113622165.870 8       295.578          51.000
C26  23098619.445 7 120280538.584 7     -2185.473          47.000
E13  25640026.023 8 134739241.142 8      2877.121          48.000    25640032.945 8 103241774.197 8      2204.565          51.000
E15  24438056.703 5 128422861.470 5       539.039          35.000    24438063.102 6  98401949.450 6       413.039          37.000
E27  23746656.508 8 124789513.684 8      -882.004          51.000    23746658.859 8  95617945.718 8      -675.788          51.000
> 2020 05 05 10 08  0.0000000  0 13        .000000000000
G12  20481906.867 8 107633144.072 8     -1308.043          51.000    20481905.047 8  83869972.101 8     -1019.257          51.000
G24  22271915.320 8 117039681.024 8     -3029.535          51.000    22271916.273 8  91199745.003 8     -2360.680          51.000
G25  20257234.633 5 106452496.008 5       640.699          33.000    20257243.055 5  82949997.771 5       499.249          32.000
G29  21965737.477 8 115430724.347 8      2969.484          51.000    21965738.250 8  89946011.030 8      2313.884          51.000
R11  19473357.977 8 104059699.982 8        70.570          50.000    19473360.406 7  80935355.218 7        54.885          46.000
R21  19682114.656 8 105322919.319 8       961.773          50.000    19682116.766 8  81917873.452 8       748.046          49.000
R22  22118983.336 7 118072578.976 7      4377.102          42.000    22118987.719 5  91834327.990 5      3404.412          33.000
C12  22787044.766 8 118658178.586 8      2478.707          48.000    22787044.398 8  91754025.488 8      1916.715          50.000
C24  21818236.055 8 113613337.181 8       265.969          51.000
C26  23111209.820 8 120346098.086 8     -2212.324          48.000
E13  25623597.188 8 134652898.990 8      2851.695          50.000    25623602.070 8 103175615.958 8      2184.999          51.000
E15  24434996.750 6 128406790.343 6       504.656          38.000    24435000.656 6  98389635.145 6       387.101          41.000
E27  23751683.273 8 124815930.181 8      -906.520          51.000    23751686.141 8  95638186.924 8      -694.597          51.000
> 2020 05 05 10 08 30.0000000  0 15        .000000000000
G02  22965360.891 5 120683812.863 5       513.781          33.000
G06  23553465.922 6 123774301.976 6      -825.129          37.000
G12  20489287.742 8 107671931.183 8     -1294.164          51.000    20489286.086 8  83900195.818 8     -1008.440          51.000
G24  22289121.438 8 117130098.936 8     -3014.918          51.000    22289122.695 8  91270200.503 8     -2349.290          50.000
G25  20253495.883 4 106432837.772 4       652.832          29.000    20253508.164 5  82934691.512 5       508.700          30.000
G29  21948704.711 8 115341212.885 8      2981.570          51.000    21948704.766 8  89876261.873 8      2323.305          51.000
R11  19472885.703 8 104057177.478 8        80.840          50.000    19472888.234 7  80933393.265 7        62.875          47.000
R21  19676684.586 8 105293863.133 8       958.445          48.000    19676686.930 8  81895274.170 8       745.457          49.000
R22  22094294.898 7 117940789.015 7      4392.184          44.000    22094298.148 6  91731824.743 6      3416.146          37.000
C12  22772683.078 7 118583393.963 7      2490.562          46.000    22772682.414 8  91696197.293 8      1925.779          51.000
C24  21816619.414 8 113604920.073 8       278.883          51.000
C26  23123863.758 8 120411988.753 8     -2196.695          48.000
E13  25607222.102 8 134566840.928 8      2868.996          51.000    25607225.500 8 103109675.422 8      2198.316          51.000
E15  24432041.891 7 128391260.569 7       513.828          42.000    24432048.258 7  98377735.798 7       393.611          44.000
E27  23756758.422 8 124842600.833 8      -888.066          51.000    23756761.500 8  95658622.870 8      -680.466          51.000
> 2020 05 05 10 09  0.0000000  0 15        .000000000000
G02  22962512.703 6 120668843.194 6       489.602          36.000
G06  23558265.734 6 123799522.715 6      -850.941          36.000    23558274.688 5  96467183.017 5      -663.071          33.000
G12  20496739.297 8 107711089.416 8     -1311.094          51.000    20496737.766 8  83930708.717 8     -1021.631          51.000
G24  22306393.453 8 117220865.881 8     -3031.023          49.000    22306395.453 8  91340927.945 8     -2361.836          48.000
G25  20249836.836 5 106413609.738 5       634.660          35.000    20249848.297 5  82919707.067 5       494.540          34.000
G29  21931752.305 8 115252125.090 8      2962.887          51.000    21931751.898 8  89806842.852 8      2308.743          51.000
R11  19472505.438 8 104055146.868 8        59.832          49.000    19472508.359 7  80931813.901 7        46.536          47.000
R21  19671422.547 8 105265708.424 8       923.832          48.000    19671425.586 8  81873376.055 8       718.536          49.000
R22  22069672.617 7 117809353.214 7      4375.625          43.000    22069674.758 6  91629596.923 6      3403.267          38.000
C12  22758403.234 7 118509036.513 7      2471.859          45.000    22758403.164 8  91638699.390 8      1911.293          51.000
C24  21815078.023 8 113596895.153 8       261.254          51.000
C26  23136577.250 8 120478189.916 8     -2211.598          48.000
E13  25590897.367 8 134481048.406 8      2855.586          51.000    25590899.047 8 103043938.361 8      2188.070          48.000
E15  24429186.453 7 128376252.233 7       491.980          43.000    24429192.711 7  98366235.887 7       376.852          44.000
E27  23761878.195 8 124869505.344 8      -900.402          51.000    23761881.117 8  95679238.009 8      -689.967          51.000
> 2020 05 05 10 09 30.0000000  0 15        .000000000000
G02  22959765.102 5 120654392.591 5       469.406          31.000
G06  23563177.727 5 123825333.956 5      -875.016          31.000    23563190.906 4  96487298.567 4      -681.849          25.000
G12  20504251.414 8 107750566.056 8     -1325.215          51.000    20504249.969 8  83961469.711 8     -1032.635          51.000
G24  22323721.219 8 117311927.882 8     -3044.074          48.000    22323723.539 8  91411885.348 8     -2372.006          48.000
G25  20246246.547 5 106394743.589 5       618.152          33.000    20246255.508 5  82905003.770 5       481.674          33.000
G29  21914870.328 8 115163410.672 8      2946.938          51.000    21914870.000 8  89737714.785 8      2296.318          51.000
R11  19472207.672 8 104053556.278 8        41.688          50.000    19472210.914 7  80930576.759 7        32.424          47.000
R21  19666319.570 8 105238403.041 8       892.027          48.000    19666322.812 8  81852138.512 8       693.799          49.000
R22  22045107.359 7 117678222.557 7      4361.832          43.000    22045109.055 6  91527606.460 6      3392.539          40.000
C12  22744195.922 7 118435056.153 7      2455.812          46.000    22744196.789 8  91581493.048 8      1899.056          51.000
C24  21813602.359 8 113589211.545 8       246.570          51.000
C26  23149339.797 8 120544649.421 8     -2223.453          48.000
E13  25574613.617 8 134395471.180 8      2845.230          51.000    25574613.555 7 102978366.281 7      2180.109          47.000
E15  24426420.148 6 128361713.357 6       472.773          40.000    24426425.266 7  98355095.711 7       362.539          44.000
E27  23767032.703 8 124896591.737 8      -909.656          51.000    23767035.188 8  95699992.498 8      -697.078          51.000
> 2020 05 05 10 10  0.0000000  0 14        .000000000000
G12  20511845.844 8 107790475.490 8     -1335.680          51.000    20511844.438 8  83992567.945 8     -1040.789          51.000
G24  22341126.664 7 117403398.915 7     -3053.977          47.000    22341130.078 7  91483161.465 7     -2379.722          47.000
G29  21898081.195 8 115075186.963 8      2934.375          50.000    21898081.438 8  89668969.070 8      2286.526          50.000
G32  22196570.086 5 116643776.394 5      -655.250          34.000
R10  22317312.773 5 118963874.150 5     -2951.633          34.000
R11  19472014.602 8 104052524.336 8        26.898          51.000    19472017.727 7  80929774.128 7        20.921          47.000
R21  19661397.352 8 105212065.587 8       863.656          49.000    19661400.922 8  81831653.846 8       671.733          48.000
R22  22020621.617 6 117547518.275 6      4351.480          39.000    22020624.305 6  91425947.581 6      3384.488          41.000
C12  22730083.898 8 118361568.906 8      2443.137          49.000    22730085.297 8  91524668.063 8      1889.197          51.000
C24  21812214.594 8 113581984.543 8       235.016          51.000
C26  23162173.773 7 120611481.374 7     -2232.234          47.000
E13  25558392.898 8 134310226.748 8      2837.668          51.000    25558392.047 8 102913049.197 8      2174.311          48.000
E15  24423765.086 7 128347759.888 7       457.184          42.000    24423770.414 7  98344404.113 7       350.268          44.000
E27  23772243.828 8 124923975.678 8      -915.945          51.000    23772245.914 8  95720974.987 8      -701.825          51.000
> 2020 05 05 10 10 30.0000000  0 17        .000000000000
G02  22954564.461 5 120627042.443 5       439.875          31.000
G06  23573337.914 5 123878726.043 5      -906.262          31.000
G12  20519454.750 8 107830460.765 8     -1340.250          51.000    20519453.344 8  84023725.284 8     -1044.351          51.000
G24  22358542.578 8 117494921.213 8     -3057.617          48.000    22358546.750 8  91554477.532 8     -2382.559          48.000
G25  20239269.594 6 106358115.550 6       600.559          36.000    20239273.555 5  82876422.632 5       467.962          34.000
G29  21881317.969 8 114987099.736 8      2927.789          50.000    21881318.891 8  89600329.683 8      2281.394          50.000
R10  22333898.805 5 119052304.685 5     -2954.113          31.000
R11  19471858.391 8 104051690.020 8        18.238          51.000    19471861.688 7  80929125.202 7        14.185          47.000
R21  19656588.961 8 105186334.280 8       841.320          50.000    19656592.375 7  81811640.601 7       654.360          47.000
R22  21996147.953 5 117416882.692 5      4347.438          35.000    21996152.734 6  91324342.105 6      3381.340          40.000
C12  22715999.211 8 118288223.593 8      2436.402          50.000    22716000.859 8  91467952.841 8      1883.954          51.000
C24  21810846.977 8 113574862.028 8       229.645          51.000
C26  23175011.758 7 120678332.354 7     -2234.801          47.000
E13  25542166.789 7 134224960.790 7      2836.355          47.000    25542166.977 8 102847715.594 8      2173.359          49.000
E15  24421153.477 6 128334035.891 6       447.520          37.000    24421158.734 7  98333888.337 7       343.015          43.000
E21  24321072.383 5 127808098.909 5      1312.809          33.000    24321068.414 5  97930870.890 5      1005.694          33.000
E27  23777443.750 8 124951301.149 8      -916.023          51.000    23777445.695 8  95741912.674 8      -701.888          51.000
> 2020 05 05 10 11  0.0000000  0 16        .000000000000
G06  23578559.883 5 123906181.376 5      -923.438          34.000    23578560.180 5  96550275.563 5      -719.556          35.000
G12  20527117.523 8 107870728.978 8     -1346.613          51.000    20527116.125 8  84055103.092 8     -1049.309          51.000
G24  22376007.883 8 117586701.044 8     -3063.121          49.000    22376012.578 8  91625994.239 8     -2386.851          49.000
G25  20235855.484 5 106340171.857 5       593.055          35.000    20235857.250 6  82862440.470 6       462.121          37.000
G29  21864621.195 8 114899358.687 8      2919.207          51.000    21864622.531 8  89531960.033 8      2274.707          51.000
G32  22204178.609 5 116683746.143 5      -684.133          34.000
R11  19471778.984 8 104051265.995 8         7.688          50.000    19471782.148 7  80928795.392 7         5.979          47.000
R21  19651933.523 8 105161421.482 8       817.133          51.000    19651936.023 7  81792264.011 7       635.551          45.000
R22  21971725.227 5 117286565.319 5      4341.027          31.000    21971734.562 6  91222957.647 6      3376.358          38.000
C12  22701981.297 8 118215227.731 8      2427.727          51.000    22701983.188 8  91411507.830 8      1877.239          51.000
C24  21809539.312 8 113568050.886 8       222.234          51.000
C26  23187893.211 8 120745408.040 8     -2239.191          48.000
E13  25525975.398 7 134139883.213 7      2833.125          46.000    25525977.477 8 102782526.268 8      2170.845          51.000
E15  24418625.523 6 128320749.696 6       435.793          38.000    24418630.086 7  98323708.008 7       334.036          42.000
E21                                                                  24313567.891 5  97900664.892 5      1005.386          31.000
E27  23782672.039 8 124978776.284 8      -918.000          51.000    23782674.172 8  95762965.026 8      -703.418          51.000
> 2020 05 05 10 11 30.0000000  0 16        .000000000000
G06  23583912.383 6 123934296.634 6      -946.043          37.000    23583912.695 6  96572183.536 6      -737.176          37.000
G12  20534856.984 8 107911400.050 8     -1359.961          51.000    20534855.648 8  84086794.823 8     -1059.710          51.000
G24  22393545.180 8 117678857.975 8     -3075.816          49.000    22393549.828 8  91697804.759 8     -2396.743          48.000
G25  20232527.750 6 106322677.256 6       578.285          37.000    20232528.562 6  82848808.287 6       450.615          36.000
G29  21848014.070 8 114812086.186 8      2903.656          51.000    21848015.227 8  89463955.488 8      2262.589          51.000
R11  19471799.586 8 104051376.070 8       -10.129          51.000    19471802.695 7  80928880.988 7        -7.878          47.000
R21  19647454.320 8 105137450.966 8       785.750          51.000    19647456.016 7  81773620.325 7       611.142          44.000
R22  21947381.250 5 117156624.748 5      4327.098          33.000    21947394.031 5  91121892.658 5      3365.517          35.000
C05  39679691.672 5 206622567.240 5        31.891          34.000
C12  22688053.609 8 118142702.658 8      2412.035          51.000    22688055.695 8  91355426.870 8      1865.148          51.000
C24  21808314.562 8 113561671.514 8       207.895          51.000
C26  23200840.750 7 120812827.598 7     -2250.660          47.000
E13  25509843.930 8 134055116.522 8      2822.809          49.000    25509847.320 8 102717575.152 8      2162.922          51.000
E15                                                                  24416208.812 6  98313955.802 6       319.819          41.000
E21                                                                  24306104.297 4  97870610.189 4       999.630          28.000
E27  23787951.766 8 125006521.919 8      -926.980          51.000    23787954.234 8  95784224.653 8      -710.263          51.000
> 2020 05 05 10 12  0.0000000  0 16        .000000000000
G06  23589364.703 5 123962939.905 5      -960.648          35.000    23589366.195 5  96594502.912 5      -748.560          34.000
G12  20542644.320 8 107952322.602 8     -1365.027          51.000    20542643.141 8  84118682.522 8     -1063.658          51.000
G24  22411125.211 8 117771239.358 8     -3079.867          49.000    22411128.992 8  91769790.192 8     -2399.900          49.000
G25  20229254.289 5 106305481.197 5       571.520          35.000    20229257.586 6  82835408.813 6       445.337          36.000
G29  21831468.016 8 114725133.678 8      2896.387          51.000    21831468.406 8  89396200.309 8      2256.925          51.000
G32  22212249.836 5 116726181.101 5      -720.520          34.000
R11  19471892.047 8 104051868.157 8       -19.500          51.000    19471894.391 7  80929263.718 7       -15.167          47.000
R21  19643122.516 8 105114270.262 8       762.863          51.000    19643123.570 7  81755590.925 7       593.341          44.000
R22  21923105.062 5 117026967.067 5      4321.637          31.000    21923101.992 5  91020997.391 5      3361.267          35.000
C05  39679502.227 5 206621580.466 5        36.531          34.000
C12  22674187.969 8 118070500.766 8      2404.621          50.000    22674189.883 8  91299595.813 8      1859.354          51.000
C24  21807143.797 8 113555575.490 8       201.676          51.000
C26  23213825.406 7 120880441.302 7     -2253.691          47.000
E13  25493743.969 8 133970511.935 8      2820.715          50.000    25493748.156 8 102652748.293 8      2161.312          51.000
E15  24413863.812 6 128295758.815 6       407.207          36.000    24413864.609 6  98304516.475 6       312.061          37.000
E27  23793254.289 8 125034387.573 8      -927.609          51.000    23793257.180 8  95805576.248 8      -710.799          51.000
> 2020 05 05 10 12 30.0000000  0 15        .000000000000
G06  23594935.258 5 123992209.760 5     -1003.793          32.000    23594932.391 4  96617310.503 4      -782.185          29.000
G12  20550498.242 8 107993595.284 8     -1399.555          51.000    20550497.266 8  84150843.043 8     -1090.562          51.000
G24  22428766.195 7 117863943.365 7     -3113.480          46.000    22428768.859 7  91842027.016 7     -2426.092          46.000
G25  20226057.242 6 106288683.391 6       535.109          36.000    20226061.852 6  82822319.583 6       416.968          36.000
G29  21815001.977 8 114638601.993 8      2859.344          51.000    21815001.422 8  89328773.044 8      2228.060          51.000
R10  22400748.727 5 119408610.762 5     -3006.762          31.000
R11  19472075.000 8 104052844.695 8       -58.957          51.000    19472077.234 7  80930023.241 7       -45.855          47.000
R21  19638957.039 8 105091981.043 8       709.746          51.000    19638958.578 7  81738254.943 7       552.028          46.000
R22  21898869.812 5 116897650.904 5      4286.137          33.000    21898873.688 6  90920400.477 6      3333.659          39.000
C12  22660403.695 8 117998722.116 8      2367.656          49.000    22660404.766 8  91244092.024 8      1830.750          51.000
C24  21806046.406 8 113549862.088 8       166.188          51.000
C26  23226866.094 8 120948347.215 8     -2286.227          48.000
E13  25477694.375 8 133886170.845 8      2788.906          51.000    25477698.711 8 102588123.328 8      2136.963          51.000
E15  24411611.336 5 128283884.688 5       367.090          34.000    24411618.148 5  98295466.433 5       281.423          34.000
E27  23798598.562 8 125062472.887 8      -957.902          51.000    23798601.961 8  95827096.140 8      -734.004          51.000
> 2020 05 05 10 13  0.0000000  0 15        .000000000000
G06  23600661.703 5 124022307.155 5      -996.863          34.000
G12  20558457.047 8 108035419.028 8     -1383.719          51.000    20558456.180 8  84183432.964 8     -1078.222          51.000
G24  22446506.234 7 117957169.990 7     -3096.566          45.000    22446507.922 7  91914671.122 7     -2412.909          46.000
G25  20222975.000 6 106272485.697 6       549.398          36.000    20222978.664 6  82809697.949 6       428.100          37.000
G29  21798654.352 8 114552694.921 8      2872.816          51.000    21798652.906 8  89261832.504 8      2238.558          51.000
R11  19472387.164 8 104054511.938 8       -47.117          51.000    19472389.414 7  80931319.984 7       -36.647          47.000
R21  19634996.789 8 105070789.522 8       707.996          48.000    19634998.727 7  81721772.680 7       550.664          46.000
R22  21874750.320 6 116768915.113 6      4301.367          38.000    21874754.742 6  90820272.717 6      3345.511          40.000
C05  39679193.422 5 206619971.643 5        37.656          34.000
C12  22646739.359 8 117927568.295 8      2380.785          48.000    22646739.766 8  91189071.380 8      1841.101          51.000
C24  21805061.055 8 113544732.157 8       180.707          51.000
C26  23240000.734 7 121016744.927 7     -2268.902          47.000
E13  25461733.758 8 133802296.982 8      2807.816          51.000    25461737.695 8 102523856.356 8      2151.444          51.000
E15  24409498.484 6 128272783.700 6       378.059          40.000
E27  23804023.141 8 125090979.823 8      -937.574          51.000    23804026.844 8  95848939.097 8      -718.347          51.000
> 2020 05 05 10 13 30.0000000  0 16        .000000000000
G06  23606419.734 6 124052576.606 6     -1011.875          36.000    23606418.008 5  96664258.260 5      -788.471          34.000
G12  20566395.992 8 108077138.303 8     -1389.309          51.000    20566395.188 8  84215941.482 8     -1082.578          51.000
G24  22464220.555 7 118050262.828 7     -3101.395          45.000    22464222.656 7  91987211.000 7     -2416.671          45.000
G25  20219882.117 6 106256233.286 6       542.469          37.000    20219884.641 6  82797033.801 6       422.709          37.000
G29  21782300.875 8 114466759.546 8      2864.629          50.000    21782298.961 8  89194869.931 8      2232.181          49.000
G32  22225194.500 5 116794184.801 5      -772.449          35.000
R11  19472703.945 8 104056205.115 8       -57.316          51.000    19472706.453 8  80932636.885 8       -44.582          48.000
R21  19631116.586 7 105050029.782 7       684.402          46.000    19631119.492 8  81705626.217 8       532.313          48.000
R22  21850615.875 6 116640094.327 6      4295.070          41.000    21850620.875 6  90720078.803 6      3340.610          41.000
C05  39678987.844 5 206618901.368 5        41.816          33.000
C12  22633070.359 7 117856392.066 7      2372.555          47.000    22633070.781 8  91134033.434 8      1834.740          51.000
C24  21804063.328 8 113539537.722 8       173.918          51.000
C26  23253105.320 7 121084985.193 7     -2272.441          46.000
E13  25445737.758 8 133718237.501 8      2804.871          51.000    25445741.336 8 102459447.177 8      2149.139          51.000
E15  24407395.969 7 128261738.408 7       367.031          42.000
E27  23809403.500 8 125119253.866 8      -938.762          51.000    23809406.875 8  95870603.618 8      -719.347          51.000
> 2020 05 05 10 14  0.0000000  0 18        .000000000000
G02  22939314.805 5 120546897.048 5       326.586          32.000
G06  23612275.180 6 124083352.834 6     -1038.145          36.000    23612277.164 6  96688239.662 6      -808.947          36.000
G12  20574378.844 8 108119088.181 8     -1405.328          51.000    20574378.086 8  84248629.698 8     -1095.061          51.000
G24  22481973.609 7 118143556.086 7     -3116.129          46.000    22481975.781 7  92059907.031 7     -2428.155          46.000
G25  20216842.758 6 106240262.219 6       524.512          37.000    20216845.539 6  82784588.848 6       408.710          36.000
G29  21766006.328 8 114381133.565 8      2845.914          50.000    21766004.828 8  89128148.433 8      2217.595          50.000
G32  22229686.016 6 116817769.800 6      -797.590          38.000
R10  22451353.758 4 119678348.160 4     -3006.363          29.000
R11  19473089.781 8 104058267.031 8       -78.141          51.000    19473092.570 8  80934240.577 8       -60.776          48.000
R21  19627381.297 7 105030044.195 7       650.137          45.000    19627385.289 8  81690081.841 8       505.659          49.000
R22  21826531.461 7 116511534.038 7      4277.852          43.000    21826537.477 7  90620087.514 7      3327.221          42.000
C05  39678770.594 5 206617769.635 5        35.312          34.000
C12  22619461.008 7 117785527.782 7      2353.793          47.000    22619461.789 8  91079236.696 8      1820.075          51.000
C24  21803117.195 8 113534612.300 8       156.637          51.000
C26  23266243.594 7 121153400.300 7     -2286.438          46.000
E13  25429770.852 8 133634330.085 8      2791.188          51.000    25429773.445 8 102395154.497 8      2138.735          50.000
E15  24405368.547 7 128251084.781 7       345.414          44.000    24405371.586 5  98270326.650 5       264.408          35.000
E27  23814803.523 8 125147630.955 8      -950.805          51.000    23814806.500 8  95892347.102 8      -728.584          51.000
> 2020 05 05 10 14 30.0000000  0 15        .000000000000
G06  23618277.484 5 124114899.261 5     -1060.805          33.000    23618284.172 5  96712821.216 5      -826.604          34.000
G12  20582455.742 8 108161532.046 8     -1419.387          51.000    20582454.914 8  84281702.837 8     -1106.016          51.000
G24  22499815.453 8 118237312.903 8     -3129.250          48.000    22499817.469 8  92132964.251 8     -2438.380          49.000
G25  20213907.641 6 106224836.630 6       508.766          40.000    20213911.312 6  82772568.910 6       396.441          41.000
G29  21749821.703 8 114296082.581 8      2829.086          51.000    21749821.133 8  89061874.977 8      2204.483          51.000
R11  19473595.281 8 104060967.456 8       -96.906          51.000    19473598.000 8  80936340.885 8       -75.375          48.000
R21  19623841.148 7 105011102.450 7       617.762          45.000    19623845.859 8  81675349.328 8       480.481          49.000
R22  21802546.953 7 116383506.318 7      4262.254          44.000    21802552.336 6  90520510.471 6      3315.089          41.000
C05  39678591.898 5 206616839.750 5        31.797          34.000
C12  22605962.523 8 117715238.732 8      2337.031          48.000    22605963.297 8  91024884.736 8      1807.156          51.000
C24  21802273.406 8 113530218.482 8       141.223          51.000
C26  23279465.602 7 121222251.570 7     -2298.602          47.000
E13  25413883.570 8 133550840.791 8      2779.719          51.000    25413885.344 8 102331182.215 8      2129.860          50.000
E15  24403466.094 7 128241087.171 7       326.051          43.000    24403465.844 6  98262666.142 6       249.813          37.000
E27  23820273.469 8 125176375.493 8      -960.543          51.000    23820276.227 8  95914372.112 8      -736.003          51.000
> 2020 05 05 10 15  0.0000000  0 15        .000000000000
G06  23624381.492 5 124146962.657 5     -1083.562          32.000    23624390.727 4  96737818.115 4      -844.331          28.000
G12  20590581.523 8 108204232.745 8     -1433.312          51.000    20590580.547 8  84314976.109 8     -1116.867          51.000
G24  22517700.148 8 118331294.709 8     -3142.172          50.000    22517701.641 8  92206196.760 8     -2448.449          50.000
G25  20211031.445 6 106209720.484 6       493.156          39.000    20211035.047 6  82760790.012 6       384.278          40.000
G29  21733702.266 8 114211372.359 8      2812.336          51.000    21733702.375 8  88995867.039 8      2191.431          51.000
R11  19474175.445 8 104064067.113 8      -115.742          51.000    19474177.805 7  80938751.715 7       -90.022          47.000
R21  19620451.383 8 104992964.165 8       585.449          48.000    19620456.484 8  81661241.761 8       455.349          49.000
R22  21778618.641 7 116255775.178 7      4246.973          46.000    21778623.180 7  90421164.084 7      3303.201          42.000
C05  39678406.609 5 206615874.672 5        27.766          34.000
C12  22592530.000 8 117645292.381 8      2320.258          48.000    22592530.766 8  90970797.816 8      1794.231          51.000
C24  21801487.180 8 113526122.937 8       125.945          51.000
C26  23292726.805 8 121291304.454 8     -2310.836          48.000
E13  25398031.336 8 133467535.311 8      2768.305          51.000    25398032.797 8 102267350.754 8      2121.204          50.000
E15  24401644.031 7 128231509.515 7       306.867          43.000    24401643.617 6  98255327.447 6       235.033          40.000
E27  23825768.422 8 125205251.374 8      -970.398          51.000    23825770.992 8  95936497.764 8      -743.447          51.000
> 2020 05 05 10 15 30.0000000  0 17        .000000000000
G02  22934221.016 5 120520179.975 5       270.133          33.000
G06  23630592.445 5 124179603.748 5     -1099.543          31.000    23630600.781 4  96763252.939 4      -856.775          29.000
G12  20598761.703 8 108247219.256 8     -1439.590          51.000    20598760.539 8  84348472.086 8     -1121.758          51.000
G24  22535633.000 8 118425529.791 8     -3147.129          50.000    22535634.656 8  92279626.596 8     -2452.311          50.000
G25  20208219.469 6 106194943.255 6       484.840          36.000    20208222.312 6  82749275.250 6       377.797          36.000
G29  21717653.625 8 114127034.138 8      2803.145          51.000    21717654.125 8  88930148.957 8      2184.268          51.000
R10  22502380.648 5 119950350.836 5     -3034.586          30.000
R11  19474836.195 8 104067597.347 8      -126.805          51.000    19474838.172 8  80941497.443 8       -98.626          48.000
R21  19617218.180 8 104975660.010 8       561.020          50.000    19617222.977 8  81647782.976 8       436.349          49.000
R22  21754752.617 7 116128375.114 7      4239.387          46.000    21754756.672 7  90322075.183 7      3297.301          43.000
C05  39678220.391 5 206614904.776 5        30.715          34.000
C12  22579169.734 8 117575719.513 8      2311.066          50.000    22579170.023 8  90916999.688 8      1787.012          51.000
C24  21800764.023 8 113522355.782 8       118.227          51.000
C26  23306032.578 8 121360587.739 8     -2315.125          50.000
E13  25382219.758 8 133384445.074 8      2764.137          51.000    25382221.375 8 102203684.225 8      2117.990          50.000
E15  24399907.688 7 128222381.608 7       294.832          43.000    24399908.711 7  98248333.367 7       225.820          42.000
E27  23831294.039 8 125234288.373 8      -972.418          51.000    23831296.531 8  95958746.883 8      -745.168          51.000
> 2020 05 05 10 16  0.0000000  0 15        .000000000000
G02  22932765.164 5 120512529.909 5       242.027          35.000    22932767.305 5  93905847.365 5       188.593          32.000
G12  20607043.953 8 108290742.581 8     -1459.887          51.000    20607042.727 8  84382386.359 8     -1137.574          51.000
G24  22553661.656 8 118520268.287 8     -3166.555          51.000    22553663.617 8  92353448.744 8     -2467.445          51.000
G25  20205519.875 6 106180757.059 6       462.969          39.000    20205522.680 6  82738221.104 6       360.755          39.000
G29  21701723.828 8 114043321.597 8      2779.785          51.000    21701724.469 8  88864918.396 8      2166.063          51.000
