     3.02           OBSERVATION DATA    M (MIXED)           RINEX VERSION / TYPE
SAVERINEX           SC600               20200517 125931 LCL PGM / RUN BY / DATE
       G = GPS       R = GLONASS       C = COMPASS          COMMENT
       S = SBAS      J = QZSS          E = GALILEO          COMMENT
BEAN                                                        MARKER NAME
1                                                           MARKER NUMBER
GEODETIC                                                    MARKER TYPE
Unige DICCA         GTER                                    OBSERVER / AGENCY
SC60291900056       SC600               2.12(191202)        REC # / TYPE / VERS
                    HEMA45          NONE                    ANT # / TYPE
  4509407.8091   693652.4678  4442337.6214                  APPROX POSITION XYZ
        0.0000        0.0000        0.0000                  ANTENNA: DELTA H/E/N
G    8 C1C L1C D1C S1C C2Y L2Y D2Y S2Y                      SYS / # / OBS TYPES
R    8 C1C L1C D1C S1C C2P L2P D2P S2P                      SYS / # / OBS TYPES
C    8 C1I L1I D1I S1I C7I L7I D7I S7I                      SYS / # / OBS TYPES
E    8 C1C L1C D1C S1C C7Q L7Q D7Q S7Q                      SYS / # / OBS TYPES
DBHZ                                                        COMMENT
     30.000                                                 INTERVAL
  2020    05    17    10    00    0.0000000     GPS         TIME OF FIRST OBS
  2020    05    17    10    59   30.0000000     GPS         TIME OF LAST OBS
     0                                                      RCV CLOCK OFFS APPL
G L1C  0.00000                                              SYS / PHASE SHIFT
G L2Y  0.00000                                              SYS / PHASE SHIFT
R L1C  0.00000                                              SYS / PHASE SHIFT
R L2P  0.25000                                              SYS / PHASE SHIFT
C L1I  0.00000                                              SYS / PHASE SHIFT
C L7I  0.00000                                              SYS / PHASE SHIFT
E L1C  0.50000                                              SYS / PHASE SHIFT
E L7Q -0.25000                                              SYS / PHASE SHIFT
 14 R02 -4 R03  5 R04  6 R05  1 R10 -5 R12 -1 R13 -2 R14 -7 GLONASS SLOT / FRQ #
    R15  0 R16 -1 R17  4 R18 -3 R19  3 R23  3               GLONASS SLOT / FRQ #
 C1C   71.950 C2C   71.950 C2P   71.950                     GLONASS COD/PHS/BIS
    18                                                      LEAP SECONDS
*** Above antenna height is from mark to ANTENNA BOTTOM.    COMMENT
    17     4        0.0000        ANT MEASURE TYPE/HEIGT    COMMENT
    0.0000    0.0000    0.0458    0.0405    0.0000          COMMENT
                    BASE STATION                            COMMENT
                                                            END OF HEADER
> 2020 05 17 10 00  0.0000000  0 15        .000000000000
G12  21258110.352 6 111712107.727 6     -2021.691          38.000    21258109.531 6  87048403.607 6     -1575.344          39.000
G24  23847149.562 6 125317597.939 6     -3590.945          38.000    23847157.133 6  97650077.340 6     -2798.139          37.000
G25  20174825.031 8 106019443.474 8      -329.461          51.000    20174826.664 8  82612538.276 8      -256.723          51.000
G29  20801979.898 8 109315133.962 8      1822.871          51.000    20801979.172 8  85180640.004 8      1420.422          51.000
G32  22793597.156 7 119781154.238 7     -1968.727          43.000    22793605.516 7  93335979.607 7     -1534.073          43.000
R15  19815250.664 8 105886616.118 8     -1333.516          51.000    19815252.953 8  82356286.236 8     -1037.179          48.000
R17  19728021.656 8 105568672.207 8     -1466.418          50.000    19728023.562 7  82109023.785 7     -1140.550          47.000
R18  19973345.758 8 106619155.380 8      2686.426          51.000    19973347.250 8  82926004.209 8      2089.442          49.000
C11  23981371.508 4 124877294.198 4     -2443.145          29.000    23981369.039 5  96563045.536 5     -1888.777          34.000
C23  22355185.070 8 116409305.943 8     -1417.051          51.000
C25  26050697.289 6 135652729.884 6     -3044.656          40.000
C28  22445887.781 8 116881710.241 8      1997.711          51.000
E05  27335110.148 7 143647006.750 7     -2438.891          43.000    27335111.578 7 110067182.761 7     -1868.763          43.000
E12  22523735.094 8 118363003.958 8      1623.312          50.000    22523734.055 8  90693768.892 8      1243.882          50.000
E24  21742157.297 8 114255806.419 8       429.363          50.000    21742170.062 8  87546692.315 8       328.939          50.000
> 2020 05 17 10 00 30.0000000  0 16        .000000000000
G12  21269673.852 6 111772876.241 6     -2029.480          41.000    21269673.078 6  87095755.706 6     -1581.413          41.000
G24  23867662.352 6 125425390.512 6     -3595.242          40.000    23867670.516 6  97734071.538 6     -2801.487          40.000
G25  20176738.055 8 106029496.218 8      -340.426          51.000    20176739.633 8  82620371.574 8      -265.267          51.000
G29  20791617.727 8 109260678.751 8      1807.711          51.000    20791616.352 8  85138207.402 8      1408.606          51.000
G32  22804878.852 7 119840434.384 7     -1982.836          43.000    22804885.875 7  93382171.879 7     -1545.070          44.000
R15  19822781.086 8 105926857.087 8     -1348.977          51.000    19822783.781 8  82387584.744 8     -1049.207          50.000
R17  19736311.828 8 105613034.659 8     -1490.797          50.000    19736313.867 8  82143527.908 8     -1159.509          48.000
R18  19958309.312 8 106538891.143 8      2664.754          51.000    19958311.836 8  82863576.467 8      2072.586          49.000
C11                                                                  23995474.055 5  96619831.336 5     -1896.102          34.000
C23  22363381.148 8 116451987.770 8     -1428.184          50.000
C25  26068246.898 6 135744121.997 6     -3048.008          41.000
C28  22434416.172 8 116821974.988 8      1984.898          51.000
E05  27349048.555 7 143720250.226 7     -2443.512          42.000    27349048.625 7 110123304.352 7     -1872.262          43.000
E12  22514504.492 8 118314496.293 8      1610.832          51.000    22514503.445 8  90656600.703 8      1234.265          50.000
E24  21739724.047 8 114243020.097 8       423.379          50.000    21739736.531 8  87536894.992 8       324.416          49.000
E31  25137611.281 6 132099037.975 6     -1699.629          37.000    25137611.242 5 101218743.022 5     -1302.071          34.000
> 2020 05 17 10 01  0.0000000  0 16        .000000000000
G12  21281281.234 6 111833873.906 6     -2037.090          37.000    21281280.984 6  87143286.318 6     -1587.349          38.000
G24  23888199.141 7 125533306.044 7     -3599.340          42.000    23888206.852 7  97818161.534 7     -2804.683          42.000
G25  20178714.391 8 106039881.692 8      -351.891          51.000    20178715.828 8  82628464.147 8      -274.200          51.000
G29  20781342.352 8 109206680.293 8      1792.250          51.000    20781341.039 8  85096130.684 8      1396.558          51.000
G32  22816239.039 7 119900128.544 7     -1996.719          42.000    22816244.812 7  93428686.740 7     -1555.888          42.000
R15  19830398.273 8 105967561.581 8     -1364.656          51.000    19830401.172 8  82419243.774 8     -1061.399          50.000
R17  19744738.867 8 105658128.836 8     -1515.355          51.000    19744740.820 7  82178601.151 7     -1178.610          47.000
R18  19943394.633 8 106459279.625 8      2642.676          50.000    19943398.062 8  82801656.417 8      2055.414          48.000
C11                                                                  24009631.109 4  96676829.464 4     -1903.451          29.000
C23  22371641.266 8 116495003.081 8     -1439.449          49.000
C25  26085816.836 6 135835617.679 6     -3051.695          40.000
C28  22423018.812 8 116762625.225 8      1971.809          51.000
E05  27363013.203 7 143793631.970 7     -2448.480          42.000    27363012.891 7 110179531.922 7     -1876.174          43.000
E12  22505345.836 8 118266366.791 8      1597.910          51.000    22505344.891 8  90619722.273 8      1224.322          51.000
E24  21737324.711 8 114230411.783 8       417.113          49.000    21737336.969 8  87527234.068 8       319.681          50.000
E31  25147330.617 6 132150102.710 6     -1704.320          36.000    25147336.484 6 101257870.518 6     -1306.075          40.000
> 2020 05 17 10 01 30.0000000  0 15        .000000000000
G12  21292934.781 6 111895112.818 6     -2045.699          39.000    21292934.281 6  87191004.885 6     -1594.051          39.000
G24  23908761.117 7 125641354.400 7     -3603.984          43.000    23908767.641 7  97902355.006 7     -2808.303          43.000
G25  20180756.312 8 106050612.228 8      -363.777          51.000    20180757.680 8  82636825.602 8      -283.463          51.000
G29  20771156.078 8 109153151.945 8      1776.156          51.000    20771155.375 8  85054420.296 8      1384.018          51.000
G32  22827679.430 7 119960246.483 7     -2011.316          42.000    22827684.656 7  93475531.818 7     -1567.260          43.000
R15  19838104.672 8 106008742.243 8     -1380.941          51.000    19838107.742 8  82451273.156 8     -1074.066          50.000
R17  19753304.336 8 105703964.758 8     -1540.562          51.000    19753306.445 8  82214251.323 8     -1198.215          48.000
R18  19928605.414 8 106380336.138 8      2619.992          51.000    19928608.750 7  82740255.965 7      2037.775          46.000
C23  22379968.461 8 116538364.018 8     -1451.512          50.000
C25  26103409.195 6 135927228.370 6     -3056.016          41.000
C28  22411698.289 8 116703674.336 8      1958.016          51.000
E05  27377005.953 7 143867162.343 7     -2453.844          43.000    27377006.125 7 110235873.373 7     -1880.254          44.000
E12  22496261.727 8 118218628.922 8      1584.379          51.000    22496260.867 8  90583143.910 8      1214.029          51.000
E24  21734961.719 8 114217994.409 8       410.391          50.000    21734973.906 8  87517719.453 8       314.461          50.000
E31  25157077.781 5 132201326.889 5     -1710.648          35.000    25157087.250 6 101297120.062 6     -1310.625          40.000
> 2020 05 17 10 02  0.0000000  0 15        .000000000000
G12  21304634.930 7 111956596.328 7     -2053.676          43.000    21304633.641 7  87238914.187 7     -1600.264          43.000
G24  23929348.875 7 125749538.630 7     -3608.418          43.000    23929353.562 7  97986654.350 7     -2811.757          42.000
G25  20182864.688 8 106061692.363 8      -375.336          51.000    20182866.141 8  82645459.471 8      -292.473          51.000
G29  20761060.203 8 109100098.531 8      1760.387          51.000    20761059.547 8  85013079.970 8      1371.730          51.000
G32  22839200.375 6 120020790.201 6     -2025.391          41.000    22839205.633 6  93522708.719 6     -1578.226          41.000
R15  19845900.805 8 106050404.020 8     -1396.887          51.000    19845904.141 8  82483676.756 8     -1086.467          49.000
R17  19762009.047 8 105750544.150 8     -1565.195          51.000    19762010.641 7  82250479.718 7     -1217.374          47.000
R18  19913943.312 8 106302068.315 8      2597.441          51.000    19913945.648 7  82679381.014 7      2020.232          45.000
C23  22388363.000 8 116582075.030 8     -1463.004          51.000
C25  26121024.602 6 136018957.657 6     -3059.797          40.000
C28  22400455.516 8 116645128.009 8      1944.641          51.000
E05  27391027.281 7 143940843.962 7     -2458.699          43.000    27391028.141 7 110292330.696 7     -1883.884          44.000
E12  22487253.164 8 118171288.332 8      1571.223          51.000    22487252.492 8  90546869.979 8      1203.921          51.000
E24  21732636.102 8 114205773.213 8       403.965          50.000    21732648.289 8  87508355.158 8       309.481          51.000
E31  25166856.242 6 132252714.913 6     -1715.637          37.000    25166864.836 5 101336495.320 5     -1314.857          35.000
> 2020 05 17 10 02 30.0000000  0 15        .000000000000
G12  21316380.055 6 112018317.176 6     -2061.465          38.000    21316379.617 6  87287008.361 6     -1606.336          39.000
G24  23949960.906 7 125857850.156 7     -3612.336          44.000    23949963.539 7  98071052.901 7     -2814.810          44.000
G25  20185038.328 8 106073115.381 8      -386.352          51.000    20185039.883 8  82654360.518 8      -301.053          51.000
G29  20751053.586 8 109047513.903 8      1745.195          51.000    20751052.648 8  84972104.935 8      1359.892          51.000
G32  22850800.164 6 120081750.406 6     -2038.727          41.000    22850805.711 6  93570210.167 6     -1588.618          41.000
R15  19853785.891 8 106092540.283 8     -1412.293          50.000    19853789.258 8  82516449.427 8     -1098.447          49.000
R17  19770850.758 8 105797857.813 8     -1589.207          51.000    19770852.211 8  82287279.246 8     -1236.050          48.000
R18  19899407.344 8 106224471.731 8      2575.500          51.000    19899408.328 7  82619028.111 7      2003.167          45.000
C23  22396823.578 8 116626129.332 8     -1474.074          51.000
C25  26138661.492 6 136110798.004 6     -3062.734          39.000
C28  22389289.211 8 116586980.721 8      1931.734          51.000
E05  27405075.445 7 144014668.094 7     -2462.988          43.000    27405077.188 7 110348897.213 7     -1887.243          43.000
E12  22478318.938 8 118124339.463 8      1558.547          51.000    22478318.492 8  90510896.194 8      1194.199          51.000
E24  21730346.750 8 114193742.141 8       397.957          50.000    21730358.930 8  87499136.534 8       304.907          51.000
E31                                                                  25176671.758 6 101375991.266 6     -1318.422          37.000
> 2020 05 17 10 03  0.0000000  0 15        .000000000000
G12  21328170.508 6 112080276.256 6     -2068.609          38.000    21328170.836 6  87335288.061 6     -1611.906          38.000
G24  23970596.883 7 125966288.454 7     -3616.055          43.000    23970598.438 7  98155550.219 7     -2817.705          43.000
G25  20187277.469 8 106084882.542 8      -397.309          51.000    20187279.195 8  82663529.722 8      -309.591          51.000
G29  20741136.523 8 108995400.371 8      1729.938          51.000    20741135.562 8  84931497.018 8      1348.003          51.000
G32  22862478.945 7 120143125.926 7     -2052.148          42.000    22862484.461 7  93618035.213 7     -1599.077          42.000
R15  19861760.234 8 106135152.596 8     -1427.719          51.000    19861763.469 8  82549592.346 8     -1110.448          49.000
R17  19779829.500 8 105845904.262 8     -1613.094          51.000    19779830.883 8  82324648.699 8     -1254.628          48.000
R18  19884997.914 8 106147550.446 8      2553.352          51.000    19884998.242 7  82559200.457 7      1985.943          46.000
C23  22405350.047 8 116670528.081 8     -1485.020          51.000
C25  26156319.141 6 136202749.748 6     -3066.207          37.000
C28  22378199.844 8 116529234.828 8      1918.875          51.000
E05  27419150.492 7 144088634.127 7     -2467.395          42.000    27419153.234 7 110405572.447 7     -1890.457          43.000
E12  22469459.688 8 118077784.660 8      1545.797          50.000    22469459.438 8  90475224.361 8      1184.442          51.000
E24  21728093.898 8 114181903.059 8       392.070          51.000    21728106.195 8  87490065.042 8       300.373          51.000
E31                                                                  25186512.039 6 101415608.872 6     -1322.112          38.000
> 2020 05 17 10 03 30.0000000  0 15        .000000000000
G12  21340005.328 7 112142467.307 7     -2077.324          42.000    21340004.828 7  87383748.624 7     -1618.694          43.000
G24  23991255.188 7 126074845.902 7     -3621.375          42.000    23991256.523 7  98240140.355 7     -2821.854          42.000
G25  20189581.086 8 106096988.104 8      -409.738          51.000    20189582.984 8  82672962.627 8      -319.277          51.000
G29  20731308.133 8 108943753.174 8      1713.250          51.000    20731307.172 8  84891252.469 8      1335.000          51.000
G32  22874235.570 7 120204908.300 7     -2066.711          44.000    22874240.703 7  93666177.295 7     -1610.424          44.000
R15  19869822.938 8 106178235.593 8     -1444.543          51.000    19869825.461 8  82583101.339 8     -1123.533          48.000
R17  19788943.422 8 105894674.924 8     -1638.312          51.000    19788945.039 8  82362581.452 8     -1274.243          48.000
R18  19870714.148 8 106071301.400 8      2529.820          51.000    19870715.062 8  82499895.707 8      1967.641          48.000
C23  22413941.344 8 116715265.465 8     -1497.457          51.000
C25  26173995.602 5 136294806.390 5     -3070.672          31.000
C28  22367186.594 8 116471885.757 8      1904.414          51.000
E05  27433251.094 6 144162734.325 6     -2472.820          41.000    27433255.125 7 110462350.515 7     -1894.776          43.000
E12  22460674.445 8 118031619.299 8      1531.828          49.000    22460674.117 8  90439850.928 8      1173.670          50.000
E24  21725876.672 8 114170250.924 8       384.703          51.000    21725889.117 8  87481136.782 8       294.784          51.000
E31                                                                  25196380.922 5 101455343.895 5     -1327.015          34.000
> 2020 05 17 10 04  0.0000000  0 15        .000000000000
G12  21351887.258 7 112204905.167 7     -2085.238          43.000    21351886.078 7  87432401.549 7     -1624.858          43.000
G24  24011938.070 6 126183536.036 6     -3625.031          41.000    24011939.883 6  98324833.877 6     -2824.703          41.000
G25  20191952.078 8 106109447.621 8      -421.121          51.000    20191954.055 8  82682671.340 8      -328.143          51.000
G29  20721571.578 8 108892588.486 8      1697.480          51.000    20721570.641 8  84851383.881 8      1322.712          51.000
G32  22886072.539 7 120267110.528 7     -2080.383          46.000    22886076.602 7  93714646.536 7     -1621.081          46.000
R15  19877976.781 8 106221805.258 8     -1460.328          51.000    19877978.852 7  82616988.800 7     -1135.814          46.000
R17  19798195.016 8 105944182.941 8     -1662.445          51.000    19798196.680 7  82401087.665 7     -1293.013          47.000
R18  19856559.406 8 105995743.244 8      2507.133          51.000    19856561.227 8  82441128.325 8      1949.995          49.000
C23  22422600.484 8 116760356.727 8     -1508.906          51.000
C25  26191693.742 5 136386982.372 5     -3073.949          33.000
C28  22356252.586 8 116414950.035 8      1891.039          51.000
E05  27447379.914 7 144236982.210 7     -2477.309          42.000    27447384.906 7 110519241.689 7     -1898.108          42.000
E12  22451966.289 8 117985860.028 8      1518.629          48.000    22451965.516 8  90404788.630 8      1163.664          48.000
E24  21723698.109 8 114158801.949 8       378.340          51.000    21723710.672 8  87472364.189 8       289.894          51.000
E31                                                                  25206277.172 4 101495232.506 4     -1330.745          29.000
> 2020 05 17 10 04 30.0000000  0 15        .000000000000
G12  21363810.438 6 112267559.893 6     -2092.309          40.000    21363808.383 6  87481223.369 6     -1630.373          40.000
G24  24032639.672 6 126292327.718 6     -3628.496          39.000    24032642.688 6  98409606.558 6     -2827.403          39.000
G25  20194384.852 8 106122231.526 8      -432.074          51.000    20194386.734 8  82692632.817 8      -336.681          51.000
G29  20711921.703 8 108841877.763 8      1682.223          51.000    20711920.883 8  84811869.020 8      1310.823          51.000
G32  22897983.312 8 120329700.469 8     -2093.281          48.000    22897986.531 8  93763417.866 8     -1631.128          48.000
R15  19886216.016 8 106265831.734 8     -1475.758          51.000    19886217.266 7  82651231.573 7     -1147.812          45.000
R17  19807578.406 8 105994395.232 8     -1686.000          51.000    19807580.391 7  82440141.687 7     -1311.333          47.000
R18  19842528.836 8 105920848.092 8      2484.887          51.000    19842531.297 8  82382876.592 8      1932.690          49.000
C23  22431321.547 8 116805772.481 8     -1519.785          50.000
C25  26209413.109 5 136479247.633 5     -3077.117          34.000
C28  22345392.352 8 116358399.435 8      1878.023          51.000
E05  27461530.914 7 144311346.276 7     -2481.141          43.000    27461535.211 6 110576221.883 6     -1901.116          41.000
E12  22443329.445 7 117940478.358 7      1505.906          46.000    22443329.023 8  90370015.682 8      1153.864          48.000
E24  21721552.586 8 114147527.242 8       372.387          51.000    21721565.227 8  87463725.124 8       285.311          51.000
E31  25216198.867 6 132511997.070 6     -1741.348          38.000    25216203.727 5 101535199.961 5     -1334.657          32.000
> 2020 05 17 10 05  0.0000000  0 16        .000000000000
G12  21375780.031 6 112330458.759 6     -2100.773          40.000    21375777.148 6  87530235.437 6     -1636.969          39.000
G24  24053365.281 6 126401247.175 6     -3633.066          36.000    24053369.680 6  98494478.820 6     -2830.964          37.000
G25  20196884.750 8 106135368.145 8      -443.805          51.000    20196886.602 8  82702869.141 8      -345.822          51.000
G29  20702363.844 8 108791649.760 8      1666.105          51.000    20702363.164 8  84772730.318 8      1298.264          51.000
G32  22909972.789 8 120392703.818 8     -2106.863          48.000    22909975.484 8  93812511.349 8     -1641.715          48.000
R15  19894545.977 8 106310344.167 8     -1491.867          51.000    19894547.258 7  82685852.302 7     -1160.341          46.000
R17  19817098.398 8 106045338.204 8     -1710.301          51.000    19817100.289 7  82479763.977 7     -1330.234          47.000
R18  19828628.727 8 105846647.699 8      2461.680          51.000    19828630.625 8  82325165.170 8      1914.640          48.000
C23  22440110.422 8 116851540.685 8     -1531.508          51.000
C25  26227155.961 6 136571629.431 6     -3081.145          36.000
C28  22334611.828 8 116302263.170 8      1864.273          51.000
E05  27475708.836 7 144385852.877 7     -2485.957          44.000    27475710.812 6 110633311.289 6     -1904.564          39.000
E12  22434770.125 7 117895503.691 7      1492.371          45.000    22434770.141 8  90335554.573 8      1143.454          49.000
E24  21719445.680 8 114136455.814 8       365.633          51.000    21719458.344 8  87455241.814 8       280.118          51.000
E31  25226159.305 6 132564331.265 6     -1747.250          39.000    25226162.367 5 101575300.029 5     -1338.871          33.000
E33  25458400.172 6 133784824.630 6     -1373.191          36.000    25458396.555 5 102510436.288 5     -1051.770          34.000
> 2020 05 17 10 05 30.0000000  0 16        .000000000000
G12  21387792.789 6 112393584.601 6     -2108.602          41.000    21387789.828 6  87579424.372 6     -1643.063          41.000
G24  24074112.383 6 126510275.487 6     -3636.766          37.000    24074116.742 6  98579435.917 6     -2833.846          36.000
G25  20199448.523 8 106148840.575 8      -455.316          51.000    20199450.492 8  82713367.131 8      -354.792          51.000
G29  20692894.664 8 108741888.279 8      1650.332          51.000    20692894.172 8  84733955.160 8      1285.976          51.000
G32  22922037.195 8 120456101.020 8     -2120.293          48.000    22922040.148 8  93861911.738 8     -1652.176          48.000
R15  19902963.180 8 106355325.400 8     -1507.727          51.000    19902965.031 7  82720837.635 7     -1172.679          46.000
R17  19826751.039 8 106096991.539 8     -1734.117          51.000    19826752.734 7  82519938.802 7     -1348.758          47.000
R18  19814856.148 8 105773127.572 8      2438.738          51.000    19814857.281 8  82267982.820 8      1896.796          49.000
C23  22448964.211 8 116897644.416 8     -1542.918          51.000
C25  26244917.891 5 136664110.020 5     -3085.160          35.000
C28  22323908.078 8 116246525.529 8      1850.727          51.000
E05  27489910.250 7 144460483.146 7     -2490.488          43.000    27489909.523 6 110690495.457 6     -1908.021          38.000
E12  22426286.070 7 117850920.155 7      1479.039          46.000    22426286.336 8  90301393.160 8      1133.266          50.000
E24  21717374.289 8 114125571.383 8       359.098          51.000    21717387.047 8  87446901.790 8       275.114          51.000
E31  25236145.414 6 132616816.807 6     -1752.523          37.000    25236149.062 6 101615516.013 6     -1343.088          36.000
E33  25466269.922 5 133826160.252 5     -1385.828          33.000    25466271.469 5 102542138.094 5     -1062.117          35.000
> 2020 05 17 10 06  0.0000000  0 17        .000000000000
G12  21399849.766 6 112456944.004 6     -2116.625          39.000    21399847.922 6  87628795.376 6     -1649.318          40.000
G24  24094881.820 6 126619418.669 6     -3640.496          38.000    24094885.258 6  98664482.507 6     -2836.750          38.000
G25  20202077.469 8 106162655.894 8      -466.766          51.000    20202079.562 8  82724132.306 8      -363.713          51.000
G29  20683515.836 8 108692601.412 8      1634.441          51.000    20683515.344 8  84695549.813 8      1273.591          51.000
G32  22934177.359 7 120519896.563 7     -2133.730          47.000    22934180.734 7  93911622.517 7     -1662.650          47.000
R15  19911469.844 8 106400782.904 8     -1523.781          51.000    19911472.242 8  82756193.493 8     -1185.160          48.000
R17  19836537.250 8 106149359.716 8     -1758.020          51.000    19836539.203 7  82560669.611 7     -1367.349          47.000
R18  19801212.469 8 105700297.243 8      2415.582          51.000    19801214.016 8  82211337.009 8      1878.786          50.000
C11  24154124.531 5 125776855.715 5     -2553.613          30.000    24154129.867 5  97258604.420 5     -1974.287          31.000
C23  22457884.023 8 116944090.590 8     -1554.465          51.000
C25  26262699.891 5 136756695.550 5     -3088.707          35.000
C28  22313282.375 8 116191194.602 8      1837.000          50.000
E05  27504136.367 7 144535242.235 7     -2494.715          43.000    27504134.156 6 110747778.350 6     -1911.547          38.000
E12  22417878.391 7 117806735.855 7      1465.645          47.000    22417878.758 8  90267537.670 8      1123.014          50.000
E24  21715340.047 8 114114881.756 8       352.535          51.000    21715352.844 8  87438711.027 8       270.160          51.000
E31  25246163.047 6 132669460.770 6     -1757.906          39.000    25246165.430 5 101655853.561 5     -1347.242          35.000
E33                                                                  25474219.445 5 102574136.356 5     -1071.952          35.000
> 2020 05 17 10 06 30.0000000  0 17        .000000000000
G12  21411952.109 6 112520541.175 6     -2123.203          36.000    21411950.250 6  87678351.600 6     -1654.447          37.000
G24  24115674.008 6 126728679.280 6     -3643.535          41.000    24115676.945 6  98749620.594 6     -2839.121          40.000
G25  20204772.555 8 106176819.108 8      -477.508          51.000    20204774.742 8  82735168.568 8      -372.084          51.000
G29  20674228.203 8 108643794.484 8      1619.328          51.000    20674227.711 8  84657518.443 8      1261.817          51.000
G32  22946393.484 7 120584092.759 7     -2146.094          47.000    22946396.664 7  93961645.515 7     -1672.281          47.000
R15  19920066.188 8 106446721.880 8     -1538.836          51.000    19920069.250 8  82791923.812 8     -1196.872          49.000
R17  19846457.383 8 106202444.928 8     -1780.957          51.000    19846459.273 7  82601958.105 7     -1385.189          46.000
R18  19787699.062 8 105628164.296 8      2393.254          51.000    19787701.641 8  82155233.643 8      1861.420          50.000
C11  24168859.656 5 125853572.865 5     -2561.227          30.000    24168861.477 5  97317927.299 5     -1980.491          33.000
C23  22466870.336 8 116990883.978 8     -1565.074          51.000
C25  26280502.656 5 136849390.026 5     -3091.117          34.000
C28  22302735.883 8 116136276.407 8      1824.152          50.000
E05  27518387.703 7 144610133.172 7     -2497.926          42.000    27518385.805 6 110805162.252 6     -1913.720          38.000
E12  22409547.695 7 117762956.845 7      1453.023          47.000    22409548.375 8  90233992.720 8      1113.415          51.000
E24  21713344.039 8 114104392.574 8       346.859          51.000    21713356.859 8  87430673.852 8       265.760          51.000
E31  25256211.641 6 132722268.403 6     -1762.551          36.000    25256212.164 6 101696316.590 6     -1350.400          36.000
E33  25482237.578 6 133910080.759 6     -1410.828          36.000    25482239.969 6 102606433.988 6     -1081.036          36.000
> 2020 05 17 10 07  0.0000000  0 17        .000000000000
G02  23125034.008 6 121522844.617 6     -1104.188          39.000    23125032.375 4  94693154.886 4      -860.406          28.000
G12  21424098.711 6 112584371.792 6     -2131.711          39.000    21424096.117 6  87728089.791 6     -1661.067          39.000
G24  24136487.812 6 126838051.551 6     -3647.602          41.000    24136489.930 6  98834845.664 6     -2842.290          41.000
G25  20207533.062 8 106191326.156 8      -489.133          51.000    20207535.242 8  82746472.746 8      -381.142          51.000
G29  20665031.008 8 108595464.280 8      1603.148          51.000    20665030.656 8  84619858.571 8      1249.210          51.000
G32  22958684.375 7 120648682.959 7     -2159.473          46.000    22958686.992 7  94011975.531 7     -1682.706          45.000
R15  19928752.531 8 106493138.462 8     -1555.039          51.000    19928755.812 8  82828025.602 8     -1209.475          50.000
R17  19856510.453 8 106256240.245 8     -1804.852          51.000    19856512.219 7  82643798.891 7     -1403.773          47.000
R18  19774315.938 8 105556727.173 8      2369.707          51.000    19774319.469 8  82099671.472 8      1843.109          49.000
C11  24183640.969 4 125930565.347 4     -2569.918          27.000    24183642.688 5  97377452.663 5     -1987.405          34.000
C23  22475922.680 8 117038020.428 8     -1576.812          51.000
C28  22292268.070 8 116081768.013 8      1810.238          50.000
E05  27532663.164 7 144685149.930 7     -2502.582          42.000    27532662.727 6 110862642.562 6     -1917.302          40.000
E12  22401293.602 8 117719580.120 8      1439.312          48.000    22401294.586 8  90200756.018 8      1102.796          51.000
E24  21711385.516 8 114094100.507 8       339.895          51.000    21711398.430 8  87422787.723 8       260.430          51.000
E31  25266290.398 6 132775235.796 6     -1768.332          37.000    25266290.945 6 101736902.014 6     -1354.875          37.000
E33  25490331.211 6 133952617.497 6     -1424.246          36.000    25490333.641 5 102639027.003 5     -1091.359          35.000
> 2020 05 17 10 07 30.0000000  0 17        .000000000000
G02  23131382.320 6 121556212.774 6     -1120.281          37.000    23131368.312 5  94719083.039 5      -872.946          32.000
G12  21436288.742 4 112648457.721 4     -2139.023          29.000    21436287.328 4  87778008.953 4     -1666.784          29.000
G24  24157322.031 6 126947533.597 6     -3650.918          40.000    24157322.852 6  98920156.226 6     -2844.874          40.000
G25  20210359.039 8 106206177.007 8      -500.578          51.000    20210361.188 8  82758044.826 8      -390.061          51.000
G29  20655924.656 8 108547611.688 8      1587.273          50.000    20655924.391 8  84582570.870 8      1236.836          50.000
G32  22971049.672 7 120713664.400 7     -2172.227          45.000    22971052.008 7  94062610.416 7     -1692.644          44.000
R15  19937528.398 8 106540032.775 8     -1570.883          51.000    19937531.680 8  82864498.936 8     -1221.798          50.000
R17  19866695.609 8 106310742.606 8     -1828.289          51.000    19866697.297 7  82686189.620 7     -1422.006          47.000
R18  19761064.094 8 105485988.340 8      2346.492          51.000    19761067.484 8  82044652.380 8      1825.049          49.000
C11                                                                  24198473.977 5  97437178.944 5     -1994.011          34.000
C23  22485040.898 8 117085499.713 8     -1588.152          51.000
C28  22281878.805 8 116027670.330 8      1796.609          51.000
E05  27546962.406 7 144760290.510 7     -2506.613          42.000    27546963.719 6 110920217.760 6     -1920.685          40.000
E12  22393116.469 8 117676606.672 8      1425.844          49.000    22393117.508 8  90167828.311 8      1092.604          51.000
E24  21709464.578 8 114084006.192 8       333.367          51.000    21709477.594 8  87415053.112 8       255.428          51.000
E31  25276400.617 6 132828363.040 6     -1773.539          38.000    25276401.828 6 101777609.919 6     -1358.886          38.000
E33  25498497.992 5 133995511.360 5     -1437.211          31.000    25498500.992 6 102671914.387 6     -1100.967          36.000
> 2020 05 17 10 08  0.0000000  0 17        .000000000000
G02  23137825.383 5 121590065.104 5     -1136.402          35.000    23137811.867 5  94745470.088 5      -885.508          33.000
G12  21448522.039 5 112712747.066 5     -2146.891          34.000    21448521.320 5  87828104.576 5     -1672.902          33.000
G24  24178175.602 6 127057118.630 6     -3654.484          41.000    24178174.359 6  99005547.030 6     -2847.653          41.000
G25  20213249.422 8 106221366.071 8      -511.879          51.000    20213251.656 8  82769880.450 8      -398.867          51.000
G29  20646907.922 8 108500231.316 8      1571.527          49.000    20646907.805 8  84545651.129 8      1224.567          49.000
G32  22983487.914 7 120779028.846 7     -2185.012          45.000    22983490.273 7  94113543.749 7     -1702.607          45.000
R15  19946392.617 8 106587399.345 8     -1586.645          51.000    19946395.633 8  82901339.569 8     -1234.057          50.000
R17  19877011.227 8 106365943.312 8     -1851.477          51.000    19877012.688 7  82729123.494 7     -1440.037          47.000
R18  19747942.617 8 105415944.608 8      2323.363          50.000    19747945.555 8  81990173.926 8      1807.060          49.000
C11                                                                  24213353.828 5  97497100.305 5     -2000.656          32.000
C23  22494223.805 8 117133316.089 8     -1599.367          51.000
C28  22271567.758 8 115973978.835 8      1783.082          51.000
E05  27561283.930 6 144835547.380 6     -2510.410          41.000    27561286.305 6 110977882.080 6     -1923.486          40.000
E12  22385015.055 8 117634031.883 8      1412.621          49.000    22385016.117 8  90135206.078 8      1082.470          51.000
E24  21707580.266 8 114074104.723 8       327.039          51.000    21707593.484 8  87407466.256 8       250.591          51.000
E31  25286540.141 6 132881644.712 6     -1778.570          40.000    25286542.344 6 101818436.106 6     -1362.699          37.000
E33  25506738.484 6 134038812.567 6     -1449.383          37.000    25506740.805 6 102705090.977 6     -1110.512          37.000
> 2020 05 17 10 08 30.0000000  0 16        .000000000000
G02  23144360.383 6 121624403.941 6     -1152.539          38.000    23144356.070 5  94772268.372 5      -898.082          30.000
G24  24199048.977 6 127166807.691 6     -3658.105          41.000    24199047.359 6  99091018.952 6     -2850.469          41.000
G25  20216204.906 8 106236897.085 8      -523.391          51.000    20216207.125 8  82781982.525 8      -407.837          51.000
G29  20637982.211 8 108453327.792 8      1555.473          50.000    20637981.891 8  84509102.917 8      1212.057          50.000
G32  22995999.383 7 120844777.366 7     -2198.199          47.000    22996001.500 7  94164776.348 7     -1712.883          47.000
R15  19955345.883 8 106635242.227 8     -1602.730          51.000    19955348.750 8  82938550.677 8     -1246.571          49.000
R17  19887457.250 8 106421843.306 8     -1875.004          51.000    19887459.148 8  82772601.277 8     -1458.336          48.000
R18  19734952.406 8 105346601.881 8      2299.723          50.000    19734954.906 8  81936240.695 8      1788.673          49.000
C11                                                                  24228283.266 5  97557218.160 5     -2007.304          33.000
C23  22503471.867 8 117181473.101 8     -1610.965          51.000
C28  22261335.891 8 115920698.301 8      1769.176          51.000
E05  27575627.711 6 144910922.317 6     -2514.469          41.000    27575630.539 6 111035636.881 6     -1926.599          40.000
E12  22376990.352 8 117591860.506 8      1398.969          50.000    22376991.258 8  90102892.945 8      1071.892          51.000
E24  21705733.445 8 114064400.548 8       320.223          51.000    21705746.852 8  87400030.582 8       245.377          51.000
E31  25296709.609 6 132935084.705 6     -1783.855          40.000    25296710.984 6 101859383.629 6     -1366.814          36.000
E33  25515050.078 6 134082490.805 6     -1461.879          37.000    25515053.062 6 102738558.710 6     -1120.380          37.000
> 2020 05 17 10 09  0.0000000  0 17        .000000000000
G02  23150987.414 5 121659228.581 5     -1168.797          34.000    23150985.078 5  94799412.559 5      -910.751          32.000
G12  21473121.422 4 112842013.913 4     -2162.258          29.000    21473119.289 4  87928853.203 4     -1684.879          29.000
G24  24219941.875 6 127276599.066 6     -3661.375          40.000    24219941.758 6  99176570.589 6     -2853.023          40.000
G25  20219225.469 8 106252769.915 8      -535.039          51.000    20219227.469 8  82794350.951 8      -416.914          51.000
G29  20629147.477 8 108406901.316 8      1539.461          50.000    20629147.180 8  84472926.436 8      1199.583          50.000
G32  23008583.711 8 120910907.055 8     -2210.695          48.000    23008585.133 8  94216305.940 8     -1722.620          48.000
R15  19964388.039 8 106683560.980 8     -1618.672          51.000    19964390.938 8  82976131.903 8     -1258.967          48.000
R17  19898033.828 8 106478439.434 8     -1898.184          51.000    19898035.562 8  82816620.464 8     -1476.368          48.000
R18  19722093.781 8 105277962.462 8      2276.152          51.000    19722096.438 8  81882854.483 8      1770.341          49.000
C11                                                                  24243262.195 5  97617530.681 5     -2013.669          35.000
C23  22512784.914 8 117229970.357 8     -1622.305          51.000
C28  22251183.117 8 115867829.525 8      1755.344          51.000
E05  27589993.109 6 144986413.187 6     -2518.379          40.000    27589996.359 6 111093480.504 6     -1929.742          41.000
E12  22369042.609 8 117550093.333 8      1385.359          50.000    22369043.367 8  90070889.540 8      1061.524          51.000
E24  21703924.289 8 114054894.168 8       313.469          51.000    21703937.750 8  87392746.467 8       240.241          51.000
E31  25306908.883 6 132988683.018 6     -1789.602          36.000    25306910.039 6 101900452.413 6     -1371.100          37.000
E33  25523434.445 5 134126552.520 5     -1475.113          34.000    25523436.430 5 102772316.440 5     -1130.156          35.000
> 2020 05 17 10 09 30.0000000  0 17        .000000000000
G02  23157707.094 6 121694540.385 6     -1186.797          36.000    23157717.875 5  94826984.302 5      -924.777          30.000
G12  21485485.875 5 112906994.397 5     -2171.152          33.000    21485484.500 5  87979469.609 5     -1691.807          34.000
G24  24240854.438 6 127386493.684 6     -3666.465          39.000    24240856.367 6  99262202.643 6     -2856.989          40.000
G25  20222311.625 8 106268987.108 8      -548.031          51.000    20222313.414 8  82806987.720 8      -427.040          51.000
G29  20620404.422 8 108360955.510 8      1521.738          51.000    20620404.445 8  84437124.521 8      1185.770          51.000
G32  23021240.586 8 120977417.951 8     -2225.137          49.000    23021241.289 8  94268132.585 8     -1733.873          48.000
R15  19973519.680 8 106732358.492 8     -1636.305          50.000    19973522.383 7  83014085.505 7     -1272.681          47.000
R17  19908740.062 8 106535731.482 8     -1923.051          51.000    19908741.867 8  82861180.944 8     -1495.706          48.000
R18  19709367.844 8 105210031.380 8      2250.730          50.000    19709370.875 8  81830019.199 8      1750.571          49.000
C11  24258282.773 4 126319255.491 4     -2614.238          29.000    24258290.227 6  97678038.502 6     -2021.706          37.000
C23  22522164.008 8 117278810.327 8     -1635.426          51.000
C28  22241110.016 8 115815376.115 8      1739.828          51.000
E05  27604380.703 6 145062020.708 6     -2524.102          41.000    27604383.992 6 111151413.490 6     -1934.049          40.000
E12  22361172.320 8 117508733.989 8      1370.125          51.000    22361172.938 8  90039198.638 8      1049.818          50.000
E24  21702153.422 8 114045588.973 8       304.984          51.000    21702167.008 8  87385616.492 8       233.743          51.000
E31  25317138.031 5 133042459.387 5     -1796.523          35.000    25317140.672 6 101941644.579 6     -1376.488          36.000
E33  25531890.883 5 134170992.130 5     -1489.426          35.000    25531890.617 5 102806365.232 5     -1141.230          34.000
> 2020 05 17 10 10  0.0000000  0 17        .000000000000
G02  23164519.734 6 121730342.274 6     -1201.195          36.000
G12  21497896.242 5 112972208.035 5     -2176.773          32.000    21497895.250 5  88030285.429 5     -1696.187          31.000
G24  24261787.102 6 127496493.793 6     -3667.910          38.000    24261790.500 6  99347916.969 6     -2858.115          39.000
G25  20225464.062 8 106285552.940 8      -557.523          51.000    20225465.625 8  82819896.152 8      -434.434          51.000
G29  20611754.102 8 108315494.999 8      1507.730          51.000    20611754.070 8  84401700.730 8      1174.855          51.000
G32  23033970.266 8 121044311.429 8     -2235.547          48.000    23033970.695 8  94320257.362 8     -1741.985          49.000
R15  19982741.633 8 106781639.397 8     -1650.141          50.000    19982744.641 7  83052415.068 7     -1283.446          47.000
R17  19919576.984 8 106593720.553 8     -1943.965          51.000    19919578.367 8  82906283.537 8     -1511.973          48.000
R18  19696775.742 8 105142815.334 8      2229.191          48.000    19696779.414 8  81777740.060 8      1733.816          50.000
C11  24273358.344 5 126397760.271 5     -2621.207          32.000    24273367.070 6  97738743.265 6     -2026.219          36.000
C23  22531610.203 8 117327996.933 8     -1644.691          51.000
C28  22231117.531 8 115763343.196 8      1727.969          51.000
E05  27618791.055 7 145137747.083 7     -2525.785          42.000    27618793.828 6 111209437.531 6     -1934.986          39.000
E12  22353380.586 8 117467787.620 8      1358.578          51.000    22353380.938 8  90007824.183 8      1041.012          50.000
E24  21700421.836 8 114036489.769 8       300.500          51.000    21700435.484 8  87378644.367 8       230.247          51.000
E31                                                                  25327402.984 5 101982963.446 5     -1379.023          33.000
E33  25540419.156 6 134215810.539 6     -1499.438          36.000    25540418.516 5 102840707.389 5     -1149.195          35.000
> 2020 05 17 10 10 30.0000000  0 16        .000000000000
G12  21510348.000 6 113037640.552 6     -2184.879          36.000    21510348.039 6  88081273.362 6     -1702.503          36.000
G24  24282737.164 6 127606584.574 6     -3671.344          38.000    24282740.875 6  99433701.948 6     -2860.787          38.000
G25  20228680.242 8 106302454.168 8      -569.090          51.000    20228681.672 8  82833065.930 8      -443.447          51.000
G29  20603193.781 8 108270507.210 8      1491.605          51.000    20603193.539 8  84366645.286 8      1162.290          51.000
G32  23046769.547 8 121111571.662 8     -2248.336          48.000    23046770.414 8  94372667.901 8     -1751.950          48.000
R15  19992051.562 8 106831390.156 8     -1666.336          50.000    19992054.703 7  83091110.077 7     -1296.039          47.000
R17  19930540.539 8 106652390.137 8     -1967.164          51.000    19930542.539 8  82951915.441 8     -1530.016          48.000
R18  19684315.688 8 105076303.164 8      2205.102          49.000    19684319.609 8  81726008.378 8      1715.079          49.000
C11  24288481.984 5 126476504.541 5     -2629.145          35.000    24288489.875 5  97799633.307 5     -2032.716          34.000
C23  22541120.305 8 117377516.951 8     -1656.410          51.000
C28  22221203.531 8 115711718.669 8      1713.848          51.000
E05  27633221.211 7 145213577.193 7     -2529.555          42.000    27633223.180 6 111267541.083 6     -1938.182          38.000
E12  22345665.109 8 117427242.011 8      1344.711          50.000    22345665.367 8  89976756.808 8      1030.384          49.000
E24  21698727.203 8 114027584.103 8       293.559          51.000    21698740.789 8  87371820.539 8       224.893          51.000
E31                                                                  25337691.094 4 102024382.164 4     -1383.273          29.000
E33  25549017.766 6 134260998.435 6     -1512.648          38.000    25549018.812 6 102875331.802 6     -1158.976          36.000
> 2020 05 17 10 11  0.0000000  0 17        .000000000000
G02  23178404.570 5 121803333.919 5     -1232.770          33.000
G12  21522841.211 5 113103294.849 5     -2191.441          35.000    21522841.234 5  88132432.608 5     -1707.617          34.000
G24  24303703.688 5 127716763.695 5     -3673.285          35.000    24303707.312 5  99519555.736 5     -2862.300          33.000
G25  20231960.070 8 106319690.525 8      -579.492          51.000    20231961.641 8  82846496.848 8      -451.552          51.000
G29  20594722.992 8 108225992.261 8      1476.672          50.000    20594722.906 8  84331958.321 8      1150.653          50.000
G32  23059638.031 8 121179195.512 8     -2259.426          49.000    23059639.375 8  94425361.786 8     -1760.592          49.000
R15  20001449.602 8 106881610.600 8     -1681.199          51.000    20001452.797 8  83130170.401 8     -1307.599          49.000
R17  19941631.109 8 106711736.757 8     -1988.770          50.000    19941632.727 8  82998073.905 8     -1546.821          48.000
R18  19671988.188 8 105010496.902 8      2182.457          50.000    19671991.820 8  81674825.695 8      1697.464          49.000
C11  24303651.062 6 126555486.276 6     -2635.516          36.000    24303660.133 4  97860766.917 4     -2038.353          28.000
C23  22550694.320 8 117427369.758 8     -1666.617          51.000
C28  22211368.133 8 115660503.137 8      1701.086          51.000
E05  27647670.336 6 145289508.756 6     -2532.008          40.000    27647672.109 6 111325722.351 6     -1940.032          37.000
E12  22338025.867 8 117387097.754 8      1332.078          49.000    22338026.016 8  89945996.966 8      1020.662          49.000
E24  21697069.484 8 114018872.355 8       287.824          51.000    21697082.938 8  87365145.294 8       220.523          51.000
E31                                                                  25348008.602 5 102065926.518 5     -1386.847          32.000
E33  25557686.562 5 134306549.062 5     -1523.816          35.000    25557690.078 6 102910237.282 6     -1167.435          36.000
> 2020 05 17 10 11 30.0000000  0 16        .000000000000
G02  23185492.641 4 121840570.115 4     -1249.586          27.000
G24  24324686.883 5 127827030.687 5     -3679.199          34.000    24324689.977 5  99605478.032 5     -2866.908          35.000
G25  20235303.891 8 106337263.018 8      -594.227          51.000    20235305.578 8  82860189.687 8      -463.034          51.000
G29  20586342.422 8 108181951.779 8      1457.391          51.000    20586342.391 8  84297641.040 8      1135.626          51.000
G32  23072575.445 8 121247181.342 8     -2274.930          48.000    23072576.945 8  94478337.732 8     -1772.672          48.000
R15  20010935.906 8 106932301.897 8     -1700.332          51.000    20010939.461 8  83169596.943 8     -1322.480          50.000
R17  19952847.180 8 106771758.668 8     -2014.770          51.000    19952849.109 8  83044757.630 8     -1567.043          49.000
R18  19659793.570 8 104945399.779 8      2155.242          51.000    19659797.211 8  81624194.585 8      1676.299          49.000
C11  24318865.039 5 126634704.481 5     -2647.117          34.000
C23  22560332.297 8 117477556.219 8     -1681.160          51.000
C28  22201611.773 8 115609698.626 8      1683.953          51.000
E05  27662137.680 6 145365540.831 6     -2538.910          38.000    27662141.148 6 111383980.631 6     -1945.345          36.000
E12  22330463.109 8 117347356.856 8      1315.242          48.000    22330463.461 8  89915546.162 8      1007.774          49.000
E24  21695449.008 8 114010356.313 8       277.828          51.000    21695462.281 8  87358620.005 8       212.866          51.000
E31  25358360.117 5 133259070.953 5     -1817.887          35.000    25358359.391 5 102107596.294 5     -1393.028          35.000
E33  25566423.039 5 134352459.095 5     -1539.496          31.000    25566429.055 5 102945423.665 5     -1179.533          34.000
> 2020 05 17 10 12  0.0000000  0 17        .000000000000
G12  21547960.805 5 113235297.252 5     -2207.508          33.000
G24  24345691.805 5 127937415.427 5     -3680.965          31.000    24345694.797 5  99691492.065 5     -2868.287          31.000
G25  20238717.906 8 106355203.699 8      -603.516          51.000    20238719.508 8  82874169.424 8      -470.272          51.000
G29  20578058.453 8 108138418.427 8      1443.363          51.000    20578058.164 8  84263718.945 8      1124.699          51.000
G32  23085587.266 8 121315558.504 8     -2285.086          48.000    23085588.898 8  94531618.591 8     -1780.589          49.000
R15  20020516.477 8 106983496.526 8     -1714.172          51.000    20020519.883 8  83209414.972 8     -1333.245          50.000
R17  19964195.422 8 106832485.187 8     -2035.223          51.000    19964197.383 8  83091989.335 8     -1582.951          48.000
R18  19647738.008 8 104881046.438 8      2133.348          51.000    19647742.094 8  81574142.019 8      1659.270          49.000
C05  39678164.164 5 206614614.120 5        31.719          35.000    39678160.531 6 159767519.477 6        24.711          37.000
C11  24334130.125 5 126714188.949 5     -2653.371          31.000    24334125.828 4  97983454.518 4     -2052.794          29.000
C23  22570039.938 8 117528107.829 8     -1690.484          51.000
C28  22191940.734 8 115559337.814 8      1671.945          51.000
E05  27676629.641 6 145441703.561 6     -2540.301          38.000    27676636.383 6 111442339.032 6     -1946.138          36.000
E12  22322983.102 7 117308052.272 7      1303.617          46.000    22322983.930 8  89885429.674 8       998.840          50.000
E24  21693872.070 8 114002068.691 8       273.148          51.000    21693885.156 8  87352269.747 8       209.296          51.000
E31  25368746.047 6 133313650.234 6     -1821.648          37.000    25368745.422 5 102149408.318 5     -1395.336          34.000
E33  25575237.523 6 134398778.643 6     -1549.711          37.000    25575240.961 5 102980914.455 5     -1187.935          35.000
> 2020 05 17 10 12 30.0000000  0 17        .000000000000
G02  23199932.547 5 121916468.418 5     -1282.551          34.000
G24  24366698.828 5 128047808.665 5     -3684.633          34.000    24366701.203 5  99777512.702 5     -2871.145          34.000
G25  20242181.656 8 106373404.940 8      -616.004          51.000    20242182.984 8  82888352.206 8      -480.003          51.000
G29  20569850.164 8 108095284.657 8      1426.129          51.000    20569849.594 8  84230108.254 8      1111.272          51.000
G32  23098652.383 7 121384216.576 7     -2298.188          47.000    23098654.273 8  94585118.354 8     -1790.798          48.000
R15  20030170.836 8 107035085.235 8     -1731.180          51.000    20030174.047 8  83249539.505 8     -1346.473          49.000
R17  19975654.367 8 106893803.616 8     -2058.812          50.000    19975656.156 8  83139681.437 8     -1601.299          49.000
R18  19635801.656 8 104817329.823 8      2108.254          51.000    19635805.695 8  81524584.674 8      1639.753          48.000
C05  39677964.312 5 206613572.243 5        30.914          35.000    39677960.758 6 159766716.928 6        23.865          37.000
C11                                                                  24349417.477 5  98045014.339 5     -2058.889          30.000
C23  22579796.867 8 117578917.713 8     -1702.809          51.000
C28  22182334.383 8 115509314.957 8      1656.805          51.000
E05  27691126.133 6 145517887.363 6     -2544.684          39.000    27691135.484 6 111500713.609 6     -1950.086          37.000
E12  22315565.852 7 117269077.322 7      1288.691          45.000    22315567.273 8  89855565.733 8       987.433          51.000
E24  21692318.227 8 113993902.592 8       265.211          51.000    21692331.258 8  87346012.602 8       203.193          51.000
E31  25379143.750 5 133368302.644 5     -1827.840          35.000    25379145.047 5 102191280.235 5     -1400.708          34.000
E33  25584106.898 6 134445385.645 6     -1563.531          36.000    25584109.383 5 103016626.253 5     -1198.078          35.000
> 2020 05 17 10 13  0.0000000  0 18        .000000000000
G02  23207298.297 5 121955129.739 5     -1296.750          33.000
G12  21573258.125 5 113368235.455 5     -2222.184          33.000
G24  24387738.531 6 128158370.729 6     -3687.332          37.000    24387739.953 6  99863664.861 6     -2873.252          37.000
G25  20245725.898 8 106392029.040 8      -626.562          51.000    20245726.844 8  82902864.483 8      -488.231          51.000
G29  20561748.977 8 108052713.912 8      1411.004          51.000    20561748.023 8  84196936.271 8      1099.487          51.000
G32  23111800.977 7 121453315.061 7     -2309.199          47.000    23111803.383 7  94638961.307 7     -1799.376          47.000
R15  20039929.789 8 107087232.964 8     -1746.199          51.000    20039932.891 8  83290098.823 8     -1358.155          48.000
R17  19987254.367 8 106955876.161 8     -2080.258          49.000    19987256.398 8  83187960.098 8     -1617.978          49.000
R18  19624015.898 8 104754416.650 8      2085.020          51.000    19624019.742 7  81475652.223 7      1621.682          47.000
C05  39677780.695 5 206612616.166 5        32.465          35.000    39677777.156 6 159765977.645 6        24.850          37.000
C11                                                                  24364771.859 5  98106842.827 5     -2063.254          31.000
C23  22589634.555 8 117630146.450 8     -1713.395          51.000
C28  22172823.984 8 115459791.760 8      1643.812          51.000
E05  27705657.609 6 145594252.679 6     -2547.367          38.000    27705667.977 6 111559227.212 6     -1951.735          38.000
E12  22308242.414 7 117230595.174 7      1275.758          45.000    22308244.430 8  89826079.367 8       977.636          51.000
E24  21690818.477 8 113986021.052 8       259.320          51.000    21690831.461 8  87339973.491 8       198.706          51.000
E31  25389587.320 6 133423186.545 6     -1832.277          38.000    25389589.992 5 102233336.442 5     -1403.914          34.000
E33  25593062.250 5 134492442.073 5     -1574.746          35.000    25593064.688 5 103052682.457 5     -1206.663          35.000
> 2020 05 17 10 13 30.0000000  0 18        .000000000000
G02  23214748.219 6 121994280.713 6     -1313.016          38.000
G12  21585965.422 5 113435013.004 5     -2230.535          32.000
G24  24408792.578 6 128269005.622 6     -3689.340          36.000    24408792.820 6  99949873.771 6     -2874.810          38.000
G25  20249332.656 8 106410982.002 8      -637.660          51.000    20249333.391 8  82917633.024 8      -496.875          51.000
G29  20553737.062 8 108010612.556 8      1395.207          51.000    20553736.188 8  84164130.042 8      1087.174          51.000
G32  23125014.641 7 121522757.168 7     -2320.656          45.000    23125018.008 7  94693072.071 7     -1808.301          45.000
R15  20049775.242 8 107139844.302 8     -1761.879          51.000    20049777.992 7  83331018.710 7     -1370.350          47.000
R17  19998976.469 8 107018603.849 8     -2102.121          50.000    19998978.664 8  83236748.288 8     -1634.983          48.000
R18  19612363.078 8 104692213.813 8      2061.211          51.000    19612367.281 8  81427272.281 8      1603.164          48.000
C05  39677594.969 5 206611648.859 5        32.047          35.000    39677591.398 6 159765229.655 6        24.826          37.000
C11                                                                  24380168.680 5  98168843.278 5     -2069.685          30.000
C23  22599535.133 8 117681700.662 8     -1724.285          51.000
C28  22163391.984 8 115410676.004 8      1630.016          51.000
E05  27720205.516 6 145670703.522 6     -2550.266          37.000    27720215.820 6 111617806.328 6     -1954.031          38.000
E12  22300995.695 7 117192512.661 7      1262.453          47.000    22300997.539 8  89796899.250 8       967.304          51.000
E24  21689355.109 8 113978330.788 8       252.793          51.000    21689367.922 8  87334080.948 8       193.693          51.000
E31  25400060.008 6 133478220.076 6     -1837.074          38.000    25400061.625 5 102275504.962 5     -1407.317          31.000
E33  25602084.555 5 134539861.699 5     -1586.496          34.000    25602086.344 5 103089010.000 5     -1215.480          33.000
> 2020 05 17 10 14  0.0000000  0 16        .000000000000
G24  24429862.375 5 128379792.221 5     -3692.531          35.000    24429861.656 5 100036147.100 5     -2877.300          35.000
G25  20253004.164 8 106430275.236 8      -649.551          51.000    20253004.797 8  82932666.717 8      -506.143          51.000
G29  20545816.742 8 107968992.065 8      1378.578          51.000    20545816.219 8  84131698.506 8      1074.217          51.000
G32  23138295.469 7 121592551.696 7     -2333.062          46.000    23138299.508 7  94747457.390 7     -1817.971          46.000
R15  20059709.773 8 107192930.587 8     -1778.227          51.000    20059711.992 7  83372308.005 7     -1383.068          46.000
R17  20010822.648 8 107081995.038 8     -2124.824          49.000    20010824.641 8  83286052.547 8     -1652.641          48.000
R18  19600846.289 8 104630735.063 8      2036.418          51.000    19600850.078 8  81379455.488 8      1583.881          48.000
C05  39677409.406 5 206610681.722 5        31.688          34.000    39677405.570 6 159764481.813 6        24.355          36.000
C11                                                                  24395610.422 5  98231022.243 5     -2075.847          30.000
C23  22609500.734 8 117733591.416 8     -1736.074          51.000
C28  22154040.430 8 115361979.918 8      1615.504          51.000
E05  27734771.727 5 145747249.377 5     -2553.891          35.000    27734781.102 6 111676458.282 6     -1956.847          39.000
